     3.00           Observation Data    M (Mixed)           RINEX VERSION / TYPE
SimGEN V6.06.00     Spirent             03-Jul-19 18:00     PGM / RUN BY / DATE 
                                                            MARKER NAME         
1                                                           MARKER NUMBER       
GROUND_CRAFT                                                MARKER TYPE         
liy4hi              Spirent                                 OBSERVER / AGENCY   
rec_num             rec_type            rec_vers            REC # / TYPE / VERS 
1                   ant_type                                ANT # / TYPE        
  1000.000                                                  INTERVAL            
  2019     7     3    18     0    0.0000000     GPS         TIME OF FIRST OBS   
 -5610388.6686    10399.0898  3023652.1471                  APPROX POSITION XYZ 
        0.0000        0.0000        0.0000                  ANTENNA: DELTA H/E/N
G    8 C1C L1C D1C S1C C2C L2C D2C S2C                      SYS / # / OBS TYPES 
        0.0000        0.0000        0.0000                  ANTENNA: DELTA X/Y/Z
DBHZ                                                        SIGNAL STRENGTH UNIT
                                                            END OF HEADER       
> 2019 07 03 18 00  0.0000000  0 11       0.000000000000
G06  24993389.968 7 131341105.032 7       489.883 7        43.459 7  24993393.596 6         0.000 6       381.727 6        37.977 6
G10  24489823.359 7 128694848.649 7     -1421.864 7        45.252 7  24489826.288 6         0.000 6     -1107.946 6        37.977 6
G12  20545243.532 9 107965965.946 9     -1062.903 9        57.202 9  20545242.262 6         0.000 6      -828.236 6        37.977 6
G15  23120752.972 8 121500349.337 8     -3330.660 8        50.965 8  23120752.502 6         0.000 6     -2595.319 6        37.977 6
G20  24825176.668 7 130457138.006 7     -1938.520 7        43.479 7  24825177.778 6         0.000 6     -1510.535 6        37.977 6
G29  22816426.977 8 119901104.762 8      3491.864 8        50.791 8  22816426.820 6         0.000 6      2720.933 6        37.977 6
G19  24528374.027 7 128897432.937 7     -3305.843 7        44.958 7  24528373.666 6         0.000 6     -2575.981 6        37.977 6
G24  20887924.462 9 109766766.321 9      -625.775 9        57.096 9  20887926.086 6         0.000 6      -487.617 6        37.977 6
G32  23551261.989 8 123762684.291 8      2931.384 8        48.765 8  23551264.098 6         0.000 6      2284.195 6        37.977 6
G02  24228110.058 7 127319540.481 7      1339.153 7        46.874 7  24228108.375 6         0.000 6      1043.496 6        37.977 6
G25  21501315.848 9 112990157.014 9      1111.538 9        55.081 9  21501318.277 6         0.000 6       866.134 6        37.977 6
> 2019 07 03 18 00  1.0000000  0 11       0.000000000000
G06  24993291.339 7 131340586.734 7       518.556 7        43.459 7  24993294.967 6         0.000 6       404.070 6        37.977 6
G10  24490099.731 7 128696300.990 7     -1453.004 7        45.252 7  24490102.660 6         0.000 6     -1132.212 6        37.977 6
G12  20545445.994 9 107967029.891 9     -1064.101 9        57.202 9  20545444.725 6         0.000 6      -829.170 6        37.977 6
G15  23121385.822 8 121503674.986 8     -3325.648 8        50.965 8  23121385.353 6         0.000 6     -2591.415 6        37.977 6
G20  24825550.594 7 130459102.994 7     -1965.437 7        43.479 7  24825551.703 6         0.000 6     -1531.510 6        37.977 6
G29  22815763.660 8 119897619.012 8      3485.538 8        50.791 8  22815763.503 6         0.000 6      2716.005 6        37.977 6
G19  24528999.603 7 128900720.354 7     -3287.261 7        44.958 7  24528999.242 6         0.000 6     -2561.503 6        37.977 6
G24  20888040.902 9 109767378.220 9      -611.818 9        57.096 9  20888042.527 6         0.000 6      -476.741 6        37.977 6
G32  23550707.962 8 123759772.859 8      2910.930 8        48.766 8  23550710.070 6         0.000 6      2268.258 6        37.977 6
G02  24227849.791 7 127318172.774 7      1368.076 7        46.874 7  24227848.108 6         0.000 6      1066.034 6        37.977 6
G25  21501108.242 9 112989066.036 9      1090.471 9        55.081 9  21501110.671 6         0.000 6       849.718 6        37.977 6
> 2019 07 03 18 00  2.0000000  0 11       0.000000000000
G06  24993192.705 7 131340068.407 7       518.100 7        43.459 7  24993196.332 6         0.000 6       403.714 6        37.977 6
G10  24490376.256 7 128697754.139 7     -1453.298 7        45.252 7  24490379.186 6         0.000 6     -1132.441 6        37.977 6
G12  20545648.512 9 107968094.130 9     -1064.380 9        57.202 9  20545647.243 6         0.000 6      -829.387 6        37.977 6
G15  23122018.688 8 121507000.712 8     -3325.812 8        50.965 8  23122018.219 6         0.000 6     -2591.543 6        37.977 6
G20  24825924.603 7 130461068.425 7     -1965.431 7        43.479 7  24825925.713 6         0.000 6     -1531.505 6        37.977 6
G29  22815100.406 8 119894133.592 8      3485.311 8        50.791 8  22815100.249 6         0.000 6      2715.828 6        37.977 6
G19  24529625.177 7 128904007.762 7     -3287.567 7        44.957 7  24529624.817 6         0.000 6     -2561.742 6        37.977 6
G24  20888157.357 9 109767990.194 9      -612.131 9        57.096 9  20888158.982 6         0.000 6      -476.985 6        37.977 6
G32  23550154.062 8 123756862.103 8      2910.589 8        48.766 8  23550156.171 6         0.000 6      2267.993 6        37.977 6
G02  24227589.478 7 127316804.820 7      1367.838 7        46.874 7  24227587.794 6         0.000 6      1065.849 6        37.977 6
G25  21500900.763 9 112987975.728 9      1090.147 9        55.081 9  21500903.192 6         0.000 6       849.465 6        37.977 6
> 2019 07 03 18 00  3.0000000  0 11       0.000000000000
G06  24993094.157 7 131339550.537 7       517.643 7        43.459 7  24993097.785 6         0.000 6       403.358 6        37.977 6
G10  24490652.837 7 128699207.581 7     -1453.591 7        45.252 7  24490655.767 6         0.000 6     -1132.669 6        37.977 6
G12  20545851.084 9 107969158.649 9     -1064.659 9        57.202 9  20545849.814 6         0.000 6      -829.605 6        37.977 6
G15  23122651.584 8 121510326.602 8     -3325.976 8        50.964 8  23122651.116 6         0.000 6     -2591.671 6        37.977 6
G20  24826298.612 7 130463033.849 7     -1965.425 7        43.479 7  24826299.722 6         0.000 6     -1531.501 6        37.977 6
G29  22814437.195 8 119890648.400 8      3485.083 8        50.792 8  22814437.038 6         0.000 6      2715.650 6        37.977 6
G19  24530250.809 7 128907295.477 7     -3287.874 7        44.957 7  24530250.450 6         0.000 6     -2561.981 6        37.977 6
G24  20888273.871 9 109768602.481 9      -612.444 9        57.096 9  20888275.496 6         0.000 6      -477.229 6        37.977 6
G32  23549600.228 8 123753951.688 8      2910.248 8        48.766 8  23549602.336 6         0.000 6      2267.727 6        37.977 6
G02  24227329.210 7 127315437.103 7      1367.600 7        46.874 7  24227327.526 6         0.000 6      1065.663 6        37.977 6
G25  21500693.345 9 112986885.744 9      1089.823 9        55.081 9  21500695.774 6         0.000 6       849.213 6        37.977 6
> 2019 07 03 18 00  4.0000000  0 11       0.000000000000
G06  24992995.696 7 131339033.124 7       517.186 7        43.459 7  24992999.324 6         0.000 6       403.002 6        37.977 6
G10  24490929.475 7 128700661.317 7     -1453.885 7        45.252 7  24490932.404 6         0.000 6     -1132.898 6        37.977 6
G12  20546053.708 9 107970223.448 9     -1064.939 9        57.201 9  20546052.439 6         0.000 6      -829.823 6        37.977 6
G15  23123284.512 8 121513652.656 8     -3326.140 8        50.964 8  23123284.044 6         0.000 6     -2591.798 6        37.977 6
G20  24826672.619 7 130464999.268 7     -1965.419 7        43.479 7  24826673.730 6         0.000 6     -1531.496 6        37.977 6
G29  22813774.027 8 119887163.435 8      3484.855 8        50.792 8  22813773.870 6         0.000 6      2715.473 6        37.977 6
G19  24530876.500 7 128910583.498 7     -3288.180 7        44.957 7  24530876.141 6         0.000 6     -2562.220 6        37.977 6
G24  20888390.445 9 109769215.081 9      -612.756 9        57.095 9  20888392.070 6         0.000 6      -477.473 6        37.977 6
G32  23549046.459 8 123751041.614 8      2909.907 8        48.766 8  23549048.567 6         0.000 6      2267.461 6        37.977 6
G02  24227068.987 7 127314069.625 7      1367.362 7        46.874 7  24227067.302 6         0.000 6      1065.477 6        37.977 6
G25  21500485.990 9 112985796.084 9      1089.499 9        55.081 9  21500488.419 6         0.000 6       848.961 6        37.977 6
> 2019 07 03 18 00  5.0000000  0 11       0.000000000000
G06  24992897.323 7 131338516.167 7       516.729 7        43.459 7  24992900.950 6         0.000 6       402.646 6        37.977 6
G10  24491206.168 7 128702115.346 7     -1454.178 7        45.252 7  24491209.098 6         0.000 6     -1133.126 6        37.977 6
G12  20546256.386 9 107971288.525 9     -1065.218 9        57.201 9  20546255.116 6         0.000 6      -830.040 6        37.977 6
G15  23123917.471 8 121516978.874 8     -3326.303 8        50.964 8  23123917.003 6         0.000 6     -2591.926 6        37.977 6
G20  24827046.626 7 130466964.681 7     -1965.413 7        43.479 7  24827047.736 6         0.000 6     -1531.492 6        37.977 6
G29  22813110.903 8 119883678.699 8      3484.627 8        50.792 8  22813110.745 6         0.000 6      2715.295 6        37.977 6
G19  24531502.249 7 128913871.826 7     -3288.486 7        44.957 7  24531501.890 6         0.000 6     -2562.458 6        37.977 6
G24  20888507.079 9 109769827.993 9      -613.069 9        57.095 9  20888508.703 6         0.000 6      -477.716 6        37.977 6
G32  23548492.754 8 123748131.882 8      2909.566 8        48.766 8  23548494.862 6         0.000 6      2267.195 6        37.977 6
G02  24226808.809 7 127312702.386 7      1367.123 7        46.874 7  24226807.125 6         0.000 6      1065.291 6        37.977 6
G25  21500278.696 9 112984706.748 9      1089.175 9        55.081 9  21500281.125 6         0.000 6       848.708 6        37.977 6
> 2019 07 03 18 00  6.0000000  0 11       0.000000000000
G06  24992799.036 7 131337999.667 7       516.272 7        43.459 7  24992802.663 6         0.000 6       402.290 6        37.977 6
G10  24491482.916 7 128703569.668 7     -1454.471 7        45.252 7  24491485.847 6         0.000 6     -1133.355 6        37.977 6
G12  20546459.116 9 107972353.882 9     -1065.497 9        57.201 9  20546457.847 6         0.000 6      -830.258 6        37.977 6
G15  23124550.461 8 121520305.255 8     -3326.467 8        50.964 8  23124549.993 6         0.000 6     -2592.053 6        37.977 6
G20  24827420.631 7 130468930.088 7     -1965.407 7        43.478 7  24827421.741 6         0.000 6     -1531.487 6        37.977 6
G29  22812447.822 8 119880194.190 8      3484.399 8        50.792 8  22812447.664 6         0.000 6      2715.117 6        37.977 6
G19  24532128.056 7 128917160.459 7     -3288.792 7        44.957 7  24532127.698 6         0.000 6     -2562.697 6        37.977 6
G24  20888623.772 9 109770441.218 9      -613.382 9        57.095 9  20888625.396 6         0.000 6      -477.960 6        37.977 6
G32  23547939.115 8 123745222.490 8      2909.225 8        48.767 8  23547941.222 6         0.000 6      2266.930 6        37.977 6
G02  24226548.677 7 127311335.384 7      1366.885 7        46.874 7  24226546.992 6         0.000 6      1065.106 6        37.977 6
G25  21500071.463 9 112983617.735 9      1088.852 9        55.081 9  21500073.892 6         0.000 6       848.456 6        37.977 6
> 2019 07 03 18 00  7.0000000  0 11       0.000000000000
G06  24992700.836 7 131337483.625 7       515.815 7        43.459 7  24992704.463 6         0.000 6       401.934 6        37.977 6
G10  24491759.721 7 128705024.283 7     -1454.764 7        45.252 7  24491762.651 6         0.000 6     -1133.583 6        37.977 6
G12  20546661.900 9 107973419.518 9     -1065.776 9        57.201 9  20546660.631 6         0.000 6      -830.475 6        37.977 6
G15  23125183.482 8 121523631.800 8     -3326.630 8        50.963 8  23125183.015 6         0.000 6     -2592.181 6        37.977 6
G20  24827794.635 7 130470895.489 7     -1965.401 7        43.478 7  24827795.746 6         0.000 6     -1531.482 6        37.977 6
G29  22811784.785 8 119876709.909 8      3484.171 8        50.793 8  22811784.627 6         0.000 6      2714.940 6        37.977 6
G19  24532753.922 7 128920449.399 7     -3289.098 7        44.956 7  24532753.563 6         0.000 6     -2562.935 6        37.977 6
G24  20888740.524 9 109771054.757 9      -613.695 9        57.095 9  20888742.149 6         0.000 6      -478.204 6        37.977 6
G32  23547385.540 8 123742313.440 8      2908.884 8        48.767 8  23547387.647 6         0.000 6      2266.664 6        37.977 6
G02  24226288.590 7 127309968.622 7      1366.646 7        46.874 7  24226286.905 6         0.000 6      1064.920 6        37.977 6
G25  21499864.293 9 112982529.046 9      1088.528 9        55.081 9  21499866.721 6         0.000 6       848.204 6        37.977 6
> 2019 07 03 18 00  8.0000000  0 11       0.000000000000
G06  24992602.723 7 131336968.039 7       515.358 7        43.459 7  24992606.350 6         0.000 6       401.578 6        37.977 6
G10  24492036.581 7 128706479.191 7     -1455.057 7        44.939 7  24492039.512 6         0.000 6     -1133.812 6        37.977 6
G12  20546864.737 9 107974485.432 9     -1066.055 9        57.201 9  20546863.468 6         0.000 6      -830.692 6        37.977 6
G15  23125816.535 8 121526958.508 8     -3326.794 8        50.963 8  23125816.067 6         0.000 6     -2592.308 6        37.977 6
G20  24828168.638 7 130472860.883 7     -1965.395 7        43.478 7  24828169.749 6         0.000 6     -1531.477 6        37.977 6
G29  22811121.791 8 119873225.857 8      3483.943 8        50.793 8  22811121.632 6         0.000 6      2714.762 6        37.977 6
G19  24533379.845 7 128923738.645 7     -3289.404 7        44.956 7  24533379.487 6         0.000 6     -2563.174 6        37.977 6
G24  20888857.336 9 109771668.608 9      -614.008 9        57.095 9  20888858.961 6         0.000 6      -478.448 6        37.977 6
G32  23546832.030 8 123739404.731 8      2908.542 8        48.767 8  23546834.137 6         0.000 6      2266.397 6        37.977 6
G02  24226028.549 7 127308602.098 7      1366.407 7        46.875 7  24226026.864 6         0.000 6      1064.734 6        37.977 6
G25  21499657.184 9 112981440.681 9      1088.204 9        55.081 9  21499659.612 6         0.000 6       847.952 6        37.977 6
> 2019 07 03 18 00  9.0000000  0 11       0.000000000000
G06  24992504.697 7 131336452.910 7       514.901 7        43.459 7  24992508.324 6         0.000 6       401.222 6        37.977 6
G10  24492313.497 7 128707934.393 7     -1455.350 7        44.939 7  24492316.428 6         0.000 6     -1134.040 6        37.977 6
G12  20547067.627 9 107975551.626 9     -1066.334 9        57.201 9  20547066.358 6         0.000 6      -830.910 6        37.977 6
G15  23126449.618 8 121530285.379 8     -3326.957 8        50.963 8  23126449.151 6         0.000 6     -2592.435 6        37.977 6
G20  24828542.639 7 130474826.272 7     -1965.389 7        43.478 7  24828543.750 6         0.000 6     -1531.472 6        37.977 6
G29  22810458.841 8 119869742.033 8      3483.714 8        50.793 8  22810458.682 6         0.000 6      2714.584 6        37.977 6
G19  24534005.827 7 128927028.196 7     -3289.710 7        44.956 7  24534005.470 6         0.000 6     -2563.412 6        37.977 6
G24  20888974.208 9 109772282.772 9      -614.321 9        57.095 9  20888975.833 6         0.000 6      -478.692 6        37.977 6
G32  23546278.586 8 123736496.364 8      2908.201 8        48.767 8  23546280.692 6         0.000 6      2266.131 6        37.977 6
G02  24225768.553 7 127307235.813 7      1366.168 7        46.875 7  24225766.868 6         0.000 6      1064.548 6        37.977 6
G25  21499450.136 9 112980352.640 9      1087.880 9        55.081 9  21499452.564 6         0.000 6       847.699 6        37.977 6
> 2019 07 03 18 00 10.0000000  0 11       0.000000000000
G06  24992406.758 7 131335938.239 7       514.444 7        43.459 7  24992410.385 6         0.000 6       400.866 6        37.977 6
G10  24492590.469 7 128709389.887 7     -1455.643 7        44.939 7  24492593.400 6         0.000 6     -1134.268 6        37.977 6
G12  20547270.571 9 107976618.099 9     -1066.613 9        57.201 9  20547269.302 6         0.000 6      -831.127 6        37.977 6
G15  23127082.732 8 121533612.414 8     -3327.120 8        50.963 8  23127082.265 6         0.000 6     -2592.562 6        37.977 6
G20  24828916.640 7 130476791.654 7     -1965.382 7        43.478 7  24828917.751 6         0.000 6     -1531.467 6        37.977 6
G29  22809795.933 8 119866258.437 8      3483.486 8        50.793 8  22809795.774 6         0.000 6      2714.406 6        37.977 6
G19  24534631.867 7 128930318.053 7     -3290.016 7        44.956 7  24534631.510 6         0.000 6     -2563.650 6        37.977 6
G24  20889091.139 9 109772897.249 9      -614.634 9        57.095 9  20889092.764 6         0.000 6      -478.936 6        37.977 6
G32  23545725.206 8 123733588.338 8      2907.859 8        48.767 8  23545727.312 6         0.000 6      2265.865 6        37.977 6
G02  24225508.602 7 127305869.767 7      1365.929 7        46.875 7  24225506.917 6         0.000 6      1064.361 6        37.977 6
G25  21499243.150 9 112979264.922 9      1087.557 9        55.082 9  21499245.578 6         0.000 6       847.447 6        37.977 6
> 2019 07 03 18 00 11.0000000  0 11       0.000000000000
G06  24992308.906 7 131335424.025 7       513.987 7        43.459 7  24992312.534 6         0.000 6       400.509 6        37.977 6
G10  24492867.497 7 128710845.674 7     -1455.936 7        44.939 7  24492870.428 6         0.000 6     -1134.496 6        37.977 6
G12  20547473.567 9 107977684.851 9     -1066.892 9        57.201 9  20547472.298 6         0.000 6      -831.344 6        37.977 6
G15  23127715.878 8 121536939.611 8     -3327.283 8        50.963 8  23127715.411 6         0.000 6     -2592.689 6        37.977 6
G20  24829290.639 7 130478757.029 7     -1965.376 7        43.478 7  24829291.750 6         0.000 6     -1531.462 6        37.977 6
G29  22809133.070 8 119862775.069 8      3483.258 8        50.794 8  22809132.910 6         0.000 6      2714.228 6        37.977 6
G19  24535257.965 7 128933608.216 7     -3290.321 7        44.955 7  24535257.609 6         0.000 6     -2563.888 6        37.977 6
G24  20889208.130 9 109773512.039 9      -614.947 9        57.095 9  20889209.755 6         0.000 6      -479.179 6        37.977 6
G32  23545171.891 8 123730680.654 8      2907.517 8        48.768 8  23545173.998 6         0.000 6      2265.599 6        37.977 6
G02  24225248.697 7 127304503.959 7      1365.690 7        46.875 7  24225247.012 6         0.000 6      1064.175 6        37.977 6
G25  21499036.226 9 112978177.528 9      1087.233 9        55.082 9  21499038.654 6         0.000 6       847.195 6        37.977 6
> 2019 07 03 18 00 12.0000000  0 11       0.000000000000
G06  24992211.142 7 131334910.268 7       513.529 7        43.459 7  24992214.769 6         0.000 6       400.153 6        37.977 6
G10  24493144.580 7 128712301.753 7     -1456.228 7        44.939 7  24493147.511 6         0.000 6     -1134.724 6        37.977 6
G12  20547676.616 9 107978751.881 9     -1067.170 9        57.201 9  20547675.347 6         0.000 6      -831.562 6        37.977 6
G15  23128349.054 8 121540266.972 8     -3327.446 8        50.962 8  23128348.588 6         0.000 6     -2592.816 6        37.977 6
G20  24829664.637 7 130480722.398 7     -1965.369 7        43.478 7  24829665.749 6         0.000 6     -1531.457 6        37.977 6
G29  22808470.250 8 119859291.930 8      3483.029 8        50.794 8  22808470.090 6         0.000 6      2714.050 6        37.977 6
G19  24535884.122 7 128936898.685 7     -3290.627 7        44.955 7  24535883.765 6         0.000 6     -2564.126 6        37.977 6
G24  20889325.180 9 109774127.142 9      -615.260 9        57.095 9  20889326.805 6         0.000 6      -479.423 6        37.977 6
G32  23544618.642 8 123727773.312 8      2907.175 8        48.768 8  23544620.748 6         0.000 6      2265.333 6        37.977 6
G02  24224988.838 7 127303138.391 7      1365.451 7        46.875 7  24224987.152 6         0.000 6      1063.989 6        37.977 6
G25  21498829.363 9 112977090.458 9      1086.910 9        55.082 9  21498831.791 6         0.000 6       846.943 6        37.977 6
> 2019 07 03 18 00 13.0000000  0 11       0.000000000000
G06  24992113.464 7 131334396.968 7       513.072 7        43.459 7  24992117.091 6         0.000 6       399.797 6        37.977 6
G10  24493421.719 7 128713758.125 7     -1456.521 7        44.939 7  24493424.650 6         0.000 6     -1134.952 6        37.977 6
G12  20547879.718 9 107979819.190 9     -1067.449 9        57.201 9  20547878.449 6         0.000 6      -831.779 6        37.977 6
G15  23128982.262 8 121543594.495 8     -3327.609 8        50.962 8  23128981.795 6         0.000 6     -2592.943 6        37.977 6
G20  24830038.633 7 130482687.760 7     -1965.362 7        43.478 7  24830039.745 6         0.000 6     -1531.452 6        37.977 6
G29  22807807.473 8 119855809.020 8      3482.800 8        50.794 8  22807807.313 6         0.000 6      2713.871 6        37.977 6
G19  24536510.336 7 128940189.459 7     -3290.932 7        44.955 7  24536509.980 6         0.000 6     -2564.364 6        37.977 6
G24  20889442.290 9 109774742.558 9      -615.573 9        57.095 9  20889443.915 6         0.000 6      -479.667 6        37.977 6
G32  23544065.457 8 123724866.311 8      2906.834 8        48.768 8  23544067.563 6         0.000 6      2265.066 6        37.977 6
G02  24224729.024 7 127301773.062 7      1365.212 7        46.875 7  24224727.338 6         0.000 6      1063.802 6        37.977 6
G25  21498622.562 9 112976003.711 9      1086.586 9        55.082 9  21498624.990 6         0.000 6       846.691 6        37.977 6
> 2019 07 03 18 00 14.0000000  0 11       0.000000000000
G06  24992015.873 7 131333884.126 7       512.615 7        43.459 7  24992019.500 6         0.000 6       399.440 6        37.977 6
G10  24493698.913 7 128715214.790 7     -1456.813 7        44.939 7  24493701.845 6         0.000 6     -1135.180 6        37.977 6
G12  20548082.874 9 107980886.778 9     -1067.728 9        57.201 9  20548081.605 6         0.000 6      -831.996 6        37.977 6
G15  23129615.500 8 121546922.182 8     -3327.772 8        50.962 8  23129615.034 6         0.000 6     -2593.070 6        37.977 6
G20  24830412.629 7 130484653.115 7     -1965.355 7        43.477 7  24830413.741 6         0.000 6     -1531.446 6        37.977 6
G29  22807144.740 8 119852326.339 8      3482.571 8        50.794 8  22807144.580 6         0.000 6      2713.693 6        37.977 6
G19  24537136.609 7 128943480.538 7     -3291.237 7        44.955 7  24537136.253 6         0.000 6     -2564.602 6        37.977 6
G24  20889559.459 9 109775358.288 9      -615.886 9        57.095 9  20889561.084 6         0.000 6      -479.911 6        37.977 6
G32  23543512.338 8 123721959.653 8      2906.492 8        48.768 8  23543514.443 6         0.000 6      2264.800 6        37.977 6
G02  24224469.255 7 127300407.972 7      1364.973 7        46.875 7  24224467.569 6         0.000 6      1063.616 6        37.977 6
G25  21498415.822 9 112974917.288 9      1086.262 9        55.082 9  21498418.250 6         0.000 6       846.438 6        37.977 6
> 2019 07 03 18 00 15.0000000  0 11       0.000000000000
G06  24991918.369 7 131333371.741 7       512.157 7        43.459 7  24991921.996 6         0.000 6       399.084 6        37.977 6
G10  24493976.163 7 128716671.747 7     -1457.106 7        44.939 7  24493979.095 6         0.000 6     -1135.408 6        37.977 6
G12  20548286.082 9 107981954.644 9     -1068.006 9        57.200 9  20548284.813 6         0.000 6      -832.213 6        37.977 6
G15  23130248.769 8 121550250.031 8     -3327.934 8        50.962 8  23130248.304 6         0.000 6     -2593.197 6        37.977 6
G20  24830786.623 7 130486618.463 7     -1965.348 7        43.477 7  24830787.735 6         0.000 6     -1531.441 6        37.977 6
G29  22806482.051 8 119848843.886 8      3482.342 8        50.795 8  22806481.890 6         0.000 6      2713.515 6        37.977 6
G19  24537762.940 7 128946771.922 7     -3291.543 7        44.955 7  24537762.584 6         0.000 6     -2564.840 6        37.977 6
G24  20889676.688 9 109775974.330 9      -616.199 9        57.095 9  20889678.313 6         0.000 6      -480.155 6        37.977 6
G32  23542959.283 8 123719053.336 8      2906.149 8        48.768 8  23542961.388 6         0.000 6      2264.533 6        37.977 6
G02  24224209.532 7 127299043.122 7      1364.734 7        46.875 7  24224207.846 6         0.000 6      1063.429 6        37.977 6
G25  21498209.144 9 112973831.188 9      1085.939 9        55.082 9  21498211.572 6         0.000 6       846.186 6        37.977 6
> 2019 07 03 18 00 16.0000000  0 11       0.000000000000
G06  24991820.952 7 131332859.814 7       511.700 7        43.459 7  24991824.579 6         0.000 6       398.727 6        37.977 6
G10  24494253.469 7 128718128.996 7     -1457.398 7        44.939 7  24494256.401 6         0.000 6     -1135.635 6        37.977 6
G12  20548489.343 9 107983022.788 9     -1068.285 9        57.200 9  20548488.075 6         0.000 6      -832.430 6        37.977 6
G15  23130882.070 8 121553578.042 8     -3328.097 8        50.961 8  23130881.604 6         0.000 6     -2593.323 6        37.977 6
G20  24831160.615 7 130488583.805 7     -1965.341 7        43.477 7  24831161.728 6         0.000 6     -1531.436 6        37.977 6
G29  22805819.405 8 119845361.663 8      3482.113 8        50.795 8  22805819.244 6         0.000 6      2713.336 6        37.977 6
G19  24538389.328 7 128950063.612 7     -3291.848 7        44.954 7  24538388.973 6         0.000 6     -2565.077 6        37.977 6
G24  20889793.977 9 109776590.686 9      -616.512 9        57.095 9  20889795.602 6         0.000 6      -480.399 6        37.977 6
G32  23542406.294 8 123716147.362 8      2905.807 8        48.769 8  23542408.399 6         0.000 6      2264.266 6        37.977 6
G02  24223949.855 7 127297678.511 7      1364.494 7        46.875 7  24223948.169 6         0.000 6      1063.243 6        37.977 6
G25  21498002.527 9 112972745.412 9      1085.615 9        55.082 9  21498004.955 6         0.000 6       845.934 6        37.977 6
> 2019 07 03 18 00 17.0000000  0 11       0.000000000000
G06  24991723.623 7 131332348.344 7       511.242 7        43.459 7  24991727.249 6         0.000 6       398.371 6        37.977 6
G10  24494530.831 7 128719586.537 7     -1457.690 7        44.939 7  24494533.763 6         0.000 6     -1135.863 6        37.977 6
G12  20548692.658 9 107984091.212 9     -1068.563 9        57.200 9  20548691.389 6         0.000 6      -832.647 6        37.977 6
G15  23131515.401 8 121556906.217 8     -3328.260 8        50.961 8  23131514.936 6         0.000 6     -2593.450 6        37.977 6
G20  24831534.607 7 130490549.139 7     -1965.334 7        43.477 7  24831535.719 6         0.000 6     -1531.430 6        37.977 6
G29  22805156.802 8 119841879.669 8      3481.884 8        50.795 8  22805156.641 6         0.000 6      2713.158 6        37.977 6
G19  24539015.775 7 128953355.606 7     -3292.153 7        44.954 7  24539015.421 6         0.000 6     -2565.315 6        37.977 6
G24  20889911.325 9 109777207.354 9      -616.826 9        57.095 9  20889912.950 6         0.000 6      -480.643 6        37.977 6
G32  23541853.370 8 123713241.730 8      2905.465 8        48.769 8  23541855.475 6         0.000 6      2264.000 6        37.977 6
G02  24223690.223 7 127296314.139 7      1364.255 7        46.875 7  24223688.537 6         0.000 6      1063.056 6        37.977 6
G25  21497795.972 9 112971659.960 9      1085.292 9        55.082 9  21497798.400 6         0.000 6       845.682 6        37.977 6
> 2019 07 03 18 00 18.0000000  0 11       0.000000000000
G06  24991626.380 7 131331837.332 7       510.784 7        43.459 7  24991630.007 6         0.000 6       398.014 6        37.977 6
G10  24494808.247 7 128721044.370 7     -1457.982 7        44.938 7  24494811.180 6         0.000 6     -1136.090 6        37.977 6
G12  20548896.025 9 107985159.913 9     -1068.841 9        57.200 9  20548894.756 6         0.000 6      -832.864 6        37.977 6
G15  23132148.763 8 121560234.553 8     -3328.422 8        50.961 8  23132148.298 6         0.000 6     -2593.577 6        37.977 6
G20  24831908.597 7 130492514.466 7     -1965.327 7        43.477 7  24831909.710 6         0.000 6     -1531.424 6        37.977 6
G29  22804494.244 8 119838397.903 8      3481.655 8        50.795 8  22804494.082 6         0.000 6      2712.979 6        37.977 6
G19  24539642.280 7 128956647.906 7     -3292.457 7        44.954 7  24539641.926 6         0.000 6     -2565.553 6        37.977 6
G24  20890028.733 9 109777824.336 9      -617.139 9        57.095 9  20890030.358 6         0.000 6      -480.888 6        37.977 6
G32  23541300.511 8 123710336.440 8      2905.122 8        48.769 8  23541302.615 6         0.000 6      2263.733 6        37.977 6
G02  24223430.637 7 127294950.007 7      1364.015 7        46.875 7  24223428.950 6         0.000 6      1062.869 6        37.977 6
G25  21497589.479 9 112970574.831 9      1084.968 9        55.082 9  21497591.907 6         0.000 6       845.430 6        37.977 6
> 2019 07 03 18 00 19.0000000  0 11       0.000000000000
G06  24991529.225 7 131331326.777 7       510.327 7        43.459 7  24991532.851 6         0.000 6       397.657 6        37.977 6
G10  24495085.720 7 128722502.495 7     -1458.274 7        44.938 7  24495088.652 6         0.000 6     -1136.318 6        37.977 6
G12  20549099.445 9 107986228.893 9     -1069.120 9        57.200 9  20549098.177 6         0.000 6      -833.081 6        37.977 6
G15  23132782.156 8 121563563.052 8     -3328.584 8        50.961 8  23132781.692 6         0.000 6     -2593.703 6        37.977 6
G20  24832282.585 7 130494479.785 7     -1965.319 7        43.477 7  24832283.698 6         0.000 6     -1531.419 6        37.977 6
G29  22803831.728 8 119834916.368 8      3481.426 8        50.796 8  22803831.567 6         0.000 6      2712.800 6        37.977 6
G19  24540268.843 7 128959940.510 7     -3292.762 7        44.954 7  24540268.489 6         0.000 6     -2565.790 6        37.977 6
G24  20890146.201 9 109778441.632 9      -617.452 9        57.095 9  20890147.826 6         0.000 6      -481.132 6        37.977 6
G32  23540747.717 8 123707431.493 8      2904.780 8        48.769 8  23540749.821 6         0.000 6      2263.466 6        37.977 6
G02  24223171.096 7 127293586.115 7      1363.775 7        46.876 7  24223169.410 6         0.000 6      1062.683 6        37.977 6
G25  21497383.047 9 112969490.025 9      1084.645 9        55.082 9  21497385.475 6         0.000 6       845.178 6        37.977 6
> 2019 07 03 18 00 20.0000000  0 11       0.000000000000
G06  24991432.156 7 131330816.680 7       509.869 7        43.459 7  24991435.783 6         0.000 6       397.301 6        37.977 6
G10  24495363.248 7 128723960.912 7     -1458.565 7        44.938 7  24495366.180 6         0.000 6     -1136.545 6        37.977 6
G12  20549302.918 9 107987298.151 9     -1069.398 9        57.200 9  20549301.650 6         0.000 6      -833.297 6        37.977 6
G15  23133415.580 8 121566891.714 8     -3328.746 8        50.960 8  23133415.116 6         0.000 6     -2593.829 6        37.977 6
G20  24832656.572 7 130496445.098 7     -1965.312 7        43.477 7  24832657.686 6         0.000 6     -1531.413 6        37.977 6
G29  22803169.257 8 119831435.061 8      3481.196 8        50.796 8  22803169.095 6         0.000 6      2712.621 6        37.977 6
G19  24540895.464 7 128963233.419 7     -3293.067 7        44.953 7  24540895.110 6         0.000 6     -2566.027 6        37.977 6
G24  20890263.728 9 109779059.240 9      -617.765 9        57.095 9  20890265.353 6         0.000 6      -481.376 6        37.977 6
G32  23540194.988 8 123704526.888 8      2904.437 8        48.769 8  23540197.092 6         0.000 6      2263.199 6        37.977 6
G02  24222911.601 7 127292222.462 7      1363.535 7        46.876 7  24222909.915 6         0.000 6      1062.496 6        37.977 6
G25  21497176.677 9 112968405.543 9      1084.322 9        55.082 9  21497179.105 6         0.000 6       844.926 6        37.977 6
> 2019 07 03 18 00 21.0000000  0 11       0.000000000000
G06  24991335.175 7 131330307.041 7       509.411 7        43.459 7  24991338.801 6         0.000 6       396.944 6        37.977 6
G10  24495640.831 7 128725419.621 7     -1458.857 7        44.938 7  24495643.764 6         0.000 6     -1136.772 6        37.977 6
G12  20549506.444 9 107988367.688 9     -1069.676 9        57.200 9  20549505.176 6         0.000 6      -833.514 6        37.977 6
G15  23134049.035 8 121570220.537 8     -3328.909 8        50.960 8  23134048.571 6         0.000 6     -2593.956 6        37.977 6
G20  24833030.558 7 130498410.402 7     -1965.304 7        43.477 7  24833031.672 6         0.000 6     -1531.407 6        37.977 6
G29  22802506.829 8 119827953.984 8      3480.967 8        50.796 8  22802506.667 6         0.000 6      2712.443 6        37.977 6
G19  24541522.142 7 128966526.632 7     -3293.371 7        44.637 7  24541521.789 6         0.000 6     -2566.265 6        37.977 6
G24  20890381.314 9 109779677.162 9      -618.079 9        57.095 9  20890382.939 6         0.000 6      -481.620 6        37.977 6
G32  23539642.325 8 123701622.626 8      2904.095 8        48.770 8  23539644.429 6         0.000 6      2262.932 6        37.977 6
G02  24222652.152 7 127290859.050 7      1363.295 7        46.876 7  24222650.465 6         0.000 6      1062.309 6        37.977 6
G25  21496970.368 9 112967321.384 9      1083.998 9        55.082 9  21496972.796 6         0.000 6       844.674 6        37.977 6
> 2019 07 03 18 00 22.0000000  0 11       0.000000000000
G06  24991238.281 7 131329797.860 7       508.953 7        43.459 7  24991241.907 6         0.000 6       396.587 6        37.977 6
G10  24495918.471 7 128726878.621 7     -1459.149 7        44.938 7  24495921.403 6         0.000 6     -1137.000 6        37.977 6
G12  20549710.024 9 107989437.502 9     -1069.954 9        57.200 9  20549708.755 6         0.000 6      -833.731 6        37.977 6
G15  23134682.521 8 121573549.523 8     -3329.071 8        50.960 8  23134682.057 6         0.000 6     -2594.082 6        37.977 6
G20  24833404.542 7 130500375.699 7     -1965.297 7        43.476 7  24833405.656 6         0.000 6     -1531.401 6        37.977 6
G29  22801844.445 8 119824473.137 8      3480.737 8        50.796 8  22801844.283 6         0.000 6      2712.264 6        37.977 6
G19  24542148.879 7 128969820.150 7     -3293.676 7        44.637 7  24542148.526 6         0.000 6     -2566.502 6        37.977 6
G24  20890498.961 9 109780295.397 9      -618.392 9        57.095 9  20890500.586 6         0.000 6      -481.864 6        37.977 6
G32  23539089.727 8 123698718.707 8      2903.752 8        48.770 8  23539091.830 6         0.000 6      2262.665 6        37.977 6
G02  24222392.748 7 127289495.877 7      1363.055 7        46.876 7  24222391.061 6         0.000 6      1062.122 6        37.977 6
G25  21496764.121 9 112966237.548 9      1083.675 9        55.083 9  21496766.549 6         0.000 6       844.422 6        37.977 6
> 2019 07 03 18 00 23.0000000  0 11       0.000000000000
G06  24991141.474 7 131329289.137 7       508.495 7        43.459 7  24991145.100 6         0.000 6       396.230 6        37.977 6
G10  24496196.165 7 128728337.913 7     -1459.440 7        44.938 7  24496199.098 6         0.000 6     -1137.227 6        37.977 6
G12  20549913.655 9 107990507.594 9     -1070.232 9        57.200 9  20549912.387 6         0.000 6      -833.947 6        37.977 6
G15  23135316.037 8 121576878.670 8     -3329.233 8        50.960 8  23135315.574 6         0.000 6     -2594.208 6        37.977 6
G20  24833778.525 7 130502340.989 7     -1965.289 7        43.476 7  24833779.639 6         0.000 6     -1531.395 6        37.977 6
G29  22801182.105 8 119820992.519 8      3480.507 8        50.797 8  22801181.942 6         0.000 6      2712.085 6        37.977 6
G19  24542775.674 7 128973113.972 7     -3293.980 7        44.637 7  24542775.321 6         0.000 6     -2566.739 6        37.977 6
G24  20890616.667 9 109780913.946 9      -618.706 9        57.095 9  20890618.292 6         0.000 6      -482.108 6        37.977 6
G32  23538537.194 8 123695815.130 8      2903.409 8        48.770 8  23538539.297 6         0.000 6      2262.398 6        37.977 6
G02  24222133.390 7 127288132.944 7      1362.815 7        46.876 7  24222131.703 6         0.000 6      1061.935 6        37.977 6
G25  21496557.935 9 112965154.036 9      1083.351 9        55.083 9  21496560.363 6         0.000 6       844.170 6        37.977 6
> 2019 07 03 18 00 24.0000000  0 11       0.000000000000
G06  24991044.754 7 131328780.872 7       508.037 7        43.459 7  24991048.380 6         0.000 6       395.873 6        37.977 6
G10  24496473.915 7 128729797.497 7     -1459.732 7        44.938 7  24496476.848 6         0.000 6     -1137.454 6        37.977 6
G12  20550117.340 9 107991577.965 9     -1070.510 9        57.200 9  20550116.072 6         0.000 6      -834.164 6        37.977 6
G15  23135949.584 8 121580207.980 8     -3329.394 8        50.959 8  23135949.121 6         0.000 6     -2594.334 6        37.977 6
G20  24834152.506 7 130504306.270 7     -1965.281 7        43.476 7  24834153.621 6         0.000 6     -1531.389 6        37.977 6
G29  22800519.808 8 119817512.131 8      3480.277 8        50.797 8  22800519.645 6         0.000 6      2711.905 6        37.977 6
G19  24543402.526 7 128976408.099 7     -3294.284 7        44.636 7  24543402.174 6         0.000 6     -2566.976 6        37.977 6
G24  20890734.432 9 109781532.808 9      -619.019 9        57.095 9  20890736.057 6         0.000 6      -482.353 6        37.977 6
G32  23537984.726 8 123692911.897 8      2903.066 8        48.770 8  23537986.829 6         0.000 6      2262.130 6        37.977 6
G02  24221874.078 7 127286770.252 7      1362.575 7        46.876 7  24221872.391 6         0.000 6      1061.748 6        37.977 6
G25  21496351.811 9 112964070.847 9      1083.028 9        55.083 9  21496354.239 6         0.000 6       843.918 6        37.977 6
> 2019 07 03 18 00 25.0000000  0 11       0.000000000000
G06  24990948.121 7 131328273.065 7       507.579 7        43.459 7  24990951.748 6         0.000 6       395.516 6        37.977 6
G10  24496751.720 7 128731257.371 7     -1460.023 7        44.938 7  24496754.654 6         0.000 6     -1137.681 6        37.977 6
G12  20550321.078 9 107992648.613 9     -1070.788 9        57.200 9  20550319.810 6         0.000 6      -834.380 6        37.977 6
G15  23136583.163 8 121583537.451 8     -3329.556 8        50.959 8  23136582.699 6         0.000 6     -2594.460 6        37.977 6
G20  24834526.486 7 130506271.544 7     -1965.273 7        43.476 7  24834527.601 6         0.000 6     -1531.382 6        37.977 6
G29  22799857.555 8 119814031.973 8      3480.047 8        50.797 8  22799857.392 6         0.000 6      2711.726 6        37.977 6
G19  24544029.437 7 128979702.529 7     -3294.588 7        44.636 7  24544029.085 6         0.000 6     -2567.213 6        37.977 6
G24  20890852.257 9 109782151.983 9      -619.332 9        57.094 9  20890853.882 6         0.000 6      -482.597 6        37.977 6
G32  23537432.323 8 123690009.006 8      2902.723 8        48.770 8  23537434.426 6         0.000 6      2261.863 6        37.977 6
G02  24221614.812 7 127285407.800 7      1362.335 7        46.876 7  24221613.124 6         0.000 6      1061.560 6        37.977 6
G25  21496145.748 9 112962987.982 9      1082.705 9        55.083 9  21496148.176 6         0.000 6       843.666 6        37.977 6
> 2019 07 03 18 00 26.0000000  0 11       0.000000000000
G06  24990851.576 7 131327765.716 7       507.121 7        43.459 7  24990855.202 6         0.000 6       395.159 6        37.977 6
G10  24497029.581 7 128732717.537 7     -1460.314 7        44.938 7  24497032.515 6         0.000 6     -1137.908 6        37.977 6
G12  20550524.869 9 107993719.540 9     -1071.066 9        57.200 9  20550523.600 6         0.000 6      -834.597 6        37.977 6
G15  23137216.771 8 121586867.084 8     -3329.718 8        50.959 8  23137216.309 6         0.000 6     -2594.586 6        37.977 6
G20  24834900.464 7 130508236.809 7     -1965.265 7        43.476 7  24834901.579 6         0.000 6     -1531.376 6        37.977 6
G29  22799195.346 8 119810552.046 8      3479.817 8        50.797 8  22799195.183 6         0.000 6      2711.547 6        37.977 6
G19  24544656.405 7 128982997.264 7     -3294.892 7        44.636 7  24544656.053 6         0.000 6     -2567.450 6        37.977 6
G24  20890970.142 9 109782771.472 9      -619.646 9        57.094 9  20890971.767 6         0.000 6      -482.841 6        37.977 6
G32  23536879.986 8 123687106.459 8      2902.380 8        48.771 8  23536882.089 6         0.000 6      2261.596 6        37.977 6
G02  24221355.591 7 127284045.588 7      1362.094 7        46.876 7  24221353.903 6         0.000 6      1061.373 6        37.977 6
G25  21495939.747 9 112961905.439 9      1082.382 9        55.083 9  21495942.175 6         0.000 6       843.415 6        37.977 6
> 2019 07 03 18 00 27.0000000  0 11       0.000000000000
G06  24990755.118 7 131327258.826 7       506.663 7        43.459 7  24990758.744 6         0.000 6       394.802 6        37.977 6
G10  24497307.497 7 128734177.994 7     -1460.605 7        44.938 7  24497310.431 6         0.000 6     -1138.135 6        37.977 6
G12  20550728.712 9 107994790.744 9     -1071.344 9        57.199 9  20550727.444 6         0.000 6      -834.813 6        37.977 6
G15  23137850.411 8 121590196.879 8     -3329.879 8        50.959 8  23137849.948 6         0.000 6     -2594.712 6        37.977 6
G20  24835274.441 7 130510202.067 7     -1965.257 7        43.476 7  24835275.556 6         0.000 6     -1531.370 6        37.977 6
G29  22798533.181 8 119807072.348 8      3479.587 8        50.798 8  22798533.017 6         0.000 6      2711.368 6        37.977 6
G19  24545283.431 7 128986292.302 7     -3295.196 7        44.636 7  24545283.080 6         0.000 6     -2567.687 6        37.977 6
G24  20891088.087 9 109783391.274 9      -619.959 9        57.094 9  20891089.712 6         0.000 6      -483.085 6        37.977 6
G32  23536327.714 8 123684204.255 8      2902.037 8        48.771 8  23536329.817 6         0.000 6      2261.328 6        37.977 6
G02  24221096.416 7 127282683.616 7      1361.854 7        46.876 7  24221094.728 6         0.000 6      1061.186 6        37.977 6
G25  21495733.808 9 112960823.220 9      1082.058 9        55.083 9  21495736.235 6         0.000 6       843.163 6        37.977 6
> 2019 07 03 18 00 28.0000000  0 11       0.000000000000
G06  24990658.747 7 131326752.393 7       506.204 7        43.460 7  24990662.373 6         0.000 6       394.445 6        37.977 6
G10  24497585.469 7 128735638.742 7     -1460.896 7        44.937 7  24497588.403 6         0.000 6     -1138.361 6        37.977 6
G12  20550932.609 9 107995862.225 9     -1071.621 9        57.199 9  20550931.340 6         0.000 6      -835.030 6        37.977 6
G15  23138484.081 8 121593526.835 8     -3330.041 8        50.958 8  23138483.619 6         0.000 6     -2594.838 6        37.977 6
G20  24835648.416 7 130512167.316 7     -1965.248 7        43.476 7  24835649.531 6         0.000 6     -1531.363 6        37.977 6
G29  22797871.060 8 119803592.880 8      3479.357 8        50.798 8  22797870.895 6         0.000 6      2711.188 6        37.977 6
G19  24545910.515 7 128989587.645 7     -3295.500 7        44.636 7  24545910.164 6         0.000 6     -2567.923 6        37.977 6
G24  20891206.091 9 109784011.390 9      -620.273 9        57.094 9  20891207.716 6         0.000 6      -483.330 6        37.977 6
G32  23535775.508 8 123681302.394 8      2901.693 8        48.771 8  23535777.610 6         0.000 6      2261.061 6        37.977 6
G02  24220837.286 7 127281321.885 7      1361.613 7        46.876 7  24220835.598 6         0.000 6      1060.998 6        37.977 6
G25  21495527.930 9 112959741.324 9      1081.735 9        55.083 9  21495530.357 6         0.000 6       842.911 6        37.977 6
> 2019 07 03 18 00 29.0000000  0 11       0.000000000000
G06  24990562.463 7 131326246.419 7       505.746 7        43.460 7  24990566.089 6         0.000 6       394.088 6        37.977 6
G10  24497863.496 7 128737099.781 7     -1461.187 7        44.937 7  24497866.430 6         0.000 6     -1138.588 6        37.977 6
G12  20551136.558 9 107996933.985 9     -1071.899 9        57.199 9  20551135.290 6         0.000 6      -835.246 6        37.977 6
G15  23139117.782 8 121596856.952 8     -3330.202 8        50.958 8  23139117.320 6         0.000 6     -2594.964 6        37.977 6
G20  24836022.390 7 130514132.557 7     -1965.240 7        43.475 7  24836023.505 6         0.000 6     -1531.357 6        37.977 6
G29  22797208.982 8 119800113.643 8      3479.126 8        50.798 8  22797208.818 6         0.000 6      2711.009 6        37.977 6
G19  24546537.656 7 128992883.291 7     -3295.803 7        44.635 7  24546537.306 6         0.000 6     -2568.160 6        37.977 6
G24  20891324.155 9 109784631.819 9      -620.586 9        57.094 9  20891325.780 6         0.000 6      -483.574 6        37.977 6
G32  23535223.367 8 123678400.876 8      2901.350 8        48.771 8  23535225.468 6         0.000 6      2260.793 6        37.977 6
G02  24220578.203 7 127279960.395 7      1361.373 7        46.877 7  24220576.515 6         0.000 6      1060.811 6        37.977 6
G25  21495322.113 9 112958659.751 9      1081.412 9        55.083 9  21495324.540 6         0.000 6       842.659 6        37.977 6
> 2019 07 03 18 00 30.0000000  0 11       0.000000000000
G06  24990466.266 7 131325740.903 7       505.288 7        43.460 7  24990469.892 6         0.000 6       393.731 6        37.977 6
G10  24498141.578 7 128738561.111 7     -1461.478 7        44.937 7  24498144.512 6         0.000 6     -1138.815 6        37.977 6
G12  20551340.560 9 107998006.022 9     -1072.177 9        57.199 9  20551339.292 6         0.000 6      -835.462 6        37.977 6
G15  23139751.514 8 121600187.231 8     -3330.364 8        50.958 8  23139751.052 6         0.000 6     -2595.089 6        37.977 6
G20  24836396.362 7 130516097.789 7     -1965.232 7        43.475 7  24836397.477 6         0.000 6     -1531.350 6        37.977 6
G29  22796546.948 8 119796634.637 8      3478.896 8        50.798 8  22796546.783 6         0.000 6      2710.829 6        37.977 6
G19  24547164.856 7 128996179.240 7     -3296.107 7        44.635 7  24547164.506 6         0.000 6     -2568.396 6        37.977 6
G24  20891442.278 9 109785252.562 9      -620.900 9        57.094 9  20891443.903 6         0.000 6      -483.818 6        37.977 6
G32  23534671.291 8 123675499.702 8      2901.006 8        48.771 8  23534673.392 6         0.000 6      2260.525 6        37.977 6
G02  24220319.165 7 127278599.145 7      1361.132 7        46.877 7  24220317.477 6         0.000 6      1060.623 6        37.977 6
G25  21495116.358 9 112957578.502 9      1081.089 9        55.083 9  21495118.785 6         0.000 6       842.407 6        37.977 6
> 2019 07 03 18 00 31.0000000  0 11       0.000000000000
G06  24990370.157 7 131325235.846 7       504.829 7        43.460 7  24990373.782 6         0.000 6       393.374 6        37.977 6
G10  24498419.716 7 128740022.732 7     -1461.768 7        44.937 7  24498422.650 6         0.000 6     -1139.041 6        37.977 6
G12  20551544.615 9 107999078.336 9     -1072.454 9        57.199 9  20551543.346 6         0.000 6      -835.679 6        37.977 6
G15  23140385.277 8 121603517.671 8     -3330.525 8        50.958 8  23140384.815 6         0.000 6     -2595.215 6        37.977 6
G20  24836770.332 7 130518063.013 7     -1965.223 7        43.475 7  24836771.448 6         0.000 6     -1531.343 6        37.977 6
G29  22795884.958 8 119793155.860 8      3478.665 8        50.799 8  22795884.793 6         0.000 6      2710.649 6        37.977 6
G19  24547792.113 7 128999475.493 7     -3296.410 7        44.635 7  24547791.763 6         0.000 6     -2568.633 6        37.977 6
G24  20891560.461 9 109785873.619 9      -621.214 9        57.094 9  20891562.087 6         0.000 6      -484.063 6        37.977 6
G32  23534119.280 8 123672598.872 8      2900.663 8        48.772 8  23534121.382 6         0.000 6      2260.258 6        37.977 6
G02  24220060.173 7 127277238.136 7      1360.891 7        46.877 7  24220058.485 6         0.000 6      1060.435 6        37.977 6
G25  21494910.664 9 112956497.575 9      1080.766 9        55.083 9  21494913.091 6         0.000 6       842.155 6        37.977 6
> 2019 07 03 18 00 32.0000000  0 11       0.000000000000
G06  24990274.134 7 131324731.247 7       504.371 7        43.460 7  24990277.760 6         0.000 6       393.016 6        37.977 6
G10  24498697.909 7 128741484.643 7     -1462.059 7        44.937 7  24498700.843 6         0.000 6     -1139.267 6        37.977 6
G12  20551748.722 9 108000150.928 9     -1072.731 9        57.199 9  20551747.454 6         0.000 6      -835.895 6        37.977 6
G15  23141019.070 8 121606848.272 8     -3330.686 8        50.957 8  23141018.608 6         0.000 6     -2595.341 6        37.977 6
G20  24837144.301 7 130520028.228 7     -1965.214 7        43.475 7  24837145.417 6         0.000 6     -1531.337 6        37.977 6
G29  22795223.012 8 119789677.315 8      3478.435 8        50.799 8  22795222.847 6         0.000 6      2710.470 6        37.977 6
G19  24548419.428 7 129002772.050 7     -3296.714 7        44.635 7  24548419.078 6         0.000 6     -2568.869 6        37.977 6
G24  20891678.704 9 109786494.989 9      -621.527 9        57.094 9  20891680.330 6         0.000 6      -484.307 6        37.977 6
G32  23533567.335 8 123669698.385 8      2900.319 8        48.772 8  23533569.436 6         0.000 6      2259.990 6        37.977 6
G02  24219801.227 7 127275877.368 7      1360.650 7        46.877 7  24219799.538 6         0.000 6      1060.248 6        37.977 6
G25  21494705.032 9 112955416.972 9      1080.443 9        55.083 9  21494707.459 6         0.000 6       841.904 6        37.977 6
> 2019 07 03 18 00 33.0000000  0 11       0.000000000000
G06  24990178.199 7 131324227.106 7       503.912 7        43.460 7  24990181.825 6         0.000 6       392.659 6        37.977 6
G10  24498976.157 7 128742946.845 7     -1462.350 7        44.937 7  24498979.092 6         0.000 6     -1139.494 6        37.977 6
G12  20551952.883 9 108001223.798 9     -1073.009 9        57.199 9  20551951.615 6         0.000 6      -836.111 6        37.977 6
G15  23141652.894 8 121610179.035 8     -3330.847 8        50.957 8  23141652.432 6         0.000 6     -2595.466 6        37.977 6
G20  24837518.268 7 130521993.435 7     -1965.206 7        43.475 7  24837519.384 6         0.000 6     -1531.330 6        37.977 6
G29  22794561.110 8 119786199.000 8      3478.204 8        50.799 8  22794560.945 6         0.000 6      2710.290 6        37.977 6
G19  24549046.800 7 129006068.910 7     -3297.017 7        44.634 7  24549046.451 6         0.000 6     -2569.106 6        37.977 6
G24  20891797.007 9 109787116.673 9      -621.841 9        57.094 9  20891798.632 6         0.000 6      -484.552 6        37.977 6
G32  23533015.456 8 123666798.243 8      2899.975 8        48.772 8  23533017.557 6         0.000 6      2259.722 6        37.977 6
G02  24219542.327 7 127274516.841 7      1360.409 7        46.877 7  24219540.638 6         0.000 6      1060.060 6        37.977 6
G25  21494499.461 9 112954336.691 9      1080.120 9        55.249 9  21494501.888 6         0.000 6       841.652 6        37.977 6
> 2019 07 03 18 00 34.0000000  0 11       0.000000000000
G06  24990082.352 7 131323723.424 7       503.453 7        43.460 7  24990085.978 6         0.000 6       392.302 6        37.977 6
G10  24499254.461 7 128744409.337 7     -1462.640 7        44.937 7  24499257.395 6         0.000 6     -1139.720 6        37.977 6
G12  20552157.096 9 108002296.944 9     -1073.286 9        57.199 9  20552155.828 6         0.000 6      -836.327 6        37.977 6
G15  23142286.748 8 121613509.958 8     -3331.008 8        50.957 8  23142286.287 6         0.000 6     -2595.591 6        37.977 6
G20  24837892.233 7 130523958.633 7     -1965.197 7        43.475 7  24837893.349 6         0.000 6     -1531.323 6        37.977 6
G29  22793899.252 8 119782720.916 8      3477.973 8        50.799 8  22793899.086 6         0.000 6      2710.110 6        37.977 6
G19  24549674.231 7 129009366.072 7     -3297.320 7        44.634 7  24549673.882 6         0.000 6     -2569.342 6        37.977 6
G24  20891915.369 9 109787738.671 9      -622.155 9        57.094 9  20891916.994 6         0.000 6      -484.796 6        37.977 6
G32  23532463.642 8 123663898.444 8      2899.631 8        48.772 8  23532465.742 6         0.000 6      2259.454 6        37.977 6
G02  24219283.473 7 127273156.555 7      1360.168 7        46.877 7  24219281.783 6         0.000 6      1059.872 6        37.977 6
G25  21494293.952 9 112953256.734 9      1079.797 9        55.249 9  21494296.379 6         0.000 6       841.400 6        37.977 6
> 2019 07 03 18 00 35.0000000  0 11       0.000000000000
G06  24989986.591 7 131323220.201 7       502.995 7        43.460 7  24989990.217 6         0.000 6       391.944 6        37.977 6
G10  24499532.819 7 128745872.119 7     -1462.930 7        44.937 7  24499535.754 6         0.000 6     -1139.946 6        37.977 6
G12  20552361.362 9 108003370.368 9     -1073.563 9        57.199 9  20552360.094 6         0.000 6      -836.543 6        37.977 6
G15  23142920.633 8 121616841.042 8     -3331.169 8        50.957 8  23142920.172 6         0.000 6     -2595.717 6        37.977 6
G20  24838266.197 7 130525923.821 7     -1965.188 7        43.475 7  24838267.313 6         0.000 6     -1531.316 6        37.977 6
G29  22793237.438 8 119779243.063 8      3477.742 8        50.800 8  22793237.272 6         0.000 6      2709.930 6        37.977 6
G19  24550301.719 7 129012663.538 7     -3297.623 7        44.634 7  24550301.370 6         0.000 6     -2569.578 6        37.977 6
G24  20892033.791 9 109788360.982 9      -622.469 9        57.094 9  20892035.416 6         0.000 6      -485.040 6        37.977 6
G32  23531911.893 8 123660998.989 8      2899.287 8        48.773 8  23531913.993 6         0.000 6      2259.186 6        37.977 6
G02  24219024.664 7 127271796.510 7      1359.927 7        46.877 7  24219022.975 6         0.000 6      1059.684 6        37.977 6
G25  21494088.504 9 112952177.100 9      1079.474 9        55.250 9  21494090.931 6         0.000 6       841.149 6        37.977 6
> 2019 07 03 18 00 36.0000000  0 11       0.000000000000
G06  24989890.918 7 131322717.437 7       502.536 7        43.460 7  24989894.544 6         0.000 6       391.587 6        37.977 6
G10  24499811.233 7 128747335.192 7     -1463.220 7        44.937 7  24499814.168 6         0.000 6     -1140.172 6        37.977 6
G12  20552565.680 9 108004444.070 9     -1073.840 9        57.199 9  20552564.412 6         0.000 6      -836.759 6        37.977 6
G15  23143554.549 8 121620172.287 8     -3331.329 8        50.957 8  23143554.088 6         0.000 6     -2595.842 6        37.977 6
G20  24838640.158 7 130527889.001 7     -1965.179 7        43.475 7  24838641.275 6         0.000 6     -1531.309 6        37.977 6
G29  22792575.667 8 119775765.441 8      3477.511 8        50.800 8  22792575.501 6         0.000 6      2709.750 6        37.977 6
G19  24550929.264 7 129015961.307 7     -3297.926 7        44.634 7  24550928.916 6         0.000 6     -2569.814 6        37.977 6
G24  20892152.273 9 109788983.607 9      -622.782 9        57.094 9  20892153.898 6         0.000 6      -485.285 6        37.977 6
G32  23531360.210 8 123658099.878 8      2898.943 8        48.773 8  23531362.310 6         0.000 6      2258.917 6        37.977 6
G02  24218765.902 7 127270436.707 7      1359.686 7        46.877 7  24218764.212 6         0.000 6      1059.496 6        37.977 6
G25  21493883.118 9 112951097.788 9      1079.151 9        55.250 9  21493885.545 6         0.000 6       840.897 6        37.977 6
> 2019 07 03 18 00 37.0000000  0 11       0.000000000000
G06  24989795.333 7 131322215.131 7       502.077 7        43.460 7  24989798.958 6         0.000 6       391.229 6        37.977 6
G10  24500089.703 7 128748798.555 7     -1463.510 7        44.937 7  24500092.638 6         0.000 6     -1140.398 6        37.977 6
G12  20552770.052 9 108005518.048 9     -1074.118 9        57.199 9  20552768.784 6         0.000 6      -836.975 6        37.977 6
G15  23144188.495 8 121623503.693 8     -3331.490 8        50.956 8  23144188.035 6         0.000 6     -2595.967 6        37.977 6
G20  24839014.119 7 130529854.172 7     -1965.169 7        43.474 7  24839015.236 6         0.000 6     -1531.302 6        37.977 6
G29  22791913.941 8 119772288.051 8      3477.279 8        50.800 8  22791913.775 6         0.000 6      2709.570 6        37.977 6
G19  24551556.868 7 129019259.379 7     -3298.229 7        44.634 7  24551556.520 6         0.000 6     -2570.050 6        37.977 6
G24  20892270.814 9 109789606.546 9      -623.096 9        57.094 9  20892272.440 6         0.000 6      -485.530 6        37.977 6
G32  23530808.592 8 123655201.111 8      2898.599 8        48.773 8  23530810.692 6         0.000 6      2258.649 6        37.977 6
G02  24218507.185 7 127269077.144 7      1359.444 7        46.877 7  24218505.495 6         0.000 6      1059.308 6        37.977 6
G25  21493677.793 9 112950018.800 9      1078.828 9        55.250 9  21493680.220 6         0.000 6       840.645 6        37.977 6
> 2019 07 03 18 00 38.0000000  0 11       0.000000000000
G06  24989699.834 7 131321713.284 7       501.618 7        43.460 7  24989703.460 6         0.000 6       390.872 6        37.977 6
G10  24500368.227 7 128750262.207 7     -1463.800 7        44.936 7  24500371.162 6         0.000 6     -1140.624 6        37.977 6
G12  20552974.476 9 108006592.303 9     -1074.395 9        57.199 9  20552973.208 6         0.000 6      -837.191 6        37.977 6
G15  23144822.471 8 121626835.259 8     -3331.651 8        50.956 8  23144822.012 6         0.000 6     -2596.092 6        37.977 6
G20  24839388.077 7 130531819.333 7     -1965.160 7        43.474 7  24839389.194 6         0.000 6     -1531.294 6        37.977 6
G29  22791252.259 8 119768810.891 8      3477.048 8        50.800 8  22791252.092 6         0.000 6      2709.389 6        37.977 6
G19  24552184.529 7 129022557.754 7     -3298.531 7        44.633 7  24552184.181 6         0.000 6     -2570.286 6        37.977 6
G24  20892389.415 9 109790229.799 9      -623.410 9        57.094 9  20892391.041 6         0.000 6      -485.774 6        37.977 6
G32  23530257.040 8 123652302.689 8      2898.254 8        48.773 8  23530259.139 6         0.000 6      2258.381 6        37.977 6
G02  24218248.514 7 127267717.824 7      1359.203 7        46.877 7  24218246.824 6         0.000 6      1059.120 6        37.977 6
G25  21493472.530 9 112948940.135 9      1078.505 9        55.250 9  21493474.956 6         0.000 6       840.394 6        37.977 6
> 2019 07 03 18 00 39.0000000  0 11       0.000000000000
G06  24989604.423 7 131321211.896 7       501.159 7        43.460 7  24989608.048 6         0.000 6       390.514 6        37.977 6
G10  24500646.806 7 128751726.150 7     -1464.090 7        44.936 7  24500649.742 6         0.000 6     -1140.850 6        37.977 6
G12  20553178.953 9 108007666.836 9     -1074.672 9        57.198 9  20553177.685 6         0.000 6      -837.407 6        37.977 6
G15  23145456.479 8 121630166.986 8     -3331.811 8        50.956 8  23145456.019 6         0.000 6     -2596.217 6        37.977 6
G20  24839762.034 7 130533784.485 7     -1965.151 7        43.474 7  24839763.151 6         0.000 6     -1531.287 6        37.977 6
G29  22790590.621 8 119765333.963 8      3476.817 8        50.801 8  22790590.453 6         0.000 6      2709.209 6        37.977 6
G19  24552812.247 7 129025856.431 7     -3298.834 7        44.633 7  24552811.900 6         0.000 6     -2570.521 6        37.977 6
G24  20892508.076 9 109790853.365 9      -623.724 9        57.094 9  20892509.701 6         0.000 6      -486.019 6        37.977 6
G32  23529705.553 8 123649404.611 8      2897.910 8        48.773 8  23529707.652 6         0.000 6      2258.113 6        37.977 6
G02  24217989.890 7 127266358.744 7      1358.961 7        46.877 7  24217988.200 6         0.000 6      1058.932 6        37.977 6
G25  21493267.328 9 112947861.792 9      1078.182 9        55.250 9  21493269.754 6         0.000 6       840.142 6        37.977 6
> 2019 07 03 18 00 40.0000000  0 11       0.000000000000
G06  24989509.099 7 131320710.968 7       500.700 7        43.460 7  24989512.725 6         0.000 6       390.156 6        37.977 6
G10  24500925.441 7 128753190.383 7     -1464.380 7        44.936 7  24500928.377 6         0.000 6     -1141.076 6        37.977 6
G12  20553383.482 9 108008741.645 9     -1074.949 9        57.198 9  20553382.215 6         0.000 6      -837.622 6        37.977 6
G15  23146090.517 8 121633498.873 8     -3331.971 8        50.956 8  23146090.057 6         0.000 6     -2596.342 6        37.977 6
G20  24840135.989 7 130535749.627 7     -1965.141 7        43.474 7  24840137.106 6         0.000 6     -1531.280 6        37.977 6
G29  22789929.026 8 119761857.266 8      3476.585 8        50.801 8  22789928.859 6         0.000 6      2709.029 6        37.977 6
G19  24553440.023 7 129029155.410 7     -3299.136 7        44.633 7  24553439.676 6         0.000 6     -2570.757 6        37.977 6
G24  20892626.797 9 109791477.246 9      -624.038 9        57.094 9  20892628.422 6         0.000 6      -486.263 6        37.977 6
G32  23529154.132 8 123646506.877 8      2897.565 8        48.774 8  23529156.231 6         0.000 6      2257.844 6        37.977 6
G02  24217731.311 7 127264999.906 7      1358.720 7        46.878 7  24217729.621 6         0.000 6      1058.743 6        37.977 6
G25  21493062.187 9 112946783.772 9      1077.859 9        55.250 9  21493064.614 6         0.000 6       839.891 6        37.977 6
> 2019 07 03 18 00 41.0000000  0 11       0.000000000000
G06  24989413.863 7 131320210.498 7       500.241 7        43.460 7  24989417.488 6         0.000 6       389.799 6        37.977 6
G10  24501204.131 7 128754654.905 7     -1464.670 7        44.936 7  24501207.067 6         0.000 6     -1141.302 6        37.977 6
G12  20553588.065 9 108009816.731 9     -1075.225 9        57.198 9  20553586.797 6         0.000 6      -837.838 6        37.977 6
G15  23146724.585 8 121636830.920 8     -3332.132 8        50.955 8  23146724.126 6         0.000 6     -2596.467 6        37.977 6
G20  24840509.942 7 130537714.760 7     -1965.132 7        43.474 7  24840511.060 6         0.000 6     -1531.272 6        37.977 6
G29  22789267.476 8 119758380.801 8      3476.354 8        50.801 8  22789267.309 6         0.000 6      2708.848 6        37.977 6
G19  24554067.857 7 129032454.692 7     -3299.439 7        44.633 7  24554067.510 6         0.000 6     -2570.993 6        37.977 6
G24  20892745.577 9 109792101.440 9      -624.352 9        57.094 9  20892747.202 6         0.000 6      -486.508 6        37.977 6
G32  23528602.777 8 123643609.488 8      2897.221 8        48.774 8  23528604.875 6         0.000 6      2257.576 6        37.977 6
G02  24217472.778 7 127263641.310 7      1358.478 7        46.878 7  24217471.088 6         0.000 6      1058.555 6        37.977 6
G25  21492857.108 9 112945706.075 9      1077.536 9        55.250 9  21492859.535 6         0.000 6       839.639 6        37.977 6
> 2019 07 03 18 00 42.0000000  0 11       0.000000000000
G06  24989318.714 7 131319710.487 7       499.782 7        43.460 7  24989322.339 6         0.000 6       389.441 6        37.977 6
G10  24501482.876 7 128756119.717 7     -1464.959 7        44.936 7  24501485.812 6         0.000 6     -1141.527 6        37.977 6
G12  20553792.699 9 108010892.094 9     -1075.502 9        57.198 9  20553791.432 6         0.000 6      -838.054 6        37.977 6
G15  23147358.684 8 121640163.128 8     -3332.292 8        50.955 8  23147358.225 6         0.000 6     -2596.592 6        37.977 6
G20  24840883.893 7 130539679.884 7     -1965.122 7        43.474 7  24840885.011 6         0.000 6     -1531.265 6        37.977 6
G29  22788605.970 8 119754904.568 8      3476.122 8        50.801 8  22788605.802 6         0.000 6      2708.667 6        37.977 6
G19  24554695.748 7 129035754.277 7     -3299.741 7        44.632 7  24554695.402 6         0.000 6     -2571.228 6        37.977 6
G24  20892864.417 9 109792725.948 9      -624.666 9        57.094 9  20892866.042 6         0.000 6      -486.752 6        37.977 6
G32  23528051.487 8 123640712.444 8      2896.876 8        48.774 8  23528053.585 6         0.000 6      2257.307 6        37.977 6
G02  24217214.291 7 127262282.956 7      1358.236 7        46.878 7  24217212.601 6         0.000 6      1058.366 6        37.977 6
G25  21492652.090 9 112944628.701 9      1077.214 9        55.250 9  21492654.517 6         0.000 6       839.387 6        37.977 6
> 2019 07 03 18 00 43.0000000  0 11       0.000000000000
G06  24989223.652 7 131319210.935 7       499.323 7        43.460 7  24989227.277 6         0.000 6       389.083 6        37.977 6
G10  24501761.676 7 128757584.818 7     -1465.249 7        44.936 7  24501764.612 6         0.000 6     -1141.753 6        37.977 6
G12  20553997.387 9 108011967.734 9     -1075.779 9        57.198 9  20553996.120 6         0.000 6      -838.269 6        37.977 6
G15  23147992.813 8 121643495.496 8     -3332.452 8        50.955 8  23147992.354 6         0.000 6     -2596.717 6        37.977 6
G20  24841257.842 7 130541644.997 7     -1965.112 7        43.474 7  24841258.960 6         0.000 6     -1531.257 6        37.977 6
G29  22787944.508 8 119751428.567 8      3475.890 8        50.802 8  22787944.340 6         0.000 6      2708.487 6        37.977 6
G19  24555323.696 7 129039054.163 7     -3300.043 7        44.632 7  24555323.351 6         0.000 6     -2571.464 6        37.977 6
G24  20892983.317 9 109793350.770 9      -624.980 9        57.094 9  20892984.942 6         0.000 6      -486.997 6        37.977 6
G32  23527500.262 8 123637815.745 8      2896.531 8        48.774 8  23527502.361 6         0.000 6      2257.038 6        37.977 6
G02  24216955.851 7 127260924.844 7      1357.994 7        46.878 7  24216954.160 6         0.000 6      1058.178 6        37.977 6
G25  21492447.134 9 112943551.650 9      1076.891 9        55.250 9  21492449.561 6         0.000 6       839.136 6        37.977 6
> 2019 07 03 18 00 44.0000000  0 11       0.000000000000
G06  24989128.678 7 131318711.843 7       498.864 7        43.460 7  24989132.303 6         0.000 6       388.725 6        37.977 6
G10  24502040.531 7 128759050.209 7     -1465.538 7        44.936 7  24502043.467 6         0.000 6     -1141.978 6        37.977 6
G12  20554202.127 9 108013043.651 9     -1076.055 9        57.198 9  20554200.860 6         0.000 6      -838.485 6        37.977 6
G15  23148626.973 8 121646828.023 8     -3332.612 8        50.955 8  23148626.514 6         0.000 6     -2596.841 6        37.977 6
G20  24841631.790 7 130543610.101 7     -1965.102 7        43.474 7  24841632.908 6         0.000 6     -1531.249 6        37.977 6
G29  22787283.090 8 119747952.797 8      3475.658 8        50.802 8  22787282.922 6         0.000 6      2708.306 6        37.977 6
G19  24555951.702 7 129042354.352 7     -3300.345 7        44.632 7  24555951.357 6         0.000 6     -2571.699 6        37.977 6
G24  20893102.276 9 109793975.907 9      -625.294 9        57.094 9  20893103.902 6         0.000 6      -487.242 6        37.977 6
G32  23526949.104 8 123634919.390 8      2896.186 8        48.774 8  23526951.202 6         0.000 6      2256.769 6        37.977 6
G02  24216697.456 7 127259566.973 7      1357.752 7        46.878 7  24216695.765 6         0.000 6      1057.989 6        37.977 6
G25  21492242.239 9 112942474.921 9      1076.568 9        55.250 9  21492244.666 6         0.000 6       838.884 6        37.977 6
> 2019 07 03 18 00 45.0000000  0 11       0.000000000000
G06  24989033.791 7 131318213.210 7       498.404 7        43.460 7  24989037.416 6         0.000 6       388.367 6        37.977 6
G10  24502319.441 7 128760515.890 7     -1465.827 7        44.936 7  24502322.378 6         0.000 6     -1142.204 6        37.977 6
G12  20554406.920 9 108014119.844 9     -1076.332 9        57.198 9  20554405.653 6         0.000 6      -838.700 6        37.977 6
G15  23149261.163 8 121650160.711 8     -3332.772 8        50.954 8  23149260.705 6         0.000 6     -2596.966 6        37.977 6
G20  24842005.735 7 130545575.195 7     -1965.092 7        43.473 7  24842006.854 6         0.000 6     -1531.242 6        37.977 6
G29  22786621.717 8 119744477.259 8      3475.426 8        50.802 8  22786621.548 6         0.000 6      2708.125 6        37.977 6
G19  24556579.766 7 129045654.842 7     -3300.647 7        44.632 7  24556579.421 6         0.000 6     -2571.934 6        37.977 6
G24  20893221.296 9 109794601.357 9      -625.608 9        57.093 9  20893222.921 6         0.000 6      -487.487 6        37.977 6
G32  23526398.010 8 123632023.380 8      2895.841 8        48.775 8  23526400.108 6         0.000 6      2256.501 6        37.977 6
G02  24216439.107 7 127258209.345 7      1357.510 7        46.878 7  24216437.416 6         0.000 6      1057.801 6        37.977 6
G25  21492037.406 9 112941398.516 9      1076.245 9        55.250 9  21492039.832 6         0.000 6       838.633 6        37.977 6
> 2019 07 03 18 00 46.0000000  0 11       0.000000000000
G06  24988938.991 7 131317715.036 7       497.945 7        43.460 7  24988942.616 6         0.000 6       388.009 6        37.977 6
G10  24502598.406 7 128761981.859 7     -1466.117 7        44.936 7  24502601.343 6         0.000 6     -1142.429 6        37.977 6
G12  20554611.766 9 108015196.313 9     -1076.609 9        57.198 9  20554610.498 6         0.000 6      -838.916 6        37.977 6
G15  23149895.383 8 121653493.559 8     -3332.932 8        50.954 8  23149894.925 6         0.000 6     -2597.091 6        37.977 6
G20  24842379.679 7 130547540.278 7     -1965.082 7        43.473 7  24842380.798 6         0.000 6     -1531.234 6        37.977 6
G29  22785960.387 8 119741001.954 8      3475.194 8        50.802 8  22785960.218 6         0.000 6      2707.944 6        37.977 6
G19  24557207.887 7 129048955.635 7     -3300.949 7        44.632 7  24557207.542 6         0.000 6     -2572.169 6        37.977 6
G24  20893340.375 9 109795227.121 9      -625.922 9        57.093 9  20893342.000 6         0.000 6      -487.731 6        37.977 6
G32  23525846.983 8 123629127.716 8      2895.496 8        48.775 8  23525849.081 6         0.000 6      2256.232 6        37.977 6
G02  24216180.805 7 127256851.959 7      1357.268 7        46.878 7  24216179.114 6         0.000 6      1057.612 6        37.977 6
G25  21491832.634 9 112940322.433 9      1075.923 9        55.250 9  21491835.060 6         0.000 6       838.382 6        37.977 6
> 2019 07 03 18 00 47.0000000  0 11       0.000000000000
G06  24988844.279 7 131317217.321 7       497.486 7        43.460 7  24988847.904 6         0.000 6       387.651 6        37.977 6
G10  24502877.427 7 128763448.117 7     -1466.406 7        44.936 7  24502880.363 6         0.000 6     -1142.654 6        37.977 6
G12  20554816.664 9 108016273.059 9     -1076.885 9        57.198 9  20554815.396 6         0.000 6      -839.131 6        37.977 6
G15  23150529.634 8 121656826.566 8     -3333.091 8        50.954 8  23150529.177 6         0.000 6     -2597.215 6        37.977 6
G20  24842753.620 7 130549505.352 7     -1965.072 7        43.473 7  24842754.740 6         0.000 6     -1531.226 6        37.977 6
G29  22785299.102 8 119737526.880 8      3474.962 8        50.803 8  22785298.933 6         0.000 6      2707.763 6        37.977 6
G19  24557836.065 7 129052256.729 7     -3301.251 7        44.631 7  24557835.721 6         0.000 6     -2572.405 6        37.977 6
G24  20893459.513 9 109795853.200 9      -626.236 9        57.093 9  20893461.139 6         0.000 6      -487.976 6        37.977 6
G32  23525296.021 8 123626232.396 8      2895.151 8        48.775 8  23525298.119 6         0.000 6      2255.963 6        37.977 6
G02  24215922.548 7 127255494.815 7      1357.025 7        46.878 7  24215920.857 6         0.000 6      1057.423 6        37.977 6
G25  21491627.923 9 112939246.672 9      1075.600 9        55.251 9  21491630.350 6         0.000 6       838.130 6        37.977 6
> 2019 07 03 18 00 48.0000000  0 11       0.000000000000
G06  24988749.655 7 131316720.066 7       497.026 7        43.460 7  24988753.279 6         0.000 6       387.293 6        37.977 6
G10  24503156.502 7 128764914.665 7     -1466.695 7        44.935 7  24503159.439 6         0.000 6     -1142.880 6        37.977 6
G12  20555021.614 9 108017350.082 9     -1077.161 9        57.198 9  20555020.347 6         0.000 6      -839.347 6        37.977 6
G15  23151163.916 8 121660159.733 8     -3333.251 8        50.954 8  23151163.458 6         0.000 6     -2597.339 6        37.977 6
G20  24843127.560 7 130551470.415 7     -1965.062 7        43.473 7  24843128.680 6         0.000 6     -1531.218 6        37.977 6
G29  22784637.861 8 119734052.039 8      3474.729 8        50.803 8  22784637.691 6         0.000 6      2707.582 6        37.977 6
G19  24558464.301 7 129055558.125 7     -3301.552 7        44.631 7  24558463.957 6         0.000 6     -2572.640 6        37.977 6
G24  20893578.712 9 109796479.592 9      -626.550 9        57.093 9  20893580.338 6         0.000 6      -488.221 6        37.977 6
G32  23524745.125 8 123623337.422 8      2894.806 8        48.775 8  23524747.222 6         0.000 6      2255.694 6        37.977 6
G02  24215664.338 7 127254137.913 7      1356.783 7        46.878 7  24215662.647 6         0.000 6      1057.234 6        37.977 6
G25  21491423.274 9 112938171.234 9      1075.277 9        55.251 9  21491425.701 6         0.000 6       837.879 6        37.977 6
> 2019 07 03 18 00 49.0000000  0 11       0.000000000000
G06  24988655.117 7 131316223.271 7       496.567 7        43.460 7  24988658.742 6         0.000 6       386.935 6        37.977 6
G10  24503435.632 7 128766381.501 7     -1466.983 7        44.935 7  24503438.569 6         0.000 6     -1143.105 6        37.977 6
G12  20555226.618 9 108018427.381 9     -1077.438 9        57.198 9  20555225.350 6         0.000 6      -839.562 6        37.977 6
G15  23151798.227 8 121663493.060 8     -3333.410 8        50.953 8  23151797.770 6         0.000 6     -2597.464 6        37.977 6
G20  24843501.498 7 130553435.468 7     -1965.051 7        43.473 7  24843502.618 6         0.000 6     -1531.210 6        37.977 6
G29  22783976.664 8 119730577.430 8      3474.497 8        50.803 8  22783976.494 6         0.000 6      2707.401 6        37.977 6
G19  24559092.594 7 129058859.822 7     -3301.854 7        44.631 7  24559092.251 6         0.000 6     -2572.875 6        37.977 6
G24  20893697.970 9 109797106.299 9      -626.864 9        57.093 9  20893699.596 6         0.000 6      -488.466 6        37.977 6
G32  23524194.295 8 123620442.793 8      2894.460 8        48.775 8  23524196.392 6         0.000 6      2255.425 6        37.977 6
G02  24215406.174 7 127252781.254 7      1356.541 7        46.878 7  24215404.482 6         0.000 6      1057.045 6        37.977 6
G25  21491218.686 9 112937096.119 9      1074.955 9        55.251 9  21491221.113 6         0.000 6       837.627 6        37.977 6
> 2019 07 03 18 00 50.0000000  0 11       0.000000000000
G06  24988560.668 7 131315726.935 7       496.107 7        43.460 7  24988564.292 6         0.000 6       386.577 6        37.977 6
G10  24503714.817 7 128767848.627 7     -1467.272 7        44.935 7  24503717.754 6         0.000 6     -1143.330 6        37.977 6
G12  20555431.674 9 108019504.956 9     -1077.714 9        57.197 9  20555430.406 6         0.000 6      -839.777 6        37.977 6
G15  23152432.570 8 121666826.546 8     -3333.570 8        50.953 8  23152432.113 6         0.000 6     -2597.588 6        37.977 6
G20  24843875.434 7 130555400.511 7     -1965.041 7        43.473 7  24843876.554 6         0.000 6     -1531.201 6        37.977 6
G29  22783315.511 8 119727103.054 8      3474.264 8        50.803 8  22783315.341 6         0.000 6      2707.220 6        37.977 6
G19  24559720.945 7 129062161.821 7     -3302.155 7        44.631 7  24559720.602 6         0.000 6     -2573.109 6        37.977 6
G24  20893817.289 9 109797733.320 9      -627.178 9        57.093 9  20893818.914 6         0.000 6      -488.710 6        37.977 6
G32  23523643.530 8 123617548.509 8      2894.115 8        48.776 8  23523645.627 6         0.000 6      2255.155 6        37.977 6
G02  24215148.056 7 127251424.838 7      1356.298 7        46.878 7  24215146.364 6         0.000 6      1056.856 6        37.977 6
G25  21491014.160 9 112936021.327 9      1074.632 9        55.251 9  21491016.586 6         0.000 6       837.376 6        37.977 6
> 2019 07 03 18 00 51.0000000  0 11       0.000000000000
G06  24988466.305 7 131315231.059 7       495.647 7        43.460 7  24988469.930 6         0.000 6       386.219 6        37.977 6
G10  24503994.057 7 128769316.041 7     -1467.561 7        44.935 7  24503996.995 6         0.000 6     -1143.555 6        37.977 6
G12  20555636.782 9 108020582.807 9     -1077.990 9        57.197 9  20555635.515 6         0.000 6      -839.993 6        37.977 6
G15  23153066.942 8 121670160.191 8     -3333.729 8        50.953 8  23153066.485 6         0.000 6     -2597.712 6        37.977 6
G20  24844249.368 7 130557365.542 7     -1965.030 7        43.473 7  24844250.488 6         0.000 6     -1531.193 6        37.977 6
G29  22782654.403 8 119723628.911 8      3474.032 8        50.804 8  22782654.233 6         0.000 6      2707.039 6        37.977 6
G19  24560349.353 7 129065464.121 7     -3302.456 7        44.630 7  24560349.010 6         0.000 6     -2573.344 6        37.977 6
G24  20893936.667 9 109798360.655 9      -627.493 9        57.093 9  20893938.292 6         0.000 6      -488.955 6        37.977 6
G32  23523092.831 8 123614654.571 8      2893.769 8        48.776 8  23523094.928 6         0.000 6      2254.886 6        37.977 6
G02  24214889.984 7 127250068.664 7      1356.055 7        46.879 7  24214888.292 6         0.000 6      1056.667 6        37.977 6
G25  21490809.695 9 112934946.857 9      1074.310 9        55.251 9  21490812.121 6         0.000 6       837.125 6        37.977 6
> 2019 07 03 18 00 52.0000000  0 11       0.000000000000
G06  24988372.030 7 131314735.642 7       495.188 7        43.460 7  24988375.655 6         0.000 6       385.861 6        37.977 6
G10  24504273.352 7 128770783.743 7     -1467.849 7        44.935 7  24504276.290 6         0.000 6     -1143.779 6        37.977 6
G12  20555841.943 9 108021660.935 9     -1078.266 9        57.197 9  20555840.676 6         0.000 6      -840.208 6        37.977 6
G15  23153701.345 8 121673493.996 8     -3333.888 8        50.953 8  23153700.888 6         0.000 6     -2597.836 6        37.977 6
G20  24844623.299 7 130559330.564 7     -1965.019 7        43.472 7  24844624.420 6         0.000 6     -1531.185 6        37.977 6
G29  22781993.339 8 119720155.000 8      3473.799 8        50.804 8  22781993.168 6         0.000 6      2706.857 6        37.977 6
G19  24560977.818 7 129068766.723 7     -3302.758 7        44.630 7  24560977.475 6         0.000 6     -2573.579 6        37.977 6
G24  20894056.104 9 109798988.304 9      -627.807 9        57.093 9  20894057.730 6         0.000 6      -489.200 6        37.977 6
G32  23522542.198 8 123611760.979 8      2893.423 8        48.776 8  23522544.294 6         0.000 6      2254.617 6        37.977 6
G02  24214631.958 7 127248712.732 7      1355.813 7        46.879 7  24214630.266 6         0.000 6      1056.478 6        37.977 6
G25  21490605.291 9 112933872.709 9      1073.987 9        55.251 9  21490607.717 6         0.000 6       836.873 6        37.977 6
> 2019 07 03 18 00 53.0000000  0 11       0.000000000000
G06  24988277.843 7 131314240.685 7       494.728 7        43.460 7  24988281.468 6         0.000 6       385.502 6        37.977 6
G10  24504552.702 7 128772251.734 7     -1468.138 7        44.935 7  24504555.640 6         0.000 6     -1144.004 6        37.977 6
G12  20556047.157 9 108022739.338 9     -1078.542 9        57.197 9  20556045.889 6         0.000 6      -840.423 6        37.977 6
G15  23154335.778 8 121676827.960 8     -3334.048 8        50.952 8  23154335.322 6         0.000 6     -2597.960 6        37.977 6
G20  24844997.229 7 130561295.574 7     -1965.009 7        43.472 7  24844998.350 6         0.000 6     -1531.176 6        37.977 6
G29  22781332.319 8 119716681.322 8      3473.566 8        50.804 8  22781332.148 6         0.000 6      2706.676 6        37.977 6
G19  24561606.341 7 129072069.625 7     -3303.059 7        44.630 7  24561605.998 6         0.000 6     -2573.813 6        37.977 6
G24  20894175.602 9 109799616.268 9      -628.121 9        57.093 9  20894177.228 6         0.000 6      -489.445 6        37.977 6
G32  23521991.631 8 123608867.733 8      2893.078 8        48.776 8  23521993.727 6         0.000 6      2254.347 6        37.977 6
G02  24214373.979 7 127247357.044 7      1355.570 7        46.879 7  24214372.287 6         0.000 6      1056.289 6        37.977 6
G25  21490400.949 9 112932798.884 9      1073.665 9        55.251 9  21490403.375 6         0.000 6       836.622 6        37.977 6
> 2019 07 03 18 00 54.0000000  0 11       0.000000000000
G06  24988183.743 7 131313746.188 7       494.268 7        43.460 7  24988187.368 6         0.000 6       385.144 6        37.977 6
G10  24504832.107 7 128773720.014 7     -1468.426 7        44.935 7  24504835.045 6         0.000 6     -1144.229 6        37.977 6
G12  20556252.423 9 108023818.018 9     -1078.818 9        57.197 9  20556251.156 6         0.000 6      -840.638 6        37.977 6
G15  23154970.241 8 121680162.083 8     -3334.207 8        50.952 8  23154969.785 6         0.000 6     -2598.084 6        37.977 6
G20  24845371.157 7 130563260.574 7     -1964.998 7        43.472 7  24845372.277 6         0.000 6     -1531.168 6        37.977 6
G29  22780671.344 8 119713207.877 8      3473.333 8        50.804 8  22780671.173 6         0.000 6      2706.494 6        37.977 6
G19  24562234.920 7 129075372.829 7     -3303.360 7        44.630 7  24562234.578 6         0.000 6     -2574.048 6        37.977 6
G24  20894295.159 9 109800244.546 9      -628.435 9        57.093 9  20894296.785 6         0.000 6      -489.690 6        37.977 6
G32  23521441.130 8 123605974.832 8      2892.732 8        48.776 8  23521443.225 6         0.000 6      2254.078 6        37.977 6
G02  24214116.046 7 127246001.598 7      1355.327 7        46.879 7  24214114.353 6         0.000 6      1056.100 6        37.977 6
G25  21490196.668 9 112931725.382 9      1073.342 9        55.251 9  21490199.094 6         0.000 6       836.371 6        37.977 6
> 2019 07 03 18 00 55.0000000  0 11       0.000000000000
G06  24988089.731 7 131313252.151 7       493.808 7        43.460 7  24988093.355 6         0.000 6       384.786 6        37.977 6
G10  24505111.567 7 128775188.582 7     -1468.715 7        44.935 7  24505114.505 6         0.000 6     -1144.454 6        37.977 6
G12  20556457.741 9 108024896.973 9     -1079.094 9        57.197 9  20556456.474 6         0.000 6      -840.853 6        37.977 6
G15  23155604.735 8 121683496.365 8     -3334.366 8        50.952 8  23155604.279 6         0.000 6     -2598.208 6        37.977 6
G20  24845745.082 7 130565225.562 7     -1964.987 7        43.472 7  24845746.203 6         0.000 6     -1531.159 6        37.977 6
G29  22780010.413 8 119709734.664 8      3473.100 8        50.805 8  22780010.241 6         0.000 6      2706.313 6        37.977 6
G19  24562863.557 7 129078676.333 7     -3303.660 7        44.630 7  24562863.216 6         0.000 6     -2574.282 6        37.977 6
G24  20894414.776 9 109800873.138 9      -628.750 9        57.093 9  20894416.402 6         0.000 6      -489.935 6        37.977 6
G32  23520890.694 8 123603082.277 8      2892.386 8        48.777 8  23520892.789 6         0.000 6      2253.808 6        37.977 6
G02  24213858.159 7 127244646.395 7      1355.084 7        46.879 7  24213856.466 6         0.000 6      1055.910 6        37.977 6
G25  21489992.449 9 112930652.202 9      1073.020 9        55.251 9  21489994.875 6         0.000 6       836.120 6        37.977 6
> 2019 07 03 18 00 56.0000000  0 11       0.000000000000
G06  24987995.806 7 131312758.574 7       493.348 7        43.460 7  24987999.431 6         0.000 6       384.427 6        37.977 6
G10  24505391.081 7 128776657.438 7     -1469.003 7        44.935 7  24505394.019 6         0.000 6     -1144.678 6        37.977 6
G12  20556663.112 9 108025976.205 9     -1079.370 9        57.197 9  20556661.845 6         0.000 6      -841.068 6        37.977 6
G15  23156239.258 8 121686830.806 8     -3334.524 8        50.952 8  23156238.803 6         0.000 6     -2598.332 6        37.977 6
G20  24846119.006 7 130567190.540 7     -1964.975 7        43.472 7  24846120.127 6         0.000 6     -1531.151 6        37.977 6
G29  22779349.526 8 119706261.685 8      3472.867 8        50.805 8  22779349.354 6         0.000 6      2706.131 6        37.977 6
G19  24563492.252 7 129081980.138 7     -3303.961 7        44.629 7  24563491.911 6         0.000 6     -2574.517 6        37.977 6
G24  20894534.453 9 109801502.044 9      -629.064 9        57.093 9  20894536.079 6         0.000 6      -490.180 6        37.977 6
G32  23520340.324 8 123600190.068 8      2892.040 8        48.777 8  23520342.419 6         0.000 6      2253.538 6        37.977 6
G02  24213600.318 7 127243291.436 7      1354.841 7        46.879 7  24213598.625 6         0.000 6      1055.721 6        37.977 6
G25  21489788.290 9 112929579.344 9      1072.697 9        55.251 9  21489790.716 6         0.000 6       835.868 6        37.977 6
> 2019 07 03 18 00 57.0000000  0 11       0.000000000000
G06  24987901.969 7 131312265.457 7       492.888 7        43.460 7  24987905.593 6         0.000 6       384.069 6        37.977 6
G10  24505670.650 7 128778126.582 7     -1469.291 7        44.935 7  24505673.589 6         0.000 6     -1144.903 6        37.977 6
G12  20556868.536 9 108027055.712 9     -1079.646 9        57.197 9  20556867.269 6         0.000 6      -841.283 6        37.977 6
G15  23156873.812 8 121690165.406 8     -3334.683 8        50.952 8  23156873.357 6         0.000 6     -2598.455 6        37.977 6
G20  24846492.927 7 130569155.506 7     -1964.964 7        43.472 7  24846494.048 6         0.000 6     -1531.142 6        37.977 6
G29  22778688.683 8 119702788.940 8      3472.633 8        50.805 8  22778688.512 6         0.000 6      2705.949 6        37.977 6
G19  24564121.003 7 129085284.244 7     -3304.262 7        44.629 7  24564120.662 6         0.000 6     -2574.751 6        37.977 6
G24  20894654.190 9 109802131.265 9      -629.378 9        57.093 9  20894655.816 6         0.000 6      -490.425 6        37.977 6
G32  23519790.020 8 123597298.206 8      2891.694 8        48.777 8  23519792.115 6         0.000 6      2253.269 6        37.977 6
G02  24213342.523 7 127241936.719 7      1354.598 7        46.879 7  24213340.830 6         0.000 6      1055.531 6        37.977 6
G25  21489584.194 9 112928506.809 9      1072.375 9        55.251 9  21489586.619 6         0.000 6       835.617 6        37.977 6
> 2019 07 03 18 00 58.0000000  0 11       0.000000000000
G06  24987808.219 7 131311772.800 7       492.428 7        43.461 7  24987811.843 6         0.000 6       383.710 6        37.977 6
G10  24505950.274 7 128779596.014 7     -1469.579 7        44.934 7  24505953.213 6         0.000 6     -1145.127 6        37.977 6
G12  20557074.012 9 108028135.495 9     -1079.922 9        57.197 9  20557072.745 6         0.000 6      -841.498 6        37.977 6
G15  23157508.397 8 121693500.164 8     -3334.842 8        50.951 8  23157507.942 6         0.000 6     -2598.579 6        37.977 6
G20  24846866.846 7 130571120.462 7     -1964.953 7        43.472 7  24846867.968 6         0.000 6     -1531.133 6        37.977 6
G29  22778027.885 8 119699316.427 8      3472.400 8        50.805 8  22778027.713 6         0.000 6      2705.767 6        37.977 6
G19  24564749.812 7 129088588.651 7     -3304.562 7        44.629 7  24564749.471 6         0.000 6     -2574.985 6        37.977 6
G24  20894773.987 9 109802760.801 9      -629.693 9        57.093 9  20894775.613 6         0.000 6      -490.670 6        37.977 6
G32  23519239.782 8 123594406.689 8      2891.347 8        48.777 8  23519241.877 6         0.000 6      2252.999 6        37.977 6
G02  24213084.775 7 127240582.246 7      1354.354 7        46.879 7  24213083.082 6         0.000 6      1055.342 6        37.977 6
G25  21489380.158 9 112927434.596 9      1072.053 9        55.251 9  21489382.584 6         0.000 6       835.366 6        37.977 6
> 2019 07 03 18 00 59.0000000  0 11       0.000000000000
G06  24987714.557 7 131311280.603 7       491.968 7        43.461 7  24987718.181 6         0.000 6       383.352 6        37.977 6
G10  24506229.953 7 128781065.734 7     -1469.867 7        44.934 7  24506232.892 6         0.000 6     -1145.351 6        37.977 6
G12  20557279.540 9 108029215.554 9     -1080.197 9        57.197 9  20557278.273 6         0.000 6      -841.712 6        37.977 6
G15  23158143.011 8 121696835.081 8     -3335.001 8        50.951 8  23158142.556 6         0.000 6     -2598.703 6        37.977 6
G20  24847240.763 7 130573085.405 7     -1964.942 7        43.472 7  24847241.885 6         0.000 6     -1531.124 6        37.977 6
G29  22777367.132 8 119695844.148 8      3472.167 8        50.806 8  22777366.960 6         0.000 6      2705.585 6        37.977 6
G19  24565378.678 7 129091893.358 7     -3304.863 7        44.629 7  24565378.338 6         0.000 6     -2575.219 6        37.977 6
G24  20894893.843 9 109803390.651 9      -630.007 9        57.093 9  20894895.469 6         0.000 6      -490.915 6        37.977 6
G32  23518689.610 8 123591515.519 8      2891.001 8        48.777 8  23518691.704 6         0.000 6      2252.729 6        37.977 6
G02  24212827.073 7 127239228.016 7      1354.111 7        46.879 7  24212825.380 6         0.000 6      1055.152 6        37.977 6
G25  21489176.184 9 112926362.706 9      1071.730 9        55.252 9  21489178.610 6         0.000 6       835.115 6        37.977 6
> 2019 07 03 18 01  0.0000000  0 11       0.000000000000
G06  24987620.982 7 131310788.866 7       491.508 7        43.461 7  24987624.607 6         0.000 6       382.993 6        37.977 6
G10  24506509.687 7 128782535.742 7     -1470.154 7        44.934 7  24506512.626 6         0.000 6     -1145.575 6        37.977 6
G12  20557485.121 9 108030295.888 9     -1080.473 9        57.197 9  20557483.854 6         0.000 6      -841.927 6        37.977 6
G15  23158777.656 8 121700170.157 8     -3335.159 8        50.951 8  23158777.201 6         0.000 6     -2598.826 6        37.977 6
G20  24847614.678 7 130575050.338 7     -1964.930 7        43.471 7  24847615.800 6         0.000 6     -1531.115 6        37.977 6
G29  22776706.423 8 119692372.103 8      3471.933 8        50.806 8  22776706.250 6         0.000 6      2705.403 6        37.977 6
G19  24566007.601 7 129095198.365 7     -3305.163 7        44.628 7  24566007.261 6         0.000 6     -2575.453 6        37.977 6
G24  20895013.760 9 109804020.815 9      -630.322 9        57.093 9  20895015.386 6         0.000 6      -491.160 6        37.977 6
G32  23518139.504 8 123588624.695 8      2890.654 8        48.778 8  23518141.598 6         0.000 6      2252.459 6        37.977 6
G02  24212569.418 7 127237874.030 7      1353.867 7        46.879 7  24212567.724 6         0.000 6      1054.962 6        37.977 6
G25  21488972.271 9 112925291.137 9      1071.408 9        55.252 9  21488974.697 6         0.000 6       834.864 6        37.977 6
> 2019 07 03 18 01  1.0000000  0 11       0.000000000000
G06  24987527.495 7 131310297.589 7       491.047 7        43.461 7  24987531.120 6         0.000 6       382.635 6        37.977 6
G10  24506789.476 7 128784006.037 7     -1470.442 7        44.934 7  24506792.415 6         0.000 6     -1145.800 6        37.977 6
G12  20557690.755 9 108031376.498 9     -1080.748 9        57.197 9  20557689.488 6         0.000 6      -842.142 6        37.977 6
G15  23159412.330 8 121703505.391 8     -3335.317 8        50.951 8  23159411.876 6         0.000 6     -2598.950 6        37.977 6
G20  24847988.591 7 130577015.259 7     -1964.918 7        43.471 7  24847989.713 6         0.000 6     -1531.106 6        37.977 6
G29  22776045.758 8 119688900.291 8      3471.699 8        50.806 8  22776045.585 6         0.000 6      2705.221 6        37.977 6
G19  24566636.581 7 129098503.672 7     -3305.463 7        44.628 7  24566636.242 6         0.000 6     -2575.687 6        37.977 6
G24  20895133.736 9 109804651.294 9      -630.636 9        57.093 9  20895135.362 6         0.000 6      -491.405 6        37.977 6
G32  23517589.464 8 123585734.218 8      2890.308 8        48.778 8  23517591.557 6         0.000 6      2252.189 6        37.977 6
G02  24212311.809 7 127236520.287 7      1353.624 7        46.879 7  24212310.115 6         0.000 6      1054.773 6        37.977 6
G25  21488768.420 9 112924219.891 9      1071.086 9        55.252 9  21488770.845 6         0.000 6       834.612 6        37.977 6
> 2019 07 03 18 01  2.0000000  0 11       0.000000000000
G06  24987434.096 7 131309806.773 7       490.587 7        43.461 7  24987437.720 6         0.000 6       382.276 6        37.977 6
G10  24507069.319 7 128785476.620 7     -1470.730 7        44.934 7  24507072.258 6         0.000 6     -1146.024 6        37.977 6
G12  20557896.440 9 108032457.384 9     -1081.024 9        57.196 9  20557895.174 6         0.000 6      -842.356 6        37.977 6
G15  23160047.035 8 121706840.784 8     -3335.476 8        50.950 8  23160046.581 6         0.000 6     -2599.073 6        37.977 6
G20  24848362.501 7 130578980.168 7     -1964.907 7        43.471 7  24848363.624 6         0.000 6     -1531.097 6        37.977 6
G29  22775385.138 8 119685428.713 8      3471.465 8        50.806 8  22775384.965 6         0.000 6      2705.039 6        37.977 6
G19  24567265.618 7 129101809.280 7     -3305.763 7        44.628 7  24567265.279 6         0.000 6     -2575.921 6        37.977 6
G24  20895253.772 9 109805282.087 9      -630.951 9        57.093 9  20895255.398 6         0.000 6      -491.650 6        37.977 6
G32  23517039.489 8 123582844.087 8      2889.961 8        48.778 8  23517041.583 6         0.000 6      2251.919 6        37.977 6
G02  24212054.246 7 127235166.787 7      1353.380 7        46.880 7  24212052.552 6         0.000 6      1054.583 6        37.977 6
G25  21488564.629 9 112923148.968 9      1070.763 9        55.252 9  21488567.055 6         0.000 6       834.361 6        37.977 6
> 2019 07 03 18 01  3.0000000  0 11       0.000000000000
G06  24987340.784 7 131309316.417 7       490.127 7        43.461 7  24987344.408 6         0.000 6       381.917 6        37.977 6
G10  24507349.217 7 128786947.491 7     -1471.017 7        44.934 7  24507352.156 6         0.000 6     -1146.248 6        37.977 6
G12  20558102.179 9 108033538.545 9     -1081.299 9        57.196 9  20558100.912 6         0.000 6      -842.571 6        37.977 6
G15  23160681.770 8 121710176.335 8     -3335.634 8        50.950 8  23160681.316 6         0.000 6     -2599.196 6        37.977 6
G20  24848736.409 7 130580945.065 7     -1964.895 7        43.471 7  24848737.532 6         0.000 6     -1531.088 6        37.977 6
G29  22774724.562 8 119681957.369 8      3471.232 8        50.807 8  22774724.389 6         0.000 6      2704.857 6        37.977 6
G19  24567894.713 7 129105115.188 7     -3306.063 7        44.628 7  24567894.374 6         0.000 6     -2576.155 6        37.977 6
G24  20895373.868 9 109805913.195 9      -631.266 9        57.093 9  20895375.494 6         0.000 6      -491.895 6        37.977 6
G32  23516489.581 8 123579954.303 8      2889.615 8        48.778 8  23516491.674 6         0.000 6      2251.649 6        37.977 6
G02  24211796.729 7 127233813.532 7      1353.136 7        46.880 7  24211795.035 6         0.000 6      1054.393 6        37.977 6
G25  21488360.901 9 112922078.366 9      1070.441 9        55.252 9  21488363.326 6         0.000 6       834.110 6        37.977 6
> 2019 07 03 18 01  4.0000000  0 11       0.000000000000
G06  24987247.560 7 131308826.522 7       489.666 7        43.461 7  24987251.184 6         0.000 6       381.558 6        37.977 6
G10  24507629.169 7 128788418.649 7     -1471.304 7        44.934 7  24507632.109 6         0.000 6     -1146.472 6        37.977 6
G12  20558307.969 9 108034619.981 9     -1081.575 9        57.196 9  20558306.703 6         0.000 6      -842.786 6        37.977 6
G15  23161316.535 8 121713512.044 8     -3335.792 8        50.713 8  23161316.082 6         0.000 6     -2599.320 6        37.977 6
G20  24849110.315 7 130582909.950 7     -1964.883 7        43.471 7  24849111.438 6         0.000 6     -1531.078 6        37.977 6
G29  22774064.031 8 119678486.259 8      3470.998 8        50.807 8  22774063.857 6         0.000 6      2704.675 6        37.977 6
G19  24568523.864 7 129108421.396 7     -3306.363 7        44.628 7  24568523.526 6         0.000 6     -2576.388 6        37.977 6
G24  20895494.024 9 109806544.618 9      -631.580 9        57.093 9  20895495.650 6         0.000 6      -492.140 6        37.977 6
G32  23515939.739 8 123577064.866 8      2889.268 8        48.778 8  23515941.832 6         0.000 6      2251.378 6        37.977 6
G02  24211539.259 7 127232460.520 7      1352.893 7        46.880 7  24211537.565 6         0.000 6      1054.203 6        37.977 6
G25  21488157.233 9 112921008.087 9      1070.119 9        55.252 9  21488159.658 6         0.000 6       833.859 6        37.977 6
> 2019 07 03 18 01  5.0000000  0 11       0.000000000000
G06  24987154.423 7 131308337.086 7       489.206 7        43.461 7  24987158.047 6         0.000 6       381.200 6        37.977 6
G10  24507909.176 7 128789890.095 7     -1471.592 7        44.934 7  24507912.116 6         0.000 6     -1146.695 6        37.977 6
G12  20558513.812 9 108035701.693 9     -1081.850 9        57.196 9  20558512.546 6         0.000 6      -843.000 6        37.977 6
G15  23161951.330 8 121716847.911 8     -3335.950 8        50.713 8  23161950.877 6         0.000 6     -2599.443 6        37.977 6
G20  24849484.219 7 130584874.824 7     -1964.871 7        43.471 7  24849485.342 6         0.000 6     -1531.069 6        37.977 6
G29  22773403.545 8 119675015.382 8      3470.763 8        50.807 8  22773403.371 6         0.000 6      2704.492 6        37.977 6
G19  24569153.073 7 129111727.903 7     -3306.663 7        44.627 7  24569152.735 6         0.000 6     -2576.622 6        37.977 6
G24  20895614.239 9 109807176.355 9      -631.895 9        57.092 9  20895615.865 6         0.000 6      -492.386 6        37.977 6
G32  23515389.962 8 123574175.776 8      2888.921 8        48.779 8  23515392.055 6         0.000 6      2251.108 6        37.977 6
G02  24211281.835 7 127231107.752 7      1352.649 7        46.880 7  24211280.141 6         0.000 6      1054.013 6        37.977 6
G25  21487953.627 9 112919938.130 9      1069.797 9        55.252 9  21487956.052 6         0.000 6       833.608 6        37.977 6
> 2019 07 03 18 01  6.0000000  0 11       0.000000000000
G06  24987061.374 7 131307848.112 7       488.745 7        43.461 7  24987064.998 6         0.000 6       380.841 6        37.977 6
G10  24508189.238 7 128791361.827 7     -1471.879 7        44.934 7  24508192.178 6         0.000 6     -1146.919 6        37.977 6
G12  20558719.708 9 108036783.679 9     -1082.125 9        57.196 9  20558718.441 6         0.000 6      -843.215 6        37.977 6
G15  23162586.156 8 121720183.936 8     -3336.108 8        50.712 8  23162585.703 6         0.000 6     -2599.566 6        37.977 6
G20  24849858.120 7 130586839.685 7     -1964.859 7        43.471 7  24849859.244 6         0.000 6     -1531.060 6        37.977 6
G29  22772743.103 8 119671544.740 8      3470.529 8        50.807 8  22772742.928 6         0.000 6      2704.310 6        37.977 6
G19  24569782.338 7 129115034.710 7     -3306.963 7        44.627 7  24569782.001 6         0.000 6     -2576.855 6        37.977 6
G24  20895734.515 9 109807808.406 9      -632.209 9        57.092 9  20895736.141 6         0.000 6      -492.631 6        37.977 6
G32  23514840.252 8 123571287.033 8      2888.574 8        48.779 8  23514842.344 6         0.000 6      2250.838 6        37.977 6
G02  24211024.458 7 127229755.228 7      1352.405 7        46.880 7  24211022.764 6         0.000 6      1053.822 6        37.977 6
G25  21487750.082 9 112918868.495 9      1069.475 9        55.252 9  21487752.507 6         0.000 6       833.357 6        37.977 6
> 2019 07 03 18 01  7.0000000  0 11       0.000000000000
G06  24986968.413 7 131307359.598 7       488.285 7        43.461 7  24986972.037 6         0.000 6       380.482 6        37.977 6
G10  24508469.355 7 128792833.847 7     -1472.166 7        44.934 7  24508472.295 6         0.000 6     -1147.143 6        37.977 6
G12  20558925.655 9 108037865.941 9     -1082.400 9        57.196 9  20558924.389 6         0.000 6      -843.429 6        37.977 6
G15  23163221.011 8 121723520.119 8     -3336.266 8        50.712 8  23163220.558 6         0.000 6     -2599.689 6        37.977 6
G20  24850232.019 7 130588804.535 7     -1964.847 7        43.471 7  24850233.143 6         0.000 6     -1531.050 6        37.977 6
G29  22772082.705 8 119668074.333 8      3470.295 8        50.808 8  22772082.531 6         0.000 6      2704.127 6        37.977 6
G19  24570411.661 7 129118341.817 7     -3307.262 7        44.627 7  24570411.324 6         0.000 6     -2577.089 6        37.977 6
G24  20895854.850 9 109808440.773 9      -632.524 9        57.092 9  20895856.476 6         0.000 6      -492.876 6        37.977 6
G32  23514290.608 8 123568398.636 8      2888.227 8        48.779 8  23514292.700 6         0.000 6      2250.567 6        37.977 6
G02  24210767.127 7 127228402.948 7      1352.161 7        46.880 7  24210765.433 6         0.000 6      1053.632 6        37.977 6
G25  21487546.598 9 112917799.183 9      1069.153 9        55.252 9  21487549.023 6         0.000 6       833.106 6        37.977 6
> 2019 07 03 18 01  8.0000000  0 11       0.000000000000
G06  24986875.540 7 131306871.545 7       487.824 7        43.461 7  24986879.163 6         0.000 6       380.123 6        37.977 6
G10  24508749.526 7 128794306.153 7     -1472.453 7        44.934 7  24508752.466 6         0.000 6     -1147.366 6        37.977 6
G12  20559131.655 9 108038948.479 9     -1082.675 9        57.196 9  20559130.389 6         0.000 6      -843.643 6        37.977 6
G15  23163855.896 8 121726856.459 8     -3336.424 8        50.712 8  23163855.444 6         0.000 6     -2599.812 6        37.977 6
G20  24850605.916 7 130590769.372 7     -1964.834 7        43.470 7  24850607.040 6         0.000 6     -1531.041 6        37.977 6
G29  22771422.352 8 119664604.159 8      3470.061 8        50.808 8  22771422.177 6         0.000 6      2703.944 6        37.977 6
G19  24571041.041 7 129121649.223 7     -3307.562 7        44.627 7  24571040.704 6         0.000 6     -2577.322 6        37.977 6
G24  20895975.246 9 109809073.454 9      -632.839 9        57.092 9  20895976.872 6         0.000 6      -493.121 6        37.977 6
G32  23513741.029 8 123565510.587 8      2887.879 8        48.779 8  23513743.122 6         0.000 6      2250.297 6        37.977 6
G02  24210509.843 7 127227050.913 7      1351.916 7        46.880 7  24210508.148 6         0.000 6      1053.442 6        37.977 6
G25  21487343.176 9 112916730.192 9      1068.831 9        55.252 9  21487345.601 6         0.000 6       832.855 6        37.977 6
> 2019 07 03 18 01  9.0000000  0 11       0.000000000000
G06  24986782.754 7 131306383.952 7       487.363 7        43.461 7  24986786.377 6         0.000 6       379.764 6        37.977 6
G10  24509029.752 7 128795778.747 7     -1472.740 7        44.933 7  24509032.692 6         0.000 6     -1147.590 6        37.977 6
G12  20559337.708 9 108040031.291 9     -1082.950 9        57.196 9  20559336.442 6         0.000 6      -843.858 6        37.977 6
G15  23164490.811 8 121730192.958 8     -3336.581 8        50.712 8  23164490.359 6         0.000 6     -2599.935 6        37.977 6
G20  24850979.810 7 130592734.196 7     -1964.822 7        43.470 7  24850980.934 6         0.000 6     -1531.031 6        37.977 6
G29  22770762.044 8 119661134.220 8      3469.826 8        50.808 8  22770761.869 6         0.000 6      2703.762 6        37.977 6
G19  24571670.477 7 129124956.929 7     -3307.861 7        44.626 7  24571670.140 6         0.000 6     -2577.555 6        37.977 6
G24  20896095.701 9 109809706.450 9      -633.154 9        57.092 9  20896097.327 6         0.000 6      -493.367 6        37.977 6
G32  23513191.517 8 123562622.886 8      2887.532 8        48.779 8  23513193.609 6         0.000 6      2250.026 6        37.977 6
G02  24210252.605 7 127225699.121 7      1351.672 7        46.880 7  24210250.910 6         0.000 6      1053.252 6        37.977 6
G25  21487139.815 9 112915661.523 9      1068.509 9        55.252 9  21487142.240 6         0.000 6       832.604 6        37.977 6
> 2019 07 03 18 01 10.0000000  0 11       0.000000000000
G06  24986690.055 7 131305896.820 7       486.902 7        43.461 7  24986693.679 6         0.000 6       379.405 6        37.977 6
G10  24509310.032 7 128797251.627 7     -1473.026 7        44.933 7  24509312.972 6         0.000 6     -1147.813 6        37.977 6
G12  20559543.813 9 108041114.378 9     -1083.225 9        57.196 9  20559542.546 6         0.000 6      -844.072 6        37.977 6
G15  23165125.757 8 121733529.614 8     -3336.739 8        50.711 8  23165125.305 6         0.000 6     -2600.057 6        37.977 6
G20  24851353.702 7 130594699.008 7     -1964.809 7        43.470 7  24851354.826 6         0.000 6     -1531.021 6        37.977 6
G29  22770101.780 8 119657664.516 8      3469.591 8        50.808 8  22770101.605 6         0.000 6      2703.579 6        37.977 6
G19  24572299.971 7 129128264.934 7     -3308.160 7        44.626 7  24572299.634 6         0.000 6     -2577.789 6        37.977 6
G24  20896216.216 9 109810339.761 9      -633.468 9        57.092 9  20896217.842 6         0.000 6      -493.612 6        37.977 6
G32  23512642.071 8 123559735.531 8      2887.185 8        48.780 8  23512644.163 6         0.000 6      2249.755 6        37.977 6
G02  24209995.414 7 127224347.574 7      1351.428 7        46.880 7  24209993.718 6         0.000 6      1053.061 6        37.977 6
G25  21486936.515 9 112914593.177 9      1068.186 9        55.252 9  21486938.940 6         0.000 6       832.353 6        37.977 6
> 2019 07 03 18 01 11.0000000  0 11       0.000000000000
G06  24986597.445 7 131305410.150 7       486.441 7        43.461 7  24986601.068 6         0.000 6       379.046 6        37.977 6
G10  24509590.367 7 128798724.794 7     -1473.313 7        44.933 7  24509593.307 6         0.000 6     -1148.037 6        37.977 6
G12  20559749.970 9 108042197.740 9     -1083.500 9        57.196 9  20559748.703 6         0.000 6      -844.286 6        37.977 6
G15  23165760.732 8 121736866.427 8     -3336.896 8        50.711 8  23165760.280 6         0.000 6     -2600.180 6        37.977 6
G20  24851727.592 7 130596663.808 7     -1964.797 7        43.470 7  24851728.716 6         0.000 6     -1531.011 6        37.977 6
G29  22769441.561 8 119654195.046 8      3469.357 8        50.809 8  22769441.386 6         0.000 6      2703.396 6        37.977 6
G19  24572929.521 7 129131573.238 7     -3308.459 7        44.626 7  24572929.185 6         0.000 6     -2578.022 6        37.977 6
G24  20896336.791 9 109810973.386 9      -633.783 9        57.092 9  20896338.417 6         0.000 6      -493.857 6        37.977 6
G32  23512092.691 8 123556848.524 8      2886.837 8        48.780 8  23512094.783 6         0.000 6      2249.484 6        37.977 6
G02  24209738.269 7 127222996.271 7      1351.183 7        46.880 7  24209736.573 6         0.000 6      1052.871 6        37.977 6
G25  21486733.277 9 112913525.152 9      1067.864 9        55.253 9  21486735.702 6         0.000 6       832.102 6        37.977 6
> 2019 07 03 18 01 12.0000000  0 11       0.000000000000
G06  24986504.922 7 131304923.940 7       485.981 7        43.461 7  24986508.545 6         0.000 6       378.686 6        37.977 6
G10  24509870.756 7 128800198.248 7     -1473.599 7        44.933 7  24509873.697 6         0.000 6     -1148.260 6        37.977 6
G12  20559956.179 9 108043281.377 9     -1083.775 9        57.196 9  20559954.913 6         0.000 6      -844.500 6        37.977 6
G15  23166395.737 8 121740203.398 8     -3337.054 8        50.711 8  23166395.286 6         0.000 6     -2600.303 6        37.977 6
G20  24852101.479 7 130598628.595 7     -1964.784 7        43.470 7  24852102.604 6         0.000 6     -1531.001 6        37.977 6
G29  22768781.387 8 119650725.811 8      3469.122 8        50.809 8  22768781.211 6         0.000 6      2703.213 6        37.977 6
G19  24573559.128 7 129134881.841 7     -3308.758 7        44.626 7  24573558.793 6         0.000 6     -2578.255 6        37.977 6
G24  20896457.426 9 109811607.327 9      -634.098 9        57.092 9  20896459.052 6         0.000 6      -494.103 6        37.977 6
G32  23511543.378 8 123553961.865 8      2886.490 8        48.780 8  23511545.469 6         0.000 6      2249.214 6        37.977 6
G02  24209481.170 7 127221645.213 7      1350.939 7        46.880 7  24209479.475 6         0.000 6      1052.680 6        37.977 6
G25  21486530.099 9 112912457.450 9      1067.543 9        55.253 9  21486532.524 6         0.000 6       831.852 6        37.977 6
> 2019 07 03 18 01 13.0000000  0 11       0.000000000000
G06  24986412.487 7 131304438.190 7       485.520 7        43.461 7  24986416.110 6         0.000 6       378.327 6        37.977 6
G10  24510151.200 7 128801671.988 7     -1473.886 7        44.933 7  24510154.141 6         0.000 6     -1148.483 6        37.977 6
G12  20560162.441 9 108044365.288 9     -1084.050 9        57.195 9  20560161.175 6         0.000 6      -844.714 6        37.977 6
G15  23167030.773 8 121743540.527 8     -3337.211 8        50.711 8  23167030.321 6         0.000 6     -2600.425 6        37.977 6
G20  24852475.364 7 130600593.369 7     -1964.771 7        43.470 7  24852476.489 6         0.000 6     -1530.991 6        37.977 6
G29  22768121.258 8 119647256.811 8      3468.887 8        50.809 8  22768121.081 6         0.000 6      2703.030 6        37.977 6
G19  24574188.793 7 129138190.743 7     -3309.057 7        44.625 7  24574188.457 6         0.000 6     -2578.488 6        37.977 6
G24  20896578.121 9 109812241.582 9      -634.413 9        57.092 9  20896579.747 6         0.000 6      -494.348 6        37.977 6
G32  23510994.130 8 123551075.553 8      2886.142 8        48.780 8  23510996.221 6         0.000 6      2248.943 6        37.977 6
G02  24209224.119 7 127220294.399 7      1350.694 7        46.881 7  24209222.423 6         0.000 6      1052.489 6        37.977 6
G25  21486326.983 9 112911390.069 9      1067.221 9        55.253 9  21486329.408 6         0.000 6       831.601 6        37.977 6
> 2019 07 03 18 01 14.0000000  0 11       0.000000000000
G06  24986320.139 7 131303952.902 7       485.058 7        43.461 7  24986323.763 6         0.000 6       377.968 6        37.977 6
G10  24510431.699 7 128803146.014 7     -1474.172 7        44.933 7  24510434.640 6         0.000 6     -1148.706 6        37.977 6
G12  20560368.755 9 108045449.475 9     -1084.324 9        57.195 9  20560367.489 6         0.000 6      -844.928 6        37.977 6
G15  23167665.838 8 121746877.812 8     -3337.368 8        50.710 8  23167665.387 6         0.000 6     -2600.548 6        37.977 6
G20  24852849.246 7 130602558.130 7     -1964.758 7        43.470 7  24852850.371 6         0.000 6     -1530.981 6        37.977 6
G29  22767461.173 8 119643788.046 8      3468.652 8        50.809 8  22767460.996 6         0.000 6      2702.847 6        37.977 6
G19  24574818.514 7 129141499.944 7     -3309.356 7        44.625 7  24574818.179 6         0.000 6     -2578.720 6        37.977 6
G24  20896698.875 9 109812876.152 9      -634.728 9        57.092 9  20896700.501 6         0.000 6      -494.593 6        37.977 6
G32  23510444.949 8 123548189.589 8      2885.794 8        48.780 8  23510447.039 6         0.000 6      2248.672 6        37.977 6
G02  24208967.113 7 127218943.830 7      1350.449 7        46.881 7  24208965.418 6         0.000 6      1052.299 6        37.977 6
G25  21486123.929 9 112910323.010 9      1066.899 9        55.253 9  21486126.354 6         0.000 6       831.350 6        37.977 6
> 2019 07 03 18 01 15.0000000  0 11       0.000000000000
G06  24986227.880 7 131303468.075 7       484.597 7        43.461 7  24986231.503 6         0.000 6       377.609 6        37.977 6
G10  24510712.251 7 128804620.327 7     -1474.459 7        44.933 7  24510715.193 6         0.000 6     -1148.929 6        37.977 6
G12  20560575.121 9 108046533.936 9     -1084.599 9        57.195 9  20560573.855 6         0.000 6      -845.142 6        37.977 6
G15  23168300.933 8 121750215.255 8     -3337.525 8        50.710 8  23168300.482 6         0.000 6     -2600.670 6        37.977 6
G20  24853223.126 7 130604522.878 7     -1964.745 7        43.469 7  24853224.251 6         0.000 6     -1530.971 6        37.977 6
G29  22766801.133 8 119640319.516 8      3468.417 8        50.810 8  22766800.956 6         0.000 6      2702.663 6        37.977 6
G19  24575448.292 7 129144809.444 7     -3309.655 7        44.625 7  24575447.957 6         0.000 6     -2578.953 6        37.977 6
G24  20896819.690 9 109813511.037 9      -635.043 9        57.092 9  20896821.316 6         0.000 6      -494.839 6        37.977 6
G32  23509895.833 8 123545303.973 8      2885.446 8        48.781 8  23509897.924 6         0.000 6      2248.401 6        37.977 6
G02  24208710.155 7 127217593.506 7      1350.204 7        46.881 7  24208708.459 6         0.000 6      1052.108 6        37.977 6
G25  21485920.935 9 112909256.274 9      1066.577 9        55.253 9  21485923.360 6         0.000 6       831.099 6        37.977 6
> 2019 07 03 18 01 16.0000000  0 11       0.000000000000
G06  24986135.708 7 131302983.710 7       484.136 7        43.461 7  24986139.331 6         0.000 6       377.249 6        37.977 6
G10  24510992.859 7 128806094.926 7     -1474.745 7        44.933 7  24510995.800 6         0.000 6     -1149.152 6        37.977 6
G12  20560781.539 9 108047618.671 9     -1084.874 9        57.195 9  20560780.273 6         0.000 6      -845.356 6        37.977 6
G15  23168936.058 8 121753552.855 8     -3337.682 8        50.710 8  23168935.607 6         0.000 6     -2600.792 6        37.977 6
G20  24853597.003 7 130606487.613 7     -1964.732 7        43.469 7  24853598.129 6         0.000 6     -1530.961 6        37.977 6
G29  22766141.137 8 119636851.222 8      3468.181 8        50.810 8  22766140.960 6         0.000 6      2702.480 6        37.977 6
G19  24576078.126 7 129148119.243 7     -3309.953 7        44.625 7  24576077.792 6         0.000 6     -2579.186 6        37.977 6
G24  20896940.565 9 109814146.237 9      -635.358 9        57.092 9  20896942.191 6         0.000 6      -495.084 6        37.977 6
G32  23509346.784 8 123542418.705 8      2885.098 8        48.781 8  23509348.874 6         0.000 6      2248.129 6        37.977 6
G02  24208453.243 7 127216243.427 7      1349.959 7        46.881 7  24208451.547 6         0.000 6      1051.917 6        37.977 6
G25  21485718.003 9 112908189.859 9      1066.255 9        55.253 9  21485720.428 6         0.000 6       830.848 6        37.977 6
> 2019 07 03 18 01 17.0000000  0 11       0.000000000000
G06  24986043.623 7 131302499.805 7       483.675 7        43.461 7  24986047.247 6         0.000 6       376.890 6        37.977 6
G10  24511273.521 7 128807569.811 7     -1475.031 7        44.933 7  24511276.462 6         0.000 6     -1149.375 6        37.977 6
G12  20560988.010 9 108048703.682 9     -1085.148 9        57.195 9  20560986.744 6         0.000 6      -845.570 6        37.977 6
G15  23169571.212 8 121756890.612 8     -3337.839 8        50.710 8  23169570.762 6         0.000 6     -2600.915 6        37.977 6
G20  24853970.878 7 130608452.335 7     -1964.719 7        43.469 7  24853972.004 6         0.000 6     -1530.951 6        37.977 6
G29  22765481.187 8 119633383.162 8      3467.946 8        50.810 8  22765481.009 6         0.000 6      2702.297 6        37.977 6
G19  24576708.018 7 129151429.339 7     -3310.252 7        44.625 7  24576707.684 6         0.000 6     -2579.418 6        37.977 6
G24  20897061.499 9 109814781.752 9      -635.673 9        57.092 9  20897063.125 6         0.000 6      -495.330 6        37.977 6
G32  23508797.801 8 123539533.785 8      2884.750 8        48.781 8  23508799.891 6         0.000 6      2247.858 6        37.977 6
G02  24208196.377 7 127214893.593 7      1349.714 7        46.881 7  24208194.681 6         0.000 6      1051.726 6        37.977 6
G25  21485515.132 9 112907123.766 9      1065.933 9        55.253 9  21485517.557 6         0.000 6       830.597 6        37.977 6
> 2019 07 03 18 01 18.0000000  0 11       0.000000000000
G06  24985951.627 7 131302016.361 7       483.214 7        43.461 7  24985955.250 6         0.000 6       376.530 6        37.977 6
G10  24511554.237 7 128809044.982 7     -1475.317 7        44.933 7  24511557.179 6         0.000 6     -1149.598 6        37.977 6
G12  20561194.533 9 108049788.966 9     -1085.423 9        57.195 9  20561193.267 6         0.000 6      -845.784 6        37.977 6
G15  23170206.397 8 121760228.525 8     -3337.996 8        50.710 8  23170205.947 6         0.000 6     -2601.037 6        37.977 6
G20  24854344.750 7 130610417.044 7     -1964.705 7        43.469 7  24854345.876 6         0.000 6     -1530.940 6        37.977 6
G29  22764821.281 8 119629915.338 8      3467.711 8        50.810 8  22764821.103 6         0.000 6      2702.113 6        37.977 6
G19  24577337.966 7 129154739.735 7     -3310.550 7        44.624 7  24577337.633 6         0.000 6     -2579.651 6        37.977 6
G24  20897182.494 9 109815417.582 9      -635.988 9        57.092 9  20897184.120 6         0.000 6      -495.575 6        37.977 6
G32  23508248.885 8 123536649.213 8      2884.402 8        48.781 8  23508250.975 6         0.000 6      2247.587 6        37.977 6
G02  24207939.558 7 127213544.004 7      1349.469 7        46.881 7  24207937.862 6         0.000 6      1051.535 6        37.977 6
G25  21485312.323 9 112906057.994 9      1065.611 9        55.253 9  21485314.747 6         0.000 6       830.347 6        37.977 6
> 2019 07 03 18 01 19.0000000  0 11       0.000000000000
G06  24985859.718 7 131301533.379 7       482.752 7        43.461 7  24985863.342 6         0.000 6       376.171 6        37.977 6
G10  24511835.007 7 128810520.439 7     -1475.602 7        44.932 7  24511837.949 6         0.000 6     -1149.821 6        37.977 6
G12  20561401.108 9 108050874.525 9     -1085.697 9        57.195 9  20561399.842 6         0.000 6      -845.998 6        37.977 6
G15  23170841.611 8 121763566.596 8     -3338.153 8        50.709 8  23170841.162 6         0.000 6     -2601.159 6        37.977 6
G20  24854718.620 7 130612381.739 7     -1964.692 7        43.469 7  24854719.746 6         0.000 6     -1530.930 6        37.977 6
G29  22764161.420 8 119626447.749 8      3467.475 8        50.811 8  22764161.242 6         0.000 6      2701.930 6        37.977 6
G19  24577967.971 7 129158050.428 7     -3310.848 7        44.624 7  24577967.638 6         0.000 6     -2579.883 6        37.977 6
G24  20897303.548 9 109816053.727 9      -636.303 9        57.092 9  20897305.174 6         0.000 6      -495.821 6        37.977 6
G32  23507700.035 8 123533764.989 8      2884.054 8        48.781 8  23507702.124 6         0.000 6      2247.315 6        37.977 6
G02  24207682.786 7 127212194.660 7      1349.224 7        46.881 7  24207681.090 6         0.000 6      1051.344 6        37.977 6
G25  21485109.574 9 112904992.545 9      1065.290 9        55.253 9  21485111.998 6         0.000 6       830.096 6        37.977 6
> 2019 07 03 18 01 20.0000000  0 11       0.000000000000
G06  24985767.898 7 131301050.859 7       482.291 7        43.461 7  24985771.521 6         0.000 6       375.811 6        37.977 6
G10  24512115.832 7 128811996.182 7     -1475.888 7        44.932 7  24512118.774 6         0.000 6     -1150.043 6        37.977 6
G12  20561607.736 9 108051960.358 9     -1085.971 9        57.195 9  20561606.470 6         0.000 6      -846.212 6        37.977 6
G15  23171476.856 8 121766904.823 8     -3338.310 8        50.709 8  23171476.406 6         0.000 6     -2601.281 6        37.977 6
G20  24855092.487 7 130614346.421 7     -1964.678 7        43.469 7  24855093.613 6         0.000 6     -1530.919 6        37.977 6
G29  22763501.604 8 119622980.396 8      3467.239 8        50.811 8  22763501.426 6         0.000 6      2701.746 6        37.977 6
G19  24578598.033 7 129161361.420 7     -3311.147 7        44.624 7  24578597.701 6         0.000 6     -2580.116 6        37.977 6
G24  20897424.662 9 109816690.187 9      -636.618 9        57.092 9  20897426.289 6         0.000 6      -496.066 6        37.977 6
G32  23507151.251 8 123530881.114 8      2883.705 8        48.782 8  23507153.340 6         0.000 6      2247.044 6        37.977 6
G02  24207426.061 7 127210845.561 7      1348.979 7        46.881 7  24207424.364 6         0.000 6      1051.153 6        37.977 6
G25  21484906.887 9 112903927.417 9      1064.968 9        55.253 9  21484909.311 6         0.000 6       829.845 6        37.977 6
> 2019 07 03 18 01 21.0000000  0 11       0.000000000000
G06  24985676.165 7 131300568.799 7       481.829 7        43.461 7  24985679.788 6         0.000 6       375.452 6        37.977 6
G10  24512396.712 7 128813472.210 7     -1476.174 7        44.932 7  24512399.654 6         0.000 6     -1150.266 6        37.977 6
G12  20561814.415 9 108053046.466 9     -1086.245 9        57.195 9  20561813.149 6         0.000 6      -846.425 6        37.977 6
G15  23172112.130 8 121770243.207 8     -3338.466 8        50.709 8  23172111.681 6         0.000 6     -2601.403 6        37.977 6
G20  24855466.352 7 130616311.089 7     -1964.665 7        43.469 7  24855467.478 6         0.000 6     -1530.909 6        37.977 6
G29  22762841.832 8 119619513.279 8      3467.004 8        50.811 8  22762841.654 6         0.000 6      2701.562 6        37.977 6
G19  24579228.152 7 129164672.710 7     -3311.445 7        44.624 7  24579227.819 6         0.000 6     -2580.348 6        37.977 6
G24  20897545.837 9 109817326.963 9      -636.933 9        57.092 9  20897547.463 6         0.000 6      -496.312 6        37.977 6
G32  23506602.533 8 123527997.587 8      2883.357 8        48.782 8  23506604.622 6         0.000 6      2246.772 6        37.977 6
G02  24207169.382 7 127209496.708 7      1348.733 7        46.881 7  24207167.685 6         0.000 6      1050.962 6        37.977 6
G25  21484704.261 9 112902862.611 9      1064.646 9        55.253 9  21484706.685 6         0.000 6       829.595 6        37.977 6
> 2019 07 03 18 01 22.0000000  0 11       0.000000000000
G06  24985584.519 7 131300087.202 7       481.368 7        43.461 7  24985588.142 6         0.000 6       375.092 6        37.977 6
G10  24512677.645 7 128814948.524 7     -1476.459 7        44.932 7  24512680.588 6         0.000 6     -1150.488 6        37.977 6
G12  20562021.147 9 108054132.848 9     -1086.520 9        57.195 9  20562019.881 6         0.000 6      -846.639 6        37.977 6
G15  23172747.434 8 121773581.747 8     -3338.623 8        50.709 8  23172746.985 6         0.000 6     -2601.525 6        37.977 6
G20  24855840.214 7 130618275.744 7     -1964.651 7        43.469 7  24855841.340 6         0.000 6     -1530.898 6        37.977 6
G29  22762182.106 8 119616046.398 8      3466.768 8        50.811 8  22762181.927 6         0.000 6      2701.379 6        37.977 6
G19  24579858.327 7 129167984.298 7     -3311.743 7        44.623 7  24579857.995 6         0.000 6     -2580.580 6        37.977 6
G24  20897667.071 9 109817964.053 9      -637.248 9        57.092 9  20897668.697 6         0.000 6      -496.557 6        37.977 6
G32  23506053.882 8 123525114.409 8      2883.008 8        48.782 8  23506055.970 6         0.000 6      2246.501 6        37.977 6
G02  24206912.750 7 127208148.100 7      1348.488 7        46.881 7  24206911.053 6         0.000 6      1050.771 6        37.977 6
G25  21484501.696 9 112901798.127 9      1064.324 9        55.253 9  21484504.120 6         0.000 6       829.344 6        37.977 6
> 2019 07 03 18 01 23.0000000  0 11       0.000000000000
G06  24985492.962 7 131299606.065 7       480.906 7        43.461 7  24985496.585 6         0.000 6       374.732 6        37.977 6
G10  24512958.633 7 128816425.124 7     -1476.745 7        44.932 7  24512961.576 6         0.000 6     -1150.711 6        37.977 6
G12  20562227.931 9 108055219.504 9     -1086.794 9        57.195 9  20562226.665 6         0.000 6      -846.852 6        37.977 6
G15  23173382.767 8 121776920.444 8     -3338.779 8        50.708 8  23173382.319 6         0.000 6     -2601.647 6        37.977 6
G20  24856214.073 7 130620240.384 7     -1964.637 7        43.468 7  24856215.200 6         0.000 6     -1530.887 6        37.977 6
G29  22761522.424 8 119612579.752 8      3466.532 8        50.812 8  22761522.246 6         0.000 6      2701.195 6        37.977 6
G19  24580488.559 7 129171296.184 7     -3312.040 7        44.623 7  24580488.227 6         0.000 6     -2580.812 6        37.977 6
G24  20897788.365 9 109818601.458 9      -637.563 9        57.092 9  20897789.992 6         0.000 6      -496.803 6        37.977 6
G32  23505505.297 8 123522231.579 8      2882.659 8        48.782 8  23505507.385 6         0.000 6      2246.229 6        37.977 6
G02  24206656.165 7 127206799.737 7      1348.242 7        46.882 7  24206654.467 6         0.000 6      1050.579 6        37.977 6
G25  21484299.192 9 112900733.964 9      1064.003 9        55.254 9  21484301.617 6         0.000 6       829.093 6        37.977 6
> 2019 07 03 18 01 24.0000000  0 11       0.000000000000
G06  24985401.493 7 131299125.391 7       480.445 7        43.461 7  24985405.115 6         0.000 6       374.373 6        37.977 6
G10  24513239.676 7 128817902.009 7     -1477.030 7        44.932 7  24513242.619 6         0.000 6     -1150.933 6        37.977 6
G12  20562434.767 9 108056306.434 9     -1087.068 9        57.195 9  20562433.501 6         0.000 6      -847.066 6        37.977 6
G15  23174018.131 8 121780259.296 8     -3338.935 8        50.708 8  23174017.682 6         0.000 6     -2601.769 6        37.977 6
G20  24856587.930 7 130622205.011 7     -1964.623 7        43.468 7  24856589.057 6         0.000 6     -1530.876 6        37.977 6
G29  22760862.788 8 119609113.343 8      3466.296 8        50.812 8  22760862.609 6         0.000 6      2701.011 6        37.977 6
G19  24581118.848 7 129174608.368 7     -3312.338 7        44.623 7  24581118.517 6         0.000 6     -2581.044 6        37.977 6
G24  20897909.720 9 109819239.179 9      -637.879 9        57.092 9  20897911.346 6         0.000 6      -497.048 6        37.977 6
G32  23504956.778 8 123519349.098 8      2882.311 8        48.782 8  23504958.866 6         0.000 6      2245.957 6        37.977 6
G02  24206399.626 7 127205451.620 7      1347.997 7        46.882 7  24206397.929 6         0.000 6      1050.388 6        37.977 6
G25  21484096.750 9 112899670.123 9      1063.681 9        55.254 9  21484099.174 6         0.000 6       828.843 6        37.977 6
> 2019 07 03 18 01 25.0000000  0 11       0.000000000000
G06  24985310.111 7 131298645.178 7       479.983 7        43.461 7  24985313.734 6         0.000 6       374.013 6        37.977 6
G10  24513520.772 7 128819379.179 7     -1477.315 7        44.932 7  24513523.715 6         0.000 6     -1151.155 6        37.977 6
G12  20562641.655 9 108057393.638 9     -1087.342 9        57.194 9  20562640.389 6         0.000 6      -847.279 6        37.977 6
G15  23174653.524 8 121783598.306 8     -3339.091 8        50.708 8  23174653.076 6         0.000 6     -2601.890 6        37.977 6
G20  24856961.784 7 130624169.624 7     -1964.609 7        43.468 7  24856962.911 6         0.000 6     -1530.865 6        37.977 6
G29  22760203.196 8 119605647.169 8      3466.060 8        50.812 8  22760203.017 6         0.000 6      2700.827 6        37.977 6
G19  24581749.193 7 129177920.849 7     -3312.636 7        44.623 7  24581748.862 6         0.000 6     -2581.276 6        37.977 6
G24  20898031.134 9 109819877.215 9      -638.194 9        57.091 9  20898032.760 6         0.000 6      -497.294 6        37.977 6
G32  23504408.326 8 123516466.965 8      2881.962 8        48.783 8  23504410.414 6         0.000 6      2245.686 6        37.977 6
G02  24206143.134 7 127204103.749 7      1347.751 7        46.882 7  24206141.436 6         0.000 6      1050.196 6        37.977 6
G25  21483894.369 9 112898606.604 9      1063.359 9        55.254 9  21483896.793 6         0.000 6       828.592 6        37.977 6
> 2019 07 03 18 01 26.0000000  0 11       0.000000000000
G06  24985218.817 7 131298165.427 7       479.521 7        43.461 7  24985222.440 6         0.000 6       373.653 6        37.977 6
G10  24513801.923 7 128820856.634 7     -1477.600 7        44.932 7  24513804.866 6         0.000 6     -1151.378 6        37.977 6
G12  20562848.595 9 108058481.116 9     -1087.616 9        57.194 9  20562847.330 6         0.000 6      -847.493 6        37.977 6
G15  23175288.946 8 121786937.471 8     -3339.247 8        50.708 8  23175288.499 6         0.000 6     -2602.012 6        37.977 6
G20  24857335.635 7 130626134.223 7     -1964.595 7        43.468 7  24857336.763 6         0.000 6     -1530.854 6        37.977 6
G29  22759543.649 8 119602181.232 8      3465.823 8        50.812 8  22759543.470 6         0.000 6      2700.643 6        37.977 6
G19  24582379.595 7 129181233.628 7     -3312.933 7        44.623 7  24582379.264 6         0.000 6     -2581.508 6        37.977 6
G24  20898152.608 9 109820515.566 9      -638.509 9        57.091 9  20898154.235 6         0.000 6      -497.540 6        37.977 6
G32  23503859.940 8 123513585.182 8      2881.613 8        48.783 8  23503862.027 6         0.000 6      2245.414 6        37.977 6
G02  24205886.689 7 127202756.124 7      1347.505 7        46.882 7  24205884.991 6         0.000 6      1050.005 6        37.977 6
G25  21483692.049 9 112897543.406 9      1063.038 9        55.254 9  21483694.473 6         0.000 6       828.341 6        37.977 6
> 2019 07 03 18 01 27.0000000  0 11       0.000000000000
G06  24985127.611 7 131297686.137 7       479.059 7        43.461 7  24985131.234 6         0.000 6       373.293 6        37.977 6
G10  24514083.128 7 128822334.375 7     -1477.885 7        44.932 7  24514086.072 6         0.000 6     -1151.600 6        37.977 6
G12  20563055.588 9 108059568.867 9     -1087.889 9        57.194 9  20563054.322 6         0.000 6      -847.706 6        37.977 6
G15  23175924.399 8 121790276.792 8     -3339.403 8        50.707 8  23175923.951 6         0.000 6     -2602.134 6        37.977 6
G20  24857709.484 7 130628098.807 7     -1964.581 7        43.468 7  24857710.612 6         0.000 6     -1530.843 6        37.977 6
G29  22758884.148 8 119598715.531 8      3465.587 8        50.813 8  22758883.968 6         0.000 6      2700.458 6        37.977 6
G19  24583010.054 7 129184546.704 7     -3313.231 7        44.622 7  24583009.723 6         0.000 6     -2581.740 6        37.977 6
G24  20898274.142 9 109821154.233 9      -638.824 9        57.091 9  20898275.769 6         0.000 6      -497.785 6        37.977 6
G32  23503311.620 8 123510703.748 8      2881.264 8        48.783 8  23503313.708 6         0.000 6      2245.142 6        37.977 6
G02  24205630.291 7 127201408.744 7      1347.259 7        46.882 7  24205628.593 6         0.000 6      1049.813 6        37.977 6
G25  21483489.790 9 112896480.530 9      1062.716 9        55.254 9  21483492.214 6         0.000 6       828.091 6        37.977 6
> 2019 07 03 18 01 28.0000000  0 11       0.000000000000
G06  24985036.493 7 131297207.310 7       478.598 7        43.461 7  24985040.116 6         0.000 6       372.933 6        37.977 6
G10  24514364.388 7 128823812.400 7     -1478.170 7        44.932 7  24514367.331 6         0.000 6     -1151.822 6        37.977 6
G12  20563262.632 9 108060656.893 9     -1088.163 9        57.194 9  20563261.367 6         0.000 6      -847.920 6        37.977 6
G15  23176559.881 8 121793616.269 8     -3339.559 8        50.707 8  23176559.434 6         0.000 6     -2602.255 6        37.977 6
G20  24858083.330 7 130630063.378 7     -1964.567 7        43.468 7  24858084.458 6         0.000 6     -1530.832 6        37.977 6
G29  22758224.691 8 119595250.067 8      3465.350 8        50.813 8  22758224.511 6         0.000 6      2700.274 6        37.977 6
G19  24583640.569 7 129187860.077 7     -3313.528 7        44.622 7  24583640.239 6         0.000 6     -2581.971 6        37.977 6
G24  20898395.737 9 109821793.215 9      -639.140 9        57.091 9  20898397.363 6         0.000 6      -498.031 6        37.977 6
G32  23502763.367 8 123507822.662 8      2880.915 8        48.783 8  23502765.454 6         0.000 6      2244.870 6        37.977 6
G02  24205373.939 7 127200061.611 7      1347.013 7        46.882 7  24205372.241 6         0.000 6      1049.621 6        37.977 6
G25  21483287.592 9 112895417.976 9      1062.395 9        55.254 9  21483290.016 6         0.000 6       827.840 6        37.977 6
> 2019 07 03 18 01 29.0000000  0 11       0.000000000000
G06  24984945.463 7 131296728.944 7       478.136 7        43.461 7  24984949.086 6         0.000 6       372.573 6        37.977 6
G10  24514645.701 7 128825290.710 7     -1478.455 7        44.931 7  24514648.645 6         0.000 6     -1152.044 6        37.977 6
G12  20563469.729 9 108061745.192 9     -1088.437 9        57.194 9  20563468.463 6         0.000 6      -848.133 6        37.977 6
G15  23177195.393 8 121796955.903 8     -3339.715 8        50.707 8  23177194.946 6         0.000 6     -2602.376 6        37.977 6
G20  24858457.173 7 130632027.934 7     -1964.552 7        43.468 7  24858458.301 6         0.000 6     -1530.821 6        37.977 6
G29  22757565.279 8 119591784.839 8      3465.114 8        50.813 8  22757565.099 6         0.000 6      2700.090 6        37.977 6
G19  24584271.140 7 129191173.748 7     -3313.825 7        44.622 7  24584270.811 6         0.000 6     -2582.203 6        37.977 6
G24  20898517.391 9 109822432.512 9      -639.455 9        57.091 9  20898519.017 6         0.000 6      -498.277 6        37.977 6
G32  23502215.181 8 123504941.926 8      2880.565 8        48.783 8  23502217.268 6         0.000 6      2244.597 6        37.977 6
G02  24205117.635 7 127198714.723 7      1346.767 7        46.882 7  24205115.936 6         0.000 6      1049.430 6        37.977 6
G25  21483085.456 9 112894355.742 9      1062.073 9        55.254 9  21483087.880 6         0.000 6       827.590 6        37.977 6
> 2019 07 03 18 01 30.0000000  0 11       0.000000000000
G06  24984854.521 7 131296251.041 7       477.674 7        43.462 7  24984858.143 6         0.000 6       372.213 6        37.977 6
G10  24514927.069 7 128826769.305 7     -1478.740 7        44.931 7  24514930.013 6         0.000 6     -1152.266 6        37.977 6
G12  20563676.878 9 108062833.765 9     -1088.711 9        57.194 9  20563675.612 6         0.000 6      -848.346 6        37.977 6
G15  23177830.934 8 121800295.691 8     -3339.871 8        50.707 8  23177830.488 6         0.000 6     -2602.498 6        37.977 6
G20  24858831.013 7 130633992.475 7     -1964.538 7        43.468 7  24858832.142 6         0.000 6     -1530.809 6        37.977 6
G29  22756905.912 8 119588319.848 8      3464.877 8        50.813 8  22756905.732 6         0.000 6      2699.905 6        37.977 6
G19  24584901.769 7 129194487.716 7     -3314.122 7        44.622 7  24584901.439 6         0.000 6     -2582.434 6        37.977 6
G24  20898639.105 9 109823072.124 9      -639.771 9        57.091 9  20898640.732 6         0.000 6      -498.523 6        37.977 6
G32  23501667.060 8 123502061.540 8      2880.216 8        48.784 8  23501669.147 6         0.000 6      2244.325 6        37.977 6
G02  24204861.377 7 127197368.082 7      1346.521 7        46.882 7  24204859.678 6         0.000 6      1049.238 6        37.977 6
G25  21482883.381 9 112893293.831 9      1061.752 9        55.254 9  21482885.805 6         0.000 6       827.339 6        37.977 6
> 2019 07 03 18 01 31.0000000  0 11       0.000000000000
G06  24984763.667 7 131295773.599 7       477.212 7        43.462 7  24984767.289 6         0.000 6       371.853 6        37.977 6
G10  24515208.491 7 128828248.185 7     -1479.025 7        44.931 7  24515211.435 6         0.000 6     -1152.487 6        37.977 6
G12  20563884.078 9 108063922.612 9     -1088.984 9        57.194 9  20563882.813 6         0.000 6      -848.559 6        37.977 6
G15  23178466.506 8 121803635.636 8     -3340.026 8        50.706 8  23178466.059 6         0.000 6     -2602.619 6        37.977 6
G20  24859204.851 7 130635957.002 7     -1964.523 7        43.467 7  24859205.980 6         0.000 6     -1530.798 6        37.977 6
G29  22756246.591 8 119584855.093 8      3464.640 8        50.814 8  22756246.410 6         0.000 6      2699.721 6        37.977 6
G19  24585532.453 7 129197801.981 7     -3314.419 7        44.621 7  24585532.124 6         0.000 6     -2582.666 6        37.977 6
G24  20898760.880 9 109823712.052 9      -640.086 9        57.091 9  20898762.506 6         0.000 6      -498.768 6        37.977 6
G32  23501119.007 8 123499181.502 8      2879.867 8        48.784 8  23501121.093 6         0.000 6      2244.053 6        37.977 6
G02  24204605.166 7 127196021.687 7      1346.275 7        46.882 7  24204603.467 6         0.000 6      1049.046 6        37.977 6
G25  21482681.367 9 112892232.241 9      1061.430 9        55.254 9  21482683.790 6         0.000 6       827.089 6        37.977 6
> 2019 07 03 18 01 32.0000000  0 11       0.000000000000
G06  24984672.900 7 131295296.619 7       476.749 7        43.462 7  24984676.522 6         0.000 6       371.493 6        37.977 6
G10  24515489.967 7 128829727.349 7     -1479.309 7        44.931 7  24515492.911 6         0.000 6     -1152.709 6        37.977 6
G12  20564091.331 9 108065011.732 9     -1089.258 9        57.194 9  20564090.066 6         0.000 6      -848.772 6        37.977 6
G15  23179102.106 8 121806975.736 8     -3340.182 8        50.706 8  23179101.660 6         0.000 6     -2602.740 6        37.977 6
G20  24859578.686 7 130637921.514 7     -1964.508 7        43.467 7  24859579.815 6         0.000 6     -1530.786 6        37.977 6
G29  22755587.314 8 119581390.576 8      3464.404 8        50.814 8  22755587.133 6         0.000 6      2699.536 6        37.977 6
G19  24586163.195 7 129201116.543 7     -3314.716 7        44.621 7  24586162.866 6         0.000 6     -2582.897 6        37.977 6
G24  20898882.714 9 109824352.295 9      -640.401 9        57.091 9  20898884.340 6         0.000 6      -499.014 6        37.977 6
G32  23500571.020 8 123496301.814 8      2879.517 8        48.784 8  23500573.106 6         0.000 6      2243.781 6        37.977 6
G02  24204349.002 7 127194675.538 7      1346.028 7        46.882 7  24204347.303 6         0.000 6      1048.854 6        37.977 6
G25  21482479.414 9 112891170.972 9      1061.109 9        55.254 9  21482481.838 6         0.000 6       826.838 6        37.977 6
> 2019 07 03 18 01 33.0000000  0 11       0.000000000000
G06  24984582.222 7 131294820.102 7       476.287 7        43.462 7  24984585.844 6         0.000 6       371.133 6        37.977 6
G10  24515771.497 7 128831206.798 7     -1479.594 7        44.931 7  24515774.442 6         0.000 6     -1152.931 6        37.977 6
G12  20564298.636 9 108066101.126 9     -1089.531 9        57.194 9  20564297.371 6         0.000 6      -848.985 6        37.977 6
G15  23179737.736 8 121810315.992 8     -3340.337 8        50.706 8  23179737.290 6         0.000 6     -2602.861 6        37.977 6
G20  24859952.518 7 130639886.011 7     -1964.493 7        43.467 7  24859953.647 6         0.000 6     -1530.775 6        37.977 6
G29  22754928.082 8 119577926.295 8      3464.167 8        50.814 8  22754927.901 6         0.000 6      2699.352 6        37.977 6
G19  24586793.992 7 129204431.402 7     -3315.013 7        44.621 7  24586793.664 6         0.000 6     -2583.128 6        37.977 6
G24  20899004.608 9 109824992.854 9      -640.717 9        57.091 9  20899006.235 6         0.000 6      -499.260 6        37.977 6
G32  23500023.099 8 123493422.476 8      2879.167 8        48.784 8  23500025.185 6         0.000 6      2243.508 6        37.977 6
G02  24204092.884 7 127193329.636 7      1345.782 7        46.882 7  24204091.185 6         0.000 6      1048.662 6        37.977 6
G25  21482277.522 9 112890110.024 9      1060.788 9        55.254 9  21482279.946 6         0.000 6       826.588 6        37.977 6
> 2019 07 03 18 01 34.0000000  0 11       0.000000000000
G06  24984491.631 7 131294344.047 7       475.825 7        43.462 7  24984495.253 6         0.000 6       370.773 6        37.977 6
G10  24516053.082 7 128832686.531 7     -1479.878 7        44.931 7  24516056.026 6         0.000 6     -1153.152 6        37.977 6
G12  20564505.993 9 108067190.793 9     -1089.804 9        57.194 9  20564504.728 6         0.000 6      -849.198 6        37.977 6
G15  23180373.396 8 121813656.403 8     -3340.493 8        50.706 8  23180372.950 6         0.000 6     -2602.982 6        37.977 6
G20  24860326.347 7 130641850.494 7     -1964.478 7        43.467 7  24860327.476 6         0.000 6     -1530.763 6        37.977 6
G29  22754268.896 8 119574462.251 8      3463.929 8        50.814 8  22754268.714 6         0.000 6      2699.167 6        37.977 6
G19  24587424.847 7 129207746.557 7     -3315.309 7        44.621 7  24587424.519 6         0.000 6     -2583.359 6        37.977 6
G24  20899126.563 9 109825633.728 9      -641.032 9        57.091 9  20899128.189 6         0.000 6      -499.506 6        37.977 6
G32  23499475.245 8 123490543.488 8      2878.818 8        48.784 8  23499477.331 6         0.000 6      2243.236 6        37.977 6
G02  24203836.814 7 127191983.980 7      1345.535 7        46.883 7  24203835.115 6         0.000 6      1048.470 6        37.977 6
G25  21482075.691 9 112889049.398 9      1060.466 9        55.254 9  21482078.115 6         0.000 6       826.338 6        37.977 6
> 2019 07 03 18 01 35.0000000  0 11       0.000000000000
G06  24984401.129 7 131293868.454 7       475.363 7        43.462 7  24984404.751 6         0.000 6       370.413 6        37.977 6
G10  24516334.720 7 128834166.548 7     -1480.162 7        44.931 7  24516337.665 6         0.000 6     -1153.374 6        37.977 6
G12  20564713.402 9 108068280.733 9     -1090.078 9        57.194 9  20564712.137 6         0.000 6      -849.411 6        37.977 6
G15  23181009.086 8 121816996.969 8     -3340.648 8        50.705 8  23181008.640 6         0.000 6     -2603.103 6        37.977 6
G20  24860700.174 7 130643814.961 7     -1964.463 7        43.467 7  24860701.303 6         0.000 6     -1530.752 6        37.977 6
G29  22753609.755 8 119570998.445 8      3463.692 8        50.815 8  22753609.573 6         0.000 6      2698.982 6        37.977 6
G19  24588055.757 7 129211062.009 7     -3315.606 7        44.621 7  24588055.430 6         0.000 6     -2583.590 6        37.977 6
G24  20899248.577 9 109826274.918 9      -641.348 9        57.091 9  20899250.204 6         0.000 6      -499.752 6        37.977 6
G32  23498927.458 8 123487664.849 8      2878.468 8        48.785 8  23498929.543 6         0.000 6      2242.963 6        37.977 6
G02  24203580.791 7 127190638.571 7      1345.288 7        46.883 7  24203579.092 6         0.000 6      1048.277 6        37.977 6
G25  21481873.922 9 112887989.094 9      1060.145 9        55.255 9  21481876.346 6         0.000 6       826.087 6        37.977 6
> 2019 07 03 18 01 36.0000000  0 11       0.000000000000
G06  24984310.714 7 131293393.323 7       474.900 7        43.462 7  24984314.336 6         0.000 6       370.052 6        37.977 6
G10  24516616.413 7 128835646.850 7     -1480.446 7        44.931 7  24516619.357 6         0.000 6     -1153.595 6        37.977 6
G12  20564920.863 9 108069370.947 9     -1090.351 9        57.193 9  20564919.597 6         0.000 6      -849.624 6        37.977 6
G15  23181644.805 8 121820337.690 8     -3340.803 8        50.705 8  23181644.359 6         0.000 6     -2603.224 6        37.977 6
G20  24861073.997 7 130645779.413 7     -1964.448 7        43.467 7  24861075.127 6         0.000 6     -1530.740 6        37.977 6
G29  22752950.659 8 119567534.875 8      3463.455 8        50.815 8  22752950.476 6         0.000 6      2698.797 6        37.977 6
G19  24588686.724 7 129214377.758 7     -3315.902 7        44.620 7  24588686.397 6         0.000 6     -2583.821 6        37.977 6
G24  20899370.652 9 109826916.424 9      -641.663 9        57.091 9  20899372.278 6         0.000 6      -499.998 6        37.977 6
G32  23498379.737 8 123484786.560 8      2878.118 8        48.785 8  23498381.822 6         0.000 6      2242.690 6        37.977 6
G02  24203324.814 7 127189293.409 7      1345.042 7        46.883 7  24203323.115 6         0.000 6      1048.085 6        37.977 6
G25  21481672.214 9 112886929.110 9      1059.824 9        55.255 9  21481674.637 6         0.000 6       825.837 6        37.977 6
> 2019 07 03 18 01 37.0000000  0 11       0.000000000000
G06  24984220.388 7 131292918.655 7       474.438 7        43.462 7  24984224.010 6         0.000 6       369.692 6        37.977 6
G10  24516898.159 7 128837127.435 7     -1480.730 7        44.931 7  24516901.104 6         0.000 6     -1153.816 6        37.977 6
G12  20565128.375 9 108070461.433 9     -1090.624 9        57.193 9  20565127.110 6         0.000 6      -849.837 6        37.977 6
G15  23182280.553 8 121823678.567 8     -3340.958 8        50.705 8  23182280.108 6         0.000 6     -2603.345 6        37.977 6
G20  24861447.818 7 130647743.850 7     -1964.433 7        43.467 7  24861448.948 6         0.000 6     -1530.728 6        37.977 6
G29  22752291.608 8 119564071.543 8      3463.218 8        50.815 8  22752291.425 6         0.000 6      2698.612 6        37.977 6
G19  24589317.748 7 129217693.802 7     -3316.199 7        44.620 7  24589317.421 6         0.000 6     -2584.052 6        37.977 6
G24  20899492.786 9 109827558.245 9      -641.979 9        57.091 9  20899494.413 6         0.000 6      -500.244 6        37.977 6
G32  23497832.082 8 123481908.621 8      2877.768 8        48.785 8  23497834.167 6         0.000 6      2242.418 6        37.977 6
G02  24203068.885 7 127187948.493 7      1344.795 7        46.883 7  24203067.185 6         0.000 6      1047.893 6        37.977 6
G25  21481470.567 9 112885869.448 9      1059.502 9        55.255 9  21481472.990 6         0.000 6       825.586 6        37.977 6
> 2019 07 03 18 01 38.0000000  0 11       0.000000000000
G06  24984130.149 7 131292444.450 7       473.975 7        43.462 7  24984133.771 6         0.000 6       369.332 6        37.977 6
G10  24517179.960 7 128838608.305 7     -1481.014 7        44.931 7  24517182.905 6         0.000 6     -1154.038 6        37.977 6
G12  20565335.940 9 108071552.193 9     -1090.897 9        57.193 9  20565334.675 6         0.000 6      -850.050 6        37.977 6
G15  23182916.331 8 121827019.599 8     -3341.113 8        50.705 8  23182915.886 6         0.000 6     -2603.466 6        37.977 6
G20  24861821.635 7 130649708.272 7     -1964.418 7        43.467 7  24861822.766 6         0.000 6     -1530.716 6        37.977 6
G29  22751632.602 8 119560608.449 8      3462.980 8        51.052 8  22751632.419 6         0.000 6      2698.427 6        37.977 6
G19  24589948.827 7 129221010.144 7     -3316.495 7        44.620 7  24589948.501 6         0.000 6     -2584.283 6        37.977 6
G24  20899614.981 9 109828200.381 9      -642.295 9        57.091 9  20899616.607 6         0.000 6      -500.489 6        37.977 6
G32  23497284.495 8 123479031.032 8      2877.418 8        48.785 8  23497286.579 6         0.000 6      2242.145 6        37.977 6
G02  24202813.003 7 127186603.824 7      1344.548 7        46.883 7  24202811.303 6         0.000 6      1047.700 6        37.977 6
G25  21481268.981 9 112884810.108 9      1059.181 9        55.255 9  21481271.404 6         0.000 6       825.336 6        37.977 6
> 2019 07 03 18 01 39.0000000  0 11       0.000000000000
G06  24984039.999 7 131291970.706 7       473.513 7        43.462 7  24984043.621 6         0.000 6       368.971 6        37.977 6
G10  24517461.815 7 128840089.458 7     -1481.298 7        44.930 7  24517464.760 6         0.000 6     -1154.259 6        37.977 6
G12  20565543.557 9 108072643.227 9     -1091.170 9        57.193 9  20565542.292 6         0.000 6      -850.263 6        37.977 6
G15  23183552.139 8 121830360.785 8     -3341.268 8        50.704 8  23183551.694 6         0.000 6     -2603.586 6        37.977 6
G20  24862195.450 7 130651672.679 7     -1964.402 7        43.466 7  24862196.580 6         0.000 6     -1530.704 6        37.977 6
G29  22750973.641 8 119557145.592 8      3462.742 8        51.053 8  22750973.458 6         0.000 6      2698.242 6        37.977 6
G19  24590579.964 7 129224326.781 7     -3316.791 7        44.620 7  24590579.637 6         0.000 6     -2584.514 6        37.977 6
G24  20899737.235 9 109828842.833 9      -642.610 9        57.091 9  20899738.862 6         0.000 6      -500.735 6        37.977 6
G32  23496736.973 8 123476153.793 8      2877.068 8        48.786 8  23496739.058 6         0.000 6      2241.872 6        37.977 6
G02  24202557.167 7 127185259.403 7      1344.301 7        46.883 7  24202555.467 6         0.000 6      1047.508 6        37.977 6
G25  21481067.456 9 112883751.088 9      1058.860 9        55.255 9  21481069.879 6         0.000 6       825.086 6        37.977 6
> 2019 07 03 18 01 40.0000000  0 11       0.000000000000
G06  24983949.936 7 131291497.426 7       473.050 7        43.462 7  24983953.558 6         0.000 6       368.611 6        37.977 6
G10  24517743.723 7 128841570.895 7     -1481.582 7        44.930 7  24517746.668 6         0.000 6     -1154.480 6        37.977 6
G12  20565751.226 9 108073734.533 9     -1091.443 9        57.193 9  20565749.961 6         0.000 6      -850.476 6        37.977 6
G15  23184187.975 8 121833702.126 8     -3341.423 8        50.704 8  23184187.531 6         0.000 6     -2603.707 6        37.977 6
G20  24862569.262 7 130653637.070 7     -1964.387 7        43.466 7  24862570.393 6         0.000 6     -1530.692 6        37.977 6
G29  22750314.726 8 119553682.973 8      3462.505 8        51.053 8  22750314.543 6         0.000 6      2698.057 6        37.977 6
G19  24591211.156 7 129227643.714 7     -3317.087 7        44.619 7  24591210.830 6         0.000 6     -2584.745 6        37.977 6
G24  20899859.550 9 109829485.601 9      -642.926 9        57.091 9  20899861.177 6         0.000 6      -500.981 6        37.977 6
G32  23496189.519 8 123473276.905 8      2876.717 8        48.786 8  23496191.603 6         0.000 6      2241.599 6        37.977 6
G02  24202301.379 7 127183915.228 7      1344.054 7        46.883 7  24202299.678 6         0.000 6      1047.315 6        37.977 6
G25  21480865.992 9 112882692.390 9      1058.539 9        55.255 9  21480868.415 6         0.000 6       824.836 6        37.977 6
> 2019 07 03 18 01 41.0000000  0 11       0.000000000000
G06  24983859.962 7 131291024.608 7       472.588 7        43.462 7  24983863.584 6         0.000 6       368.250 6        37.977 6
G10  24518025.686 7 128843052.616 7     -1481.865 7        44.930 7  24518028.631 6         0.000 6     -1154.701 6        37.977 6
G12  20565958.947 9 108074826.112 9     -1091.716 9        57.193 9  20565957.682 6         0.000 6      -850.688 6        37.977 6
G15  23184823.842 8 121837043.622 8     -3341.577 8        50.704 8  23184823.398 6         0.000 6     -2603.828 6        37.977 6
G20  24862943.071 7 130655601.445 7     -1964.371 7        43.466 7  24862944.202 6         0.000 6     -1530.680 6        37.977 6
G29  22749655.856 8 119550220.591 8      3462.267 8        51.053 8  22749655.672 6         0.000 6      2697.871 6        37.977 6
G19  24591842.405 7 129230960.943 7     -3317.383 7        44.619 7  24591842.079 6         0.000 6     -2584.975 6        37.977 6
G24  20899981.925 9 109830128.685 9      -643.242 9        57.091 9  20899983.551 6         0.000 6      -501.227 6        37.977 6
G32  23495642.131 8 123470400.367 8      2876.367 8        48.786 8  23495644.215 6         0.000 6      2241.326 6        37.977 6
G02  24202045.637 7 127182571.300 7      1343.807 7        46.883 7  24202043.937 6         0.000 6      1047.123 6        37.977 6
G25  21480664.589 9 112881634.012 9      1058.218 9        55.255 9  21480667.012 6         0.000 6       824.585 6        37.977 6
> 2019 07 03 18 01 42.0000000  0 11       0.000000000000
G06  24983770.075 7 131290552.252 7       472.125 7        43.462 7  24983773.697 6         0.000 6       367.890 6        37.977 6
G10  24518307.702 7 128844534.620 7     -1482.149 7        44.930 7  24518310.648 6         0.000 6     -1154.922 6        37.977 6
G12  20566166.719 9 108075917.964 9     -1091.989 9        57.193 9  20566165.455 6         0.000 6      -850.901 6        37.977 6
G15  23185459.737 8 121840385.273 8     -3341.732 8        50.704 8  23185459.294 6         0.000 6     -2603.948 6        37.977 6
G20  24863316.877 7 130657565.805 7     -1964.355 7        43.466 7  24863318.008 6         0.000 6     -1530.667 6        37.977 6
G29  22748997.031 8 119546758.448 8      3462.029 8        51.053 8  22748996.847 6         0.000 6      2697.686 6        37.977 6
G19  24592473.710 7 129234278.468 7     -3317.679 7        44.619 7  24592473.385 6         0.000 6     -2585.206 6        37.977 6
G24  20900104.360 9 109830772.084 9      -643.557 9        57.091 9  20900105.986 6         0.000 6      -501.473 6        37.977 6
G32  23495094.810 8 123467524.179 8      2876.016 8        48.786 8  23495096.894 6         0.000 6      2241.053 6        37.977 6
G02  24201789.943 7 127181227.620 7      1343.559 7        46.883 7  24201788.242 6         0.000 6      1046.930 6        37.977 6
G25  21480463.248 9 112880575.956 9      1057.896 9        55.255 9  21480465.671 6         0.000 6       824.335 6        37.977 6
> 2019 07 03 18 01 43.0000000  0 11       0.000000000000
G06  24983680.277 7 131290080.360 7       471.662 7        43.462 7  24983683.899 6         0.000 6       367.529 6        37.977 6
G10  24518589.773 7 128846016.908 7     -1482.432 7        44.930 7  24518592.719 6         0.000 6     -1155.143 6        37.977 6
G12  20566374.544 9 108077010.089 9     -1092.262 9        57.193 9  20566373.279 6         0.000 6      -851.113 6        37.977 6
G15  23186095.663 8 121843727.078 8     -3341.887 8        50.704 8  23186095.219 6         0.000 6     -2604.068 6        37.977 6
G20  24863690.680 7 130659530.148 7     -1964.339 7        43.466 7  24863691.811 6         0.000 6     -1530.655 6        37.977 6
G29  22748338.251 8 119543296.542 8      3461.791 8        51.054 8  22748338.067 6         0.000 6      2697.500 6        37.977 6
G19  24593105.071 7 129237596.289 7     -3317.974 7        44.619 7  24593104.747 6         0.000 6     -2585.436 6        37.977 6
G24  20900226.855 9 109831415.799 9      -643.873 9        57.091 9  20900228.481 6         0.000 6      -501.719 6        37.977 6
G32  23494547.556 8 123464648.342 8      2875.666 8        48.786 8  23494549.639 6         0.000 6      2240.779 6        37.977 6
G02  24201534.295 7 127179884.187 7      1343.312 7        46.883 7  24201532.595 6         0.000 6      1046.737 6        37.977 6
G25  21480261.967 9 112879518.221 9      1057.575 9        55.255 9  21480264.390 6         0.000 6       824.085 6        37.977 6
> 2019 07 03 18 01 44.0000000  0 11       0.000000000000
G06  24983590.567 7 131289608.930 7       471.199 7        43.462 7  24983594.188 6         0.000 6       367.169 6        37.977 6
G10  24518871.897 7 128847499.479 7     -1482.715 7        44.930 7  24518874.843 6         0.000 6     -1155.363 6        37.977 6
G12  20566582.420 9 108078102.486 9     -1092.535 9        57.193 9  20566581.156 6         0.000 6      -851.326 6        37.977 6
G15  23186731.617 8 121847069.038 8     -3342.041 8        50.703 8  23186731.174 6         0.000 6     -2604.189 6        37.977 6
G20  24864064.479 7 130661494.476 7     -1964.323 7        43.466 7  24864065.611 6         0.000 6     -1530.642 6        37.977 6
G29  22747679.517 8 119539834.875 8      3461.553 8        51.054 8  22747679.333 6         0.000 6      2697.315 6        37.977 6
G19  24593736.489 7 129240914.405 7     -3318.270 7        44.619 7  24593736.165 6         0.000 6     -2585.666 6        37.977 6
G24  20900349.410 9 109832059.830 9      -644.189 9        57.091 9  20900351.036 6         0.000 6      -501.966 6        37.977 6
G32  23494000.368 8 123461772.856 8      2875.315 8        48.787 8  23494002.452 6         0.000 6      2240.506 6        37.977 6
G02  24201278.695 7 127178541.001 7      1343.064 7        46.883 7  24201276.994 6         0.000 6      1046.544 6        37.977 6
G25  21480060.748 9 112878460.808 9      1057.254 9        55.255 9  21480063.171 6         0.000 6       823.835 6        37.977 6
> 2019 07 03 18 01 45.0000000  0 11       0.000000000000
G06  24983500.945 7 131289137.963 7       470.736 7        43.462 7  24983504.566 6         0.000 6       366.808 6        37.977 6
G10  24519154.076 7 128848982.334 7     -1482.999 7        44.930 7  24519157.022 6         0.000 6     -1155.584 6        37.977 6
G12  20566790.349 9 108079195.156 9     -1092.807 9        57.193 9  20566789.084 6         0.000 6      -851.538 6        37.977 6
G15  23187367.601 8 121850411.152 8     -3342.195 8        50.703 8  23187367.158 6         0.000 6     -2604.309 6        37.977 6
G20  24864438.276 7 130663458.788 7     -1964.307 7        43.466 7  24864439.408 6         0.000 6     -1530.630 6        37.977 6
G29  22747020.828 8 119536373.445 8      3461.315 8        51.054 8  22747020.644 6         0.000 6      2697.129 6        37.977 6
G19  24594367.963 7 129244232.817 7     -3318.565 7        44.618 7  24594367.639 6         0.000 6     -2585.896 6        37.977 6
G24  20900472.025 9 109832704.176 9      -644.505 9        57.090 9  20900473.652 6         0.000 6      -502.212 6        37.977 6
G32  23493453.247 8 123458897.720 8      2874.964 8        48.787 8  23493455.330 6         0.000 6      2240.233 6        37.977 6
G02  24201023.142 7 127177198.063 7      1342.817 7        46.884 7  24201021.441 6         0.000 6      1046.352 6        37.977 6
G25  21479859.590 9 112877403.715 9      1056.933 9        55.255 9  21479862.013 6         0.000 6       823.585 6        37.977 6
> 2019 07 03 18 01 46.0000000  0 11       0.000000000000
G06  24983411.410 7 131288667.459 7       470.273 7        43.462 7  24983415.032 6         0.000 6       366.447 6        37.977 6
G10  24519436.308 7 128850465.471 7     -1483.282 7        44.930 7  24519439.254 6         0.000 6     -1155.805 6        37.977 6
G12  20566998.329 9 108080288.099 9     -1093.080 9        57.193 9  20566997.064 6         0.000 6      -851.751 6        37.977 6
G15  23188003.614 8 121853753.420 8     -3342.350 8        50.703 8  23188003.172 6         0.000 6     -2604.429 6        37.977 6
G20  24864812.070 7 130665423.084 7     -1964.291 7        43.465 7  24864813.202 6         0.000 6     -1530.617 6        37.977 6
G29  22746362.185 8 119532912.254 8      3461.076 8        51.054 8  22746362.000 6         0.000 6      2696.944 6        37.977 6
G19  24594999.493 7 129247551.525 7     -3318.861 7        44.618 7  24594999.169 6         0.000 6     -2586.127 6        37.977 6
G24  20900594.700 9 109833348.839 9      -644.821 9        57.090 9  20900596.327 6         0.000 6      -502.458 6        37.977 6
G32  23492906.193 8 123456022.935 8      2874.613 8        48.787 8  23492908.276 6         0.000 6      2239.959 6        37.977 6
G02  24200767.636 7 127175855.373 7      1342.569 7        46.884 7  24200765.935 6         0.000 6      1046.159 6        37.977 6
G25  21479658.492 9 112876346.943 9      1056.612 9        55.255 9  21479660.915 6         0.000 6       823.334 6        37.977 6
> 2019 07 03 18 01 47.0000000  0 11       0.000000000000
G06  24983321.964 7 131288197.418 7       469.810 7        43.462 7  24983325.586 6         0.000 6       366.086 6        37.977 6
G10  24519718.594 7 128851948.892 7     -1483.565 7        44.930 7  24519721.540 6         0.000 6     -1156.025 6        37.977 6
G12  20567206.361 9 108081381.315 9     -1093.352 9        57.193 9  20567205.097 6         0.000 6      -851.963 6        37.977 6
G15  23188639.657 8 121857095.843 8     -3342.504 8        50.703 8  23188639.214 6         0.000 6     -2604.549 6        37.977 6
G20  24865185.861 7 130667387.364 7     -1964.275 7        43.465 7  24865186.993 6         0.000 6     -1530.605 6        37.977 6
G29  22745703.587 8 119529451.302 8      3460.838 8        51.055 8  22745703.401 6         0.000 6      2696.758 6        37.977 6
G19  24595631.079 7 129250870.527 7     -3319.156 7        44.618 7  24595630.756 6         0.000 6     -2586.357 6        37.977 6
G24  20900717.435 9 109833993.817 9      -645.137 9        57.090 9  20900719.062 6         0.000 6      -502.704 6        37.977 6
G32  23492359.206 8 123453148.501 8      2874.262 8        48.787 8  23492361.289 6         0.000 6      2239.686 6        37.977 6
G02  24200512.177 7 127174512.930 7      1342.322 7        46.884 7  24200510.476 6         0.000 6      1045.966 6        37.977 6
G25  21479457.456 9 112875290.492 9      1056.291 9        55.256 9  21479459.879 6         0.000 6       823.084 6        37.977 6
> 2019 07 03 18 01 48.0000000  0 11       0.000000000000
G06  24983232.607 7 131287727.840 7       469.347 7        43.462 7  24983236.228 6         0.000 6       365.725 6        37.977 6
G10  24520000.934 7 128853432.596 7     -1483.848 7        44.930 7  24520003.880 6         0.000 6     -1156.246 6        37.977 6
G12  20567414.445 9 108082474.803 9     -1093.625 9        57.192 9  20567413.181 6         0.000 6      -852.175 6        37.977 6
G15  23189275.729 8 121860438.420 8     -3342.658 8        50.702 8  23189275.287 6         0.000 6     -2604.669 6        37.977 6
G20  24865559.648 7 130669351.627 7     -1964.259 7        43.465 7  24865560.780 6         0.000 6     -1530.592 6        37.977 6
G29  22745045.034 8 119525990.588 8      3460.599 8        51.055 8  22745044.848 6         0.000 6      2696.572 6        37.977 6
G19  24596262.722 7 129254189.825 7     -3319.451 7        44.618 7  24596262.399 6         0.000 6     -2586.587 6        37.977 6
G24  20900840.231 9 109834639.111 9      -645.453 9        57.090 9  20900841.858 6         0.000 6      -502.950 6        37.977 6
G32  23491812.285 8 123450274.418 8      2873.911 8        48.787 8  23491814.368 6         0.000 6      2239.412 6        37.977 6
G02  24200256.766 7 127173170.735 7      1342.074 7        46.884 7  24200255.064 6         0.000 6      1045.772 6        37.977 6
G25  21479256.481 9 112874234.363 9      1055.970 9        55.256 9  21479258.904 6         0.000 6       822.834 6        37.977 6
> 2019 07 03 18 01 49.0000000  0 11       0.000000000000
G06  24983143.337 7 131287258.725 7       468.884 7        43.462 7  24983146.958 6         0.000 6       365.365 6        37.977 6
G10  24520283.327 7 128854916.582 7     -1484.130 7        44.929 7  24520286.274 6         0.000 6     -1156.466 6        37.977 6
G12  20567622.581 9 108083568.563 9     -1093.897 9        57.192 9  20567621.316 6         0.000 6      -852.388 6        37.977 6
G15  23189911.830 8 121863781.150 8     -3342.812 8        50.702 8  23189911.388 6         0.000 6     -2604.789 6        37.977 6
G20  24865933.433 7 130671315.874 7     -1964.242 7        43.465 7  24865934.565 6         0.000 6     -1530.579 6        37.977 6
G29  22744386.526 8 119522530.112 8      3460.361 8        51.055 8  22744386.341 6         0.000 6      2696.386 6        37.977 6
G19  24596894.420 7 129257509.418 7     -3319.746 7        44.617 7  24596894.098 6         0.000 6     -2586.817 6        37.977 6
G24  20900963.086 9 109835284.722 9      -645.768 9        57.090 9  20900964.713 6         0.000 6      -503.196 6        37.977 6
G32  23491265.432 8 123447400.686 8      2873.560 8        48.788 8  23491267.514 6         0.000 6      2239.139 6        37.977 6
G02  24200001.401 7 127171828.788 7      1341.826 7        46.884 7  24199999.699 6         0.000 6      1045.579 6        37.977 6
G25  21479055.568 9 112873178.554 9      1055.649 9        55.256 9  21479057.990 6         0.000 6       822.584 6        37.977 6
> 2019 07 03 18 01 50.0000000  0 11       0.000000000000
G06  24983054.155 7 131286790.073 7       468.421 7        43.462 7  24983057.776 6         0.000 6       365.004 6        37.977 6
G10  24520565.775 7 128856400.851 7     -1484.413 7        44.929 7  24520568.722 6         0.000 6     -1156.686 6        37.977 6
G12  20567830.769 9 108084662.596 9     -1094.170 9        57.192 9  20567829.504 6         0.000 6      -852.600 6        37.977 6
G15  23190547.961 8 121867124.035 8     -3342.965 8        50.702 8  23190547.519 6         0.000 6     -2604.909 6        37.977 6
G20  24866307.214 7 130673280.104 7     -1964.226 7        43.465 7  24866308.346 6         0.000 6     -1530.566 6        37.977 6
G29  22743728.064 8 119519069.875 8      3460.122 8        51.055 8  22743727.878 6         0.000 6      2696.200 6        37.977 6
G19  24597526.175 7 129260829.306 7     -3320.041 7        44.617 7  24597525.853 6         0.000 6     -2587.046 6        37.977 6
G24  20901086.002 9 109835930.648 9      -646.084 9        57.090 9  20901087.629 6         0.000 6      -503.443 6        37.977 6
G32  23490718.645 8 123444527.306 8      2873.209 8        48.788 8  23490720.727 6         0.000 6      2238.865 6        37.977 6
G02  24199746.084 7 127170487.089 7      1341.578 7        46.884 7  24199744.382 6         0.000 6      1045.386 6        37.977 6
G25  21478854.715 9 112872123.066 9      1055.328 9        55.256 9  21478857.137 6         0.000 6       822.334 6        37.977 6
> 2019 07 03 18 01 51.0000000  0 11       0.000000000000
G06  24982965.062 7 131286321.885 7       467.958 7        43.462 7  24982968.683 6         0.000 6       364.643 6        37.977 6
G10  24520848.276 7 128857885.403 7     -1484.696 7        44.929 7  24520851.223 6         0.000 6     -1156.906 6        37.977 6
G12  20568039.008 9 108085756.901 9     -1094.442 9        57.192 9  20568037.744 6         0.000 6      -852.812 6        37.977 6
G15  23191184.121 8 121870467.073 8     -3343.119 8        50.702 8  23191183.679 6         0.000 6     -2605.029 6        37.977 6
G20  24866680.992 7 130675244.318 7     -1964.209 7        43.465 7  24866682.125 6         0.000 6     -1530.553 6        37.977 6
G29  22743069.648 8 119515609.877 8      3459.883 8        51.056 8  22743069.461 6         0.000 6      2696.014 6        37.977 6
G19  24598157.986 7 129264149.488 7     -3320.336 7        44.617 7  24598157.664 6         0.000 6     -2587.276 6        37.977 6
G24  20901208.978 9 109836576.890 9      -646.400 9        57.090 9  20901210.605 6         0.000 6      -503.689 6        37.977 6
G32  23490171.925 8 123441654.276 8      2872.857 8        48.788 8  23490174.006 6         0.000 6      2238.591 6        37.977 6
G02  24199490.813 7 127169145.638 7      1341.330 7        46.884 7  24199489.112 6         0.000 6      1045.193 6        37.977 6
G25  21478653.923 9 112871067.899 9      1055.007 9        55.256 9  21478656.346 6         0.000 6       822.084 6        37.977 6
> 2019 07 03 18 01 52.0000000  0 11       0.000000000000
G06  24982876.056 7 131285854.160 7       467.494 7        43.462 7  24982879.677 6         0.000 6       364.282 6        37.977 6
G10  24521130.831 7 128859370.237 7     -1484.978 7        44.929 7  24521133.779 6         0.000 6     -1157.127 6        37.977 6
G12  20568247.299 9 108086851.478 9     -1094.714 9        57.192 9  20568246.035 6         0.000 6      -853.024 6        37.977 6
G15  23191820.310 8 121873810.265 8     -3343.273 8        50.701 8  23191819.868 6         0.000 6     -2605.149 6        37.977 6
G20  24867054.767 7 130677208.515 7     -1964.192 7        43.465 7  24867055.900 6         0.000 6     -1530.540 6        37.977 6
G29  22742411.277 8 119512150.118 8      3459.644 8        51.056 8  22742411.090 6         0.000 6      2695.828 6        37.977 6
G19  24598789.853 7 129267469.966 7     -3320.630 7        44.617 7  24598789.531 6         0.000 6     -2587.506 6        37.977 6
G24  20901332.014 9 109837223.448 9      -646.717 9        57.090 9  20901333.641 6         0.000 6      -503.935 6        37.977 6
G32  23489625.272 8 123438781.599 8      2872.506 8        48.788 8  23489627.353 6         0.000 6      2238.317 6        37.977 6
G02  24199235.591 7 127167804.435 7      1341.081 7        46.884 7  24199233.888 6         0.000 6      1044.999 6        37.977 6
G25  21478453.192 9 112870013.053 9      1054.687 9        55.256 9  21478455.615 6         0.000 6       821.834 6        37.977 6
> 2019 07 03 18 01 53.0000000  0 11       0.000000000000
G06  24982787.139 7 131285386.898 7       467.031 7        43.462 7  24982790.760 6         0.000 6       363.921 6        37.977 6
G10  24521413.440 7 128860855.354 7     -1485.261 7        44.929 7  24521416.388 6         0.000 6     -1157.347 6        37.977 6
G12  20568455.642 9 108087946.328 9     -1094.986 9        57.192 9  20568454.378 6         0.000 6      -853.236 6        37.977 6
G15  23192456.528 8 121877153.611 8     -3343.426 8        50.701 8  23192456.087 6         0.000 6     -2605.268 6        37.977 6
G20  24867428.539 7 130679172.695 7     -1964.175 7        43.465 7  24867429.672 6         0.000 6     -1530.527 6        37.977 6
G29  22741752.951 8 119508690.598 8      3459.405 8        51.056 8  22741752.764 6         0.000 6      2695.641 6        37.977 6
G19  24599421.776 7 129270790.738 7     -3320.925 7        44.617 7  24599421.455 6         0.000 6     -2587.735 6        37.977 6
G24  20901455.110 9 109837870.322 9      -647.033 9        57.090 9  20901456.737 6         0.000 6      -504.181 6        37.977 6
G32  23489078.685 8 123435909.272 8      2872.154 8        48.788 8  23489080.766 6         0.000 6      2238.043 6        37.977 6
G02  24198980.415 7 127166463.481 7      1340.833 7        46.884 7  24198978.713 6         0.000 6      1044.806 6        37.977 6
G25  21478252.523 9 112868958.528 9      1054.366 9        55.256 9  21478254.945 6         0.000 6       821.584 6        37.977 6
> 2019 07 03 18 01 54.0000000  0 12       0.000000000000
G06  24982698.310 7 131284920.099 7       466.568 7        43.462 7  24982701.931 6         0.000 6       363.559 6        37.977 6
G10  24521696.103 7 128862340.753 7     -1485.543 7        44.929 7  24521699.050 6         0.000 6     -1157.567 6        37.977 6
G12  20568664.037 9 108089041.449 9     -1095.258 9        57.192 9  20568662.773 6         0.000 6      -853.448 6        37.977 6
G15  23193092.776 8 121880497.110 8     -3343.580 8        50.701 8  23193092.335 6         0.000 6     -2605.388 6        37.977 6
G20  24867802.307 7 130681136.859 7     -1964.158 7        43.464 7  24867803.440 6         0.000 6     -1530.514 6        37.977 6
G29  22741094.671 8 119505231.317 8      3459.166 8        51.056 8  22741094.484 6         0.000 6      2695.455 6        37.977 6
G19  24600053.755 7 129274111.805 7     -3321.220 7        44.616 7  24600053.434 6         0.000 6     -2587.965 6        37.977 6
G24  20901578.266 9 109838517.513 9      -647.349 9        57.090 9  20901579.893 6         0.000 6      -504.428 6        37.977 6
G32  23488532.166 8 123433037.298 8      2871.803 8        48.789 8  23488534.247 6         0.000 6      2237.769 6        37.977 6
G02  24198725.286 7 127165122.774 7      1340.585 7        46.884 7  24198723.584 6         0.000 6      1044.612 6        37.977 6
G25  21478051.914 9 112867904.323 9      1054.045 9        55.256 9  21478054.336 6         0.000 6       821.334 6        37.977 6
G14  25544656.184 7 134238026.702 7      3368.152 7        42.962 7  25544657.216 6         0.000 6      2624.534 6        37.977 6
> 2019 07 03 18 01 55.0000000  0 12       0.000000000000
G06  24982609.569 7 131284453.764 7       466.104 7        43.462 7  24982613.190 6         0.000 6       363.198 6        37.977 6
G10  24521978.819 7 128863826.435 7     -1485.825 7        44.929 7  24521981.767 6         0.000 6     -1157.786 6        37.977 6
G12  20568872.484 9 108090136.843 9     -1095.530 9        57.192 9  20568871.220 6         0.000 6      -853.660 6        37.977 6
G15  23193729.052 8 121883840.762 8     -3343.733 8        50.701 8  23193728.612 6         0.000 6     -2605.508 6        37.977 6
G20  24868176.072 7 130683101.005 7     -1964.141 7        43.464 7  24868177.206 6         0.000 6     -1530.501 6        37.977 6
G29  22740436.436 8 119501772.275 8      3458.926 8        51.057 8  22740436.249 6         0.000 6      2695.268 6        37.977 6
G19  24600685.790 7 129277433.166 7     -3321.514 7        44.616 7  24600685.469 6         0.000 6     -2588.194 6        37.977 6
G24  20901701.483 9 109839165.019 9      -647.665 9        57.090 9  20901703.110 6         0.000 6      -504.674 6        37.977 6
G32  23487985.713 8 123430165.675 8      2871.451 8        48.789 8  23487987.794 6         0.000 6      2237.495 6        37.977 6
G02  24198470.205 7 127163782.316 7      1340.336 7        46.884 7  24198468.503 6         0.000 6      1044.419 6        37.977 6
G25  21477851.366 9 112866850.439 9      1053.724 9        55.256 9  21477853.789 6         0.000 6       821.084 6        37.977 6
G14  25544015.232 7 134234658.485 7      3368.172 7        42.962 7  25544016.264 6         0.000 6      2624.551 6        37.977 6
> 2019 07 03 18 01 56.0000000  0 12       0.000000000000
G06  24982520.917 7 131283987.893 7       465.641 7        43.462 7  24982524.538 6         0.000 6       362.837 6        37.977 6
G10  24522261.589 7 128865312.398 7     -1486.107 7        44.929 7  24522264.537 6         0.000 6     -1158.006 6        37.977 6
G12  20569080.982 9 108091232.508 9     -1095.802 9        57.192 9  20569079.718 6         0.000 6      -853.872 6        37.977 6
G15  23194365.358 8 121887184.568 8     -3343.887 8        50.700 8  23194364.918 6         0.000 6     -2605.627 6        37.977 6
G20  24868549.834 7 130685065.134 7     -1964.124 7        43.464 7  24868550.968 6         0.000 6     -1530.487 6        37.977 6
G29  22739778.247 8 119498313.472 8      3458.687 8        51.057 8  22739778.060 6         0.000 6      2695.082 6        37.977 6
G19  24601317.881 7 129280754.821 7     -3321.808 7        44.616 7  24601317.561 6         0.000 6     -2588.423 6        37.977 6
G24  20901824.760 9 109839812.841 9      -647.981 9        57.090 9  20901826.386 6         0.000 6      -504.920 6        37.977 6
G32  23487439.328 8 123427294.403 8      2871.099 8        48.789 8  23487441.408 6         0.000 6      2237.221 6        37.977 6
G02  24198215.171 7 127162442.107 7      1340.088 7        46.885 7  24198213.469 6         0.000 6      1044.225 6        37.977 6
G25  21477650.880 9 112865796.876 9      1053.403 9        55.256 9  21477653.302 6         0.000 6       820.834 6        37.977 6
G14  25543374.300 7 134231290.371 7      3368.067 7        42.962 7  25543375.331 6         0.000 6      2624.470 6        37.977 6
> 2019 07 03 18 01 57.0000000  0 12       0.000000000000
G06  24982432.352 7 131283522.485 7       465.177 7        43.462 7  24982435.973 6         0.000 6       362.476 6        37.977 6
G10  24522544.413 7 128866798.644 7     -1486.389 7        44.929 7  24522547.361 6         0.000 6     -1158.226 6        37.977 6
G12  20569289.532 9 108092328.446 9     -1096.074 9        57.192 9  20569288.268 6         0.000 6      -854.084 6        37.977 6
G15  23195001.693 8 121890528.527 8     -3344.040 8        50.700 8  23195001.253 6         0.000 6     -2605.746 6        37.977 6
G20  24868923.593 7 130687029.246 7     -1964.107 7        43.464 7  24868924.727 6         0.000 6     -1530.474 6        37.977 6
G29  22739120.104 8 119494854.909 8      3458.448 8        51.057 8  22739119.916 6         0.000 6      2694.895 6        37.977 6
G19  24601950.028 7 129284076.771 7     -3322.102 7        44.616 7  24601949.708 6         0.000 6     -2588.653 6        37.977 6
G24  20901948.096 9 109840460.980 9      -648.297 9        57.090 9  20901949.723 6         0.000 6      -505.167 6        37.977 6
G32  23486893.009 8 123424423.484 8      2870.747 8        48.789 8  23486895.090 6         0.000 6      2236.947 6        37.977 6
G02  24197960.185 7 127161102.146 7      1339.839 7        46.885 7  24197958.482 6         0.000 6      1044.031 6        37.977 6
G25  21477450.454 9 112864743.634 9      1053.083 9        55.256 9  21477452.877 6         0.000 6       820.584 6        37.977 6
G14  25542733.388 7 134227922.362 7      3367.963 7        42.962 7  25542734.419 6         0.000 6      2624.388 6        37.977 6
> 2019 07 03 18 01 58.0000000  0 12       0.000000000000
G06  24982343.876 7 131283057.540 7       464.713 7        43.462 7  24982347.497 6         0.000 6       362.115 6        37.977 6
G10  24522827.290 7 128868285.171 7     -1486.671 7        44.929 7  24522830.238 6         0.000 6     -1158.446 6        37.977 6
G12  20569498.134 9 108093424.655 9     -1096.346 9        57.192 9  20569496.870 6         0.000 6      -854.296 6        37.977 6
G15  23195638.057 8 121893872.640 8     -3344.193 8        50.700 8  23195637.618 6         0.000 6     -2605.866 6        37.977 6
G20  24869297.349 7 130688993.341 7     -1964.089 7        43.464 7  24869298.483 6         0.000 6     -1530.460 6        37.977 6
G29  22738462.006 8 119491396.586 8      3458.208 8        51.057 8  22738461.818 6         0.000 6      2694.709 6        37.977 6
G19  24602582.231 7 129287399.014 7     -3322.396 7        44.615 7  24602581.912 6         0.000 6     -2588.882 6        37.977 6
G24  20902071.493 9 109841109.435 9      -648.613 9        57.090 9  20902073.120 6         0.000 6      -505.413 6        37.977 6
G32  23486346.758 8 123421552.917 8      2870.395 8        48.789 8  23486348.838 6         0.000 6      2236.673 6        37.977 6
G02  24197705.246 7 127159762.434 7      1339.590 7        46.885 7  24197703.542 6         0.000 6      1043.837 6        37.977 6
G25  21477250.090 9 112863690.713 9      1052.762 9        55.256 9  21477252.512 6         0.000 6       820.334 6        37.977 6
G14  25542092.496 7 134224554.458 7      3367.858 7        42.962 7  25542093.527 6         0.000 6      2624.307 6        37.977 6
> 2019 07 03 18 01 59.0000000  0 12       0.000000000000
G06  24982255.488 7 131282593.060 7       464.250 7        43.462 7  24982259.109 6         0.000 6       361.753 6        37.977 6
G10  24523110.221 7 128869771.981 7     -1486.953 7        44.928 7  24523113.169 6         0.000 6     -1158.665 6        37.977 6
G12  20569706.788 9 108094521.136 9     -1096.618 9        57.191 9  20569705.524 6         0.000 6      -854.508 6        37.977 6
G15  23196274.451 8 121897216.905 8     -3344.346 8        50.700 8  23196274.011 6         0.000 6     -2605.985 6        37.977 6
G20  24869671.101 7 130690957.418 7     -1964.072 7        43.464 7  24869672.235 6         0.000 6     -1530.447 6        37.977 6
G29  22737803.954 8 119487938.502 8      3457.968 8        51.058 8  22737803.765 6         0.000 6      2694.522 6        37.977 6
G19  24603214.490 7 129290721.552 7     -3322.690 7        44.615 7  24603214.171 6         0.000 6     -2589.111 6        37.977 6
G24  20902194.950 9 109841758.206 9      -648.930 9        57.090 9  20902196.577 6         0.000 6      -505.660 6        37.977 6
G32  23485800.573 8 123418682.702 8      2870.043 8        48.790 8  23485802.653 6         0.000 6      2236.398 6        37.977 6
G02  24197450.354 7 127158422.971 7      1339.342 7        46.885 7  24197448.650 6         0.000 6      1043.643 6        37.977 6
G25  21477049.786 9 112862638.112 9      1052.441 9        55.257 9  21477052.209 6         0.000 6       820.084 6        37.977 6
G14  25541451.624 7 134221186.658 7      3367.753 7        42.963 7  25541452.654 6         0.000 6      2624.225 6        37.977 6
> 2019 07 03 18 02  0.0000000  0 12       0.000000000000
G06  24982167.189 7 131282129.043 7       463.786 7        43.462 7  24982170.809 6         0.000 6       361.392 6        37.977 6
G10  24523393.205 7 128871259.072 7     -1487.235 7        44.928 7  24523396.154 6         0.000 6     -1158.885 6        37.977 6
G12  20569915.493 9 108095617.889 9     -1096.889 9        57.191 9  20569914.229 6         0.000 6      -854.719 6        37.977 6
G15  23196910.873 8 121900561.323 8     -3344.499 8        50.699 8  23196910.434 6         0.000 6     -2606.104 6        37.977 6
G20  24870044.849 7 130692921.478 7     -1964.054 7        43.464 7  24870045.984 6         0.000 6     -1530.433 6        37.977 6
G29  22737145.947 8 119484480.657 8      3457.729 8        51.058 8  22737145.758 6         0.000 6      2694.335 6        37.977 6
G19  24603846.805 7 129294044.383 7     -3322.984 7        44.615 7  24603846.486 6         0.000 6     -2589.340 6        37.977 6
G24  20902318.468 9 109842407.294 9      -649.246 9        57.090 9  20902320.095 6         0.000 6      -505.906 6        37.977 6
G32  23485254.456 8 123415812.839 8      2869.691 8        48.790 8  23485256.535 6         0.000 6      2236.124 6        37.977 6
G02  24197195.509 7 127157083.757 7      1339.093 7        46.885 7  24197193.806 6         0.000 6      1043.449 6        37.977 6
G25  21476849.544 9 112861585.832 9      1052.121 9        55.257 9  21476851.966 6         0.000 6       819.835 6        37.977 6
G14  25540810.772 7 134217818.963 7      3367.649 7        42.963 7  25540811.801 6         0.000 6      2624.143 6        37.977 6
> 2019 07 03 18 02  1.0000000  0 12       0.000000000000
G06  24982078.977 7 131281665.490 7       463.322 7        43.462 7  24982082.598 6         0.000 6       361.030 6        37.977 6
G10  24523676.243 7 128872746.444 7     -1487.516 7        44.928 7  24523679.192 6         0.000 6     -1159.104 6        37.977 6
G12  20570124.250 9 108096714.914 9     -1097.161 9        57.191 9  20570122.986 6         0.000 6      -854.931 6        37.977 6
G15  23197547.325 8 121903905.895 8     -3344.652 8        50.699 8  23197546.886 6         0.000 6     -2606.223 6        37.977 6
G20  24870418.595 7 130694885.520 7     -1964.037 7        43.464 7  24870419.730 6         0.000 6     -1530.419 6        37.977 6
G29  22736487.986 8 119481023.053 8      3457.489 8        51.058 8  22736487.797 6         0.000 6      2694.148 6        37.977 6
G19  24604479.176 7 129297367.509 7     -3323.278 7        44.615 7  24604478.858 6         0.000 6     -2589.569 6        37.977 6
G24  20902442.045 9 109843056.697 9      -649.562 9        57.090 9  20902443.672 6         0.000 6      -506.152 6        37.977 6
G32  23484708.405 8 123412943.328 8      2869.339 8        48.790 8  23484710.485 6         0.000 6      2235.849 6        37.977 6
G02  24196940.712 7 127155744.791 7      1338.844 7        46.885 7  24196939.008 6         0.000 6      1043.255 6        37.977 6
G25  21476649.362 9 112860533.872 9      1051.800 9        55.257 9  21476651.785 6         0.000 6       819.585 6        37.977 6
G14  25540169.940 7 134214451.373 7      3367.544 7        42.963 7  25540170.969 6         0.000 6      2624.062 6        37.977 6
> 2019 07 03 18 02  2.0000000  0 12       0.000000000000
G06  24981990.854 7 131281202.401 7       462.858 7        43.463 7  24981994.475 6         0.000 6       360.669 6        37.977 6
G10  24523959.335 7 128874234.099 7     -1487.798 7        44.928 7  24523962.284 6         0.000 6     -1159.323 6        37.977 6
G12  20570333.059 9 108097812.210 9     -1097.433 9        57.191 9  20570331.795 6         0.000 6      -855.142 6        37.977 6
G15  23198183.805 8 121907250.619 8     -3344.804 8        50.699 8  23198183.366 6         0.000 6     -2606.342 6        37.977 6
G20  24870792.337 7 130696849.544 7     -1964.019 7        43.463 7  24870793.472 6         0.000 6     -1530.405 6        37.977 6
G29  22735830.070 8 119477565.689 8      3457.249 8        51.058 8  22735829.881 6         0.000 6      2693.961 6        37.977 6
G19  24605111.603 7 129300690.928 7     -3323.572 7        44.615 7  24605111.285 6         0.000 6     -2589.797 6        37.977 6
G24  20902565.683 9 109843706.417 9      -649.879 9        57.090 9  20902567.310 6         0.000 6      -506.399 6        37.977 6
G32  23484162.422 8 123410074.169 8      2868.986 8        48.790 8  23484164.501 6         0.000 6      2235.575 6        37.977 6
G02  24196685.962 7 127154406.075 7      1338.594 7        46.885 7  24196684.258 6         0.000 6      1043.061 6        37.977 6
G25  21476449.242 9 112859482.233 9      1051.480 9        55.257 9  21476451.664 6         0.000 6       819.335 6        37.977 6
G14  25539529.127 7 134211083.888 7      3367.439 7        42.963 7  25539530.156 6         0.000 6      2623.980 6        37.977 6
> 2019 07 03 18 02  3.0000000  0 12       0.000000000000
G06  24981902.819 7 131280739.775 7       462.394 7        43.463 7  24981906.440 6         0.000 6       360.307 6        37.977 6
G10  24524242.480 7 128875722.034 7     -1488.079 7        44.928 7  24524245.429 6         0.000 6     -1159.543 6        37.977 6
G12  20570541.919 9 108098909.777 9     -1097.704 9        57.191 9  20570540.655 6         0.000 6      -855.354 6        37.977 6
G15  23198820.315 8 121910595.495 8     -3344.957 8        50.699 8  23198819.876 6         0.000 6     -2606.461 6        37.977 6
G20  24871166.076 7 130698813.551 7     -1964.001 7        43.463 7  24871167.211 6         0.000 6     -1530.391 6        37.977 6
G29  22735172.201 8 119474108.564 8      3457.009 8        51.059 8  22735172.011 6         0.000 6      2693.774 6        37.977 6
G19  24605744.085 7 129304014.640 7     -3323.865 7        44.614 7  24605743.767 6         0.000 6     -2590.026 6        37.977 6
G24  20902689.381 9 109844356.454 9      -650.195 9        57.090 9  20902691.008 6         0.000 6      -506.645 6        37.977 6
G32  23483616.506 8 123407205.364 8      2868.634 8        48.790 8  23483618.584 6         0.000 6      2235.300 6        37.977 6
G02  24196431.260 7 127153067.608 7      1338.345 7        46.885 7  24196429.556 6         0.000 6      1042.867 6        37.977 6
G25  21476249.183 9 112858430.915 9      1051.159 9        55.257 9  21476251.605 6         0.000 6       819.085 6        37.977 6
G14  25538888.335 7 134207716.508 7      3367.334 7        42.964 7  25538889.363 6         0.000 6      2623.898 6        37.977 6
> 2019 07 03 18 02  4.0000000  0 12       0.000000000000
G06  24981814.873 7 131280277.614 7       461.930 7        43.463 7  24981818.493 6         0.000 6       359.946 6        37.977 6
G10  24524525.679 7 128877210.251 7     -1488.360 7        44.928 7  24524528.628 6         0.000 6     -1159.762 6        37.977 6
G12  20570750.831 9 108100007.616 9     -1097.976 9        57.191 9  20570749.567 6         0.000 6      -855.566 6        37.977 6
G15  23199456.854 8 121913940.524 8     -3345.110 8        50.699 8  23199456.415 6         0.000 6     -2606.580 6        37.977 6
G20  24871539.811 7 130700777.540 7     -1963.983 7        43.463 7  24871540.947 6         0.000 6     -1530.377 6        37.977 6
G29  22734514.377 8 119470651.680 8      3456.768 8        51.059 8  22734514.187 6         0.000 6      2693.587 6        37.977 6
G19  24606376.624 7 129307338.647 7     -3324.158 7        44.614 7  24606376.306 6         0.000 6     -2590.255 6        37.977 6
G24  20902813.139 9 109845006.806 9      -650.511 9        57.089 9  20902814.766 6         0.000 6      -506.892 6        37.977 6
G32  23483070.656 8 123404336.910 8      2868.281 8        48.791 8  23483072.735 6         0.000 6      2235.025 6        37.977 6
G02  24196176.605 7 127151729.390 7      1338.096 7        46.885 7  24196174.901 6         0.000 6      1042.673 6        37.977 6
G25  21476049.184 9 112857379.917 9      1050.839 9        55.257 9  21476051.606 6         0.000 6       818.835 6        37.977 6
G14  25538247.563 7 134204349.233 7      3367.229 7        42.964 7  25538248.591 6         0.000 6      2623.816 6        37.977 6
> 2019 07 03 18 02  5.0000000  0 12       0.000000000000
G06  24981727.015 7 131279815.917 7       461.466 7        43.791 7  24981730.635 6         0.000 6       359.584 6        37.977 6
G10  24524808.931 7 128878698.749 7     -1488.641 7        44.928 7  24524811.881 6         0.000 6     -1159.981 6        37.977 6
G12  20570959.795 9 108101105.727 9     -1098.247 9        57.191 9  20570958.531 6         0.000 6      -855.777 6        37.977 6
G15  23200093.421 8 121917285.706 8     -3345.262 8        50.698 8  23200092.983 6         0.000 6     -2606.699 6        37.977 6
G20  24871913.543 7 130702741.510 7     -1963.965 7        43.463 7  24871914.679 6         0.000 6     -1530.363 6        37.977 6
G29  22733856.598 8 119467195.036 8      3456.528 8        51.059 8  22733856.408 6         0.000 6      2693.400 6        37.977 6
G19  24607009.218 7 129310662.946 7     -3324.452 7        44.614 7  24607008.901 6         0.000 6     -2590.483 6        37.977 6
G24  20902936.957 9 109845657.476 9      -650.828 9        57.089 9  20902938.584 6         0.000 6      -507.139 6        37.977 6
G32  23482524.874 8 123401468.810 8      2867.928 8        48.791 8  23482526.952 6         0.000 6      2234.750 6        37.977 6
G02  24195921.997 7 127150391.421 7      1337.847 7        46.885 7  24195920.293 6         0.000 6      1042.479 6        37.977 6
G25  21475849.247 9 112856329.239 9      1050.518 9        55.257 9  21475851.669 6         0.000 6       818.586 6        37.977 6
G14  25537606.810 7 134200982.063 7      3367.124 7        42.964 7  25537607.838 6         0.000 6      2623.734 6        37.977 6
> 2019 07 03 18 02  6.0000000  0 12       0.000000000000
G06  24981639.245 7 131279354.684 7       461.002 7        43.791 7  24981642.865 6         0.000 6       359.223 6        37.977 6
G10  24525092.237 7 128880187.529 7     -1488.922 7        44.928 7  24525095.187 6         0.000 6     -1160.200 6        37.977 6
G12  20571168.810 9 108102204.109 9     -1098.518 9        57.191 9  20571167.546 6         0.000 6      -855.988 6        37.977 6
G15  23200730.018 8 121920631.040 8     -3345.414 8        50.698 8  23200729.580 6         0.000 6     -2606.818 6        37.977 6
G20  24872287.271 7 130704705.463 7     -1963.947 7        43.463 7  24872288.407 6         0.000 6     -1530.349 6        37.977 6
G29  22733198.866 8 119463738.632 8      3456.288 8        51.059 8  22733198.676 6         0.000 6      2693.212 6        37.977 6
G19  24607641.868 7 129313987.539 7     -3324.745 7        44.614 7  24607641.551 6         0.000 6     -2590.712 6        37.977 6
G24  20903060.835 9 109846308.461 9      -651.144 9        57.089 9  20903062.463 6         0.000 6      -507.385 6        37.977 6
G32  23481979.159 8 123398601.062 8      2867.575 8        48.791 8  23481981.237 6         0.000 6      2234.475 6        37.977 6
G02  24195667.437 7 127149053.702 7      1337.597 7        46.885 7  24195665.733 6         0.000 6      1042.284 6        37.977 6
G25  21475649.370 9 112855278.882 9      1050.198 9        55.257 9  21475651.792 6         0.000 6       818.336 6        37.977 6
G14  25536966.078 7 134197614.998 7      3367.018 7        42.964 7  25536967.105 6         0.000 6      2623.652 6        37.977 6
> 2019 07 03 18 02  7.0000000  0 12       0.000000000000
G06  24981551.563 7 131278893.915 7       460.538 7        43.791 7  24981555.183 6         0.000 6       358.861 6        37.977 6
G10  24525375.596 7 128881676.589 7     -1489.203 7        44.928 7  24525378.546 6         0.000 6     -1160.419 6        37.977 6
G12  20571377.877 9 108103302.762 9     -1098.789 9        57.191 9  20571376.613 6         0.000 6      -856.200 6        37.977 6
G15  23201366.644 8 121923976.527 8     -3345.567 8        50.698 8  23201366.206 6         0.000 6     -2606.936 6        37.977 6
G20  24872660.996 7 130706669.397 7     -1963.929 7        43.463 7  24872662.132 6         0.000 6     -1530.335 6        37.977 6
G29  22732541.179 8 119460282.469 8      3456.047 8        51.060 8  22732540.988 6         0.000 6      2693.025 6        37.977 6
G19  24608274.574 7 129317312.424 7     -3325.038 7        44.613 7  24608274.257 6         0.000 6     -2590.940 6        37.977 6
G24  20903184.774 9 109846959.763 9      -651.461 9        57.089 9  20903186.401 6         0.000 6      -507.632 6        37.977 6
G32  23481433.511 8 123395733.667 8      2867.223 8        48.791 8  23481435.589 6         0.000 6      2234.200 6        37.977 6
G02  24195412.925 7 127147716.232 7      1337.348 7        46.886 7  24195411.220 6         0.000 6      1042.090 6        37.977 6
G25  21475449.555 9 112854228.846 9      1049.877 9        55.257 9  21475451.977 6         0.000 6       818.086 6        37.977 6
G14  25536325.366 7 134194248.038 7      3366.913 7        42.964 7  25536326.393 6         0.000 6      2623.570 6        37.977 6
> 2019 07 03 18 02  8.0000000  0 12       0.000000000000
G06  24981463.970 7 131278433.610 7       460.074 7        43.791 7  24981467.590 6         0.000 6       358.499 6        37.977 6
G10  24525659.009 7 128883165.930 7     -1489.484 7        44.928 7  24525661.959 6         0.000 6     -1160.638 6        37.977 6
G12  20571586.995 9 108104401.686 9     -1099.061 9        57.191 9  20571585.732 6         0.000 6      -856.411 6        37.977 6
G15  23202003.298 8 121927322.166 8     -3345.719 8        50.698 8  23202002.861 6         0.000 6     -2607.055 6        37.977 6
G20  24873034.718 7 130708633.313 7     -1963.910 7        43.463 7  24873035.854 6         0.000 6     -1530.321 6        37.977 6
G29  22731883.538 8 119456826.546 8      3455.807 8        51.060 8  22731883.347 6         0.000 6      2692.837 6        37.977 6
G19  24608907.335 7 129320637.603 7     -3325.331 7        44.613 7  24608907.019 6         0.000 6     -2591.168 6        37.977 6
G24  20903308.773 9 109847611.382 9      -651.777 9        57.089 9  20903310.400 6         0.000 6      -507.878 6        37.977 6
G32  23480887.931 8 123392866.624 8      2866.870 8        48.791 8  23480890.008 6         0.000 6      2233.925 6        37.977 6
G02  24195158.460 7 127146379.012 7      1337.098 7        46.886 7  24195156.755 6         0.000 6      1041.895 6        37.977 6
G25  21475249.800 9 112853179.130 9      1049.557 9        55.257 9  21475252.222 6         0.000 6       817.837 6        37.977 6
G14  25535684.674 7 134190881.184 7      3366.807 7        42.965 7  25535685.700 6         0.000 6      2623.488 6        37.977 6
> 2019 07 03 18 02  9.0000000  0 12       0.000000000000
G06  24981376.465 7 131277973.769 7       459.609 7        43.791 7  24981380.085 6         0.000 6       358.137 6        37.977 6
G10  24525942.475 7 128884655.552 7     -1489.765 7        44.927 7  24525945.425 6         0.000 6     -1160.857 6        37.977 6
G12  20571796.165 9 108105500.881 9     -1099.332 9        57.191 9  20571794.902 6         0.000 6      -856.622 6        37.977 6
G15  23202639.982 8 121930667.957 8     -3345.871 8        50.697 8  23202639.545 6         0.000 6     -2607.173 6        37.977 6
G20  24873408.436 7 130710597.211 7     -1963.892 7        43.462 7  24873409.572 6         0.000 6     -1530.306 6        37.977 6
G29  22731225.943 8 119453370.864 8      3455.566 8        51.060 8  22731225.752 6         0.000 6      2692.650 6        37.977 6
G19  24609540.153 7 129323963.075 7     -3325.624 7        44.613 7  24609539.837 6         0.000 6     -2591.397 6        37.977 6
G24  20903432.832 9 109848263.317 9      -652.094 9        57.089 9  20903434.460 6         0.000 6      -508.125 6        37.977 6
G32  23480342.417 8 123389999.935 8      2866.516 8        48.792 8  23480344.494 6         0.000 6      2233.650 6        37.977 6
G02  24194904.042 7 127145042.042 7      1336.848 7        46.886 7  24194902.337 6         0.000 6      1041.701 6        37.977 6
G25  21475050.107 9 112852129.734 9      1049.236 9        55.257 9  21475052.528 6         0.000 6       817.587 6        37.977 6
G14  25535044.001 7 134187514.436 7      3366.702 7        42.965 7  25535045.028 6         0.000 6      2623.406 6        37.977 6
> 2019 07 03 18 02 10.0000000  0 12       0.000000000000
G06  24981289.048 7 131277514.393 7       459.145 7        43.791 7  24981292.669 6         0.000 6       357.775 6        37.977 6
G10  24526225.995 7 128886145.455 7     -1490.046 7        44.927 7  24526228.945 6         0.000 6     -1161.075 6        37.977 6
G12  20572005.387 9 108106600.348 9     -1099.603 9        57.191 9  20572004.123 6         0.000 6      -856.833 6        37.977 6
G15  23203276.695 8 121934013.899 8     -3346.023 8        50.697 8  23203276.258 6         0.000 6     -2607.292 6        37.977 6
G20  24873782.150 7 130712561.090 7     -1963.873 7        43.462 7  24873783.287 6         0.000 6     -1530.292 6        37.977 6
G29  22730568.393 8 119449915.423 8      3455.325 8        51.060 8  22730568.202 6         0.000 6      2692.462 6        37.977 6
G19  24610173.026 7 129327288.840 7     -3325.917 7        44.613 7  24610172.710 6         0.000 6     -2591.625 6        37.977 6
G24  20903556.952 9 109848915.568 9      -652.410 9        57.089 9  20903558.579 6         0.000 6      -508.372 6        37.977 6
G32  23479796.971 8 123387133.600 8      2866.163 8        48.792 8  23479799.048 6         0.000 6      2233.375 6        37.977 6
G02  24194649.672 7 127143705.321 7      1336.598 7        46.886 7  24194647.967 6         0.000 6      1041.506 6        37.977 6
G25  21474850.474 9 112851080.659 9      1048.916 9        55.257 9  21474852.896 6         0.000 6       817.337 6        37.977 6
G14  25534403.349 7 134184147.793 7      3366.596 7        42.965 7  25534404.375 6         0.000 6      2623.323 6        37.977 6
> 2019 07 03 18 02 11.0000000  0 12       0.000000000000
G06  24981201.720 7 131277055.481 7       458.680 7        43.791 7  24981205.340 6         0.000 6       357.414 6        37.977 6
G10  24526509.568 7 128887635.639 7     -1490.326 7        44.927 7  24526512.518 6         0.000 6     -1161.294 6        37.977 6
G12  20572214.660 9 108107700.085 9     -1099.874 9        57.190 9  20572213.397 6         0.000 6      -857.045 6        37.977 6
G15  23203913.436 8 121937359.994 8     -3346.175 8        50.697 8  23203912.999 6         0.000 6     -2607.410 6        37.977 6
G20  24874155.861 7 130714524.951 7     -1963.855 7        43.462 7  24874156.998 6         0.000 6     -1530.277 6        37.977 6
G29  22729910.890 8 119446460.222 8      3455.084 8        51.061 8  22729910.698 6         0.000 6      2692.275 6        37.977 6
G19  24610805.954 7 129330614.897 7     -3326.209 7        44.613 7  24610805.639 6         0.000 6     -2591.853 6        37.977 6
G24  20903681.131 9 109849568.137 9      -652.727 9        57.089 9  20903682.759 6         0.000 6      -508.618 6        37.977 6
G32  23479251.592 8 123384267.617 8      2865.810 8        48.792 8  23479253.668 6         0.000 6      2233.100 6        37.977 6
G02  24194395.350 7 127142368.850 7      1336.348 7        46.886 7  24194393.645 6         0.000 6      1041.311 6        37.977 6
G25  21474650.903 9 112850031.904 9      1048.596 9        55.258 9  21474653.324 6         0.000 6       817.088 6        37.977 6
G14  25533762.718 7 134180781.256 7      3366.490 7        42.965 7  25533763.743 6         0.000 6      2623.241 6        37.977 6
> 2019 07 03 18 02 12.0000000  0 12       0.000000000000
G06  24981114.480 7 131276597.034 7       458.216 7        43.791 7  24981118.100 6         0.000 6       357.052 6        37.977 6
G10  24526793.194 7 128889126.103 7     -1490.607 7        44.927 7  24526796.145 6         0.000 6     -1161.512 6        37.977 6
G12  20572423.985 9 108108800.094 9     -1100.145 9        57.190 9  20572422.721 6         0.000 6      -857.256 6        37.977 6
G15  23204550.206 8 121940706.241 8     -3346.327 8        50.697 8  23204549.770 6         0.000 6     -2607.528 6        37.977 6
G20  24874529.568 7 130716488.792 7     -1963.836 7        43.462 7  24874530.705 6         0.000 6     -1530.263 6        37.977 6
G29  22729253.432 8 119443005.263 8      3454.843 8        51.061 8  22729253.240 6         0.000 6      2692.087 6        37.977 6
G19  24611438.939 7 129333941.247 7     -3326.502 7        44.612 7  24611438.624 6         0.000 6     -2592.081 6        37.977 6
G24  20903805.371 9 109850221.021 9      -653.043 9        57.089 9  20903806.999 6         0.000 6      -508.865 6        37.977 6
G32  23478706.280 8 123381401.988 8      2865.457 8        48.792 8  23478708.356 6         0.000 6      2232.824 6        37.977 6
G02  24194141.075 7 127141032.629 7      1336.098 7        46.886 7  24194139.370 6         0.000 6      1041.116 6        37.977 6
G25  21474451.392 9 112848983.469 9      1048.275 9        55.258 9  21474453.813 6         0.000 6       816.838 6        37.977 6
G14  25533122.106 7 134177414.824 7      3366.385 7        42.965 7  25533123.131 6         0.000 6      2623.158 6        37.977 6
> 2019 07 03 18 02 13.0000000  0 12       0.000000000000
G06  24981027.329 7 131276139.051 7       457.751 7        43.791 7  24981030.949 6         0.000 6       356.690 6        37.977 6
G10  24527076.874 7 128890616.847 7     -1490.887 7        44.927 7  24527079.825 6         0.000 6     -1161.731 6        37.977 6
G12  20572633.361 9 108109900.373 9     -1100.415 9        57.190 9  20572632.098 6         0.000 6      -857.467 6        37.977 6
G15  23205187.006 8 121944052.639 8     -3346.478 8        50.696 8  23205186.570 6         0.000 6     -2607.647 6        37.977 6
G20  24874903.272 7 130718452.615 7     -1963.817 7        43.462 7  24874904.409 6         0.000 6     -1530.248 6        37.977 6
G29  22728596.020 8 119439550.545 8      3454.602 8        51.061 8  22728595.828 6         0.000 6      2691.899 6        37.977 6
G19  24612071.979 7 129337267.889 7     -3326.794 7        44.612 7  24612071.665 6         0.000 6     -2592.309 6        37.977 6
G24  20903929.671 9 109850874.223 9      -653.360 9        57.089 9  20903931.299 6         0.000 6      -509.112 6        37.977 6
G32  23478161.035 8 123378536.712 8      2865.103 8        48.792 8  23478163.111 6         0.000 6      2232.549 6        37.977 6
G02  24193886.848 7 127139696.659 7      1335.848 7        46.886 7  24193885.142 6         0.000 6      1040.921 6        37.977 6
G25  21474251.942 9 112847935.354 9      1047.955 9        55.258 9  21474254.364 6         0.000 6       816.589 6        37.977 6
G14  25532481.514 7 134174048.499 7      3366.279 7        42.966 7  25532482.539 6         0.000 6      2623.076 6        37.977 6
> 2019 07 03 18 02 14.0000000  0 12       0.000000000000
G06  24980940.266 7 131275681.533 7       457.287 7        43.791 7  24980943.886 6         0.000 6       356.328 6        37.977 6
G10  24527360.607 7 128892107.872 7     -1491.167 7        44.927 7  24527363.558 6         0.000 6     -1161.949 6        37.977 6
G12  20572842.789 9 108111000.923 9     -1100.686 9        57.190 9  20572841.526 6         0.000 6      -857.678 6        37.977 6
G15  23205823.834 8 121947399.189 8     -3346.630 8        50.696 8  23205823.398 6         0.000 6     -2607.765 6        37.977 6
G20  24875276.972 7 130720416.419 7     -1963.798 7        43.462 7  24875278.110 6         0.000 6     -1530.233 6        37.977 6
G29  22727938.654 8 119436096.067 8      3454.361 8        51.061 8  22727938.462 6         0.000 6      2691.711 6        37.977 6
G19  24612705.075 7 129340594.824 7     -3327.087 7        44.612 7  24612704.761 6         0.000 6     -2592.536 6        37.977 6
G24  20904054.032 9 109851527.741 9      -653.677 9        57.089 9  20904055.659 6         0.000 6      -509.359 6        37.977 6
G32  23477615.858 8 123375671.789 8      2864.749 8        48.793 8  23477617.934 6         0.000 6      2232.273 6        37.977 6
G02  24193632.668 7 127138360.938 7      1335.598 7        46.886 7  24193630.962 6         0.000 6      1040.727 6        37.977 6
G25  21474052.553 9 112846887.560 9      1047.635 9        55.258 9  21474054.975 6         0.000 6       816.339 6        37.977 6
G14  25531840.943 7 134170682.279 7      3366.173 7        42.966 7  25531841.967 6         0.000 6      2622.993 6        37.977 6
> 2019 07 03 18 02 15.0000000  0 12       0.000000000000
G06  24980853.291 7 131275224.479 7       456.822 7        43.791 7  24980856.911 6         0.000 6       355.966 6        37.977 6
G10  24527644.393 7 128893599.176 7     -1491.448 7        44.927 7  24527647.344 6         0.000 6     -1162.168 6        37.977 6
G12  20573052.269 9 108112101.744 9     -1100.957 9        57.190 9  20573051.005 6         0.000 6      -857.889 6        37.977 6
G15  23206460.691 8 121950745.891 8     -3346.782 8        50.696 8  23206460.255 6         0.000 6     -2607.883 6        37.977 6
G20  24875650.669 7 130722380.204 7     -1963.779 7        43.462 7  24875651.806 6         0.000 6     -1530.218 6        37.977 6
G29  22727281.334 8 119432641.831 8      3454.120 8        51.062 8  22727281.141 6         0.000 6      2691.523 6        37.977 6
G19  24613338.226 7 129343922.051 7     -3327.379 7        44.612 7  24613337.912 6         0.000 6     -2592.764 6        37.977 6
G24  20904178.453 9 109852181.576 9      -653.994 9        57.089 9  20904180.080 6         0.000 6      -509.605 6        37.977 6
G32  23477070.748 8 123372807.221 8      2864.396 8        48.793 8  23477072.824 6         0.000 6      2231.998 6        37.977 6
G02  24193378.536 7 127137025.468 7      1335.348 7        46.886 7  24193376.830 6         0.000 6      1040.531 6        37.977 6
G25  21473853.226 9 112845840.086 9      1047.315 9        55.258 9  21473855.647 6         0.000 6       816.090 6        37.977 6
G14  25531200.391 7 134167316.166 7      3366.067 7        42.966 7  25531201.415 6         0.000 6      2622.911 6        37.977 6
> 2019 07 03 18 02 16.0000000  0 12       0.000000000000
G06  24980766.405 7 131274767.891 7       456.357 7        43.791 7  24980770.025 6         0.000 6       355.603 6        37.977 6
G10  24527928.233 7 128895090.761 7     -1491.728 7        44.927 7  24527931.184 6         0.000 6     -1162.386 6        37.977 6
G12  20573261.799 9 108113202.835 9     -1101.228 9        57.190 9  20573260.536 6         0.000 6      -858.100 6        37.977 6
G15  23207097.576 8 121954092.744 8     -3346.933 8        50.696 8  23207097.141 6         0.000 6     -2608.001 6        37.977 6
G20  24876024.361 7 130724343.970 7     -1963.760 7        43.462 7  24876025.500 6         0.000 6     -1530.203 6        37.977 6
G29  22726624.060 8 119429187.837 8      3453.878 8        51.062 8  22726623.867 6         0.000 6      2691.335 6        37.977 6
G19  24613971.433 7 129347249.570 7     -3327.671 7        44.611 7  24613971.120 6         0.000 6     -2592.992 6        37.977 6
G24  20904302.934 9 109852835.727 9      -654.310 9        57.089 9  20904304.561 6         0.000 6      -509.852 6        37.977 6
G32  23476525.705 8 123369943.006 8      2864.042 8        48.793 8  23476527.781 6         0.000 6      2231.722 6        37.977 6
G02  24193124.452 7 127135690.248 7      1335.098 7        46.886 7  24193122.745 6         0.000 6      1040.336 6        37.977 6
G25  21473653.959 9 112844792.933 9      1046.995 9        55.258 9  21473656.380 6         0.000 6       815.840 6        37.977 6
G14  25530559.860 7 134163950.158 7      3365.961 7        42.966 7  25530560.884 6         0.000 6      2622.828 6        37.977 6
> 2019 07 03 18 02 17.0000000  0 12       0.000000000000
G06  24980679.608 7 131274311.766 7       455.893 7        43.791 7  24980683.227 6         0.000 6       355.241 6        37.977 6
G10  24528212.126 7 128896582.626 7     -1492.008 7        44.927 7  24528215.077 6         0.000 6     -1162.604 6        37.977 6
G12  20573471.382 9 108114304.197 9     -1101.498 9        57.190 9  20573470.119 6         0.000 6      -858.310 6        37.977 6
G15  23207734.491 8 121957439.749 8     -3347.084 8        50.695 8  23207734.056 6         0.000 6     -2608.119 6        37.977 6
G20  24876398.051 7 130726307.717 7     -1963.740 7        43.461 7  24876399.189 6         0.000 6     -1530.188 6        37.977 6
G29  22725966.832 8 119425734.084 8      3453.637 8        51.062 8  22725966.639 6         0.000 6      2691.146 6        37.977 6
G19  24614604.695 7 129350577.381 7     -3327.963 7        44.611 7  24614604.383 6         0.000 6     -2593.219 6        37.977 6
G24  20904427.475 9 109853490.196 9      -654.627 9        57.089 9  20904429.102 6         0.000 6      -510.099 6        37.977 6
G32  23475980.730 8 123367079.145 8      2863.688 8        48.793 8  23475982.805 6         0.000 6      2231.446 6        37.977 6
G02  24192870.415 7 127134355.278 7      1334.847 7        46.886 7  24192868.709 6         0.000 6      1040.141 6        37.977 6
G25  21473454.753 9 112843746.099 9      1046.674 9        55.258 9  21473457.174 6         0.000 6       815.591 6        37.977 6
G14  25529919.349 7 134160584.257 7      3365.854 7        42.967 7  25529920.373 6         0.000 6      2622.745 6        37.977 6
> 2019 07 03 18 02 18.0000000  0 12       0.000000000000
G06  24980592.898 7 131273856.107 7       455.428 7        43.791 7  24980596.518 6         0.000 6       354.879 6        37.977 6
G10  24528496.072 7 128898074.771 7     -1492.287 7        44.927 7  24528499.024 6         0.000 6     -1162.822 6        37.977 6
G12  20573681.016 9 108115405.830 9     -1101.769 9        57.190 9  20573679.752 6         0.000 6      -858.521 6        37.977 6
G15  23208371.434 8 121960786.905 8     -3347.236 8        50.695 8  23208371.000 6         0.000 6     -2608.237 6        37.977 6
G20  24876771.736 7 130728271.444 7     -1963.721 7        43.461 7  24876772.875 6         0.000 6     -1530.173 6        37.977 6
G29  22725309.650 8 119422280.572 8      3453.395 8        51.062 8  22725309.456 6         0.000 6      2690.958 6        37.977 6
G19  24615238.013 7 129353905.484 7     -3328.255 7        44.611 7  24615237.701 6         0.000 6     -2593.447 6        37.977 6
G24  20904552.076 9 109854144.981 9      -654.944 9        57.089 9  20904553.704 6         0.000 6      -510.346 6        37.977 6
G32  23475435.821 8 123364215.637 8      2863.334 8        48.793 8  23475437.897 6         0.000 6      2231.170 6        37.977 6
G02  24192616.426 7 127133020.559 7      1334.597 7        46.887 7  24192614.719 6         0.000 6      1039.946 6        37.977 6
G25  21473255.608 9 112842699.585 9      1046.354 9        55.258 9  21473258.029 6         0.000 6       815.341 6        37.977 6
G14  25529278.859 7 134157218.462 7      3365.748 7        42.967 7  25529279.882 6         0.000 6      2622.662 6        37.977 6
> 2019 07 03 18 02 19.0000000  0 12       0.000000000000
G06  24980506.278 7 131273400.913 7       454.963 7        43.791 7  24980509.897 6         0.000 6       354.517 6        37.977 6
G10  24528780.072 7 128899567.196 7     -1492.567 7        44.926 7  24528783.023 6         0.000 6     -1163.040 6        37.977 6
G12  20573890.701 9 108116507.733 9     -1102.039 9        57.190 9  20573889.438 6         0.000 6      -858.732 6        37.977 6
G15  23209008.406 8 121964134.212 8     -3347.387 8        50.695 8  23209007.972 6         0.000 6     -2608.354 6        37.977 6
G20  24877145.418 7 130730235.152 7     -1963.702 7        43.461 7  24877146.557 6         0.000 6     -1530.158 6        37.977 6
G29  22724652.513 8 119418827.303 8      3453.153 8        51.063 8  22724652.320 6         0.000 6      2690.770 6        37.977 6
G19  24615871.387 7 129357233.879 7     -3328.547 7        44.611 7  24615871.075 6         0.000 6     -2593.674 6        37.977 6
G24  20904676.738 9 109854800.083 9      -655.261 9        57.089 9  20904678.366 6         0.000 6      -510.593 6        37.977 6
G32  23474890.981 8 123361352.484 8      2862.980 8        48.794 8  23474893.056 6         0.000 6      2230.895 6        37.977 6
G02  24192362.484 7 127131686.090 7      1334.346 7        46.887 7  24192360.778 6         0.000 6      1039.751 6        37.977 6
G25  21473056.523 9 112841653.392 9      1046.034 9        55.258 9  21473058.944 6         0.000 6       815.092 6        37.977 6
G14  25528638.388 7 134153852.773 7      3365.641 7        42.967 7  25528639.411 6         0.000 6      2622.579 6        37.977 6
> 2019 07 03 18 02 20.0000000  0 12       0.000000000000
G06  24980419.745 7 131272946.183 7       454.498 7        43.791 7  24980423.365 6         0.000 6       354.154 6        37.977 6
G10  24529064.124 7 128901059.900 7     -1492.847 7        44.926 7  24529067.076 6         0.000 6     -1163.258 6        37.977 6
G12  20574100.438 9 108117609.907 9     -1102.309 9        57.190 9  20574099.175 6         0.000 6      -858.943 6        37.977 6
G15  23209645.407 8 121967481.670 8     -3347.538 8        50.695 8  23209644.973 6         0.000 6     -2608.472 6        37.977 6
G20  24877519.096 7 130732198.841 7     -1963.682 7        43.461 7  24877520.235 6         0.000 6     -1530.143 6        37.977 6
G29  22723995.423 8 119415374.275 8      3452.911 8        51.063 8  22723995.229 6         0.000 6      2690.581 6        37.977 6
G19  24616504.816 7 129360562.566 7     -3328.838 7        44.610 7  24616504.504 6         0.000 6     -2593.901 6        37.977 6
G24  20904801.460 9 109855455.501 9      -655.578 9        57.089 9  20904803.088 6         0.000 6      -510.840 6        37.977 6
G32  23474346.207 8 123358489.685 8      2862.626 8        48.794 8  23474348.282 6         0.000 6      2230.619 6        37.977 6
G02  24192108.591 7 127130351.873 7      1334.095 7        46.887 7  24192106.884 6         0.000 6      1039.555 6        37.977 6
G25  21472857.500 9 112840607.519 9      1045.714 9        55.258 9  21472859.921 6         0.000 6       814.842 6        37.977 6
G14  25527997.938 7 134150487.191 7      3365.535 7        42.967 7  25527998.960 6         0.000 6      2622.496 6        37.977 6
> 2019 07 03 18 02 21.0000000  0 12       0.000000000000
G06  24980333.301 7 131272491.918 7       454.033 7        43.791 7  24980336.921 6         0.000 6       353.792 6        37.977 6
G10  24529348.230 7 128902552.884 7     -1493.126 7        44.926 7  24529351.182 6         0.000 6     -1163.476 6        37.977 6
G12  20574310.226 9 108118712.350 9     -1102.580 9        57.190 9  20574308.963 6         0.000 6      -859.153 6        37.977 6
G15  23210282.437 8 121970829.279 8     -3347.689 8        50.694 8  23210282.003 6         0.000 6     -2608.590 6        37.977 6
G20  24877892.771 7 130734162.510 7     -1963.662 7        43.461 7  24877893.910 6         0.000 6     -1530.127 6        37.977 6
G29  22723338.379 8 119411921.488 8      3452.669 8        51.063 8  22723338.185 6         0.000 6      2690.393 6        37.977 6
G19  24617138.301 7 129363891.544 7     -3329.130 7        44.610 7  24617137.989 6         0.000 6     -2594.129 6        37.977 6
G24  20904926.243 9 109856111.237 9      -655.894 9        57.089 9  20904927.870 6         0.000 6      -511.087 6        37.977 6
G32  23473801.502 8 123355627.240 8      2862.272 8        48.794 8  23473803.576 6         0.000 6      2230.343 6        37.977 6
G02  24191854.745 7 127129017.906 7      1333.844 7        46.887 7  24191853.038 6         0.000 6      1039.360 6        37.977 6
G25  21472658.538 9 112839561.965 9      1045.394 9        55.258 9  21472660.959 6         0.000 6       814.593 6        37.977 6
G14  25527357.508 7 134147121.716 7      3365.428 7        42.967 7  25527358.530 6         0.000 6      2622.413 6        37.977 6
> 2019 07 03 18 02 22.0000000  0 12       0.000000000000
G06  24980246.946 7 131272038.119 7       453.568 7        43.791 7  24980250.566 6         0.000 6       353.430 6        37.977 6
G10  24529632.389 7 128904046.148 7     -1493.406 7        44.926 7  24529635.342 6         0.000 6     -1163.694 6        37.977 6
G12  20574520.066 9 108119815.065 9     -1102.850 9        57.189 9  20574518.803 6         0.000 6      -859.364 6        37.977 6
G15  23210919.495 8 121974177.039 8     -3347.840 8        50.694 8  23210919.062 6         0.000 6     -2608.707 6        37.977 6
G20  24878266.441 7 130736126.159 7     -1963.643 7        43.461 7  24878267.581 6         0.000 6     -1530.112 6        37.977 6
G29  22722681.381 8 119408468.944 8      3452.427 8        51.063 8  22722681.186 6         0.000 6      2690.204 6        37.977 6
G19  24617771.841 7 129367220.814 7     -3329.421 7        44.610 7  24617771.530 6         0.000 6     -2594.356 6        37.977 6
G24  20905051.085 9 109856767.289 9      -656.211 9        57.089 9  20905052.713 6         0.000 6      -511.334 6        37.977 6
G32  23473256.863 8 123352765.149 8      2861.917 8        48.794 8  23473258.937 6         0.000 6      2230.066 6        37.977 6
G02  24191600.946 7 127127684.189 7      1333.593 7        46.887 7  24191599.239 6         0.000 6      1039.164 6        37.977 6
G25  21472459.636 9 112838516.732 9      1045.074 9        55.258 9  21472462.057 6         0.000 6       814.344 6        37.977 6
G14  25526717.099 7 134143756.347 7      3365.322 7        42.968 7  25526718.120 6         0.000 6      2622.330 6        37.977 6
> 2019 07 03 18 02 23.0000000  0 12       0.000000000000
G06  24980160.679 7 131271584.784 7       453.103 7        43.791 7  24980164.299 6         0.000 6       353.067 6        37.977 6
G10  24529916.602 7 128905539.691 7     -1493.685 7        44.926 7  24529919.554 6         0.000 6     -1163.911 6        37.977 6
G12  20574729.957 9 108120918.049 9     -1103.120 9        57.189 9  20574728.694 6         0.000 6      -859.574 6        37.977 6
G15  23211556.582 8 121977524.950 8     -3347.990 8        50.694 8  23211556.149 6         0.000 6     -2608.825 6        37.977 6
G20  24878640.108 7 130738089.788 7     -1963.623 7        43.461 7  24878641.248 6         0.000 6     -1530.097 6        37.977 6
G29  22722024.429 8 119405016.642 8      3452.185 8        51.064 8  22722024.234 6         0.000 6      2690.016 6        37.977 6
G19  24618405.436 7 129370550.376 7     -3329.713 7        44.610 7  24618405.126 6         0.000 6     -2594.583 6        37.977 6
G24  20905175.988 9 109857423.659 9      -656.528 9        57.089 9  20905177.616 6         0.000 6      -511.581 6        37.977 6
G32  23472712.292 8 123349903.413 8      2861.563 8        48.794 8  23472714.366 6         0.000 6      2229.790 6        37.977 6
G02  24191347.196 7 127126350.724 7      1333.342 7        46.887 7  24191345.489 6         0.000 6      1038.969 6        37.977 6
G25  21472260.796 9 112837471.819 9      1044.754 9        55.258 9  21472263.217 6         0.000 6       814.094 6        37.977 6
G14  25526076.710 7 134140391.084 7      3365.215 7        42.968 7  25526077.731 6         0.000 6      2622.247 6        37.977 6
> 2019 07 03 18 02 24.0000000  0 12       0.000000000000
G06  24980074.501 7 131271131.915 7       452.638 7        43.791 7  24980078.120 6         0.000 6       352.705 6        37.977 6
G10  24530200.867 7 128907033.513 7     -1493.964 7        44.926 7  24530203.820 6         0.000 6     -1164.129 6        37.977 6
G12  20574939.899 9 108122021.304 9     -1103.390 9        57.189 9  20574938.636 6         0.000 6      -859.785 6        37.977 6
G15  23212193.698 8 121980873.012 8     -3348.141 8        50.694 8  23212193.265 6         0.000 6     -2608.942 6        37.977 6
G20  24879013.771 7 130740053.397 7     -1963.603 7        43.461 7  24879014.911 6         0.000 6     -1530.081 6        37.977 6
G29  22721367.523 8 119401564.582 8      3451.943 8        51.064 8  22721367.328 6         0.000 6      2689.827 6        37.977 6
G19  24619039.087 7 129373880.228 7     -3330.004 7        44.610 7  24619038.777 6         0.000 6     -2594.810 6        37.977 6
G24  20905300.952 9 109858080.345 9      -656.845 9        57.088 9  20905302.579 6         0.000 6      -511.828 6        37.977 6
G32  23472167.788 8 123347042.031 8      2861.208 8        48.795 8  23472169.862 6         0.000 6      2229.514 6        37.977 6
G02  24191093.493 7 127125017.510 7      1333.091 7        46.887 7  24191091.786 6         0.000 6      1038.773 6        37.977 6
G25  21472062.016 9 112836427.226 9      1044.434 9        55.259 9  21472064.437 6         0.000 6       813.845 6        37.977 6
G14  25525436.341 7 134137025.929 7      3365.108 7        42.968 7  25525437.361 6         0.000 6      2622.164 6        37.977 6
> 2019 07 03 18 02 25.0000000  0 12       0.000000000000
G06  24979988.411 7 131270679.511 7       452.172 7        43.791 7  24979992.030 6         0.000 6       352.342 6        37.977 6
G10  24530485.186 7 128908527.614 7     -1494.244 7        44.926 7  24530488.138 6         0.000 6     -1164.346 6        37.977 6
G12  20575149.893 9 108123124.828 9     -1103.660 9        57.189 9  20575148.630 6         0.000 6      -859.995 6        37.977 6
G15  23212830.842 8 121984221.224 8     -3348.292 8        50.693 8  23212830.409 6         0.000 6     -2609.060 6        37.977 6
G20  24879387.430 7 130742016.986 7     -1963.583 7        43.460 7  24879388.570 6         0.000 6     -1530.065 6        37.977 6
G29  22720710.663 8 119398112.765 8      3451.701 8        51.064 8  22720710.468 6         0.000 6      2689.638 6        37.977 6
G19  24619672.794 7 129377210.372 7     -3330.295 7        44.609 7  24619672.484 6         0.000 6     -2595.037 6        37.977 6
G24  20905425.975 9 109858737.349 9      -657.162 9        57.088 9  20905427.603 6         0.000 6      -512.075 6        37.977 6
G32  23471623.352 8 123344181.004 8      2860.854 8        48.795 8  23471625.426 6         0.000 6      2229.238 6        37.977 6
G02  24190839.838 7 127123684.547 7      1332.840 7        46.887 7  24190838.131 6         0.000 6      1038.577 6        37.977 6
G25  21471863.297 9 112835382.952 9      1044.114 9        55.259 9  21471865.718 6         0.000 6       813.596 6        37.977 6
G14  25524795.992 7 134133660.881 7      3365.001 7        42.968 7  25524797.012 6         0.000 6      2622.080 6        37.977 6
> 2019 07 03 18 02 26.0000000  0 12       0.000000000000
G06  24979902.410 7 131270227.572 7       451.707 7        43.791 7  24979906.029 6         0.000 6       351.980 6        37.977 6
G10  24530769.557 7 128910021.994 7     -1494.523 7        44.926 7  24530772.510 6         0.000 6     -1164.564 6        37.977 6
G12  20575359.938 9 108124228.623 9     -1103.930 9        57.189 9  20575358.676 6         0.000 6      -860.206 6        37.977 6
G15  23213468.016 8 121987569.587 8     -3348.442 8        50.693 8  23213467.583 6         0.000 6     -2609.177 6        37.977 6
G20  24879761.086 7 130743980.556 7     -1963.563 7        43.460 7  24879762.226 6         0.000 6     -1530.050 6        37.977 6
G29  22720053.849 8 119394661.190 8      3451.458 8        51.064 8  22720053.654 6         0.000 6      2689.449 6        37.977 6
G19  24620306.556 7 129380540.807 7     -3330.586 7        44.609 7  24620306.246 6         0.000 6     -2595.263 6        37.977 6
G24  20905551.059 9 109859394.669 9      -657.479 9        57.088 9  20905552.687 6         0.000 6      -512.322 6        37.977 6
G32  23471078.984 8 123341320.332 8      2860.499 8        48.795 8  23471081.057 6         0.000 6      2228.961 6        37.977 6
G02  24190586.231 7 127122351.835 7      1332.589 7        46.887 7  24190584.523 6         0.000 6      1038.382 6        37.977 6
G25  21471664.640 9 112834338.999 9      1043.794 9        55.259 9  21471667.060 6         0.000 6       813.347 6        37.977 6
G14  25524155.664 7 134130295.939 7      3364.894 7        42.969 7  25524156.684 6         0.000 6      2621.997 6        37.977 6
> 2019 07 03 18 02 27.0000000  0 12       0.000000000000
G06  24979816.497 7 131269776.099 7       451.242 7        43.791 7  24979820.116 6         0.000 6       351.617 6        37.977 6
G10  24531053.982 7 128911516.654 7     -1494.802 7        44.926 7  24531056.935 6         0.000 6     -1164.781 6        37.977 6
G12  20575570.035 9 108125332.687 9     -1104.200 9        57.189 9  20575568.772 6         0.000 6      -860.416 6        37.977 6
G15  23214105.217 8 121990918.100 8     -3348.593 8        50.693 8  23214104.785 6         0.000 6     -2609.294 6        37.977 6
G20  24880134.738 7 130745944.105 7     -1963.542 7        43.460 7  24880135.878 6         0.000 6     -1530.034 6        37.977 6
G29  22719397.082 8 119391209.857 8      3451.216 8        51.065 8  22719396.886 6         0.000 6      2689.260 6        37.977 6
G19  24620940.373 7 129383871.533 7     -3330.877 7        44.609 7  24620940.063 6         0.000 6     -2595.490 6        37.977 6
G24  20905676.204 9 109860052.307 9      -657.796 9        57.088 9  20905677.831 6         0.000 6      -512.569 6        37.977 6
G32  23470534.683 8 123338460.014 8      2860.144 8        48.795 8  23470536.756 6         0.000 6      2228.685 6        37.977 6
G02  24190332.672 7 127121019.375 7      1332.337 7        46.887 7  24190330.964 6         0.000 6      1038.186 6        37.977 6
G25  21471466.042 9 112833295.365 9      1043.475 9        55.259 9  21471468.463 6         0.000 6       813.097 6        37.977 6
G14  25523515.356 7 134126931.105 7      3364.787 7        42.969 7  25523516.375 6         0.000 6      2621.913 6        37.977 6
> 2019 07 03 18 02 28.0000000  0 12       0.000000000000
G06  24979730.673 7 131269325.091 7       450.776 7        43.791 7  24979734.292 6         0.000 6       351.254 6        37.977 6
G10  24531338.460 7 128913011.592 7     -1495.080 7        44.926 7  24531341.413 6         0.000 6     -1164.998 6        37.977 6
G12  20575780.183 9 108126437.022 9     -1104.470 9        57.189 9  20575778.920 6         0.000 6      -860.626 6        37.977 6
G15  23214742.447 8 121994266.764 8     -3348.743 8        50.693 8  23214742.015 6         0.000 6     -2609.411 6        37.977 6
G20  24880508.385 7 130747907.633 7     -1963.522 7        43.460 7  24880509.526 6         0.000 6     -1530.018 6        37.977 6
G29  22718740.360 8 119387758.767 8      3450.973 8        51.065 8  22718740.164 6         0.000 6      2689.071 6        37.977 6
G19  24621574.245 7 129387202.550 7     -3331.168 7        44.609 7  24621573.936 6         0.000 6     -2595.717 6        37.977 6
G24  20905801.408 9 109860710.261 9      -658.113 9        57.088 9  20905803.036 6         0.000 6      -512.816 6        37.977 6
G32  23469990.449 8 123335600.051 8      2859.789 8        48.795 8  23469992.522 6         0.000 6      2228.408 6        37.977 6
G02  24190079.160 7 127119687.166 7      1332.086 7        46.887 7  24190077.452 6         0.000 6      1037.990 6        37.977 6
G25  21471267.506 9 112832252.052 9      1043.155 9        55.259 9  21471269.927 6         0.000 6       812.848 6        37.977 6
G14  25522875.069 7 134123566.378 7      3364.680 7        42.969 7  25522876.088 6         0.000 6      2621.830 6        37.977 6
> 2019 07 03 18 02 29.0000000  0 12       0.000000000000
G06  24979644.937 7 131268874.548 7       450.311 7        43.791 7  24979648.556 6         0.000 6       350.892 6        37.977 6
G10  24531622.991 7 128914506.809 7     -1495.359 7        44.925 7  24531625.944 6         0.000 6     -1165.216 6        37.977 6
G12  20575990.382 9 108127541.626 9     -1104.740 9        57.189 9  20575989.120 6         0.000 6      -860.837 6        37.977 6
G15  23215379.706 8 121997615.578 8     -3348.893 8        50.693 8  23215379.274 6         0.000 6     -2609.528 6        37.977 6
G20  24880882.029 7 130749871.141 7     -1963.501 7        43.460 7  24880883.170 6         0.000 6     -1530.002 6        37.977 6
G29  22718083.685 8 119384307.920 8      3450.730 8        51.065 8  22718083.489 6         0.000 6      2688.882 6        37.977 6
G19  24622208.173 7 129390533.857 7     -3331.459 7        44.608 7  24622207.865 6         0.000 6     -2595.943 6        37.977 6
G24  20905926.673 9 109861368.533 9      -658.431 9        57.088 9  20905928.301 6         0.000 6      -513.063 6        37.977 6
G32  23469446.283 8 123332740.443 8      2859.434 8        48.796 8  23469448.356 6         0.000 6      2228.132 6        37.977 6
G02  24189825.697 7 127118355.208 7      1331.834 7        46.888 7  24189823.988 6         0.000 6      1037.794 6        37.977 6
G25  21471069.031 9 112831209.058 9      1042.835 9        55.259 9  21471071.451 6         0.000 6       812.599 6        37.977 6
G14  25522234.801 7 134120201.758 7      3364.572 7        42.969 7  25522235.820 6         0.000 6      2621.746 6        37.977 6
> 2019 07 03 18 02 30.0000000  0 12       0.000000000000
G06  24979559.290 7 131268424.471 7       449.845 7        43.791 7  24979562.909 6         0.000 6       350.529 6        37.977 6
G10  24531907.575 7 128916002.305 7     -1495.638 7        44.925 7  24531910.528 6         0.000 6     -1165.433 6        37.977 6
G12  20576200.633 9 108128646.500 9     -1105.010 9        57.189 9  20576199.371 6         0.000 6      -861.047 6        37.977 6
G15  23216016.994 8 122000964.542 8     -3349.043 8        50.692 8  23216016.562 6         0.000 6     -2609.645 6        37.977 6
G20  24881255.669 7 130751834.629 7     -1963.481 7        43.460 7  24881256.810 6         0.000 6     -1529.986 6        37.977 6
G29  22717427.056 8 119380857.315 8      3450.487 8        51.065 8  22717426.860 6         0.000 6      2688.692 6        37.977 6
G19  24622842.156 7 129393865.455 7     -3331.749 7        44.608 7  24622841.848 6         0.000 6     -2596.170 6        37.977 6
G24  20906051.999 9 109862027.122 9      -658.748 9        57.088 9  20906053.626 6         0.000 6      -513.310 6        37.977 6
G32  23468902.185 8 123329881.191 8      2859.079 8        48.796 8  23468904.257 6         0.000 6      2227.855 6        37.977 6
G02  24189572.281 7 127117023.502 7      1331.583 7        46.888 7  24189570.572 6         0.000 6      1037.598 6        37.977 6
G25  21470870.617 9 112830166.384 9      1042.515 9        55.259 9  21470873.037 6         0.000 6       812.350 6        37.977 6
G14  25521594.555 7 134116837.245 7      3364.465 7        42.969 7  25521595.573 6         0.000 6      2621.663 6        37.977 6
> 2019 07 03 18 02 31.0000000  0 12       0.000000000000
G06  24979473.732 7 131267974.859 7       449.380 7        43.791 7  24979477.351 6         0.000 6       350.166 6        37.977 6
G10  24532192.212 7 128917498.080 7     -1495.916 7        44.925 7  24532195.165 6         0.000 6     -1165.650 6        37.977 6
G12  20576410.935 9 108129751.644 9     -1105.279 9        57.189 9  20576409.673 6         0.000 6      -861.257 6        37.977 6
G15  23216654.310 8 122004313.656 8     -3349.193 8        50.692 8  23216653.878 6         0.000 6     -2609.762 6        37.977 6
G20  24881629.305 7 130753798.096 7     -1963.460 7        43.460 7  24881630.446 6         0.000 6     -1529.970 6        37.977 6
G29  22716770.473 8 119377406.954 8      3450.244 8        51.066 8  22716770.277 6         0.000 6      2688.503 6        37.977 6
G19  24623476.195 7 129397197.344 7     -3332.040 7        44.608 7  24623475.887 6         0.000 6     -2596.396 6        37.977 6
G24  20906177.384 9 109862686.028 9      -659.065 9        57.088 9  20906179.012 6         0.000 6      -513.557 6        37.977 6
G32  23468358.154 8 123327022.293 8      2858.724 8        48.796 8  23468360.226 6         0.000 6      2227.578 6        37.977 6
G02  24189318.913 7 127115692.048 7      1331.331 7        46.888 7  24189317.204 6         0.000 6      1037.402 6        37.977 6
G25  21470672.263 9 112829124.029 9      1042.195 9        55.259 9  21470674.683 6         0.000 6       812.101 6        37.977 6
G14  25520954.329 7 134113472.840 7      3364.358 7        42.970 7  25520955.347 6         0.000 6      2621.579 6        37.977 6
> 2019 07 03 18 02 32.0000000  0 12       0.000000000000
G06  24979388.262 7 131267525.713 7       448.914 7        43.791 7  24979391.881 6         0.000 6       349.803 6        37.977 6
G10  24532476.901 7 128918994.132 7     -1496.195 7        44.925 7  24532479.855 6         0.000 6     -1165.867 6        37.977 6
G12  20576621.289 9 108130857.058 9     -1105.549 9        57.189 9  20576620.026 6         0.000 6      -861.467 6        37.977 6
G15  23217291.654 8 122007662.920 8     -3349.343 8        50.692 8  23217291.223 6         0.000 6     -2609.879 6        37.977 6
G20  24882002.937 7 130755761.542 7     -1963.439 7        43.460 7  24882004.079 6         0.000 6     -1529.954 6        37.977 6
G29  22716113.937 8 119373956.835 8      3450.001 8        51.066 8  22716113.740 6         0.000 6      2688.314 6        37.977 6
G19  24624110.288 7 129400529.523 7     -3332.330 7        44.608 7  24624109.981 6         0.000 6     -2596.622 6        37.977 6
G24  20906302.831 9 109863345.251 9      -659.382 9        57.088 9  20906304.458 6         0.000 6      -513.804 6        37.977 6
G32  23467814.190 8 123324163.751 8      2858.369 8        48.796 8  23467816.262 6         0.000 6      2227.301 6        37.977 6
G02  24189065.593 7 127114360.845 7      1331.079 7        46.888 7  24189063.884 6         0.000 6      1037.205 6        37.977 6
G25  21470473.970 9 112828081.995 9      1041.876 9        55.259 9  21470476.390 6         0.000 6       811.851 6        37.977 6
G14  25520314.123 7 134110108.543 7      3364.250 7        42.970 7  25520315.141 6         0.000 6      2621.495 6        37.977 6
> 2019 07 03 18 02 33.0000000  0 12       0.000000000000
G06  24979302.881 7 131267077.033 7       448.448 7        43.791 7  24979306.500 6         0.000 6       349.440 6        37.977 6
G10  24532761.644 7 128920490.464 7     -1496.473 7        44.925 7  24532764.598 6         0.000 6     -1166.084 6        37.977 6
G12  20576831.693 9 108131962.741 9     -1105.819 9        57.188 9  20576830.431 6         0.000 6      -861.677 6        37.977 6
G15  23217929.028 8 122011012.334 8     -3349.493 8        50.692 8  23217928.597 6         0.000 6     -2609.996 6        37.977 6
G20  24882376.565 7 130757724.968 7     -1963.418 7        43.459 7  24882377.707 6         0.000 6     -1529.937 6        37.977 6
G29  22715457.446 8 119370506.960 8      3449.758 8        51.066 8  22715457.249 6         0.000 6      2688.124 6        37.977 6
G19  24624744.437 7 129403861.992 7     -3332.620 7        44.608 7  24624744.130 6         0.000 6     -2596.848 6        37.977 6
G24  20906428.337 9 109864004.792 9      -659.699 9        57.088 9  20906429.965 6         0.000 6      -514.052 6        37.977 6
G32  23467270.295 8 123321305.564 8      2858.013 8        48.796 8  23467272.366 6         0.000 6      2227.024 6        37.977 6
G02  24188812.321 7 127113029.894 7      1330.827 7        46.888 7  24188810.612 6         0.000 6      1037.009 6        37.977 6
G25  21470275.738 9 112827040.280 9      1041.556 9        55.259 9  21470278.158 6         0.000 6       811.602 6        37.977 6
G14  25519673.938 7 134106744.353 7      3364.142 7        42.970 7  25519674.955 6         0.000 6      2621.411 6        37.977 6
> 2019 07 03 18 02 34.0000000  0 12       0.000000000000
G06  24979217.588 7 131266628.819 7       447.983 7        43.791 7  24979221.207 6         0.000 6       349.078 6        37.977 6
G10  24533046.440 7 128921987.073 7     -1496.751 7        44.925 7  24533049.394 6         0.000 6     -1166.300 6        37.977 6
G12  20577042.149 9 108133068.693 9     -1106.088 9        57.188 9  20577040.887 6         0.000 6      -861.887 6        37.977 6
G15  23218566.429 8 122014361.898 8     -3349.643 8        50.691 8  23218565.998 6         0.000 6     -2610.112 6        37.977 6
G20  24882750.189 7 130759688.372 7     -1963.398 7        43.459 7  24882751.331 6         0.000 6     -1529.921 6        37.977 6
G29  22714801.002 8 119367057.328 8      3449.515 8        51.066 8  22714800.805 6         0.000 6      2687.935 6        37.977 6
G19  24625378.641 7 129407194.752 7     -3332.911 7        44.607 7  24625378.335 6         0.000 6     -2597.075 6        37.977 6
G24  20906553.904 9 109864664.649 9      -660.017 9        57.088 9  20906555.532 6         0.000 6      -514.299 6        37.977 6
G32  23466726.467 8 123318447.732 8      2857.658 8        48.797 8  23466728.538 6         0.000 6      2226.747 6        37.977 6
G02  24188559.097 7 127111699.196 7      1330.575 7        46.888 7  24188557.388 6         0.000 6      1036.813 6        37.977 6
G25  21470077.567 9 112825998.885 9      1041.236 9        55.259 9  21470079.987 6         0.000 6       811.353 6        37.977 6
G14  25519033.773 7 134103380.270 7      3364.035 7        42.970 7  25519034.790 6         0.000 6      2621.327 6        37.977 6
> 2019 07 03 18 02 35.0000000  0 12       0.000000000000
G06  24979132.384 7 131266181.070 7       447.517 7        43.792 7  24979136.003 6         0.000 6       348.715 6        37.977 6
G10  24533331.289 7 128923483.961 7     -1497.029 7        44.925 7  24533334.243 6         0.000 6     -1166.517 6        37.977 6
G12  20577252.656 9 108134174.915 9     -1106.357 9        57.188 9  20577251.394 6         0.000 6      -862.097 6        37.977 6
G15  23219203.859 8 122017711.612 8     -3349.793 8        50.691 8  23219203.429 6         0.000 6     -2610.229 6        37.977 6
G20  24883123.809 7 130761651.756 7     -1963.376 7        43.459 7  24883124.952 6         0.000 6     -1529.905 6        37.977 6
G29  22714144.605 8 119363607.939 8      3449.271 8        51.067 8  22714144.407 6         0.000 6      2687.745 6        37.977 6
G19  24626012.901 7 129410527.802 7     -3333.201 7        44.607 7  24626012.594 6         0.000 6     -2597.301 6        37.977 6
G24  20906679.531 9 109865324.824 9      -660.334 9        57.088 9  20906681.159 6         0.000 6      -514.546 6        37.977 6
G32  23466182.706 8 123315590.256 8      2857.302 8        48.797 8  23466184.778 6         0.000 6      2226.470 6        37.977 6
G02  24188305.921 7 127110368.749 7      1330.323 7        46.888 7  24188304.212 6         0.000 6      1036.616 6        37.977 6
G25  21469879.457 9 112824957.809 9      1040.917 9        55.259 9  21469881.877 6         0.000 6       811.104 6        37.977 6
G14  25518393.629 7 134100016.296 7      3363.927 7        42.970 7  25518394.645 6         0.000 6      2621.243 6        37.977 6
> 2019 07 03 18 02 36.0000000  0 12       0.000000000000
G06  24979047.269 7 131265733.787 7       447.051 7        43.792 7  24979050.888 6         0.000 6       348.352 6        37.977 6
G10  24533616.191 7 128924981.127 7     -1497.307 7        44.925 7  24533619.145 6         0.000 6     -1166.734 6        37.977 6
G12  20577463.215 9 108135281.406 9     -1106.627 9        57.188 9  20577461.952 6         0.000 6      -862.307 6        37.977 6
G15  23219841.318 8 122021061.475 8     -3349.942 8        50.691 8  23219840.888 6         0.000 6     -2610.346 6        37.977 6
G20  24883497.426 7 130763615.118 7     -1963.355 7        43.459 7  24883498.568 6         0.000 6     -1529.888 6        37.977 6
G29  22713488.253 8 119360158.794 8      3449.028 8        51.067 8  22713488.055 6         0.000 6      2687.555 6        37.977 6
G19  24626647.215 7 129413861.142 7     -3333.491 7        44.607 7  24626646.909 6         0.000 6     -2597.527 6        37.977 6
G24  20906805.219 9 109865985.317 9      -660.651 9        57.088 9  20906806.846 6         0.000 6      -514.793 6        37.977 6
G32  23465639.014 8 123312733.136 8      2856.946 8        48.797 8  23465641.085 6         0.000 6      2226.193 6        37.977 6
G02  24188052.793 7 127109038.554 7      1330.071 7        46.888 7  24188051.083 6         0.000 6      1036.420 6        37.977 6
G25  21469681.407 9 112823917.053 9      1040.597 9        55.260 9  21469683.828 6         0.000 6       810.855 6        37.977 6
G14  25517753.505 7 134096652.429 7      3363.819 7        42.971 7  25517754.521 6         0.000 6      2621.159 6        37.977 6
> 2019 07 03 18 02 37.0000000  0 12       0.000000000000
G06  24978962.243 7 131265286.970 7       446.585 7        43.792 7  24978965.861 6         0.000 6       347.988 6        37.977 6
G10  24533901.145 7 128926478.570 7     -1497.585 7        44.925 7  24533904.100 6         0.000 6     -1166.950 6        37.977 6
G12  20577673.824 9 108136388.167 9     -1106.896 9        57.188 9  20577672.562 6         0.000 6      -862.517 6        37.977 6
G15  23220478.805 8 122024411.488 8     -3350.092 8        50.691 8  23220478.375 6         0.000 6     -2610.462 6        37.977 6
G20  24883871.038 7 130765578.459 7     -1963.334 7        43.459 7  24883872.180 6         0.000 6     -1529.871 6        37.977 6
G29  22712831.948 8 119356709.892 8      3448.784 8        51.067 8  22712831.750 6         0.000 6      2687.365 6        37.977 6
G19  24627281.585 7 129417194.772 7     -3333.780 7        44.607 7  24627281.279 6         0.000 6     -2597.752 6        37.977 6
G24  20906930.967 9 109866646.126 9      -660.969 9        57.088 9  20906932.594 6         0.000 6      -515.041 6        37.977 6
G32  23465095.389 8 123309876.371 8      2856.591 8        48.797 8  23465097.459 6         0.000 6      2225.916 6        37.977 6
G02  24187799.713 7 127107708.612 7      1329.819 7        46.888 7  24187798.003 6         0.000 6      1036.223 6        37.977 6
G25  21469483.419 9 112822876.617 9      1040.277 9        55.260 9  21469485.839 6         0.000 6       810.606 6        37.977 6
G14  25517113.402 7 134093288.670 7      3363.711 7        42.971 7  25517114.418 6         0.000 6      2621.075 6        37.977 6
> 2019 07 03 18 02 38.0000000  0 12       0.000000000000
G06  24978877.305 7 131264840.619 7       446.119 7        43.792 7  24978880.923 6         0.000 6       347.625 6        37.977 6
G10  24534186.153 7 128927976.292 7     -1497.863 7        44.924 7  24534189.107 6         0.000 6     -1167.167 6        37.977 6
G12  20577884.485 9 108137495.197 9     -1107.165 9        57.188 9  20577883.223 6         0.000 6      -862.726 6        37.977 6
G15  23221116.320 8 122027761.650 8     -3350.241 8        50.690 8  23221115.891 6         0.000 6     -2610.578 6        37.977 6
G20  24884244.646 7 130767541.779 7     -1963.313 7        43.459 7  24884245.788 6         0.000 6     -1529.855 6        37.977 6
G29  22712175.690 8 119353261.233 8      3448.541 8        51.067 8  22712175.491 6         0.000 6      2687.176 6        37.977 6
G19  24627916.010 7 129420528.691 7     -3334.070 7        44.606 7  24627915.705 6         0.000 6     -2597.978 6        37.977 6
G24  20907056.775 9 109867307.253 9      -661.286 9        57.088 9  20907058.403 6         0.000 6      -515.288 6        37.977 6
G32  23464551.832 8 123307019.963 8      2856.235 8        48.797 8  23464553.902 6         0.000 6      2225.638 6        37.977 6
G02  24187546.681 7 127106378.922 7      1329.566 7        46.888 7  24187544.971 6         0.000 6      1036.027 6        37.977 6
G25  21469285.491 9 112821836.500 9      1039.958 9        55.260 9  21469287.911 6         0.000 6       810.357 6        37.977 6
G14  25516473.319 7 134089925.020 7      3363.603 7        42.971 7  25516474.335 6         0.000 6      2620.991 6        37.977 6
> 2019 07 03 18 02 39.0000000  0 12       0.000000000000
G06  24978792.455 7 131264394.734 7       445.653 7        43.792 7  24978796.074 6         0.000 6       347.262 6        37.977 6
G10  24534471.213 7 128929474.291 7     -1498.141 7        44.924 7  24534474.168 6         0.000 6     -1167.383 6        37.977 6
G12  20578095.197 9 108138602.496 9     -1107.434 9        57.188 9  20578093.935 6         0.000 6      -862.936 6        37.977 6
G15  23221753.864 8 122031111.961 8     -3350.390 8        50.690 8  23221753.435 6         0.000 6     -2610.695 6        37.977 6
G20  24884618.250 7 130769505.078 7     -1963.291 7        43.459 7  24884619.392 6         0.000 6     -1529.838 6        37.977 6
G29  22711519.478 8 119349812.819 8      3448.297 8        51.068 8  22711519.279 6         0.000 6      2686.986 6        37.977 6
G19  24628550.490 7 129423862.900 7     -3334.360 7        44.606 7  24628550.185 6         0.000 6     -2598.204 6        37.977 6
G24  20907182.644 9 109867968.698 9      -661.603 9        57.088 9  20907184.272 6         0.000 6      -515.535 6        37.977 6
G32  23464008.342 8 123304163.910 8      2855.879 8        48.798 8  23464010.412 6         0.000 6      2225.361 6        37.977 6
G02  24187293.697 7 127105049.484 7      1329.314 7        46.888 7  24187291.987 6         0.000 6      1035.830 6        37.977 6
G25  21469087.624 9 112820796.703 9      1039.638 9        55.260 9  21469090.044 6         0.000 6       810.108 6        37.977 6
G14  25515833.257 7 134086561.477 7      3363.495 7        42.971 7  25515834.272 6         0.000 6      2620.906 6        37.977 6
> 2019 07 03 18 02 40.0000000  0 12       0.000000000000
G06  24978707.695 7 131263949.315 7       445.187 7        43.792 7  24978711.313 6         0.000 6       346.899 6        37.977 6
G10  24534756.326 7 128930972.568 7     -1498.418 7        44.924 7  24534759.281 6         0.000 6     -1167.599 6        37.977 6
G12  20578305.961 9 108139710.064 9     -1107.703 9        57.188 9  20578304.699 6         0.000 6      -863.146 6        37.977 6
G15  23222391.436 8 122034462.422 8     -3350.539 8        50.690 8  23222391.007 6         0.000 6     -2610.811 6        37.977 6
G20  24884991.849 7 130771468.355 7     -1963.270 7        43.458 7  24884992.993 6         0.000 6     -1529.821 6        37.977 6
G29  22710863.312 8 119346364.648 8      3448.053 8        51.068 8  22710863.113 6         0.000 6      2686.796 6        37.977 6
G19  24629185.025 7 129427197.399 7     -3334.649 7        44.606 7  24629184.721 6         0.000 6     -2598.429 6        37.977 6
G24  20907308.573 9 109868630.460 9      -661.921 9        57.088 9  20907310.201 6         0.000 6      -515.783 6        37.977 6
G32  23463464.920 8 123301308.213 8      2855.523 8        48.798 8  23463466.990 6         0.000 6      2225.084 6        37.977 6
G02  24187040.761 7 127103720.299 7      1329.062 7        46.889 7  24187039.050 6         0.000 6      1035.633 6        37.977 6
G25  21468889.818 9 112819757.225 9      1039.319 9        55.260 9  21468892.238 6         0.000 6       809.859 6        37.977 6
G14  25515193.216 7 134083198.043 7      3363.386 7        42.972 7  25515194.230 6         0.000 6      2620.822 6        37.977 6
> 2019 07 03 18 02 41.0000000  0 12       0.000000000000
G06  24978623.023 7 131263504.362 7       444.721 7        43.792 7  24978626.641 6         0.000 6       346.536 6        37.977 6
G10  24535041.492 7 128932471.123 7     -1498.696 7        44.924 7  24535044.447 6         0.000 6     -1167.816 6        37.977 6
G12  20578516.775 9 108140817.901 9     -1107.972 9        57.188 9  20578515.513 6         0.000 6      -863.355 6        37.977 6
G15  23223029.037 8 122037813.032 8     -3350.689 8        50.690 8  23223028.608 6         0.000 6     -2610.927 6        37.977 6
G20  24885365.445 7 130773431.610 7     -1963.248 7        43.458 7  24885366.588 6         0.000 6     -1529.804 6        37.977 6
G29  22710207.192 8 119342916.722 8      3447.809 8        51.068 8  22710206.993 6         0.000 6      2686.605 6        37.977 6
G19  24629819.615 7 129430532.187 7     -3334.939 7        44.606 7  24629819.311 6         0.000 6     -2598.655 6        37.977 6
G24  20907434.562 9 109869292.539 9      -662.238 9        57.088 9  20907436.190 6         0.000 6      -516.030 6        37.977 6
G32  23462921.566 8 123298452.872 8      2855.166 8        49.063 8  23462923.636 6         0.000 6      2224.806 6        37.977 6
G02  24186787.873 7 127102391.367 7      1328.809 7        46.889 7  24186786.162 6         0.000 6      1035.436 6        37.977 6
G25  21468692.072 9 112818718.067 9      1038.999 9        55.260 9  21468694.492 6         0.000 6       809.610 6        37.977 6
G14  25514553.195 7 134079834.717 7      3363.278 7        42.972 7  25514554.209 6         0.000 6      2620.738 6        37.977 6
> 2019 07 03 18 02 42.0000000  0 12       0.000000000000
G06  24978538.440 7 131263059.876 7       444.254 7        43.792 7  24978542.058 6         0.000 6       346.172 6        37.977 6
G10  24535326.711 7 128933969.955 7     -1498.973 7        44.924 7  24535329.666 6         0.000 6     -1168.032 6        37.977 6
G12  20578727.641 9 108141926.007 9     -1108.241 9        57.188 9  20578726.379 6         0.000 6      -863.565 6        37.977 6
G15  23223666.666 8 122041163.791 8     -3350.838 8        50.689 8  23223666.237 6         0.000 6     -2611.043 6        37.977 6
G20  24885739.037 7 130775394.843 7     -1963.226 7        43.458 7  24885740.180 6         0.000 6     -1529.787 6        37.977 6
G29  22709551.119 8 119339469.039 8      3447.565 8        51.068 8  22709550.920 6         0.000 6      2686.415 6        37.977 6
G19  24630454.261 7 129433867.265 7     -3335.228 7        44.606 7  24630453.957 6         0.000 6     -2598.880 6        37.977 6
G24  20907560.612 9 109869954.936 9      -662.556 9        57.088 9  20907562.240 6         0.000 6      -516.277 6        37.977 6
G32  23462378.280 8 123295597.888 8      2854.810 8        49.063 8  23462380.349 6         0.000 6      2224.528 6        37.977 6
G02  24186535.033 7 127101062.687 7      1328.556 7        46.889 7  24186533.322 6         0.000 6      1035.239 6        37.977 6
G25  21468494.388 9 112817679.228 9      1038.680 9        55.260 9  21468496.808 6         0.000 6       809.361 6        37.977 6
G14  25513913.195 7 134076471.499 7      3363.169 7        42.972 7  25513914.209 6         0.000 6      2620.653 6        37.977 6
> 2019 07 03 18 02 43.0000000  0 12       0.000000000000
G06  24978453.945 7 131262615.856 7       443.788 7        43.792 7  24978457.564 6         0.000 6       345.809 6        37.977 6
G10  24535611.982 7 128935469.064 7     -1499.251 7        44.924 7  24535614.938 6         0.000 6     -1168.248 6        37.977 6
G12  20578938.558 9 108143034.383 9     -1108.510 9        57.188 9  20578937.296 6         0.000 6      -863.774 6        37.977 6
G15  23224304.323 8 122044514.699 8     -3350.987 8        50.689 8  23224303.895 6         0.000 6     -2611.159 6        37.977 6
G20  24886112.624 7 130777358.055 7     -1963.204 7        43.458 7  24886113.768 6         0.000 6     -1529.770 6        37.977 6
G29  22708895.093 8 119336021.601 8      3447.321 8        51.069 8  22708894.893 6         0.000 6      2686.225 6        37.977 6
G19  24631088.961 7 129437202.632 7     -3335.517 7        44.605 7  24631088.657 6         0.000 6     -2599.106 6        37.977 6
G24  20907686.723 9 109870617.650 9      -662.873 9        57.087 9  20907688.351 6         0.000 6      -516.525 6        37.977 6
G32  23461835.062 8 123292743.260 8      2854.454 8        49.063 8  23461837.131 6         0.000 6      2224.251 6        37.977 6
G02  24186282.241 7 127099734.260 7      1328.303 7        46.889 7  24186280.530 6         0.000 6      1035.042 6        37.977 6
G25  21468296.764 9 112816640.709 9      1038.361 9        55.260 9  21468299.184 6         0.000 6       809.112 6        37.977 6
G14  25513273.215 7 134073108.390 7      3363.061 7        42.972 7  25513274.229 6         0.000 6      2620.568 6        37.977 6
> 2019 07 03 18 02 44.0000000  0 12       0.000000000000
G06  24978369.540 7 131262172.302 7       443.322 7        43.792 7  24978373.158 6         0.000 6       345.446 6        37.977 6
G10  24535897.307 7 128936968.451 7     -1499.528 7        44.924 7  24535900.262 6         0.000 6     -1168.464 6        37.977 6
G12  20579149.526 9 108144143.027 9     -1108.779 9        57.188 9  20579148.264 6         0.000 6      -863.984 6        37.977 6
G15  23224942.009 8 122047865.756 8     -3351.135 8        50.689 8  23224941.581 6         0.000 6     -2611.275 6        37.977 6
G20  24886486.207 7 130779321.245 7     -1963.182 7        43.458 7  24886487.351 6         0.000 6     -1529.753 6        37.977 6
G29  22708239.113 8 119332574.406 8      3447.076 8        51.069 8  22708238.912 6         0.000 6      2686.035 6        37.977 6
G19  24631723.716 7 129440538.288 7     -3335.806 7        44.605 7  24631723.413 6         0.000 6     -2599.331 6        37.977 6
G24  20907812.894 9 109871280.682 9      -663.191 9        57.087 9  20907814.522 6         0.000 6      -516.772 6        37.977 6
G32  23461291.911 8 123289888.988 8      2854.097 8        49.063 8  23461293.980 6         0.000 6      2223.973 6        37.977 6
G02  24186029.497 7 127098406.086 7      1328.050 7        46.889 7  24186027.787 6         0.000 6      1034.845 6        37.977 6
G25  21468099.201 9 112815602.509 9      1038.041 9        55.260 9  21468101.621 6         0.000 6       808.863 6        37.977 6
G14  25512633.256 7 134069745.390 7      3362.952 7        42.972 7  25512634.270 6         0.000 6      2620.484 6        37.977 6
> 2019 07 03 18 02 45.0000000  0 12       0.000000000000
G06  24978285.223 7 131261729.214 7       442.855 7        43.792 7  24978288.841 6         0.000 6       345.082 6        37.977 6
G10  24536182.684 7 128938468.115 7     -1499.805 7        44.924 7  24536185.639 6         0.000 6     -1168.680 6        37.977 6
G12  20579360.545 9 108145251.939 9     -1109.048 9        57.187 9  20579359.283 6         0.000 6      -864.193 6        37.977 6
G15  23225579.723 8 122051216.961 8     -3351.284 8        50.689 8  23225579.295 6         0.000 6     -2611.391 6        37.977 6
G20  24886859.786 7 130781284.413 7     -1963.160 7        43.458 7  24886860.931 6         0.000 6     -1529.736 6        37.977 6
G29  22707583.179 8 119329127.457 8      3446.832 8        51.069 8  22707582.979 6         0.000 6      2685.844 6        37.977 6
G19  24632358.527 7 129443874.233 7     -3336.095 7        44.605 7  24632358.224 6         0.000 6     -2599.556 6        37.977 6
G24  20907939.125 9 109871944.031 9      -663.509 9        57.087 9  20907940.753 6         0.000 6      -517.020 6        37.977 6
G32  23460748.828 8 123287035.073 8      2853.741 8        49.064 8  23460750.897 6         0.000 6      2223.695 6        37.977 6
G02  24185776.802 7 127097078.164 7      1327.797 7        46.889 7  24185775.091 6         0.000 6      1034.648 6        37.977 6
G25  21467901.699 9 112814564.628 9      1037.722 9        55.260 9  21467904.118 6         0.000 6       808.615 6        37.977 6
G14  25511993.318 7 134066382.498 7      3362.844 7        42.973 7  25511994.331 6         0.000 6      2620.399 6        37.977 6
> 2019 07 03 18 02 46.0000000  0 12       0.000000000000
G06  24978200.995 7 131261286.593 7       442.389 7        43.792 7  24978204.613 6         0.000 6       344.719 6        37.977 6
G10  24536468.113 7 128939968.056 7     -1500.082 7        44.924 7  24536471.069 6         0.000 6     -1168.896 6        37.977 6
G12  20579571.616 9 108146361.121 9     -1109.317 9        57.187 9  20579570.354 6         0.000 6      -864.403 6        37.977 6
G15  23226217.465 8 122054568.316 8     -3351.433 8        50.688 8  23226217.038 6         0.000 6     -2611.507 6        37.977 6
G20  24887233.361 7 130783247.558 7     -1963.138 7        43.458 7  24887234.506 6         0.000 6     -1529.719 6        37.977 6
G29  22706927.292 8 119325680.751 8      3446.587 8        51.069 8  22706927.091 6         0.000 6      2685.654 6        37.977 6
G19  24632993.392 7 129447210.467 7     -3336.384 7        44.605 7  24632993.089 6         0.000 6     -2599.781 6        37.977 6
G24  20908065.417 9 109872607.699 9      -663.826 9        57.087 9  20908067.045 6         0.000 6      -517.267 6        37.977 6
G32  23460205.813 8 123284181.514 8      2853.384 8        49.064 8  23460207.882 6         0.000 6      2223.417 6        37.977 6
G02  24185524.154 7 127095750.496 7      1327.544 7        46.889 7  24185522.443 6         0.000 6      1034.451 6        37.977 6
G25  21467704.257 9 112813527.067 9      1037.402 9        55.260 9  21467706.677 6         0.000 6       808.366 6        37.977 6
G14  25511353.401 7 134063019.715 7      3362.735 7        42.973 7  25511354.413 6         0.000 6      2620.314 6        37.977 6
> 2019 07 03 18 02 47.0000000  0 12       0.000000000000
G06  24978116.855 7 131260844.438 7       441.922 7        43.792 7  24978120.473 6         0.000 6       344.355 6        37.977 6
G10  24536753.596 7 128941468.274 7     -1500.359 7        44.924 7  24536756.552 6         0.000 6     -1169.112 6        37.977 6
G12  20579782.737 9 108147470.571 9     -1109.585 9        57.187 9  20579781.475 6         0.000 6      -864.612 6        37.977 6
G15  23226855.236 8 122057919.818 8     -3351.581 8        50.688 8  23226854.809 6         0.000 6     -2611.623 6        37.977 6
G20  24887606.932 7 130785210.682 7     -1963.116 7        43.458 7  24887608.076 6         0.000 6     -1529.701 6        37.977 6
G29  22706271.452 8 119322234.290 8      3446.343 8        51.070 8  22706271.251 6         0.000 6      2685.463 6        37.977 6
G19  24633628.312 7 129450546.990 7     -3336.673 7        44.604 7  24633628.010 6         0.000 6     -2600.006 6        37.977 6
G24  20908191.769 9 109873271.683 9      -664.144 9        57.087 9  20908193.397 6         0.000 6      -517.515 6        37.977 6
G32  23459662.866 8 123281328.312 8      2853.027 8        49.064 8  23459664.935 6         0.000 6      2223.139 6        37.977 6
G02  24185271.555 7 127094423.081 7      1327.291 7        46.889 7  24185269.844 6         0.000 6      1034.254 6        37.977 6
G25  21467506.876 9 112812489.825 9      1037.083 9        55.260 9  21467509.296 6         0.000 6       808.117 6        37.977 6
G14  25510713.504 7 134059657.041 7      3362.626 7        42.973 7  25510714.516 6         0.000 6      2620.230 6        37.977 6
> 2019 07 03 18 02 48.0000000  0 12       0.000000000000
G06  24978032.805 7 131260402.750 7       441.456 7        43.792 7  24978036.423 6         0.000 6       343.992 6        37.977 6
G10  24537039.131 7 128942968.768 7     -1500.636 7        44.923 7  24537042.087 6         0.000 6     -1169.327 6        37.977 6
G12  20579993.910 9 108148580.290 9     -1109.854 9        57.187 9  20579992.648 6         0.000 6      -864.821 6        37.977 6
G15  23227493.035 8 122061271.470 8     -3351.730 8        50.688 8  23227492.608 6         0.000 6     -2611.739 6        37.977 6
G20  24887980.498 7 130787173.783 7     -1963.093 7        43.457 7  24887981.643 6         0.000 6     -1529.684 6        37.977 6
G29  22705615.658 8 119318788.074 8      3446.098 8        51.070 8  22705615.456 6         0.000 6      2685.272 6        37.977 6
G19  24634263.287 7 129453883.801 7     -3336.962 7        44.604 7  24634262.986 6         0.000 6     -2600.231 6        37.977 6
G24  20908318.181 9 109873935.986 9      -664.462 9        57.087 9  20908319.809 6         0.000 6      -517.762 6        37.977 6
G32  23459119.987 8 123278475.467 8      2852.671 8        49.064 8  23459122.055 6         0.000 6      2222.861 6        37.977 6
G02  24185019.004 7 127093095.919 7      1327.038 7        46.889 7  24185017.293 6         0.000 6      1034.056 6        37.977 6
G25  21467309.556 9 112811452.903 9      1036.764 9        55.261 9  21467311.976 6         0.000 6       807.868 6        37.977 6
G14  25510073.628 7 134056294.475 7      3362.517 7        42.973 7  25510074.639 6         0.000 6      2620.145 6        37.977 6
> 2019 07 03 18 02 49.0000000  0 12       0.000000000000
G06  24977948.843 7 131259961.529 7       440.989 7        43.792 7  24977952.461 6         0.000 6       343.628 6        37.977 6
G10  24537324.719 7 128944469.540 7     -1500.912 7        44.923 7  24537327.675 6         0.000 6     -1169.543 6        37.977 6
G12  20580205.133 9 108149690.277 9     -1110.122 9        57.187 9  20580203.872 6         0.000 6      -865.031 6        37.977 6
G15  23228130.862 8 122064623.270 8     -3351.878 8        50.688 8  23228130.435 6         0.000 6     -2611.854 6        37.977 6
G20  24888354.060 7 130789136.861 7     -1963.071 7        43.457 7  24888355.205 6         0.000 6     -1529.666 6        37.977 6
G29  22704959.910 8 119315342.103 8      3445.853 8        51.070 8  22704959.709 6         0.000 6      2685.081 6        37.977 6
G19  24634898.318 7 129457220.901 7     -3337.250 7        44.604 7  24634898.016 6         0.000 6     -2600.456 6        37.977 6
G24  20908444.654 9 109874600.606 9      -664.779 9        57.087 9  20908446.283 6         0.000 6      -518.010 6        37.977 6
G32  23458577.176 8 123275622.979 8      2852.314 8        49.064 8  23458579.244 6         0.000 6      2222.583 6        37.977 6
G02  24184766.501 7 127091769.010 7      1326.785 7        46.889 7  24184764.790 6         0.000 6      1033.859 6        37.977 6
G25  21467112.297 9 112810416.299 9      1036.445 9        55.261 9  21467114.716 6         0.000 6       807.619 6        37.977 6
G14  25509433.773 7 134052932.019 7      3362.408 7        42.974 7  25509434.784 6         0.000 6      2620.060 6        37.977 6
> 2019 07 03 18 02 50.0000000  0 12       0.000000000000
G06  24977864.970 7 131259520.774 7       440.522 7        43.792 7  24977868.588 6         0.000 6       343.264 6        37.977 6
G10  24537610.359 7 128945970.588 7     -1501.189 7        44.923 7  24537613.316 6         0.000 6     -1169.758 6        37.977 6
G12  20580416.408 9 108150800.533 9     -1110.391 9        57.187 9  20580415.147 6         0.000 6      -865.240 6        37.977 6
G15  23228768.717 8 122067975.218 8     -3352.026 8        50.687 8  23228768.291 6         0.000 6     -2611.970 6        37.977 6
G20  24888727.618 7 130791099.917 7     -1963.048 7        43.457 7  24888728.763 6         0.000 6     -1529.649 6        37.977 6
G29  22704304.210 8 119311896.376 8      3445.608 8        51.070 8  22704304.008 6         0.000 6      2684.891 6        37.977 6
G19  24635533.403 7 129460558.290 7     -3337.539 7        44.604 7  24635533.101 6         0.000 6     -2600.681 6        37.977 6
G24  20908571.188 9 109875265.544 9      -665.097 9        57.087 9  20908572.816 6         0.000 6      -518.258 6        37.977 6
G32  23458034.433 8 123272770.848 8      2851.957 8        49.065 8  23458036.500 6         0.000 6      2222.305 6        37.977 6
G02  24184514.047 7 127090442.355 7      1326.531 7        46.889 7  24184512.335 6         0.000 6      1033.661 6        37.977 6
G25  21466915.099 9 112809380.015 9      1036.125 9        55.261 9  21466917.518 6         0.000 6       807.371 6        37.977 6
G14  25508793.938 7 134049569.672 7      3362.299 7        42.974 7  25508794.949 6         0.000 6      2619.975 6        37.977 6
> 2019 07 03 18 02 51.0000000  0 12       0.000000000000
G06  24977781.186 7 131259080.486 7       440.056 7        43.792 7  24977784.804 6         0.000 6       342.901 6        37.977 6
G10  24537896.052 7 128947471.913 7     -1501.466 7        44.923 7  24537899.009 6         0.000 6     -1169.974 6        37.977 6
G12  20580627.734 9 108151911.057 9     -1110.659 9        57.187 9  20580626.472 6         0.000 6      -865.449 6        37.977 6
G15  23229406.601 8 122071327.314 8     -3352.175 8        50.687 8  23229406.174 6         0.000 6     -2612.085 6        37.977 6
G20  24889101.172 7 130793062.951 7     -1963.026 7        43.457 7  24889102.317 6         0.000 6     -1529.631 6        37.977 6
G29  22703648.555 8 119308450.895 8      3445.363 8        51.071 8  22703648.353 6         0.000 6      2684.700 6        37.977 6
G19  24636168.542 7 129463895.967 7     -3337.827 7        44.604 7  24636168.242 6         0.000 6     -2600.906 6        37.977 6
G24  20908697.782 9 109875930.799 9      -665.415 9        57.087 9  20908699.410 6         0.000 6      -518.505 6        37.977 6
G32  23457491.758 8 123269919.074 8      2851.599 8        49.065 8  23457493.825 6         0.000 6      2222.027 6        37.977 6
G02  24184261.640 7 127089115.953 7      1326.278 7        46.890 7  24184259.928 6         0.000 6      1033.464 6        37.977 6
G25  21466717.961 9 112808344.050 9      1035.806 9        55.261 9  21466720.380 6         0.000 6       807.122 6        37.977 6
G14  25508154.124 7 134046207.434 7      3362.189 7        42.974 7  25508155.135 6         0.000 6      2619.889 6        37.977 6
> 2019 07 03 18 02 52.0000000  0 12       0.000000000000
G06  24977697.490 7 131258640.664 7       439.589 7        43.792 7  24977701.108 6         0.000 6       342.537 6        37.977 6
G10  24538181.798 7 128948973.514 7     -1501.742 7        44.923 7  24538184.755 6         0.000 6     -1170.189 6        37.977 6
G12  20580839.111 9 108153021.849 9     -1110.927 9        57.187 9  20580837.849 6         0.000 6      -865.658 6        37.977 6
G15  23230044.512 8 122074679.559 8     -3352.323 8        50.687 8  23230044.086 6         0.000 6     -2612.201 6        37.977 6
G20  24889474.721 7 130795025.961 7     -1963.003 7        43.457 7  24889475.866 6         0.000 6     -1529.613 6        37.977 6
G29  22702992.948 8 119305005.658 8      3445.118 8        51.071 8  22702992.746 6         0.000 6      2684.509 6        37.977 6
G19  24636803.737 7 129467233.932 7     -3338.115 7        44.603 7  24636803.437 6         0.000 6     -2601.130 6        37.977 6
G24  20908824.436 9 109876596.373 9      -665.733 9        57.087 9  20908826.065 6         0.000 6      -518.753 6        37.977 6
G32  23456949.150 8 123267067.657 8      2851.242 8        49.065 8  23456951.217 6         0.000 6      2221.748 6        37.977 6
G02  24184009.282 7 127087789.805 7      1326.024 7        46.890 7  24184007.570 6         0.000 6      1033.266 6        37.977 6
G25  21466520.884 9 112807308.404 9      1035.487 9        55.261 9  21466523.303 6         0.000 6       806.873 6        37.977 6
G14  25507514.331 7 134042845.305 7      3362.080 7        42.974 7  25507515.341 6         0.000 6      2619.804 6        37.977 6
> 2019 07 03 18 02 53.0000000  0 12       0.000000000000
G06  24977613.884 7 131258201.310 7       439.122 7        43.792 7  24977617.501 6         0.000 6       342.173 6        37.977 6
G10  24538467.596 7 128950475.391 7     -1502.018 7        44.923 7  24538470.554 6         0.000 6     -1170.404 6        37.977 6
G12  20581050.539 9 108154132.910 9     -1111.196 9        57.187 9  20581049.277 6         0.000 6      -865.867 6        37.977 6
G15  23230682.452 8 122078031.951 8     -3352.471 8        50.687 8  23230682.026 6         0.000 6     -2612.316 6        37.977 6
G20  24889848.266 7 130796988.949 7     -1962.980 7        43.457 7  24889849.411 6         0.000 6     -1529.596 6        37.977 6
G29  22702337.387 8 119301560.667 8      3444.873 8        51.071 8  22702337.184 6         0.000 6      2684.318 6        37.977 6
G19  24637438.987 7 129470572.186 7     -3338.403 7        44.603 7  24637438.687 6         0.000 6     -2601.355 6        37.977 6
G24  20908951.151 9 109877262.264 9      -666.050 9        57.087 9  20908952.780 6         0.000 6      -519.000 6        37.977 6
G32  23456406.611 8 123264216.597 8      2850.885 8        49.065 8  23456408.678 6         0.000 6      2221.470 6        37.977 6
G02  24183756.972 7 127086463.911 7      1325.770 7        46.890 7  24183755.260 6         0.000 6      1033.068 6        37.977 6
G25  21466323.868 9 112806273.078 9      1035.168 9        55.261 9  21466326.287 6         0.000 6       806.625 6        37.977 6
G14  25506874.559 7 134039483.286 7      3361.971 7        42.974 7  25506875.569 6         0.000 6      2619.719 6        37.977 6
> 2019 07 03 18 02 54.0000000  0 12       0.000000000000
G06  24977530.366 7 131257762.422 7       438.655 7        43.792 7  24977533.984 6         0.000 6       341.809 6        37.977 6
G10  24538753.447 7 128951977.545 7     -1502.294 7        44.923 7  24538756.405 6         0.000 6     -1170.620 6        37.977 6
G12  20581262.018 9 108155244.239 9     -1111.464 9        57.187 9  20581260.756 6         0.000 6      -866.076 6        37.977 6
G15  23231320.420 8 122081384.491 8     -3352.619 8        50.687 8  23231319.995 6         0.000 6     -2612.431 6        37.977 6
G20  24890221.806 7 130798951.914 7     -1962.957 7        43.457 7  24890222.952 6         0.000 6     -1529.578 6        37.977 6
G29  22701681.873 8 119298115.921 8      3444.628 8        51.071 8  22701681.670 6         0.000 6      2684.126 6        37.977 6
G19  24638074.291 7 129473910.727 7     -3338.691 7        44.603 7  24638073.992 6         0.000 6     -2601.579 6        37.977 6
G24  20909077.927 9 109877928.473 9      -666.368 9        57.087 9  20909079.555 6         0.000 6      -519.248 6        37.977 6
G32  23455864.140 8 123261365.895 8      2850.527 8        49.065 8  23455866.206 6         0.000 6      2221.191 6        37.977 6
G02  24183504.711 7 127085138.270 7      1325.516 7        46.890 7  24183502.998 6         0.000 6      1032.871 6        37.977 6
G25  21466126.912 9 112805238.070 9      1034.849 9        55.261 9  21466129.331 6         0.000 6       806.376 6        37.977 6
G14  25506234.808 7 134036121.376 7      3361.861 7        42.975 7  25506235.817 6         0.000 6      2619.634 6        37.977 6
> 2019 07 03 18 02 55.0000000  0 12       0.000000000000
G06  24977446.937 7 131257324.002 7       438.188 7        43.792 7  24977450.555 6         0.000 6       341.445 6        37.977 6
G10  24539039.351 7 128953479.975 7     -1502.571 7        44.923 7  24539042.308 6         0.000 6     -1170.835 6        37.977 6
G12  20581473.548 9 108156355.836 9     -1111.732 9        57.187 9  20581472.287 6         0.000 6      -866.285 6        37.977 6
G15  23231958.416 8 122084737.180 8     -3352.766 8        50.686 8  23231957.991 6         0.000 6     -2612.546 6        37.977 6
G20  24890595.342 7 130800914.856 7     -1962.934 7        43.457 7  24890596.488 6         0.000 6     -1529.560 6        37.977 6
G29  22701026.405 8 119294671.421 8      3444.382 8        51.072 8  22701026.202 6         0.000 6      2683.935 6        37.977 6
G19  24638709.650 7 129477249.557 7     -3338.979 7        44.603 7  24638709.351 6         0.000 6     -2601.803 6        37.977 6
G24  20909204.763 9 109878595.000 9      -666.686 9        57.087 9  20909206.391 6         0.000 6      -519.496 6        37.977 6
G32  23455321.736 8 123258515.550 8      2850.170 8        49.066 8  23455323.802 6         0.000 6      2220.913 6        37.977 6
G02  24183252.498 7 127083812.883 7      1325.263 7        46.890 7  24183250.785 6         0.000 6      1032.673 6        37.977 6
G25  21465930.017 9 112804203.382 9      1034.530 9        55.261 9  21465932.436 6         0.000 6       806.127 6        37.977 6
G14  25505595.077 7 134032759.576 7      3361.752 7        42.975 7  25505596.086 6         0.000 6      2619.548 6        37.977 6
> 2019 07 03 18 02 56.0000000  0 12       0.000000000000
G06  24977363.597 7 131256886.048 7       437.721 7        43.792 7  24977367.215 6         0.000 6       341.081 6        37.977 6
G10  24539325.307 7 128954982.681 7     -1502.847 7        44.923 7  24539328.264 6         0.000 6     -1171.050 6        37.977 6
G12  20581685.129 9 108157467.701 9     -1112.000 9        57.186 9  20581683.868 6         0.000 6      -866.494 6        37.977 6
G15  23232596.441 8 122088090.016 8     -3352.914 8        50.686 8  23232596.016 6         0.000 6     -2612.661 6        37.977 6
G20  24890968.874 7 130802877.775 7     -1962.911 7        43.456 7  24890970.020 6         0.000 6     -1529.542 6        37.977 6
G29  22700370.985 8 119291227.166 8      3444.137 8        51.072 8  22700370.781 6         0.000 6      2683.744 6        37.977 6
G19  24639345.064 7 129480588.674 7     -3339.267 7        44.602 7  24639344.766 6         0.000 6     -2602.028 6        37.977 6
G24  20909331.659 9 109879261.844 9      -667.004 9        57.087 9  20909333.287 6         0.000 6      -519.744 6        37.977 6
G32  23454779.401 8 123255665.563 8      2849.812 8        49.066 8  23454781.467 6         0.000 6      2220.634 6        37.977 6
G02  24183000.333 7 127082487.750 7      1325.009 7        46.890 7  24182998.620 6         0.000 6      1032.475 6        37.977 6
G25  21465733.183 9 112803169.012 9      1034.211 9        55.261 9  21465735.602 6         0.000 6       805.879 6        37.977 6
G14  25504955.368 7 134029397.885 7      3361.642 7        42.975 7  25504956.376 6         0.000 6      2619.463 6        37.977 6
> 2019 07 03 18 02 57.0000000  0 12       0.000000000000
G06  24977280.346 7 131256448.561 7       437.254 7        43.792 7  24977283.964 6         0.000 6       340.718 6        37.977 6
G10  24539611.315 7 128956485.662 7     -1503.122 7        44.923 7  24539614.273 6         0.000 6     -1171.265 6        37.977 6
G12  20581896.761 9 108158579.834 9     -1112.268 9        57.186 9  20581895.500 6         0.000 6      -866.702 6        37.977 6
G15  23233234.493 8 122091443.000 8     -3353.062 8        50.686 8  23233234.068 6         0.000 6     -2612.776 6        37.977 6
G20  24891342.401 7 130804840.671 7     -1962.887 7        43.456 7  24891343.548 6         0.000 6     -1529.523 6        37.977 6
G29  22699715.611 8 119287783.156 8      3443.891 8        51.072 8  22699715.407 6         0.000 6      2683.552 6        37.977 6
G19  24639980.533 7 129483928.079 7     -3339.555 7        44.602 7  24639980.235 6         0.000 6     -2602.252 6        37.977 6
G24  20909458.616 9 109879929.007 9      -667.322 9        57.087 9  20909460.244 6         0.000 6      -519.991 6        37.977 6
G32  23454237.134 8 123252815.933 8      2849.455 8        49.066 8  23454239.199 6         0.000 6      2220.355 6        37.977 6
G02  24182748.216 7 127081162.871 7      1324.755 7        46.890 7  24182746.503 6         0.000 6      1032.277 6        37.977 6
G25  21465536.410 9 112802134.962 9      1033.892 9        55.261 9  21465538.829 6         0.000 6       805.630 6        37.977 6
G14  25504315.679 7 134026036.304 7      3361.532 7        42.975 7  25504316.687 6         0.000 6      2619.377 6        37.977 6
> 2019 07 03 18 02 58.0000000  0 12       0.000000000000
G06  24977197.184 7 131256011.542 7       436.787 7        43.792 7  24977200.801 6         0.000 6       340.354 6        37.977 6
G10  24539897.376 7 128957988.920 7     -1503.398 7        44.922 7  24539900.334 6         0.000 6     -1171.480 6        37.977 6
G12  20582108.444 9 108159692.235 9     -1112.536 9        57.186 9  20582107.183 6         0.000 6      -866.911 6        37.977 6
G15  23233872.574 8 122094796.131 8     -3353.209 8        50.686 8  23233872.149 6         0.000 6     -2612.891 6        37.977 6
G20  24891715.924 7 130806803.543 7     -1962.864 7        43.456 7  24891717.071 6         0.000 6     -1529.505 6        37.977 6
G29  22699060.283 8 119284339.392 8      3443.645 8        51.072 8  22699060.079 6         0.000 6      2683.361 6        37.977 6
G19  24640616.057 7 129487267.772 7     -3339.842 7        44.602 7  24640615.759 6         0.000 6     -2602.476 6        37.977 6
G24  20909585.633 9 109880596.488 9      -667.640 9        57.087 9  20909587.262 6         0.000 6      -520.239 6        37.977 6
G32  23453694.935 8 123249966.661 8      2849.097 8        49.066 8  23453697.000 6         0.000 6      2220.076 6        37.977 6
G02  24182496.148 7 127079838.246 7      1324.500 7        46.890 7  24182494.435 6         0.000 6      1032.079 6        37.977 6
G25  21465339.697 9 112801101.231 9      1033.573 9        55.261 9  21465342.116 6         0.000 6       805.382 6        37.977 6
G14  25503676.011 7 134022674.833 7      3361.422 7        42.975 7  25503677.019 6         0.000 6      2619.292 6        37.977 6
> 2019 07 03 18 02 59.0000000  0 12       0.000000000000
G06  24977114.111 7 131255574.990 7       436.320 7        43.792 7  24977117.728 6         0.000 6       339.989 6        37.977 6
G10  24540183.489 7 128959492.453 7     -1503.674 7        44.922 7  24540186.447 6         0.000 6     -1171.695 6        37.977 6
G12  20582320.178 9 108160804.904 9     -1112.804 9        57.186 9  20582318.917 6         0.000 6      -867.120 6        37.977 6
G15  23234510.682 8 122098149.410 8     -3353.357 8        50.685 8  23234510.258 6         0.000 6     -2613.006 6        37.977 6
G20  24892089.442 7 130808766.392 7     -1962.840 7        43.456 7  24892090.589 6         0.000 6     -1529.487 6        37.977 6
G29  22698405.003 8 119280895.874 8      3443.399 8        51.073 8  22698404.799 6         0.000 6      2683.169 6        37.977 6
G19  24641251.635 7 129490607.752 7     -3340.130 7        44.602 7  24641251.337 6         0.000 6     -2602.700 6        37.977 6
G24  20909712.711 9 109881264.286 9      -667.958 9        57.087 9  20909714.340 6         0.000 6      -520.487 6        37.977 6
G32  23453152.803 8 123247117.747 8      2848.739 8        49.066 8  23453154.869 6         0.000 6      2219.798 6        37.977 6
G02  24182244.128 7 127078513.876 7      1324.246 7        46.890 7  24182242.415 6         0.000 6      1031.881 6        37.977 6
G25  21465143.045 9 112800067.818 9      1033.254 9        55.261 9  21465145.464 6         0.000 6       805.133 6        37.977 6
G14  25503036.364 7 134019313.471 7      3361.312 7        42.976 7  25503037.371 6         0.000 6      2619.206 6        37.977 6
> 2019 07 03 18 03  0.0000000  0 12       0.000000000000
G06  24977031.126 7 131255138.905 7       435.852 7        43.792 7  24977034.744 6         0.000 6       339.625 6        37.977 6
G10  24540469.655 7 128960996.262 7     -1503.949 7        44.922 7  24540472.613 6         0.000 6     -1171.909 6        37.977 6
G12  20582531.963 9 108161917.841 9     -1113.071 9        57.186 9  20582530.702 6         0.000 6      -867.329 6        37.977 6
G15  23235148.819 8 122101502.836 8     -3353.504 8        50.685 8  23235148.395 6         0.000 6     -2613.121 6        37.977 6
G20  24892462.956 7 130810729.217 7     -1962.817 7        43.456 7  24892464.104 6         0.000 6     -1529.469 6        37.977 6
G29  22697749.769 8 119277452.602 8      3443.153 8        51.073 8  22697749.565 6         0.000 6      2682.978 6        37.977 6
G19  24641887.268 7 129493948.020 7     -3340.417 7        44.602 7  24641886.970 6         0.000 6     -2602.924 6        37.977 6
G24  20909839.850 9 109881932.403 9      -668.276 9        57.087 9  20909841.478 6         0.000 6      -520.735 6        37.977 6
G32  23452610.741 8 123244269.191 8      2848.381 8        49.067 8  23452612.806 6         0.000 6      2219.519 6        37.977 6
G02  24181992.157 7 127077189.759 7      1323.992 7        46.890 7  24181990.443 6         0.000 6      1031.683 6        37.977 6
G25  21464946.454 9 112799034.725 9      1032.935 9        55.261 9  21464948.872 6         0.000 6       804.885 6        37.977 6
G14  25502396.738 7 134015952.220 7      3361.202 7        42.976 7  25502397.745 6         0.000 6      2619.120 6        37.977 6
> 2019 07 03 18 03  1.0000000  0 12       0.000000000000
G06  24976948.231 7 131254703.287 7       435.385 7        43.792 7  24976951.848 6         0.000 6       339.261 6        37.977 6
G10  24540755.873 7 128962500.347 7     -1504.225 7        44.922 7  24540758.832 6         0.000 6     -1172.124 6        37.977 6
G12  20582743.799 9 108163031.046 9     -1113.339 9        57.186 9  20582742.538 6         0.000 6      -867.537 6        37.977 6
G15  23235786.983 8 122104856.409 8     -3353.651 8        50.685 8  23235786.559 6         0.000 6     -2613.236 6        37.977 6
G20  24892836.466 7 130812692.018 7     -1962.793 7        43.456 7  24892837.613 6         0.000 6     -1529.450 6        37.977 6
G29  22697094.582 8 119274009.576 8      3442.907 8        51.073 8  22697094.378 6         0.000 6      2682.786 6        37.977 6
G19  24642522.955 7 129497288.575 7     -3340.704 7        44.601 7  24642522.658 6         0.000 6     -2603.148 6        37.977 6
G24  20909967.049 9 109882600.838 9      -668.594 9        57.087 9  20909968.677 6         0.000 6      -520.983 6        37.977 6
G32  23452068.746 8 123241420.993 8      2848.023 8        49.067 8  23452070.811 6         0.000 6      2219.240 6        37.977 6
G02  24181740.233 7 127075865.897 7      1323.737 7        46.890 7  24181738.520 6         0.000 6      1031.484 6        37.977 6
G25  21464749.923 9 112798001.950 9      1032.616 9        55.262 9  21464752.342 6         0.000 6       804.636 6        37.977 6
G14  25501757.133 7 134012591.079 7      3361.092 7        42.976 7  25501758.140 6         0.000 6      2619.035 6        37.977 6
> 2019 07 03 18 03  2.0000000  0 12       0.000000000000
G06  24976865.424 7 131254268.137 7       434.918 7        43.792 7  24976869.042 6         0.000 6       338.897 6        37.977 6
G10  24541042.144 7 128964004.707 7     -1504.500 7        44.922 7  24541045.103 6         0.000 6     -1172.339 6        37.977 6
G12  20582955.686 9 108164144.518 9     -1113.607 9        57.186 9  20582954.425 6         0.000 6      -867.746 6        37.977 6
G15  23236425.176 8 122108210.130 8     -3353.798 8        50.685 8  23236424.752 6         0.000 6     -2613.350 6        37.977 6
G20  24893209.970 7 130814654.796 7     -1962.769 7        43.456 7  24893211.118 6         0.000 6     -1529.432 6        37.977 6
G29  22696439.442 8 119270566.796 8      3442.661 8        51.073 8  22696439.237 6         0.000 6      2682.594 6        37.977 6
G19  24643158.698 7 129500629.417 7     -3340.992 7        44.601 7  24643158.401 6         0.000 6     -2603.371 6        37.977 6
G24  20910094.308 9 109883269.591 9      -668.912 9        57.086 9  20910095.937 6         0.000 6      -521.230 6        37.977 6
G32  23451526.819 8 123238573.153 8      2847.665 8        49.067 8  23451528.884 6         0.000 6      2218.960 6        37.977 6
G02  24181488.359 7 127074542.290 7      1323.483 7        46.891 7  24181486.645 6         0.000 6      1031.286 6        37.977 6
G25  21464553.453 9 112796969.494 9      1032.297 9        55.262 9  21464555.872 6         0.000 6       804.388 6        37.977 6
G14  25501117.549 7 134009230.047 7      3360.982 7        42.976 7  25501118.555 6         0.000 6      2618.949 6        37.977 6
> 2019 07 03 18 03  3.0000000  0 12       0.000000000000
G06  24976782.707 7 131253833.454 7       434.450 7        43.792 7  24976786.324 6         0.000 6       338.533 6        37.977 6
G10  24541328.467 7 128965509.342 7     -1504.776 7        44.922 7  24541331.426 6         0.000 6     -1172.553 6        37.977 6
G12  20583167.624 9 108165258.258 9     -1113.874 9        57.186 9  20583166.363 6         0.000 6      -867.954 6        37.977 6
G15  23237063.396 8 122111563.998 8     -3353.945 8        50.684 8  23237062.973 6         0.000 6     -2613.465 6        37.977 6
G20  24893583.471 7 130816617.550 7     -1962.746 7        43.455 7  24893584.619 6         0.000 6     -1529.413 6        37.977 6
G29  22695784.349 8 119267124.263 8      3442.415 8        51.074 8  22695784.144 6         0.000 6      2682.402 6        37.977 6
G19  24643794.495 7 129503970.546 7     -3341.279 7        44.601 7  24643794.198 6         0.000 6     -2603.595 6        37.977 6
G24  20910221.628 9 109883938.662 9      -669.230 9        57.086 9  20910223.257 6         0.000 6      -521.478 6        37.977 6
G32  23450984.961 8 123235725.672 8      2847.306 8        49.067 8  23450987.025 6         0.000 6      2218.681 6        37.977 6
G02  24181236.533 7 127073218.937 7      1323.228 7        46.891 7  24181234.819 6         0.000 6      1031.088 6        37.977 6
G25  21464357.044 9 112795937.358 9      1031.978 9        55.262 9  21464359.462 6         0.000 6       804.139 6        37.977 6
G14  25500477.986 7 134005869.127 7      3360.872 7        42.977 7  25500478.992 6         0.000 6      2618.863 6        37.977 6
> 2019 07 03 18 03  4.0000000  0 12       0.000000000000
G06  24976700.078 7 131253399.238 7       433.983 7        43.792 7  24976703.695 6         0.000 6       338.168 6        37.977 6
G10  24541614.843 7 128967014.252 7     -1505.051 7        44.922 7  24541617.802 6         0.000 6     -1172.767 6        37.977 6
G12  20583379.612 9 108166372.265 9     -1114.142 9        57.186 9  20583378.351 6         0.000 6      -868.163 6        37.977 6
G15  23237701.645 8 122114918.012 8     -3354.092 8        50.684 8  23237701.222 6         0.000 6     -2613.580 6        37.977 6
G20  24893956.967 7 130818580.281 7     -1962.722 7        43.455 7  24893958.115 6         0.000 6     -1529.394 6        37.977 6
G29  22695129.303 8 119263681.975 8      3442.168 8        51.074 8  22695129.097 6         0.000 6      2682.210 6        37.977 6
G19  24644430.346 7 129507311.962 7     -3341.566 7        44.601 7  24644430.050 6         0.000 6     -2603.819 6        37.977 6
G24  20910349.009 9 109884608.051 9      -669.548 9        57.086 9  20910350.637 6         0.000 6      -521.726 6        37.977 6
G32  23450443.170 8 123232878.548 8      2846.948 8        49.067 8  23450445.234 6         0.000 6      2218.402 6        37.977 6
G02  24180984.755 7 127071895.839 7      1322.974 7        46.891 7  24180983.041 6         0.000 6      1030.889 6        37.977 6
G25  21464160.695 9 112794905.540 9      1031.659 9        55.262 9  21464163.114 6         0.000 6       803.891 6        37.977 6
G14  25499838.444 7 134002508.316 7      3360.761 7        42.977 7  25499839.449 6         0.000 6      2618.777 6        37.977 6
> 2019 07 03 18 03  5.0000000  0 12       0.000000000000
G06  24976617.538 7 131252965.490 7       433.515 7        43.792 7  24976621.156 6         0.000 6       337.804 6        37.977 6
G10  24541901.270 7 128968519.438 7     -1505.326 7        44.922 7  24541904.230 6         0.000 6     -1172.982 6        37.977 6
G12  20583591.652 9 108167486.540 9     -1114.409 9        57.186 9  20583590.391 6         0.000 6      -868.371 6        37.977 6
G15  23238339.922 8 122118272.174 8     -3354.239 8        50.684 8  23238339.499 6         0.000 6     -2613.694 6        37.977 6
G20  24894330.458 7 130820542.987 7     -1962.697 7        43.455 7  24894331.606 6         0.000 6     -1529.376 6        37.977 6
G29  22694474.303 8 119260239.934 8      3441.922 8        51.074 8  22694474.098 6         0.000 6      2682.018 6        37.977 6
G19  24645066.252 7 129510653.665 7     -3341.852 7        44.600 7  24645065.956 6         0.000 6     -2604.042 6        37.977 6
G24  20910476.450 9 109885277.758 9      -669.867 9        57.086 9  20910478.078 6         0.000 6      -521.974 6        37.977 6
G32  23449901.448 8 123230031.784 8      2846.589 8        49.068 8  23449903.512 6         0.000 6      2218.123 6        37.977 6
G02  24180733.026 7 127070572.995 7      1322.719 7        46.891 7  24180731.312 6         0.000 6      1030.691 6        37.977 6
G25  21463964.407 9 112793874.040 9      1031.341 9        55.262 9  21463966.826 6         0.000 6       803.642 6        37.977 6
G14  25499198.922 7 133999147.616 7      3360.651 7        42.977 7  25499199.928 6         0.000 6      2618.691 6        37.977 6
> 2019 07 03 18 03  6.0000000  0 12       0.000000000000
G06  24976535.088 7 131252532.210 7       433.047 7        43.792 7  24976538.705 6         0.000 6       337.440 6        37.977 6
G10  24542187.751 7 128970024.899 7     -1505.601 7        44.922 7  24542190.710 6         0.000 6     -1173.196 6        37.977 6
G12  20583803.743 9 108168601.082 9     -1114.677 9        57.186 9  20583802.482 6         0.000 6      -868.580 6        37.977 6
G15  23238978.226 8 122121626.483 8     -3354.386 8        50.684 8  23238977.804 6         0.000 6     -2613.808 6        37.977 6
G20  24894703.944 7 130822505.669 7     -1962.673 7        43.455 7  24894705.093 6         0.000 6     -1529.357 6        37.977 6
G29  22693819.351 8 119256798.140 8      3441.675 8        51.074 8  22693819.145 6         0.000 6      2681.826 6        37.977 6
G19  24645702.213 7 129513995.655 7     -3342.139 7        44.600 7  24645701.917 6         0.000 6     -2604.266 6        37.977 6
G24  20910603.952 9 109885947.783 9      -670.185 9        57.086 9  20910605.580 6         0.000 6      -522.222 6        37.977 6
G32  23449359.794 8 123227185.377 8      2846.231 8        49.068 8  23449361.858 6         0.000 6      2217.843 6        37.977 6
G02  24180481.345 7 127069250.407 7      1322.464 7        46.891 7  24180479.631 6         0.000 6      1030.492 6        37.977 6
G25  21463768.180 9 112792842.860 9      1031.022 9        55.262 9  21463770.598 6         0.000 6       803.394 6        37.977 6
G14  25498559.422 7 133995787.026 7      3360.540 7        42.977 7  25498560.427 6         0.000 6      2618.604 6        37.977 6
> 2019 07 03 18 03  7.0000000  0 12       0.000000000000
G06  24976452.726 7 131252099.397 7       432.580 7        43.792 7  24976456.343 6         0.000 6       337.075 6        37.977 6
G10  24542474.283 7 128971530.634 7     -1505.876 7        44.922 7  24542477.242 6         0.000 6     -1173.410 6        37.977 6
G12  20584015.884 9 108169715.892 9     -1114.944 9        57.185 9  20584014.623 6         0.000 6      -868.788 6        37.977 6
G15  23239616.558 8 122124980.938 8     -3354.533 8        50.683 8  23239616.136 6         0.000 6     -2613.923 6        37.977 6
G20  24895077.426 7 130824468.326 7     -1962.649 7        43.455 7  24895078.575 6         0.000 6     -1529.338 6        37.977 6
G29  22693164.445 8 119253356.592 8      3441.429 8        51.075 8  22693164.239 6         0.000 6      2681.634 6        37.977 6
G19  24646338.228 7 129517337.932 7     -3342.426 7        44.600 7  24646337.933 6         0.000 6     -2604.489 6        37.977 6
G24  20910731.514 9 109886618.127 9      -670.503 9        57.086 9  20910733.142 6         0.000 6      -522.470 6        37.977 6
G32  23448818.209 8 123224339.329 8      2845.872 8        49.068 8  23448820.272 6         0.000 6      2217.564 6        37.977 6
G02  24180229.713 7 127067928.073 7      1322.209 7        46.891 7  24180227.998 6         0.000 6      1030.293 6        37.977 6
G25  21463572.013 9 112791811.998 9      1030.703 9        55.262 9  21463574.432 6         0.000 6       803.146 6        37.977 6
G14  25497919.943 7 133992426.547 7      3360.430 7        42.977 7  25497920.948 6         0.000 6      2618.518 6        37.977 6
> 2019 07 03 18 03  8.0000000  0 12       0.000000000000
G06  24976370.453 7 131251667.052 7       432.112 7        43.792 7  24976374.070 6         0.000 6       336.711 6        37.977 6
G10  24542760.868 7 128973036.645 7     -1506.150 7        44.921 7  24542763.827 6         0.000 6     -1173.624 6        37.977 6
G12  20584228.076 9 108170830.969 9     -1115.211 9        57.185 9  20584226.815 6         0.000 6      -868.996 6        37.977 6
G15  23240254.919 8 122128335.540 8     -3354.679 8        50.683 8  23240254.497 6         0.000 6     -2614.037 6        37.977 6
G20  24895450.904 7 130826430.960 7     -1962.625 7        43.455 7  24895452.053 6         0.000 6     -1529.319 6        37.977 6
G29  22692509.587 8 119249915.291 8      3441.182 8        51.075 8  22692509.380 6         0.000 6      2681.442 6        37.977 6
G19  24646974.298 7 129520680.495 7     -3342.712 7        44.280 7  24646974.003 6         0.000 6     -2604.712 6        37.977 6
G24  20910859.137 9 109887288.789 9      -670.821 9        57.086 9  20910860.765 6         0.000 6      -522.718 6        37.977 6
G32  23448276.691 8 123221493.640 8      2845.513 8        49.068 8  23448278.755 6         0.000 6      2217.284 6        37.977 6
G02  24179978.129 7 127066605.994 7      1321.954 7        46.891 7  24179976.414 6         0.000 6      1030.095 6        37.977 6
G25  21463375.907 9 112790781.455 9      1030.385 9        55.262 9  21463378.326 6         0.000 6       802.897 6        37.977 6
G14  25497280.485 7 133989066.179 7      3360.319 7        42.978 7  25497281.489 6         0.000 6      2618.432 6        37.977 6
> 2019 07 03 18 03  9.0000000  0 12       0.000000000000
G06  24976288.270 7 131251235.175 7       431.644 7        43.793 7  24976291.887 6         0.000 6       336.346 6        37.977 6
G10  24543047.505 7 128974542.930 7     -1506.425 7        44.921 7  24543050.465 6         0.000 6     -1173.838 6        37.977 6
G12  20584440.319 9 108171946.313 9     -1115.479 9        57.185 9  20584439.058 6         0.000 6      -869.204 6        37.977 6
G15  23240893.307 8 122131690.288 8     -3354.826 8        50.683 8  23240892.885 6         0.000 6     -2614.151 6        37.977 6
G20  24895824.376 7 130828393.569 7     -1962.600 7        43.455 7  24895825.526 6         0.000 6     -1529.300 6        37.977 6
G29  22691854.775 8 119246474.236 8      3440.935 8        51.075 8  22691854.568 6         0.000 6      2681.249 6        37.977 6
G19  24647610.422 7 129524023.345 7     -3342.999 7        44.280 7  24647610.128 6         0.000 6     -2604.935 6        37.977 6
G24  20910986.820 9 109887959.769 9      -671.140 9        57.086 9  20910988.449 6         0.000 6      -522.966 6        37.977 6
G32  23447735.242 8 123218648.310 8      2845.155 8        49.068 8  23447737.305 6         0.000 6      2217.005 6        37.977 6
G02  24179726.594 7 127065284.171 7      1321.699 7        46.891 7  24179724.879 6         0.000 6      1029.896 6        37.977 6
G25  21463179.862 9 112789751.231 9      1030.066 9        55.262 9  21463182.280 6         0.000 6       802.649 6        37.977 6
G14  25496641.048 7 133985705.921 7      3360.208 7        42.978 7  25496642.052 6         0.000 6      2618.346 6        37.977 6
> 2019 07 03 18 03 10.0000000  0 12       0.000000000000
G06  24976206.175 7 131250803.766 7       431.176 7        43.793 7  24976209.792 6         0.000 6       335.982 6        37.977 6
G10  24543334.194 7 128976049.489 7     -1506.700 7        44.921 7  24543337.154 6         0.000 6     -1174.052 6        37.977 6
G12  20584652.613 9 108173061.925 9     -1115.746 9        57.185 9  20584651.352 6         0.000 6      -869.412 6        37.977 6
G15  23241531.723 8 122135045.183 8     -3354.972 8        50.683 8  23241531.302 6         0.000 6     -2614.265 6        37.977 6
G20  24896197.844 7 130830356.153 7     -1962.576 7        43.455 7  24896198.994 6         0.000 6     -1529.281 6        37.977 6
G29  22691200.010 8 119243033.429 8      3440.688 8        51.075 8  22691199.803 6         0.000 6      2681.057 6        37.977 6
G19  24648246.601 7 129527366.481 7     -3343.285 7        44.280 7  24648246.307 6         0.000 6     -2605.158 6        37.977 6
G24  20911114.564 9 109888631.067 9      -671.458 9        57.086 9  20911116.192 6         0.000 6      -523.214 6        37.977 6
G32  23447193.862 8 123215803.339 8      2844.796 8        49.069 8  23447195.924 6         0.000 6      2216.725 6        37.977 6
G02  24179475.107 7 127063962.602 7      1321.443 7        46.891 7  24179473.392 6         0.000 6      1029.697 6        37.977 6
G25  21462983.877 9 112788721.325 9      1029.747 9        55.262 9  21462986.295 6         0.000 6       802.401 6        37.977 6
G14  25496001.633 7 133982345.774 7      3360.097 7        42.978 7  25496002.636 6         0.000 6      2618.259 6        37.977 6
