     3.00           Observation Data    M (Mixed)           RINEX VERSION / TYPE
SimGEN V6.06.00     Spirent             03-Jul-19 12:00     PGM / RUN BY / DATE 
                                                            MARKER NAME         
1                                                           MARKER NUMBER       
GROUND_CRAFT                                                MARKER TYPE         
                    Spirent                                 OBSERVER / AGENCY   
rec_num             rec_type            rec_vers            REC # / TYPE / VERS 
1                   ant_type                                ANT # / TYPE        
  1000.000                                                  INTERVAL            
  2019     7     3    12     0    0.0000000     GPS         TIME OF FIRST OBS   
  4162462.2560   664393.5730  4770716.0560                  APPROX POSITION XYZ 
        0.0000        0.0000        0.0000                  ANTENNA: DELTA H/E/N
G    8 C1C L1C D1C S1C C2C L2C D2C S2C                      SYS / # / OBS TYPES 
        0.0000        0.0000        0.0000                  ANTENNA: DELTA X/Y/Z
DBHZ                                                        SIGNAL STRENGTH UNIT
                                                            END OF HEADER       
> 2019 07 03 12 00  0.0000000  0  8       0.000000000000
G07  25371782.112 9 133329568.588 9      2226.158 9        54.123 9  25371782.796 6         0.000 6      1734.669 6        37.977 6
G10  23849614.128 9 125330512.842 9      3528.864 9        54.655 9  23849617.894 6         0.000 6      2749.764 6        37.977 6
G21  21156772.216 9 111179567.762 9     -1238.925 9        55.715 9  21156771.499 6         0.000 6      -965.396 6        37.977 6
G29  24264375.101 9 127510095.999 9     -3143.390 9        54.488 9  24264376.638 6         0.000 6     -2449.395 6        37.977 6
G27  22033087.104 9 115784627.051 9      2535.534 9        55.363 9  22033089.046 6         0.000 6      1975.741 6        37.977 6
G16  20503756.290 9 107747946.228 9       603.799 9        55.974 9  20503755.463 6         0.000 6       470.493 6        37.977 6
G26  20638053.451 9 108453680.713 9     -1446.155 9        55.880 9  20638056.261 6         0.000 6     -1126.874 6        37.977 6
G20  21973188.027 9 115469849.069 9      2577.999 9        55.304 9  21973188.365 6         0.000 6      2008.830 6        37.977 6
> 2019 07 03 12 00  1.0000000  0  8       0.000000000000
G07  25371358.521 9 133327342.603 9      2225.763 9        54.123 9  25371359.204 6         0.000 6      1734.362 6        37.977 6
G10  23848942.616 9 125326984.036 9      3528.751 9        54.655 9  23848946.382 6         0.000 6      2749.679 6        37.977 6
G21  21157008.010 9 111180806.871 9     -1239.294 9        55.715 9  21157007.293 6         0.000 6      -965.684 6        37.977 6
G29  24264973.282 9 127513239.451 9     -3143.506 9        54.487 9  24264974.820 6         0.000 6     -2449.488 6        37.977 6
G27  22032604.630 9 115782091.635 9      2535.299 9        55.363 9  22032606.572 6         0.000 6      1975.558 6        37.977 6
G16  20503641.449 9 107747342.737 9       603.183 9        55.974 9  20503640.623 6         0.000 6       470.012 6        37.977 6
G26  20638328.701 9 108455127.157 9     -1446.736 9        55.880 9  20638331.511 6         0.000 6     -1127.327 6        37.977 6
G20  21972697.490 9 115467271.289 9      2577.565 9        55.304 9  21972697.828 6         0.000 6      2008.494 6        37.977 6
> 2019 07 03 12 00  2.0000000  0  8       0.000000000000
G07  25370935.015 9 133325117.068 9      2225.313 9        54.123 9  25370935.698 6         0.000 6      1734.011 6        37.977 6
G10  23848271.130 9 125323455.362 9      3528.618 9        54.655 9  23848274.895 6         0.000 6      2749.576 6        37.977 6
G21  21157243.875 9 111182046.349 9     -1239.663 9        55.715 9  21157243.158 6         0.000 6      -965.971 6        37.977 6
G29  24265571.480 9 127516382.991 9     -3143.594 9        54.487 9  24265573.018 6         0.000 6     -2449.556 6        37.977 6
G27  22032122.201 9 115779556.459 9      2535.059 9        55.363 9  22032124.143 6         0.000 6      1975.371 6        37.977 6
G16  20503526.726 9 107746739.863 9       602.566 9        55.974 9  20503525.900 6         0.000 6       469.532 6        37.977 6
G26  20638604.060 9 108456574.181 9     -1447.315 9        55.880 9  20638606.870 6         0.000 6     -1127.778 6        37.977 6
G20  21972207.038 9 115464693.947 9      2577.127 9        55.304 9  21972207.375 6         0.000 6      2008.152 6        37.977 6
> 2019 07 03 12 00  3.0000000  0  8       0.000000000000
G07  25370511.595 9 133322891.984 9      2224.862 9        54.123 9  25370512.277 6         0.000 6      1733.660 6        37.977 6
G10  23847599.669 9 125319926.821 9      3528.486 9        54.655 9  23847603.433 6         0.000 6      2749.472 6        37.977 6
G21  21157479.810 9 111183286.196 9     -1240.032 9        55.715 9  21157479.094 6         0.000 6      -966.259 6        37.977 6
G29  24266169.694 9 127519526.619 9     -3143.682 9        54.487 9  24266171.233 6         0.000 6     -2449.625 6        37.977 6
G27  22031639.818 9 115777021.523 9      2534.819 9        55.364 9  22031641.760 6         0.000 6      1975.184 6        37.977 6
G16  20503412.121 9 107746137.606 9       601.949 9        55.974 9  20503411.294 6         0.000 6       469.051 6        37.977 6
G26  20638879.530 9 108458021.783 9     -1447.894 9        55.880 9  20638882.340 6         0.000 6     -1128.229 6        37.977 6
G20  21971716.669 9 115462117.044 9      2576.688 9        55.305 9  21971717.006 6         0.000 6      2007.810 6        37.977 6
> 2019 07 03 12 00  4.0000000  0  8       0.000000000000
G07  25370088.260 9 133320667.351 9      2224.412 9        54.124 9  25370088.943 6         0.000 6      1733.309 6        37.977 6
G10  23846928.233 9 125316398.412 9      3528.353 9        54.656 9  23846931.996 6         0.000 6      2749.369 6        37.977 6
G21  21157715.816 9 111184526.412 9     -1240.401 9        55.715 9  21157715.099 6         0.000 6      -966.546 6        37.977 6
G29  24266767.926 9 127522670.335 9     -3143.770 9        54.487 9  24266769.465 6         0.000 6     -2449.694 6        37.977 6
G27  22031157.481 9 115774486.827 9      2534.579 9        55.364 9  22031159.423 6         0.000 6      1974.998 6        37.977 6
G16  20503297.632 9 107745535.965 9       601.332 9        55.974 9  20503296.805 6         0.000 6       468.570 6        37.977 6
G26  20639155.110 9 108459469.964 9     -1448.473 9        55.879 9  20639157.921 6         0.000 6     -1128.680 6        37.977 6
G20  21971226.383 9 115459540.580 9      2576.249 9        55.305 9  21971226.720 6         0.000 6      2007.468 6        37.977 6
> 2019 07 03 12 00  5.0000000  0  8       0.000000000000
G07  25369665.012 9 133318443.168 9      2223.961 9        54.124 9  25369665.694 6         0.000 6      1732.958 6        37.977 6
G10  23846256.822 9 125312870.136 9      3528.220 9        54.656 9  23846260.585 6         0.000 6      2749.265 6        37.977 6
G21  21157951.891 9 111185766.996 9     -1240.769 9        55.715 9  21157951.175 6         0.000 6      -966.834 6        37.977 6
G29  24267366.174 9 127525814.140 9     -3143.859 9        54.486 9  24267367.714 6         0.000 6     -2449.763 6        37.977 6
G27  22030675.189 9 115771952.370 9      2534.339 9        55.364 9  22030677.131 6         0.000 6      1974.811 6        37.977 6
G16  20503183.261 9 107744934.942 9       600.715 9        55.974 9  20503182.435 6         0.000 6       468.089 6        37.977 6
G26  20639430.801 9 108460918.725 9     -1449.052 9        55.879 9  20639433.611 6         0.000 6     -1129.131 6        37.977 6
G20  21970736.181 9 115456964.555 9      2575.810 9        55.305 9  21970736.517 6         0.000 6      2007.126 6        37.977 6
> 2019 07 03 12 00  6.0000000  0  8       0.000000000000
G07  25369241.849 9 133316219.436 9      2223.511 9        54.124 9  25369242.531 6         0.000 6      1732.607 6        37.977 6
G10  23845585.437 9 125309341.992 9      3528.088 9        54.656 9  23845589.199 6         0.000 6      2749.162 6        37.977 6
G21  21158188.037 9 111187007.949 9     -1241.138 9        55.714 9  21158187.320 6         0.000 6      -967.121 6        37.977 6
G29  24267964.438 9 127528958.032 9     -3143.947 9        54.486 9  24267965.979 6         0.000 6     -2449.831 6        37.977 6
G27  22030192.943 9 115769418.153 9      2534.100 9        55.364 9  22030194.885 6         0.000 6      1974.624 6        37.977 6
G16  20503069.008 9 107744334.537 9       600.097 9        55.974 9  20503068.181 6         0.000 6       467.608 6        37.977 6
G26  20639706.601 9 108462368.064 9     -1449.630 9        55.879 9  20639709.412 6         0.000 6     -1129.583 6        37.977 6
G20  21970246.062 9 115454388.969 9      2575.371 9        55.305 9  21970246.398 6         0.000 6      2006.784 6        37.977 6
> 2019 07 03 12 00  7.0000000  0  8       0.000000000000
G07  25368818.772 9 133313996.154 9      2223.060 9        54.124 9  25368819.453 6         0.000 6      1732.255 6        37.977 6
G10  23844914.077 9 125305813.982 9      3527.955 9        54.656 9  23844917.838 6         0.000 6      2749.058 6        37.977 6
G21  21158424.253 9 111188249.271 9     -1241.507 9        55.714 9  21158423.536 6         0.000 6      -967.408 6        37.977 6
G29  24268562.720 9 127532102.013 9     -3144.035 9        54.486 9  24268564.261 6         0.000 6     -2449.900 6        37.977 6
G27  22029710.743 9 115766884.176 9      2533.860 9        55.364 9  22029712.685 6         0.000 6      1974.437 6        37.977 6
G16  20502954.872 9 107743734.748 9       599.480 9        55.974 9  20502954.045 6         0.000 6       467.128 6        37.977 6
G26  20639982.512 9 108463817.982 9     -1450.209 9        55.879 9  20639985.322 6         0.000 6     -1130.034 6        37.977 6
G20  21969756.027 9 115451813.822 9      2574.932 9        55.305 9  21969756.363 6         0.000 6      2006.442 6        37.977 6
> 2019 07 03 12 00  8.0000000  0  8       0.000000000000
G07  25368395.780 9 133311773.323 9      2222.609 9        54.124 9  25368396.462 6         0.000 6      1731.904 6        37.977 6
G10  23844242.742 9 125302286.105 9      3527.822 9        54.657 9  23844246.503 6         0.000 6      2748.955 6        37.977 6
G21  21158660.539 9 111189490.961 9     -1241.875 9        55.714 9  21158659.822 6         0.000 6      -967.695 6        37.977 6
G29  24269161.018 9 127535246.082 9     -3144.123 9        54.486 9  24269162.560 6         0.000 6     -2449.969 6        37.977 6
G27  22029228.588 9 115764350.440 9      2533.620 9        55.365 9  22029230.530 6         0.000 6      1974.250 6        37.977 6
G16  20502840.853 9 107743135.576 9       598.863 9        55.974 9  20502840.026 6         0.000 6       466.647 6        37.977 6
G26  20640258.532 9 108465268.479 9     -1450.788 9        55.879 9  20640261.343 6         0.000 6     -1130.485 6        37.977 6
G20  21969266.076 9 115449239.114 9      2574.493 9        55.306 9  21969266.411 6         0.000 6      2006.099 6        37.977 6
> 2019 07 03 12 00  9.0000000  0  8       0.000000000000
G07  25367972.875 9 133309550.943 9      2222.158 9        54.124 9  25367973.556 6         0.000 6      1731.553 6        37.977 6
G10  23843571.433 9 125298758.361 9      3527.688 9        54.657 9  23843575.193 6         0.000 6      2748.851 6        37.977 6
G21  21158896.895 9 111190733.020 9     -1242.244 9        55.714 9  21158896.178 6         0.000 6      -967.982 6        37.977 6
G29  24269759.333 9 127538390.239 9     -3144.211 9        54.486 9  24269760.876 6         0.000 6     -2450.037 6        37.977 6
G27  22028746.480 9 115761816.943 9      2533.380 9        55.365 9  22028748.421 6         0.000 6      1974.063 6        37.977 6
G16  20502726.952 9 107742537.022 9       598.246 9        55.974 9  20502726.125 6         0.000 6       466.166 6        37.977 6
G26  20640534.663 9 108466719.555 9     -1451.367 9        55.879 9  20640537.474 6         0.000 6     -1130.936 6        37.977 6
G20  21968776.208 9 115446664.845 9      2574.054 9        55.306 9  21968776.543 6         0.000 6      2005.757 6        37.977 6
> 2019 07 03 12 00 10.0000000  0  8       0.000000000000
G07  25367550.055 9 133307329.014 9      2221.707 9        54.124 9  25367550.736 6         0.000 6      1731.201 6        37.977 6
G10  23842900.149 9 125295230.750 9      3527.555 9        54.657 9  23842903.908 6         0.000 6      2748.747 6        37.977 6
G21  21159133.321 9 111191975.447 9     -1242.612 9        55.714 9  21159132.604 6         0.000 6      -968.269 6        37.977 6
G29  24270357.665 9 127541534.484 9     -3144.299 9        54.485 9  24270359.208 6         0.000 6     -2450.106 6        37.977 6
G27  22028264.416 9 115759283.686 9      2533.140 9        55.365 9  22028266.357 6         0.000 6      1973.876 6        37.977 6
G16  20502613.168 9 107741939.085 9       597.629 9        55.974 9  20502612.342 6         0.000 6       465.685 6        37.977 6
G26  20640810.904 9 108468171.210 9     -1451.946 9        55.879 9  20640813.715 6         0.000 6     -1131.387 6        37.977 6
G20  21968286.423 9 115444091.016 9      2573.614 9        55.306 9  21968286.759 6         0.000 6      2005.415 6        37.977 6
> 2019 07 03 12 00 11.0000000  0  8       0.000000000000
G07  25367127.321 9 133305107.537 9      2221.256 9        54.125 9  25367128.002 6         0.000 6      1730.850 6        37.977 6
G10  23842228.890 9 125291703.272 9      3527.422 9        54.657 9  23842232.649 6         0.000 6      2748.643 6        37.977 6
G21  21159369.817 9 111193218.243 9     -1242.980 9        55.714 9  21159369.101 6         0.000 6      -968.556 6        37.977 6
G29  24270956.014 9 127544678.817 9     -3144.387 9        54.485 9  24270957.558 6         0.000 6     -2450.174 6        37.977 6
G27  22027782.399 9 115756750.669 9      2532.900 9        55.365 9  22027784.340 6         0.000 6      1973.689 6        37.977 6
G16  20502499.502 9 107741341.765 9       597.011 9        55.974 9  20502498.675 6         0.000 6       465.204 6        37.977 6
G26  20641087.255 9 108469623.443 9     -1452.524 9        55.879 9  20641090.066 6         0.000 6     -1131.838 6        37.977 6
G20  21967796.723 9 115441517.626 9      2573.175 9        55.306 9  21967797.058 6         0.000 6      2005.072 6        37.977 6
> 2019 07 03 12 00 12.0000000  0  8       0.000000000000
G07  25366704.673 9 133302886.510 9      2220.805 9        54.125 9  25366705.354 6         0.000 6      1730.498 6        37.977 6
G10  23841557.657 9 125288175.928 9      3527.288 9        54.658 9  23841561.415 6         0.000 6      2748.539 6        37.977 6
G21  21159606.383 9 111194461.407 9     -1243.349 9        55.714 9  21159605.667 6         0.000 6      -968.843 6        37.977 6
G29  24271554.379 9 127547823.238 9     -3144.475 9        54.485 9  24271555.924 6         0.000 6     -2450.243 6        37.977 6
G27  22027300.427 9 115754217.892 9      2532.659 9        55.365 9  22027302.367 6         0.000 6      1973.502 6        37.977 6
G16  20502385.954 9 107740745.062 9       596.394 9        55.974 9  20502385.127 6         0.000 6       464.723 6        37.977 6
G26  20641363.717 9 108471076.255 9     -1453.103 9        55.879 9  20641366.528 6         0.000 6     -1132.289 6        37.977 6
G20  21967307.106 9 115438944.676 9      2572.735 9        55.306 9  21967307.440 6         0.000 6      2004.730 6        37.977 6
> 2019 07 03 12 00 13.0000000  0  8       0.000000000000
G07  25366282.111 9 133300665.934 9      2220.354 9        54.125 9  25366282.791 6         0.000 6      1730.147 6        37.977 6
G10  23840886.449 9 125284648.717 9      3527.155 9        54.658 9  23840890.206 6         0.000 6      2748.435 6        37.977 6
G21  21159843.020 9 111195704.939 9     -1243.717 9        55.714 9  21159842.304 6         0.000 6      -969.130 6        37.977 6
G29  24272152.761 9 127550967.747 9     -3144.563 9        54.485 9  24272154.306 6         0.000 6     -2450.312 6        37.977 6
G27  22026818.501 9 115751685.356 9      2532.419 9        55.365 9  22026820.441 6         0.000 6      1973.314 6        37.977 6
G16  20502272.522 9 107740148.977 9       595.776 9        55.974 9  20502271.695 6         0.000 6       464.241 6        37.977 6
G26  20641640.288 9 108472529.646 9     -1453.682 9        55.878 9  20641643.099 6         0.000 6     -1132.739 6        37.977 6
G20  21966817.572 9 115436372.165 9      2572.295 9        55.307 9  21966817.907 6         0.000 6      2004.387 6        37.977 6
> 2019 07 03 12 00 14.0000000  0  8       0.000000000000
G07  25365859.635 9 133298445.810 9      2219.902 9        54.125 9  25365860.315 6         0.000 6      1729.795 6        37.977 6
G10  23840215.266 9 125281121.640 9      3527.021 9        54.658 9  23840219.023 6         0.000 6      2748.331 6        37.977 6
G21  21160079.726 9 111196948.839 9     -1244.085 9        55.714 9  21160079.010 6         0.000 6      -969.417 6        37.977 6
G29  24272751.160 9 127554112.344 9     -3144.651 9        54.485 9  24272752.706 6         0.000 6     -2450.380 6        37.977 6
G27  22026336.620 9 115749153.059 9      2532.179 9        55.366 9  22026338.560 6         0.000 6      1973.127 6        37.977 6
G16  20502159.209 9 107739553.509 9       595.159 9        55.974 9  20502158.382 6         0.000 6       463.760 6        37.977 6
G26  20641916.969 9 108473983.615 9     -1454.260 9        55.878 9  20641919.781 6         0.000 6     -1133.190 6        37.977 6
G20  21966328.123 9 115433800.095 9      2571.855 9        55.307 9  21966328.457 6         0.000 6      2004.044 6        37.977 6
> 2019 07 03 12 00 15.0000000  0  8       0.000000000000
G07  25365437.244 9 133296226.137 9      2219.451 9        54.125 9  25365437.924 6         0.000 6      1729.443 6        37.977 6
G10  23839544.109 9 125277594.697 9      3526.887 9        54.658 9  23839547.865 6         0.000 6      2748.226 6        37.977 6
G21  21160316.503 9 111198193.108 9     -1244.453 9        55.714 9  21160315.787 6         0.000 6      -969.704 6        37.977 6
G29  24273349.576 9 127557257.029 9     -3144.739 9        54.484 9  24273351.122 6         0.000 6     -2450.449 6        37.977 6
G27  22025854.785 9 115746621.003 9      2531.939 9        55.366 9  22025856.725 6         0.000 6      1972.940 6        37.977 6
G16  20502046.012 9 107738958.659 9       594.542 9        55.975 9  20502045.185 6         0.000 6       463.279 6        37.977 6
G26  20642193.761 9 108475438.163 9     -1454.839 9        55.878 9  20642196.573 6         0.000 6     -1133.641 6        37.977 6
G20  21965838.757 9 115431228.464 9      2571.416 9        55.307 9  21965839.090 6         0.000 6      2003.702 6        37.977 6
> 2019 07 03 12 00 16.0000000  0  8       0.000000000000
G07  25365014.940 9 133294006.915 9      2219.000 9        54.125 9  25365015.619 6         0.000 6      1729.091 6        37.977 6
G10  23838872.978 9 125274067.887 9      3526.753 9        54.659 9  23838876.733 6         0.000 6      2748.122 6        37.977 6
G21  21160553.350 9 111199437.745 9     -1244.821 9        55.713 9  21160552.633 6         0.000 6      -969.991 6        37.977 6
G29  24273948.008 9 127560401.802 9     -3144.827 9        54.484 9  24273949.555 6         0.000 6     -2450.517 6        37.977 6
G27  22025372.996 9 115744089.187 9      2531.699 9        55.366 9  22025374.936 6         0.000 6      1972.753 6        37.977 6
G16  20501932.934 9 107738364.426 9       593.924 9        55.975 9  20501932.107 6         0.000 6       462.798 6        37.977 6
G26  20642470.663 9 108476893.290 9     -1455.418 9        55.878 9  20642473.474 6         0.000 6     -1134.092 6        37.977 6
G20  21965349.474 9 115428657.273 9      2570.976 9        55.307 9  21965349.808 6         0.000 6      2003.359 6        37.977 6
> 2019 07 03 12 00 17.0000000  0  8       0.000000000000
G07  25364592.721 9 133291788.145 9      2218.548 9        54.125 9  25364593.401 6         0.000 6      1728.740 6        37.977 6
G10  23838201.871 9 125270541.212 9      3526.619 9        54.659 9  23838205.626 6         0.000 6      2748.018 6        37.977 6
G21  21160790.266 9 111200682.749 9     -1245.189 9        55.713 9  21160789.550 6         0.000 6      -970.278 6        37.977 6
G29  24274546.457 9 127563546.662 9     -3144.915 9        54.484 9  24274548.005 6         0.000 6     -2450.586 6        37.977 6
G27  22024891.253 9 115741557.611 9      2531.458 9        55.366 9  22024893.193 6         0.000 6      1972.566 6        37.977 6
G16  20501819.972 9 107737770.811 9       593.307 9        55.975 9  20501819.145 6         0.000 6       462.317 6        37.977 6
G26  20642747.675 9 108478348.995 9     -1455.996 9        55.878 9  20642750.486 6         0.000 6     -1134.543 6        37.977 6
G20  21964860.276 9 115426086.522 9      2570.535 9        55.307 9  21964860.609 6         0.000 6      2003.016 6        37.977 6
> 2019 07 03 12 00 18.0000000  0  8       0.000000000000
G07  25364170.589 9 133289569.826 9      2218.096 9        54.126 9  25364171.268 6         0.000 6      1728.388 6        37.977 6
G10  23837530.791 9 125267014.671 9      3526.485 9        54.659 9  23837534.545 6         0.000 6      2747.913 6        37.977 6
G21  21161027.253 9 111201928.122 9     -1245.557 9        55.713 9  21161026.537 6         0.000 6      -970.564 6        37.977 6
G29  24275144.923 9 127566691.611 9     -3145.003 9        54.484 9  24275146.471 6         0.000 6     -2450.654 6        37.977 6
G27  22024409.555 9 115739026.276 9      2531.218 9        55.366 9  22024411.495 6         0.000 6      1972.378 6        37.977 6
G16  20501707.129 9 107737177.814 9       592.689 9        55.975 9  20501706.302 6         0.000 6       461.836 6        37.977 6
G26  20643024.796 9 108479805.278 9     -1456.575 9        55.878 9  20643027.608 6         0.000 6     -1134.994 6        37.977 6
G20  21964371.161 9 115423516.211 9      2570.095 9        55.308 9  21964371.494 6         0.000 6      2002.673 6        37.977 6
> 2019 07 03 12 00 19.0000000  0  8       0.000000000000
G07  25363748.542 9 133287351.960 9      2217.645 9        54.126 9  25363749.221 6         0.000 6      1728.036 6        37.977 6
G10  23836859.736 9 125263488.263 9      3526.351 9        54.659 9  23836863.489 6         0.000 6      2747.809 6        37.977 6
G21  21161264.310 9 111203173.863 9     -1245.925 9        55.713 9  21161263.593 6         0.000 6      -970.851 6        37.977 6
G29  24275743.405 9 127569836.647 9     -3145.091 9        54.483 9  24275744.954 6         0.000 6     -2450.722 6        37.977 6
G27  22023927.903 9 115736495.181 9      2530.978 9        55.367 9  22023929.843 6         0.000 6      1972.191 6        37.977 6
G16  20501594.402 9 107736585.434 9       592.071 9        55.975 9  20501593.576 6         0.000 6       461.354 6        37.977 6
G26  20643302.028 9 108481262.140 9     -1457.153 9        55.878 9  20643304.840 6         0.000 6     -1135.444 6        37.977 6
G20  21963882.130 9 115420946.340 9      2569.655 9        55.308 9  21963882.463 6         0.000 6      2002.330 6        37.977 6
> 2019 07 03 12 00 20.0000000  0  8       0.000000000000
G07  25363326.581 9 133285134.544 9      2217.193 9        54.126 9  25363327.260 6         0.000 6      1727.684 6        37.977 6
G10  23836188.706 9 125259961.990 9      3526.217 9        54.660 9  23836192.459 6         0.000 6      2747.704 6        37.977 6
G21  21161501.436 9 111204419.971 9     -1246.293 9        55.713 9  21161500.720 6         0.000 6      -971.138 6        37.977 6
G29  24276341.904 9 127572981.772 9     -3145.178 9        54.483 9  24276343.454 6         0.000 6     -2450.791 6        37.977 6
G27  22023446.297 9 115733964.327 9      2530.737 9        55.367 9  22023448.237 6         0.000 6      1972.004 6        37.977 6
G16  20501481.794 9 107735993.671 9       591.454 9        55.975 9  20501480.967 6         0.000 6       460.873 6        37.977 6
G26  20643579.370 9 108482719.581 9     -1457.731 9        55.878 9  20643582.182 6         0.000 6     -1135.895 6        37.977 6
G20  21963393.183 9 115418376.910 9      2569.215 9        55.308 9  21963393.515 6         0.000 6      2001.987 6        37.977 6
> 2019 07 03 12 00 21.0000000  0  8       0.000000000000
G07  25362904.706 9 133282917.581 9      2216.741 9        54.126 9  25362905.385 6         0.000 6      1727.332 6        37.977 6
G10  23835517.702 9 125256435.852 9      3526.082 9        54.660 9  23835521.455 6         0.000 6      2747.599 6        37.977 6
G21  21161738.633 9 111205666.448 9     -1246.661 9        55.713 9  21161737.917 6         0.000 6      -971.424 6        37.977 6
G29  24276940.420 9 127576126.984 9     -3145.266 9        54.483 9  24276941.970 6         0.000 6     -2450.859 6        37.977 6
G27  22022964.737 9 115731433.713 9      2530.497 9        55.367 9  22022966.676 6         0.000 6      1971.816 6        37.977 6
G16  20501369.303 9 107735402.526 9       590.836 9        55.975 9  20501368.476 6         0.000 6       460.392 6        37.977 6
G26  20643856.822 9 108484177.600 9     -1458.310 9        55.878 9  20643859.635 6         0.000 6     -1136.346 6        37.977 6
G20  21962904.320 9 115415807.920 9      2568.774 9        55.308 9  21962904.652 6         0.000 6      2001.643 6        37.977 6
> 2019 07 03 12 00 22.0000000  0  8       0.000000000000
G07  25362482.917 9 133280701.070 9      2216.289 9        54.126 9  25362483.596 6         0.000 6      1726.979 6        37.977 6
G10  23834846.724 9 125252909.848 9      3525.948 9        54.660 9  23834850.476 6         0.000 6      2747.494 6        37.977 6
G21  21161975.900 9 111206913.292 9     -1247.029 9        55.713 9  21161975.184 6         0.000 6      -971.711 6        37.977 6
G29  24277538.953 9 127579272.284 9     -3145.354 9        54.483 9  24277540.504 6         0.000 6     -2450.928 6        37.977 6
G27  22022483.222 9 115728903.339 9      2530.256 9        55.367 9  22022485.161 6         0.000 6      1971.629 6        37.977 6
G16  20501256.929 9 107734812.000 9       590.218 9        55.975 9  20501256.102 6         0.000 6       459.910 6        37.977 6
G26  20644134.385 9 108485636.197 9     -1458.888 9        55.877 9  20644137.197 6         0.000 6     -1136.796 6        37.977 6
G20  21962415.540 9 115413239.371 9      2568.334 9        55.308 9  21962415.872 6         0.000 6      2001.300 6        37.977 6
> 2019 07 03 12 00 23.0000000  0  8       0.000000000000
G07  25362061.215 9 133278485.010 9      2215.837 9        54.126 9  25362061.893 6         0.000 6      1726.627 6        37.977 6
G10  23834175.771 9 125249383.978 9      3525.813 9        54.660 9  23834179.522 6         0.000 6      2747.389 6        37.977 6
G21  21162213.236 9 111208160.504 9     -1247.396 9        55.713 9  21162212.520 6         0.000 6      -971.997 6        37.977 6
G29  24278137.502 9 127582417.671 9     -3145.442 9        54.483 9  24278139.054 6         0.000 6     -2450.996 6        37.977 6
G27  22022001.753 9 115726373.206 9      2530.016 9        55.367 9  22022003.692 6         0.000 6      1971.441 6        37.977 6
G16  20501144.673 9 107734222.090 9       589.600 9        55.975 9  20501143.846 6         0.000 6       459.429 6        37.977 6
G26  20644412.057 9 108487095.373 9     -1459.466 9        55.877 9  20644414.869 6         0.000 6     -1137.247 6        37.977 6
G20  21961926.844 9 115410671.262 9      2567.893 9        55.309 9  21961927.176 6         0.000 6      2000.957 6        37.977 6
> 2019 07 03 12 00 24.0000000  0  8       0.000000000000
G07  25361639.598 9 133276269.403 9      2215.385 9        54.126 9  25361640.276 6         0.000 6      1726.275 6        37.977 6
G10  23833504.844 9 125245858.244 9      3525.678 9        54.661 9  23833508.594 6         0.000 6      2747.284 6        37.977 6
G21  21162450.643 9 111209408.083 9     -1247.764 9        55.713 9  21162449.927 6         0.000 6      -972.284 6        37.977 6
G29  24278736.068 9 127585563.146 9     -3145.529 9        54.482 9  24278737.620 6         0.000 6     -2451.064 6        37.977 6
G27  22021520.330 9 115723843.313 9      2529.775 9        55.368 9  22021522.269 6         0.000 6      1971.254 6        37.977 6
G16  20501032.535 9 107733632.799 9       588.983 9        55.975 9  20501031.708 6         0.000 6       458.947 6        37.977 6
G26  20644689.839 9 108488555.127 9     -1460.045 9        55.877 9  20644692.652 6         0.000 6     -1137.698 6        37.977 6
G20  21961438.232 9 115408103.594 9      2567.452 9        55.309 9  21961438.564 6         0.000 6      2000.613 6        37.977 6
> 2019 07 03 12 00 25.0000000  0  8       0.000000000000
G07  25361218.067 9 133274054.247 9      2214.933 9        54.127 9  25361218.745 6         0.000 6      1725.923 6        37.977 6
G10  23832833.943 9 125242332.644 9      3525.543 9        54.661 9  23832837.692 6         0.000 6      2747.179 6        37.977 6
G21  21162688.120 9 111210656.031 9     -1248.132 9        55.713 9  21162687.404 6         0.000 6      -972.570 6        37.977 6
G29  24279334.651 9 127588708.709 9     -3145.617 9        54.482 9  24279336.203 6         0.000 6     -2451.133 6        37.977 6
G27  22021038.953 9 115721313.662 9      2529.534 9        55.368 9  22021040.891 6         0.000 6      1971.066 6        37.977 6
G16  20500920.514 9 107733044.125 9       588.365 9        55.975 9  20500919.687 6         0.000 6       458.466 6        37.977 6
G26  20644967.731 9 108490015.459 9     -1460.623 9        55.877 9  20644970.544 6         0.000 6     -1138.148 6        37.977 6
G20  21960949.705 9 115405536.367 9      2567.011 9        55.309 9  21960950.035 6         0.000 6      2000.270 6        37.977 6
> 2019 07 03 12 00 26.0000000  0  8       0.000000000000
G07  25360796.622 9 133271839.544 9      2214.481 9        54.127 9  25360797.300 6         0.000 6      1725.570 6        37.977 6
G10  23832163.067 9 125238807.178 9      3525.408 9        54.661 9  23832166.816 6         0.000 6      2747.074 6        37.977 6
G21  21162925.666 9 111211904.345 9     -1248.499 9        55.713 9  21162924.950 6         0.000 6      -972.857 6        37.977 6
G29  24279933.250 9 127591854.360 9     -3145.705 9        54.482 9  24279934.803 6         0.000 6     -2451.201 6        37.977 6
G27  22020557.621 9 115718784.250 9      2529.294 9        55.368 9  22020559.560 6         0.000 6      1970.879 6        37.977 6
G16  20500808.611 9 107732456.070 9       587.747 9        55.975 9  20500807.784 6         0.000 6       457.984 6        37.977 6
G26  20645245.734 9 108491476.369 9     -1461.201 9        55.877 9  20645248.546 6         0.000 6     -1138.599 6        37.977 6
G20  21960461.260 9 115402969.580 9      2566.570 9        55.309 9  21960461.591 6         0.000 6      1999.926 6        37.977 6
> 2019 07 03 12 00 27.0000000  0  8       0.000000000000
G07  25360375.264 9 133269625.293 9      2214.028 9        54.127 9  25360375.941 6         0.000 6      1725.218 6        37.977 6
G10  23831492.217 9 125235281.848 9      3525.273 9        54.661 9  23831495.965 6         0.000 6      2746.969 6        37.977 6
G21  21163163.283 9 111213153.028 9     -1248.867 9        55.712 9  21163162.567 6         0.000 6      -973.143 6        37.977 6
G29  24280531.866 9 127595000.098 9     -3145.792 9        54.482 9  24280533.420 6         0.000 6     -2451.269 6        37.977 6
G27  22020076.336 9 115716255.080 9      2529.053 9        55.368 9  22020078.274 6         0.000 6      1970.691 6        37.977 6
G16  20500696.825 9 107731868.632 9       587.129 9        55.975 9  20500695.998 6         0.000 6       457.503 6        37.977 6
G26  20645523.846 9 108492937.858 9     -1461.779 9        55.877 9  20645526.659 6         0.000 6     -1139.049 6        37.977 6
G20  21959972.900 9 115400403.235 9      2566.129 9        55.309 9  21959973.231 6         0.000 6      1999.582 6        37.977 6
> 2019 07 03 12 00 28.0000000  0  8       0.000000000000
G07  25359953.991 9 133267411.495 9      2213.576 9        54.127 9  25359954.668 6         0.000 6      1724.865 6        37.977 6
G10  23830821.393 9 125231756.653 9      3525.138 9        54.662 9  23830825.140 6         0.000 6      2746.864 6        37.977 6
G21  21163400.969 9 111214402.077 9     -1249.234 9        55.712 9  21163400.253 6         0.000 6      -973.429 6        37.977 6
G29  24281130.499 9 127598145.924 9     -3145.880 9        54.482 9  24281132.053 6         0.000 6     -2451.338 6        37.977 6
G27  22019595.096 9 115713726.150 9      2528.812 9        55.368 9  22019597.034 6         0.000 6      1970.504 6        37.977 6
G16  20500585.157 9 107731281.812 9       586.511 9        55.975 9  20500584.330 6         0.000 6       457.021 6        37.977 6
G26  20645802.068 9 108494399.925 9     -1462.358 9        55.877 9  20645804.881 6         0.000 6     -1139.500 6        37.977 6
G20  21959484.624 9 115397837.331 9      2565.688 9        55.309 9  21959484.954 6         0.000 6      1999.239 6        37.977 6
> 2019 07 03 12 00 29.0000000  0  8       0.000000000000
G07  25359532.805 9 133265198.148 9      2213.124 9        54.127 9  25359533.481 6         0.000 6      1724.513 6        37.977 6
G10  23830150.594 9 125228231.593 9      3525.003 9        54.662 9  23830154.341 6         0.000 6      2746.758 6        37.977 6
G21  21163638.725 9 111215651.494 9     -1249.601 9        55.712 9  21163638.010 6         0.000 6      -973.716 6        37.977 6
G29  24281729.148 9 127601291.838 9     -3145.967 9        54.481 9  24281730.703 6         0.000 6     -2451.406 6        37.977 6
G27  22019113.902 9 115711197.461 9      2528.571 9        55.369 9  22019115.840 6         0.000 6      1970.316 6        37.977 6
G16  20500473.606 9 107730695.611 9       585.893 9        55.975 9  20500472.779 6         0.000 6       456.540 6        37.977 6
G26  20646080.401 9 108495862.569 9     -1462.936 9        55.877 9  20646083.214 6         0.000 6     -1139.950 6        37.977 6
G20  21958996.432 9 115395271.868 9      2565.247 9        55.310 9  21958996.762 6         0.000 6      1998.895 6        37.977 6
> 2019 07 03 12 00 30.0000000  0  8       0.000000000000
G07  25359111.704 9 133262985.255 9      2212.671 9        54.127 9  25359112.381 6         0.000 6      1724.160 6        37.977 6
G10  23829479.821 9 125224706.669 9      3524.867 9        54.662 9  23829483.567 6         0.000 6      2746.653 6        37.977 6
G21  21163876.551 9 111216901.279 9     -1249.969 9        55.712 9  21163875.836 6         0.000 6      -974.002 6        37.977 6
G29  24282327.814 9 127604437.839 9     -3146.055 9        54.481 9  24282329.370 6         0.000 6     -2451.474 6        37.977 6
G27  22018632.754 9 115708669.013 9      2528.331 9        55.369 9  22018634.691 6         0.000 6      1970.128 6        37.977 6
G16  20500362.173 9 107730110.027 9       585.275 9        55.975 9  20500361.347 6         0.000 6       456.058 6        37.977 6
G26  20646358.843 9 108497325.792 9     -1463.514 9        55.876 9  20646361.656 6         0.000 6     -1140.401 6        37.977 6
G20  21958508.324 9 115392706.846 9      2564.806 9        55.310 9  21958508.653 6         0.000 6      1998.551 6        37.977 6
> 2019 07 03 12 00 31.0000000  0  8       0.000000000000
G07  25358690.690 9 133260772.814 9      2212.218 9        54.128 9  25358691.366 6         0.000 6      1723.807 6        37.977 6
G10  23828809.074 9 125221181.880 9      3524.732 9        54.662 9  23828812.820 6         0.000 6      2746.547 6        37.977 6
G21  21164114.448 9 111218151.430 9     -1250.336 9        55.712 9  21164113.732 6         0.000 6      -974.288 6        37.977 6
G29  24282926.497 9 127607583.928 9     -3146.143 9        54.481 9  24282928.053 6         0.000 6     -2451.542 6        37.977 6
G27  22018151.651 9 115706140.805 9      2528.090 9        55.369 9  22018153.589 6         0.000 6      1969.941 6        37.977 6
G16  20500250.858 9 107729525.062 9       584.657 9        55.975 9  20500250.031 6         0.000 6       455.577 6        37.977 6
G26  20646637.396 9 108498789.593 9     -1464.092 9        55.876 9  20646640.209 6         0.000 6     -1140.851 6        37.977 6
G20  21958020.299 9 115390142.265 9      2564.364 9        55.310 9  21958020.628 6         0.000 6      1998.207 6        37.977 6
> 2019 07 03 12 00 32.0000000  0  8       0.000000000000
G07  25358269.762 9 133258560.825 9      2211.766 9        54.128 9  25358270.438 6         0.000 6      1723.455 6        37.977 6
G10  23828138.353 9 125217657.226 9      3524.596 9        54.663 9  23828142.098 6         0.000 6      2746.441 6        37.977 6
G21  21164352.414 9 111219401.949 9     -1250.703 9        55.712 9  21164351.698 6         0.000 6      -974.574 6        37.977 6
G29  24283525.196 9 127610730.104 9     -3146.230 9        54.481 9  24283526.753 6         0.000 6     -2451.610 6        37.977 6
G27  22017670.595 9 115703612.838 9      2527.849 9        55.369 9  22017672.532 6         0.000 6      1969.753 6        37.977 6
G16  20500139.661 9 107728940.714 9       584.038 9        55.975 9  20500138.834 6         0.000 6       455.095 6        37.977 6
G26  20646916.058 9 108500253.972 9     -1464.670 9        55.876 9  20646918.871 6         0.000 6     -1141.302 6        37.977 6
G20  21957532.359 9 115387578.126 9      2563.923 9        55.310 9  21957532.688 6         0.000 6      1997.863 6        37.977 6
> 2019 07 03 12 00 33.0000000  0  8       0.000000000000
G07  25357848.920 9 133256349.290 9      2211.313 9        54.128 9  25357849.596 6         0.000 6      1723.102 6        37.977 6
G10  23827467.657 9 125214132.709 9      3524.461 9        54.663 9  23827471.402 6         0.000 6      2746.336 6        37.977 6
G21  21164590.449 9 111220652.835 9     -1251.070 9        55.712 9  21164589.734 6         0.000 6      -974.860 6        37.977 6
G29  24284123.912 9 127613876.367 9     -3146.318 9        54.480 9  24284125.470 6         0.000 6     -2451.679 6        37.977 6
G27  22017189.584 9 115701085.113 9      2527.608 9        55.369 9  22017191.521 6         0.000 6      1969.565 6        37.977 6
G16  20500028.581 9 107728356.985 9       583.420 9        55.975 9  20500027.754 6         0.000 6       454.613 6        37.977 6
G26  20647194.830 9 108501718.929 9     -1465.248 9        55.876 9  20647197.644 6         0.000 6     -1141.752 6        37.977 6
G20  21957044.503 9 115385014.429 9      2563.481 9        55.310 9  21957044.831 6         0.000 6      1997.519 6        37.977 6
> 2019 07 03 12 00 34.0000000  0  8       0.000000000000
G07  25357428.164 9 133254138.207 9      2210.860 9        54.128 9  25357428.840 6         0.000 6      1722.749 6        37.977 6
G10  23826796.988 9 125210608.326 9      3524.325 9        54.663 9  23826800.731 6         0.000 6      2746.230 6        37.977 6
G21  21164828.555 9 111221904.089 9     -1251.437 9        55.712 9  21164827.840 6         0.000 6      -975.146 6        37.977 6
G29  24284722.645 9 127617022.719 9     -3146.405 9        54.480 9  24284724.203 6         0.000 6     -2451.747 6        37.977 6
G27  22016708.619 9 115698557.628 9      2527.367 9        55.369 9  22016710.556 6         0.000 6      1969.378 6        37.977 6
G16  20499917.618 9 107727773.874 9       582.802 9        55.975 9  20499916.791 6         0.000 6       454.131 6        37.977 6
G26  20647473.713 9 108503184.464 9     -1465.826 9        55.876 9  20647476.526 6         0.000 6     -1142.202 6        37.977 6
G20  21956556.730 9 115382451.173 9      2563.039 9        55.311 9  21956557.059 6         0.000 6      1997.175 6        37.977 6
> 2019 07 03 12 00 35.0000000  0  8       0.000000000000
G07  25357007.495 9 133251927.577 9      2210.407 9        54.128 9  25357008.170 6         0.000 6      1722.396 6        37.977 6
G10  23826126.344 9 125207084.080 9      3524.189 9        54.663 9  23826130.087 6         0.000 6      2746.124 6        37.977 6
G21  21165066.731 9 111223155.709 9     -1251.804 9        55.712 9  21165066.015 6         0.000 6      -975.432 6        37.977 6
G29  24285321.394 9 127620169.157 9     -3146.492 9        54.480 9  24285322.953 6         0.000 6     -2451.815 6        37.977 6
G27  22016227.700 9 115696030.384 9      2527.126 9        55.370 9  22016229.637 6         0.000 6      1969.190 6        37.977 6
G16  20499806.773 9 107727191.381 9       582.184 9        55.975 9  20499805.947 6         0.000 6       453.650 6        37.977 6
G26  20647752.705 9 108504650.577 9     -1466.404 9        55.876 9  20647755.519 6         0.000 6     -1142.653 6        37.977 6
G20  21956069.042 9 115379888.359 9      2562.598 9        55.311 9  21956069.370 6         0.000 6      1996.831 6        37.977 6
> 2019 07 03 12 00 36.0000000  0  8       0.000000000000
G07  25356586.911 9 133249717.400 9      2209.954 9        54.128 9  25356587.587 6         0.000 6      1722.043 6        37.977 6
G10  23825455.726 9 125203559.970 9      3524.053 9        54.664 9  23825459.468 6         0.000 6      2746.018 6        37.977 6
G21  21165304.976 9 111224407.696 9     -1252.171 9        55.712 9  21165304.261 6         0.000 6      -975.718 6        37.977 6
G29  24285920.160 9 127623315.683 9     -3146.580 9        54.480 9  24285921.720 6         0.000 6     -2451.883 6        37.977 6
G27  22015746.827 9 115693503.382 9      2526.885 9        55.370 9  22015748.763 6         0.000 6      1969.002 6        37.977 6
G16  20499696.046 9 107726609.506 9       581.565 9        55.976 9  20499695.220 6         0.000 6       453.168 6        37.977 6
G26  20648031.807 9 108506117.268 9     -1466.981 9        55.876 9  20648034.621 6         0.000 6     -1143.103 6        37.977 6
G20  21955581.438 9 115377325.987 9      2562.156 9        55.311 9  21955581.766 6         0.000 6      1996.486 6        37.977 6
> 2019 07 03 12 00 37.0000000  0  8       0.000000000000
G07  25356166.414 9 133247507.676 9      2209.501 9        54.128 9  25356167.089 6         0.000 6      1721.690 6        37.977 6
G10  23824785.134 9 125200035.995 9      3523.917 9        54.664 9  23824788.875 6         0.000 6      2745.912 6        37.977 6
G21  21165543.291 9 111225660.050 9     -1252.538 9        55.711 9  21165542.576 6         0.000 6      -976.004 6        37.977 6
G29  24286518.943 9 127626462.297 9     -3146.667 9        54.480 9  24286520.503 6         0.000 6     -2451.951 6        37.977 6
G27  22015266.000 9 115690976.620 9      2526.644 9        55.370 9  22015267.936 6         0.000 6      1968.814 6        37.977 6
G16  20499585.437 9 107726028.250 9       580.947 9        55.976 9  20499584.610 6         0.000 6       452.686 6        37.977 6
G26  20648311.020 9 108507584.537 9     -1467.559 9        55.876 9  20648313.834 6         0.000 6     -1143.553 6        37.977 6
G20  21955093.918 9 115374764.057 9      2561.714 9        55.311 9  21955094.246 6         0.000 6      1996.142 6        37.977 6
> 2019 07 03 12 00 38.0000000  0  8       0.000000000000
G07  25355746.003 9 133245298.405 9      2209.048 9        54.129 9  25355746.678 6         0.000 6      1721.337 6        37.977 6
G10  23824114.568 9 125196512.157 9      3523.781 9        54.664 9  23824118.309 6         0.000 6      2745.806 6        37.977 6
G21  21165781.676 9 111226912.771 9     -1252.905 9        55.711 9  21165780.961 6         0.000 6      -976.290 6        37.977 6
G29  24287117.742 9 127629608.997 9     -3146.755 9        54.479 9  24287119.303 6         0.000 6     -2452.019 6        37.977 6
G27  22014785.218 9 115688450.099 9      2526.403 9        55.370 9  22014787.154 6         0.000 6      1968.626 6        37.977 6
G16  20499474.945 9 107725447.612 9       580.329 9        55.976 9  20499474.118 6         0.000 6       452.204 6        37.977 6
G26  20648590.342 9 108509052.383 9     -1468.137 9        55.876 9  20648593.156 6         0.000 6     -1144.003 6        37.977 6
G20  21954606.482 9 115372202.568 9      2561.272 9        55.311 9  21954606.810 6         0.000 6      1995.797 6        37.977 6
> 2019 07 03 12 00 39.0000000  0  8       0.000000000000
G07  25355325.679 9 133243089.587 9      2208.595 9        54.129 9  25355326.353 6         0.000 6      1720.984 6        37.977 6
G10  23823444.028 9 125192988.455 9      3523.644 9        54.664 9  23823447.768 6         0.000 6      2745.700 6        37.977 6
G21  21166020.131 9 111228165.859 9     -1253.272 9        55.711 9  21166019.416 6         0.000 6      -976.576 6        37.977 6
G29  24287716.558 9 127632755.785 9     -3146.842 9        54.479 9  24287718.119 6         0.000 6     -2452.087 6        37.977 6
G27  22014304.483 9 115685923.820 9      2526.162 9        55.370 9  22014306.419 6         0.000 6      1968.438 6        37.977 6
G16  20499364.571 9 107724867.593 9       579.710 9        55.976 9  20499363.744 6         0.000 6       451.722 6        37.977 6
G26  20648869.774 9 108510520.807 9     -1468.715 9        55.875 9  20648872.588 6         0.000 6     -1144.454 6        37.977 6
G20  21954119.131 9 115369641.522 9      2560.830 9        55.312 9  21954119.458 6         0.000 6      1995.453 6        37.977 6
> 2019 07 03 12 00 40.0000000  0  8       0.000000000000
G07  25354905.440 9 133240881.223 9      2208.141 9        54.129 9  25354906.114 6         0.000 6      1720.631 6        37.977 6
G10  23822773.513 9 125189464.890 9      3523.508 9        54.664 9  23822777.253 6         0.000 6      2745.593 6        37.977 6
G21  21166258.656 9 111229419.314 9     -1253.639 9        55.711 9  21166257.940 6         0.000 6      -976.862 6        37.977 6
G29  24288315.390 9 127635902.661 9     -3146.929 9        54.479 9  24288316.952 6         0.000 6     -2452.155 6        37.977 6
G27  22013823.793 9 115683397.782 9      2525.920 9        55.371 9  22013825.729 6         0.000 6      1968.250 6        37.977 6
G16  20499254.315 9 107724288.192 9       579.092 9        55.976 9  20499253.488 6         0.000 6       451.240 6        37.977 6
G26  20649149.316 9 108511989.809 9     -1469.293 9        55.875 9  20649152.130 6         0.000 6     -1144.904 6        37.977 6
G20  21953631.863 9 115367080.918 9      2560.387 9        55.312 9  21953632.190 6         0.000 6      1995.108 6        37.977 6
> 2019 07 03 12 00 41.0000000  0  8       0.000000000000
G07  25354485.288 9 133238673.312 9      2207.688 9        54.129 9  25354485.962 6         0.000 6      1720.277 6        37.977 6
G10  23822103.025 9 125185941.461 9      3523.371 9        54.665 9  23822106.764 6         0.000 6      2745.487 6        37.977 6
G21  21166497.250 9 111230673.135 9     -1254.005 9        55.711 9  21166496.535 6         0.000 6      -977.147 6        37.977 6
G29  24288914.239 9 127639049.624 9     -3147.017 9        54.479 9  24288915.802 6         0.000 6     -2452.223 6        37.977 6
G27  22013343.149 9 115680871.985 9      2525.679 9        55.371 9  22013345.085 6         0.000 6      1968.062 6        37.977 6
G16  20499144.176 9 107723709.409 9       578.473 9        55.976 9  20499143.349 6         0.000 6       450.758 6        37.977 6
G26  20649428.968 9 108513459.389 9     -1469.870 9        55.875 9  20649431.783 6         0.000 6     -1145.354 6        37.977 6
G20  21953144.680 9 115364520.757 9      2559.945 9        55.312 9  21953145.006 6         0.000 6      1994.763 6        37.977 6
> 2019 07 03 12 00 42.0000000  0  8       0.000000000000
G07  25354065.222 9 133236465.854 9      2207.235 9        54.129 9  25354065.896 6         0.000 6      1719.924 6        37.977 6
G10  23821432.563 9 125182418.168 9      3523.235 9        54.665 9  23821436.301 6         0.000 6      2745.381 6        37.977 6
G21  21166735.914 9 111231927.323 9     -1254.372 9        55.711 9  21166735.199 6         0.000 6      -977.433 6        37.977 6
G29  24289513.105 9 127642196.674 9     -3147.104 9        54.479 9  24289514.668 6         0.000 6     -2452.291 6        37.977 6
G27  22012862.552 9 115678346.429 9      2525.438 9        55.371 9  22012864.487 6         0.000 6      1967.874 6        37.977 6
G16  20499034.155 9 107723131.245 9       577.855 9        55.976 9  20499033.328 6         0.000 6       450.276 6        37.977 6
G26  20649708.730 9 108514929.546 9     -1470.448 9        55.875 9  20649711.545 6         0.000 6     -1145.804 6        37.977 6
G20  21952657.580 9 115361961.037 9      2559.502 9        55.312 9  21952657.907 6         0.000 6      1994.419 6        37.977 6
> 2019 07 03 12 00 43.0000000  0  8       0.000000000000
G07  25353645.242 9 133234258.850 9      2206.781 9        54.129 9  25353645.916 6         0.000 6      1719.571 6        37.977 6
G10  23820762.126 9 125178895.012 9      3523.098 9        54.665 9  23820765.864 6         0.000 6      2745.274 6        37.977 6
G21  21166974.648 9 111233181.878 9     -1254.739 9        55.711 9  21166973.933 6         0.000 6      -977.719 6        37.977 6
G29  24290111.987 9 127645343.811 9     -3147.191 9        54.478 9  24290113.551 6         0.000 6     -2452.359 6        37.977 6
G27  22012382.000 9 115675821.115 9      2525.197 9        55.371 9  22012383.935 6         0.000 6      1967.686 6        37.977 6
G16  20498924.252 9 107722553.700 9       577.236 9        55.976 9  20498923.425 6         0.000 6       449.794 6        37.977 6
G26  20649988.602 9 108516400.281 9     -1471.026 9        55.875 9  20649991.417 6         0.000 6     -1146.254 6        37.977 6
G20  21952170.565 9 115359401.761 9      2559.060 9        55.312 9  21952170.891 6         0.000 6      1994.074 6        37.977 6
> 2019 07 03 12 00 44.0000000  0  8       0.000000000000
G07  25353225.349 9 133232052.300 9      2206.327 9        54.129 9  25353226.022 6         0.000 6      1719.217 6        37.977 6
G10  23820091.716 9 125175371.993 9      3522.961 9        54.665 9  23820095.453 6         0.000 6      2745.167 6        37.977 6
G21  21167213.452 9 111234436.799 9     -1255.105 9        55.711 9  21167212.737 6         0.000 6      -978.004 6        37.977 6
G29  24290710.886 9 127648491.036 9     -3147.278 9        54.478 9  24290712.451 6         0.000 6     -2452.427 6        37.977 6
G27  22011901.494 9 115673296.042 9      2524.955 9        55.371 9  22011903.429 6         0.000 6      1967.498 6        37.977 6
G16  20498814.467 9 107721976.773 9       576.618 9        55.976 9  20498813.640 6         0.000 6       449.312 6        37.977 6
G26  20650268.584 9 108517871.594 9     -1471.603 9        55.875 9  20650271.399 6         0.000 6     -1146.704 6        37.977 6
G20  21951683.635 9 115356842.927 9      2558.617 9        55.313 9  21951683.960 6         0.000 6      1993.729 6        37.977 6
> 2019 07 03 12 00 45.0000000  0  8       0.000000000000
G07  25352805.542 9 133229846.203 9      2205.874 9        54.130 9  25352806.215 6         0.000 6      1718.864 6        37.977 6
G10  23819421.332 9 125171849.111 9      3522.824 9        54.666 9  23819425.068 6         0.000 6      2745.061 6        37.977 6
G21  21167452.325 9 111235692.087 9     -1255.472 9        55.711 9  21167451.610 6         0.000 6      -978.290 6        37.977 6
G29  24291309.801 9 127651638.347 9     -3147.366 9        54.478 9  24291311.367 6         0.000 6     -2452.495 6        37.977 6
G27  22011421.034 9 115670771.210 9      2524.714 9        55.372 9  22011422.969 6         0.000 6      1967.310 6        37.977 6
G16  20498704.799 9 107721400.465 9       575.999 9        55.976 9  20498703.972 6         0.000 6       448.830 6        37.977 6
G26  20650548.676 9 108519343.484 9     -1472.181 9        55.875 9  20650551.490 6         0.000 6     -1147.154 6        37.977 6
G20  21951196.788 9 115354284.535 9      2558.175 9        55.313 9  21951197.113 6         0.000 6      1993.384 6        37.977 6
> 2019 07 03 12 00 46.0000000  0  8       0.000000000000
G07  25352385.821 9 133227640.560 9      2205.420 9        54.130 9  25352386.494 6         0.000 6      1718.510 6        37.977 6
G10  23818750.974 9 125168326.366 9      3522.687 9        54.666 9  23818754.709 6         0.000 6      2744.954 6        37.977 6
G21  21167691.269 9 111236947.741 9     -1255.838 9        55.711 9  21167690.554 6         0.000 6      -978.575 6        37.977 6
G29  24291908.734 9 127654785.746 9     -3147.453 9        54.478 9  24291910.299 6         0.000 6     -2452.563 6        37.977 6
G27  22010940.620 9 115668246.620 9      2524.472 9        55.372 9  22010942.554 6         0.000 6      1967.122 6        37.977 6
G16  20498595.249 9 107720824.776 9       575.380 9        55.976 9  20498594.422 6         0.000 6       448.348 6        37.977 6
G26  20650828.877 9 108520815.952 9     -1472.758 9        55.875 9  20650831.692 6         0.000 6     -1147.604 6        37.977 6
G20  21950710.026 9 115351726.587 9      2557.732 9        55.313 9  21950710.351 6         0.000 6      1993.039 6        37.977 6
> 2019 07 03 12 00 47.0000000  0  8       0.000000000000
G07  25351966.187 9 133225435.370 9      2204.966 9        54.130 9  25351966.860 6         0.000 6      1718.156 6        37.977 6
G10  23818080.642 9 125164803.758 9      3522.550 9        54.666 9  23818084.377 6         0.000 6      2744.847 6        37.977 6
G21  21167930.281 9 111238203.762 9     -1256.204 9        55.710 9  21167929.566 6         0.000 6      -978.861 6        37.977 6
G29  24292507.682 9 127657933.232 9     -3147.540 9        54.477 9  24292509.248 6         0.000 6     -2452.631 6        37.977 6
G27  22010460.251 9 115665722.271 9      2524.231 9        55.372 9  22010462.186 6         0.000 6      1966.934 6        37.977 6
G16  20498485.816 9 107720249.705 9       574.761 9        55.976 9  20498484.989 6         0.000 6       447.866 6        37.977 6
G26  20651109.189 9 108522288.997 9     -1473.336 9        55.874 9  20651112.004 6         0.000 6     -1148.054 6        37.977 6
G20  21950223.348 9 115349169.081 9      2557.289 9        55.313 9  21950223.672 6         0.000 6      1992.694 6        37.977 6
> 2019 07 03 12 00 48.0000000  0  8       0.000000000000
G07  25351546.639 9 133223230.635 9      2204.512 9        54.130 9  25351547.312 6         0.000 6      1717.803 6        37.977 6
G10  23817410.336 9 125161281.287 9      3522.413 9        54.666 9  23817414.070 6         0.000 6      2744.740 6        37.977 6
G21  21168169.364 9 111239460.149 9     -1256.571 9        55.710 9  21168168.649 6         0.000 6      -979.146 6        37.977 6
G29  24293106.647 9 127661080.805 9     -3147.627 9        54.477 9  24293108.214 6         0.000 6     -2452.699 6        37.977 6
G27  22009979.929 9 115663198.163 9      2523.989 9        55.372 9  22009981.864 6         0.000 6      1966.746 6        37.977 6
G16  20498376.502 9 107719675.253 9       574.143 9        55.976 9  20498375.675 6         0.000 6       447.384 6        37.977 6
G26  20651389.610 9 108523762.620 9     -1473.913 9        55.874 9  20651392.425 6         0.000 6     -1148.504 6        37.977 6
G20  21949736.754 9 115346612.018 9      2556.846 9        55.313 9  21949737.078 6         0.000 6      1992.348 6        37.977 6
> 2019 07 03 12 00 49.0000000  0  8       0.000000000000
G07  25351127.178 9 133221026.354 9      2204.058 9        54.130 9  25351127.850 6         0.000 6      1717.449 6        37.977 6
G10  23816740.056 9 125157758.954 9      3522.276 9        54.667 9  23816743.790 6         0.000 6      2744.633 6        37.977 6
G21  21168408.516 9 111240716.902 9     -1256.937 9        55.710 9  21168407.801 6         0.000 6      -979.432 6        37.977 6
G29  24293705.629 9 127664228.466 9     -3147.714 9        54.477 9  24293707.197 6         0.000 6     -2452.767 6        37.977 6
G27  22009499.653 9 115660674.297 9      2523.748 9        55.372 9  22009501.587 6         0.000 6      1966.557 6        37.977 6
G16  20498267.305 9 107719101.420 9       573.524 9        55.976 9  20498266.478 6         0.000 6       446.902 6        37.977 6
G26  20651670.141 9 108525236.820 9     -1474.491 9        55.874 9  20651672.957 6         0.000 6     -1148.954 6        37.977 6
G20  21949250.245 9 115344055.399 9      2556.403 9        55.314 9  21949250.569 6         0.000 6      1992.003 6        37.977 6
> 2019 07 03 12 00 50.0000000  0  8       0.000000000000
G07  25350707.803 9 133218822.526 9      2203.604 9        54.130 9  25350708.475 6         0.000 6      1717.095 6        37.977 6
G10  23816069.802 9 125154236.758 9      3522.138 9        54.667 9  23816073.535 6         0.000 6      2744.526 6        37.977 6
G21  21168647.738 9 111241974.021 9     -1257.303 9        55.710 9  21168647.023 6         0.000 6      -979.717 6        37.977 6
G29  24294304.627 9 127667376.213 9     -3147.801 9        54.477 9  24294306.196 6         0.000 6     -2452.835 6        37.977 6
G27  22009019.423 9 115658150.673 9      2523.506 9        55.373 9  22009021.357 6         0.000 6      1966.369 6        37.977 6
G16  20498158.226 9 107718528.205 9       572.905 9        55.976 9  20498157.399 6         0.000 6       446.420 6        37.977 6
G26  20651950.783 9 108526711.597 9     -1475.068 9        55.874 9  20651953.598 6         0.000 6     -1149.404 6        37.977 6
G20  21948763.819 9 115341499.222 9      2555.959 9        55.314 9  21948764.143 6         0.000 6      1991.658 6        37.977 6
> 2019 07 03 12 00 51.0000000  0  8       0.000000000000
G07  25350288.514 9 133216619.153 9      2203.150 9        54.130 9  25350289.186 6         0.000 6      1716.741 6        37.977 6
G10  23815399.575 9 125150714.699 9      3522.001 9        54.667 9  23815403.307 6         0.000 6      2744.419 6        37.977 6
G21  21168887.030 9 111243231.507 9     -1257.669 9        55.710 9  21168886.315 6         0.000 6      -980.002 6        37.977 6
G29  24294903.642 9 127670524.048 9     -3147.888 9        54.477 9  24294905.211 6         0.000 6     -2452.902 6        37.977 6
G27  22008539.238 9 115655627.291 9      2523.265 9        55.373 9  22008541.173 6         0.000 6      1966.181 6        37.977 6
G16  20498049.264 9 107717955.610 9       572.286 9        55.976 9  20498048.437 6         0.000 6       445.937 6        37.977 6
G26  20652231.534 9 108528186.952 9     -1475.645 9        55.874 9  20652234.349 6         0.000 6     -1149.854 6        37.977 6
G20  21948277.479 9 115338943.489 9      2555.516 9        55.314 9  21948277.802 6         0.000 6      1991.312 6        37.977 6
> 2019 07 03 12 00 52.0000000  0  8       0.000000000000
G07  25349869.312 9 133214416.234 9      2202.696 9        54.131 9  25349869.983 6         0.000 6      1716.387 6        37.977 6
G10  23814729.374 9 125147192.778 9      3521.863 9        54.667 9  23814733.105 6         0.000 6      2744.311 6        37.977 6
G21  21169126.391 9 111244489.358 9     -1258.035 9        55.710 9  21169125.677 6         0.000 6      -980.288 6        37.977 6
G29  24295502.674 9 127673671.969 9     -3147.975 9        54.476 9  24295504.243 6         0.000 6     -2452.970 6        37.977 6
G27  22008059.100 9 115653104.150 9      2523.023 9        55.373 9  22008061.034 6         0.000 6      1965.993 6        37.977 6
G16  20497940.421 9 107717383.633 9       571.667 9        55.976 9  20497939.594 6         0.000 6       445.455 6        37.977 6
G26  20652512.395 9 108529662.884 9     -1476.223 9        55.874 9  20652515.210 6         0.000 6     -1150.304 6        37.977 6
G20  21947791.222 9 115336388.199 9      2555.073 9        55.314 9  21947791.546 6         0.000 6      1990.967 6        37.977 6
> 2019 07 03 12 00 53.0000000  0  8       0.000000000000
G07  25349450.196 9 133212213.769 9      2202.241 9        54.131 9  25349450.867 6         0.000 6      1716.033 6        37.977 6
G10  23814059.198 9 125143670.995 9      3521.725 9        54.668 9  23814062.929 6         0.000 6      2744.204 6        37.977 6
G21  21169365.822 9 111245747.576 9     -1258.401 9        55.710 9  21169365.108 6         0.000 6      -980.573 6        37.977 6
G29  24296101.722 9 127676819.977 9     -3148.062 9        54.476 9  24296103.292 6         0.000 6     -2453.038 6        37.977 6
G27  22007579.008 9 115650581.250 9      2522.781 9        55.373 9  22007580.942 6         0.000 6      1965.804 6        37.977 6
G16  20497831.695 9 107716812.275 9       571.048 9        55.976 9  20497830.868 6         0.000 6       444.973 6        37.977 6
G26  20652793.365 9 108531139.394 9     -1476.800 9        55.874 9  20652796.181 6         0.000 6     -1150.754 6        37.977 6
G20  21947305.050 9 115333833.352 9      2554.629 9        55.314 9  21947305.374 6         0.000 6      1990.621 6        37.977 6
> 2019 07 03 12 00 54.0000000  0  8       0.000000000000
G07  25349031.167 9 133210011.758 9      2201.787 9        54.131 9  25349031.838 6         0.000 6      1715.679 6        37.977 6
G10  23813389.050 9 125140149.349 9      3521.587 9        54.668 9  23813392.780 6         0.000 6      2744.097 6        37.977 6
G21  21169605.323 9 111247006.160 9     -1258.767 9        55.710 9  21169604.608 6         0.000 6      -980.858 6        37.977 6
G29  24296700.787 9 127679968.073 9     -3148.149 9        54.476 9  24296702.357 6         0.000 6     -2453.106 6        37.977 6
G27  22007098.962 9 115648058.593 9      2522.539 9        55.373 9  22007100.895 6         0.000 6      1965.616 6        37.977 6
G16  20497723.087 9 107716241.537 9       570.429 9        55.976 9  20497722.260 6         0.000 6       444.490 6        37.977 6
G26  20653074.446 9 108532616.481 9     -1477.377 9        55.874 9  20653077.262 6         0.000 6     -1151.203 6        37.977 6
G20  21946818.963 9 115331278.949 9      2554.186 9        55.314 9  21946819.286 6         0.000 6      1990.276 6        37.977 6
> 2019 07 03 12 00 55.0000000  0  8       0.000000000000
G07  25348612.224 9 133207810.202 9      2201.332 9        54.131 9  25348612.895 6         0.000 6      1715.325 6        37.977 6
G10  23812718.927 9 125136627.842 9      3521.449 9        54.668 9  23812722.657 6         0.000 6      2743.989 6        37.977 6
G21  21169844.893 9 111248265.110 9     -1259.133 9        55.710 9  21169844.179 6         0.000 6      -981.143 6        37.977 6
G29  24297299.868 9 127683116.255 9     -3148.236 9        54.476 9  24297301.439 6         0.000 6     -2453.174 6        37.977 6
G27  22006618.961 9 115645536.177 9      2522.298 9        55.373 9  22006620.895 6         0.000 6      1965.427 6        37.977 6
G16  20497614.597 9 107715671.417 9       569.810 9        55.976 9  20497613.770 6         0.000 6       444.008 6        37.977 6
G26  20653355.636 9 108534094.145 9     -1477.954 9        55.874 9  20653358.452 6         0.000 6     -1151.653 6        37.977 6
G20  21946332.960 9 115328724.990 9      2553.742 9        55.315 9  21946333.282 6         0.000 6      1989.930 6        37.977 6
> 2019 07 03 12 00 56.0000000  0  8       0.000000000000
G07  25348193.367 9 133205609.101 9      2200.878 9        54.131 9  25348194.038 6         0.000 6      1714.971 6        37.977 6
G10  23812048.831 9 125133106.472 9      3521.311 9        54.668 9  23812052.560 6         0.000 6      2743.881 6        37.977 6
G21  21170084.533 9 111249524.425 9     -1259.499 9        55.710 9  21170083.819 6         0.000 6      -981.428 6        37.977 6
G29  24297898.965 9 127686264.525 9     -3148.323 9        54.476 9  24297900.537 6         0.000 6     -2453.241 6        37.977 6
G27  22006139.007 9 115643014.003 9      2522.056 9        55.374 9  22006140.940 6         0.000 6      1965.239 6        37.977 6
G16  20497506.225 9 107715101.916 9       569.191 9        55.976 9  20497505.398 6         0.000 6       443.526 6        37.977 6
G26  20653636.937 9 108535572.386 9     -1478.531 9        55.873 9  20653639.752 6         0.000 6     -1152.103 6        37.977 6
G20  21945847.041 9 115326171.475 9      2553.298 9        55.315 9  21945847.363 6         0.000 6      1989.584 6        37.977 6
> 2019 07 03 12 00 57.0000000  0  8       0.000000000000
G07  25347774.597 9 133203408.454 9      2200.423 9        54.131 9  25347775.268 6         0.000 6      1714.616 6        37.977 6
G10  23811378.760 9 125129585.241 9      3521.173 9        54.669 9  23811382.489 6         0.000 6      2743.774 6        37.977 6
G21  21170324.243 9 111250784.107 9     -1259.865 9        55.709 9  21170323.528 6         0.000 6      -981.713 6        37.977 6
G29  24298498.080 9 127689412.881 9     -3148.410 9        54.475 9  24298499.652 6         0.000 6     -2453.309 6        37.977 6
G27  22005659.099 9 115640492.071 9      2521.814 9        55.374 9  22005661.032 6         0.000 6      1965.051 6        37.977 6
G16  20497397.970 9 107714533.035 9       568.572 9        55.977 9  20497397.143 6         0.000 6       443.043 6        37.977 6
G26  20653918.347 9 108537051.204 9     -1479.109 9        55.873 9  20653921.163 6         0.000 6     -1152.553 6        37.977 6
G20  21945361.207 9 115323618.403 9      2552.854 9        55.315 9  21945361.529 6         0.000 6      1989.238 6        37.977 6
> 2019 07 03 12 00 58.0000000  0  8       0.000000000000
G07  25347355.914 9 133201208.262 9      2199.969 9        54.131 9  25347356.584 6         0.000 6      1714.262 6        37.977 6
G10  23810708.717 9 125126064.148 9      3521.035 9        54.669 9  23810712.444 6         0.000 6      2743.666 6        37.977 6
G21  21170564.022 9 111252044.154 9     -1260.231 9        55.709 9  21170563.307 6         0.000 6      -981.998 6        37.977 6
G29  24299097.210 9 127692561.324 9     -3148.497 9        54.475 9  24299098.784 6         0.000 6     -2453.377 6        37.977 6
G27  22005179.236 9 115637970.380 9      2521.572 9        55.374 9  22005181.169 6         0.000 6      1964.862 6        37.977 6
G16  20497289.833 9 107713964.773 9       567.953 9        55.977 9  20497289.006 6         0.000 6       442.561 6        37.977 6
G26  20654199.867 9 108538530.599 9     -1479.686 9        55.873 9  20654202.683 6         0.000 6     -1153.002 6        37.977 6
G20  21944875.457 9 115321065.775 9      2552.410 9        55.315 9  21944875.779 6         0.000 6      1988.892 6        37.977 6
> 2019 07 03 12 00 59.0000000  0  8       0.000000000000
G07  25346937.317 9 133199008.524 9      2199.514 9        54.132 9  25346937.987 6         0.000 6      1713.908 6        37.977 6
G10  23810038.699 9 125122543.193 9      3520.896 9        54.669 9  23810042.426 6         0.000 6      2743.558 6        37.977 6
G21  21170803.871 9 111253304.567 9     -1260.596 9        55.709 9  21170803.156 6         0.000 6      -982.283 6        37.977 6
G29  24299696.358 9 127695709.854 9     -3148.584 9        54.475 9  24299697.932 6         0.000 6     -2453.444 6        37.977 6
G27  22004699.420 9 115635448.932 9      2521.330 9        55.374 9  22004701.353 6         0.000 6      1964.674 6        37.977 6
G16  20497181.814 9 107713397.130 9       567.334 9        55.977 9  20497180.987 6         0.000 6       442.078 6        37.977 6
G26  20654481.496 9 108540010.572 9     -1480.263 9        55.873 9  20654484.313 6         0.000 6     -1153.452 6        37.977 6
G20  21944389.792 9 115318513.591 9      2551.966 9        55.315 9  21944390.113 6         0.000 6      1988.546 6        37.977 6
> 2019 07 03 12 01  0.0000000  0  8       0.000000000000
G07  25346518.807 9 133196809.241 9      2199.059 9        54.132 9  25346519.477 6         0.000 6      1713.553 6        37.977 6
G10  23809368.708 9 125119022.377 9      3520.758 9        54.669 9  23809372.435 6         0.000 6      2743.450 6        37.977 6
G21  21171043.789 9 111254565.345 9     -1260.962 9        55.709 9  21171043.075 6         0.000 6      -982.568 6        37.977 6
G29  24300295.521 9 127698858.471 9     -3148.670 9        54.475 9  24300297.096 6         0.000 6     -2453.512 6        37.977 6
G27  22004219.650 9 115632927.725 9      2521.088 9        55.374 9  22004221.583 6         0.000 6      1964.485 6        37.977 6
G16  20497073.913 9 107712830.106 9       566.714 9        55.977 9  20497073.086 6         0.000 6       441.596 6        37.977 6
G26  20654763.236 9 108541491.121 9     -1480.840 9        55.873 9  20654766.052 6         0.000 6     -1153.902 6        37.977 6
G20  21943904.211 9 115315961.852 9      2551.522 9        55.316 9  21943904.532 6         0.000 6      1988.200 6        37.977 6
> 2019 07 03 12 01  1.0000000  0  8       0.000000000000
G07  25346100.383 9 133194610.413 9      2198.604 9        54.132 9  25346101.053 6         0.000 6      1713.199 6        37.977 6
G10  23808698.743 9 125115501.699 9      3520.619 9        54.670 9  23808702.469 6         0.000 6      2743.342 6        37.977 6
G21  21171283.777 9 111255826.490 9     -1261.328 9        55.709 9  21171283.062 6         0.000 6      -982.853 6        37.977 6
G29  24300894.702 9 127702007.175 9     -3148.757 9        54.474 9  24300896.277 6         0.000 6     -2453.580 6        37.977 6
G27  22003739.926 9 115630406.761 9      2520.846 9        55.375 9  22003741.858 6         0.000 6      1964.296 6        37.977 6
G16  20496966.130 9 107712263.701 9       566.095 9        55.977 9  20496965.303 6         0.000 6       441.113 6        37.977 6
G26  20655045.085 9 108542972.248 9     -1481.417 9        55.873 9  20655047.902 6         0.000 6     -1154.351 6        37.977 6
G20  21943418.715 9 115313410.556 9      2551.078 9        55.316 9  21943419.036 6         0.000 6      1987.854 6        37.977 6
> 2019 07 03 12 01  2.0000000  0  8       0.000000000000
G07  25345682.046 9 133192412.040 9      2198.149 9        54.132 9  25345682.715 6         0.000 6      1712.844 6        37.977 6
G10  23808028.805 9 125111981.160 9      3520.480 9        54.670 9  23808032.530 6         0.000 6      2743.234 6        37.977 6
G21  21171523.834 9 111257087.999 9     -1261.693 9        55.709 9  21171523.120 6         0.000 6      -983.138 6        37.977 6
G29  24301493.899 9 127705155.965 9     -3148.844 9        54.474 9  24301495.474 6         0.000 6     -2453.647 6        37.977 6
G27  22003260.248 9 115627886.039 9      2520.604 9        55.375 9  22003262.180 6         0.000 6      1964.108 6        37.977 6
G16  20496858.465 9 107711697.916 9       565.476 9        55.977 9  20496857.638 6         0.000 6       440.630 6        37.977 6
G26  20655327.044 9 108544453.951 9     -1481.994 9        55.873 9  20655329.861 6         0.000 6     -1154.801 6        37.977 6
G20  21942933.303 9 115310859.705 9      2550.633 9        55.316 9  21942933.624 6         0.000 6      1987.508 6        37.977 6
> 2019 07 03 12 01  3.0000000  0  8       0.000000000000
G07  25345263.796 9 133190214.122 9      2197.694 9        54.132 9  25345264.465 6         0.000 6      1712.490 6        37.977 6
G10  23807358.893 9 125108460.760 9      3520.342 9        54.670 9  23807362.618 6         0.000 6      2743.126 6        37.977 6
G21  21171763.961 9 111258349.874 9     -1262.059 9        55.709 9  21171763.247 6         0.000 6      -983.423 6        37.977 6
G29  24302093.112 9 127708304.842 9     -3148.931 9        54.474 9  24302094.688 6         0.000 6     -2453.715 6        37.977 6
G27  22002780.616 9 115625365.558 9      2520.362 9        55.375 9  22002782.548 6         0.000 6      1963.919 6        37.977 6
G16  20496750.917 9 107711132.750 9       564.856 9        55.977 9  20496750.090 6         0.000 6       440.148 6        37.977 6
G26  20655609.113 9 108545936.232 9     -1482.571 9        55.873 9  20655611.930 6         0.000 6     -1155.250 6        37.977 6
G20  21942447.976 9 115308309.298 9      2550.189 9        55.316 9  21942448.296 6         0.000 6      1987.161 6        37.977 6
> 2019 07 03 12 01  4.0000000  0  8       0.000000000000
G07  25344845.632 9 133188016.660 9      2197.239 9        54.132 9  25344846.300 6         0.000 6      1712.135 6        37.977 6
G10  23806689.008 9 125104940.498 9      3520.203 9        54.670 9  23806692.731 6         0.000 6      2743.018 6        37.977 6
G21  21172004.158 9 111259612.115 9     -1262.424 9        55.709 9  21172003.444 6         0.000 6      -983.707 6        37.977 6
G29  24302692.342 9 127711453.806 9     -3149.018 9        54.474 9  24302693.919 6         0.000 6     -2453.783 6        37.977 6
G27  22002301.030 9 115622845.320 9      2520.120 9        55.375 9  22002302.962 6         0.000 6      1963.730 6        37.977 6
G16  20496643.488 9 107710568.203 9       564.237 9        55.977 9  20496642.661 6         0.000 6       439.665 6        37.977 6
G26  20655891.292 9 108547419.089 9     -1483.148 9        55.872 9  20655894.109 6         0.000 6     -1155.700 6        37.977 6
G20  21941962.733 9 115305759.336 9      2549.745 9        55.316 9  21941963.053 6         0.000 6      1986.815 6        37.977 6
> 2019 07 03 12 01  5.0000000  0  8       0.000000000000
G07  25344427.554 9 133185819.652 9      2196.784 9        54.132 9  25344428.223 6         0.000 6      1711.780 6        37.977 6
G10  23806019.149 9 125101420.376 9      3520.064 9        54.671 9  23806022.872 6         0.000 6      2742.909 6        37.977 6
G21  21172244.424 9 111260874.721 9     -1262.789 9        55.709 9  21172243.710 6         0.000 6      -983.992 6        37.977 6
G29  24303291.588 9 127714602.857 9     -3149.104 9        54.474 9  24303293.166 6         0.000 6     -2453.850 6        37.977 6
G27  22001821.490 9 115620325.324 9      2519.878 9        55.375 9  22001823.422 6         0.000 6      1963.542 6        37.977 6
G16  20496536.176 9 107710004.276 9       563.618 9        55.977 9  20496535.349 6         0.000 6       439.183 6        37.977 6
G26  20656173.580 9 108548902.523 9     -1483.724 9        55.872 9  20656176.397 6         0.000 6     -1156.149 6        37.977 6
G20  21941477.575 9 115303209.818 9      2549.300 9        55.317 9  21941477.895 6         0.000 6      1986.469 6        37.977 6
> 2019 07 03 12 01  6.0000000  0  8       0.000000000000
G07  25344009.564 9 133183623.100 9      2196.328 9        54.133 9  25344010.232 6         0.000 6      1711.426 6        37.977 6
G10  23805349.316 9 125097900.392 9      3519.924 9        54.671 9  23805353.038 6         0.000 6      2742.801 6        37.977 6
G21  21172484.760 9 111262137.693 9     -1263.155 9        55.709 9  21172484.045 6         0.000 6      -984.277 6        37.977 6
G29  24303890.851 9 127717751.994 9     -3149.191 9        54.473 9  24303892.429 6         0.000 6     -2453.918 6        37.977 6
G27  22001341.996 9 115617805.570 9      2519.636 9        55.376 9  22001343.928 6         0.000 6      1963.353 6        37.977 6
G16  20496428.982 9 107709440.968 9       562.998 9        55.977 9  20496428.155 6         0.000 6       438.700 6        37.977 6
G26  20656455.979 9 108550386.534 9     -1484.301 9        55.872 9  20656458.796 6         0.000 6     -1156.599 6        37.977 6
G20  21940992.502 9 115300660.745 9      2548.855 9        55.317 9  21940992.821 6         0.000 6      1986.122 6        37.977 6
> 2019 07 03 12 01  7.0000000  0  8       0.000000000000
G07  25343591.660 9 133181427.003 9      2195.873 9        54.133 9  25343592.328 6         0.000 6      1711.071 6        37.977 6
G10  23804679.510 9 125094380.548 9      3519.785 9        54.671 9  23804683.232 6         0.000 6      2742.692 6        37.977 6
G21  21172725.165 9 111263401.029 9     -1263.520 9        55.708 9  21172724.451 6         0.000 6      -984.561 6        37.977 6
G29  24304490.130 9 127720901.218 9     -3149.278 9        54.473 9  24304491.709 6         0.000 6     -2453.985 6        37.977 6
G27  22000862.549 9 115615286.058 9      2519.393 9        55.376 9  22000864.480 6         0.000 6      1963.164 6        37.977 6
G16  20496321.906 9 107708878.280 9       562.379 9        55.977 9  20496321.079 6         0.000 6       438.217 6        37.977 6
G26  20656738.487 9 108551871.122 9     -1484.878 9        55.872 9  20656741.304 6         0.000 6     -1157.048 6        37.977 6
G20  21940507.513 9 115298112.117 9      2548.410 9        55.317 9  21940507.833 6         0.000 6      1985.775 6        37.977 6
> 2019 07 03 12 01  8.0000000  0  8       0.000000000000
G07  25343173.842 9 133179231.361 9      2195.417 9        54.133 9  25343174.510 6         0.000 6      1710.716 6        37.977 6
G10  23804009.730 9 125090860.843 9      3519.646 9        54.671 9  23804013.451 6         0.000 6      2742.584 6        37.977 6
G21  21172965.639 9 111264664.731 9     -1263.885 9        55.708 9  21172964.925 6         0.000 6      -984.846 6        37.977 6
G29  24305089.426 9 127724050.529 9     -3149.364 9        54.473 9  24305091.006 6         0.000 6     -2454.053 6        37.977 6
G27  22000383.147 9 115612766.789 9      2519.151 9        55.376 9  22000385.078 6         0.000 6      1962.976 6        37.977 6
G16  20496214.948 9 107708316.211 9       561.759 9        55.977 9  20496214.121 6         0.000 6       437.734 6        37.977 6
G26  20657021.104 9 108553356.287 9     -1485.455 9        55.872 9  20657023.922 6         0.000 6     -1157.498 6        37.977 6
G20  21940022.609 9 115295563.934 9      2547.965 9        55.317 9  21940022.928 6         0.000 6      1985.429 6        37.977 6
> 2019 07 03 12 01  9.0000000  0  8       0.000000000000
G07  25342756.111 9 133177036.175 9      2194.962 9        54.133 9  25342756.779 6         0.000 6      1710.361 6        37.977 6
G10  23803339.977 9 125087341.278 9      3519.506 9        54.672 9  23803343.698 6         0.000 6      2742.475 6        37.977 6
G21  21173206.183 9 111265928.798 9     -1264.250 9        55.708 9  21173205.469 6         0.000 6      -985.130 6        37.977 6
G29  24305688.739 9 127727199.926 9     -3149.451 9        54.473 9  24305690.319 6         0.000 6     -2454.120 6        37.977 6
G27  21999903.792 9 115610247.762 9      2518.909 9        55.376 9  21999905.723 6         0.000 6      1962.787 6        37.977 6
G16  20496108.107 9 107707754.762 9       561.139 9        55.977 9  20496107.280 6         0.000 6       437.251 6        37.977 6
G26  20657303.832 9 108554842.028 9     -1486.031 9        55.872 9  20657306.649 6         0.000 6     -1157.947 6        37.977 6
G20  21939537.790 9 115293016.195 9      2547.520 9        55.317 9  21939538.109 6         0.000 6      1985.082 6        37.977 6
> 2019 07 03 12 01 10.0000000  0  8       0.000000000000
G07  25342338.467 9 133174841.445 9      2194.506 9        54.133 9  25342339.135 6         0.000 6      1710.006 6        37.977 6
G10  23802670.251 9 125083821.852 9      3519.367 9        54.672 9  23802673.971 6         0.000 6      2742.366 6        37.977 6
G21  21173446.797 9 111267193.231 9     -1264.615 9        55.708 9  21173446.083 6         0.000 6      -985.415 6        37.977 6
G29  24306288.067 9 127730349.410 9     -3149.537 9        54.473 9  24306289.648 6         0.000 6     -2454.188 6        37.977 6
G27  21999424.483 9 115607728.977 9      2518.666 9        55.376 9  21999426.413 6         0.000 6      1962.598 6        37.977 6
G16  20496001.385 9 107707193.932 9       560.520 9        55.977 9  20496000.558 6         0.000 6       436.769 6        37.977 6
G26  20657586.669 9 108556328.346 9     -1486.608 9        55.872 9  20657589.487 6         0.000 6     -1158.396 6        37.977 6
G20  21939053.055 9 115290468.902 9      2547.075 9        55.318 9  21939053.374 6         0.000 6      1984.735 6        37.977 6
> 2019 07 03 12 01 11.0000000  0  8       0.000000000000
G07  25341920.910 9 133172647.170 9      2194.051 9        54.133 9  25341921.577 6         0.000 6      1709.651 6        37.977 6
G10  23802000.551 9 125080302.565 9      3519.227 9        54.672 9  23802004.270 6         0.000 6      2742.258 6        37.977 6
G21  21173687.480 9 111268458.028 9     -1264.980 9        55.708 9  21173686.766 6         0.000 6      -985.699 6        37.977 6
G29  24306887.413 9 127733498.981 9     -3149.624 9        54.472 9  24306888.994 6         0.000 6     -2454.255 6        37.977 6
G27  21998945.219 9 115605210.435 9      2518.424 9        55.377 9  21998947.150 6         0.000 6      1962.409 6        37.977 6
G16  20495894.781 9 107706633.722 9       559.900 9        55.977 9  20495893.954 6         0.000 6       436.286 6        37.977 6
G26  20657869.616 9 108557815.241 9     -1487.185 9        55.872 9  20657872.434 6         0.000 6     -1158.846 6        37.977 6
G20  21938568.405 9 115287922.054 9      2546.630 9        55.318 9  21938568.723 6         0.000 6      1984.388 6        37.977 6
> 2019 07 03 12 01 12.0000000  0  8       0.000000000000
G07  25341503.440 9 133170453.351 9      2193.595 9        54.133 9  25341504.107 6         0.000 6      1709.296 6        37.977 6
G10  23801330.877 9 125076783.419 9      3519.087 9        54.672 9  23801334.596 6         0.000 6      2742.149 6        37.977 6
G21  21173928.233 9 111269723.190 9     -1265.345 9        55.708 9  21173927.519 6         0.000 6      -985.984 6        37.977 6
G29  24307486.774 9 127736648.638 9     -3149.711 9        54.472 9  24307488.357 6         0.000 6     -2454.322 6        37.977 6
G27  21998466.002 9 115602692.135 9      2518.181 9        55.377 9  21998467.933 6         0.000 6      1962.220 6        37.977 6
G16  20495788.294 9 107706074.132 9       559.280 9        55.977 9  20495787.467 6         0.000 6       435.803 6        37.977 6
G26  20658152.673 9 108559302.712 9     -1487.761 9        55.872 9  20658155.490 6         0.000 6     -1159.295 6        37.977 6
G20  21938083.840 9 115285375.651 9      2546.185 9        55.318 9  21938084.158 6         0.000 6      1984.041 6        37.977 6
> 2019 07 03 12 01 13.0000000  0  8       0.000000000000
G07  25341086.056 9 133168259.988 9      2193.139 9        54.134 9  25341086.723 6         0.000 6      1708.940 6        37.977 6
G10  23800661.231 9 125073264.412 9      3518.948 9        54.673 9  23800664.949 6         0.000 6      2742.040 6        37.977 6
G21  21174169.054 9 111270988.717 9     -1265.710 9        55.708 9  21174168.341 6         0.000 6      -986.268 6        37.977 6
G29  24308086.153 9 127739798.381 9     -3149.797 9        54.472 9  24308087.735 6         0.000 6     -2454.390 6        37.977 6
G27  21997986.831 9 115600174.077 9      2517.939 9        55.377 9  21997988.762 6         0.000 6      1962.031 6        37.977 6
G16  20495681.926 9 107705515.162 9       558.661 9        55.977 9  20495681.099 6         0.000 6       435.320 6        37.977 6
G26  20658435.839 9 108560790.760 9     -1488.338 9        55.871 9  20658438.657 6         0.000 6     -1159.744 6        37.977 6
G20  21937599.360 9 115282829.693 9      2545.739 9        55.318 9  21937599.677 6         0.000 6      1983.694 6        37.977 6
> 2019 07 03 12 01 14.0000000  0  8       0.000000000000
G07  25340668.759 9 133166067.080 9      2192.683 9        54.134 9  25340669.425 6         0.000 6      1708.585 6        37.977 6
G10  23799991.611 9 125069745.545 9      3518.808 9        54.673 9  23799995.328 6         0.000 6      2741.931 6        37.977 6
G21  21174409.946 9 111272254.609 9     -1266.075 9        55.708 9  21174409.232 6         0.000 6      -986.552 6        37.977 6
G29  24308685.547 9 127742948.211 9     -3149.884 9        54.472 9  24308687.131 6         0.000 6     -2454.457 6        37.977 6
G27  21997507.707 9 115597656.262 9      2517.696 9        55.377 9  21997509.637 6         0.000 6      1961.842 6        37.977 6
G16  20495575.675 9 107704956.811 9       558.041 9        55.977 9  20495574.848 6         0.000 6       434.837 6        37.977 6
G26  20658719.115 9 108562279.384 9     -1488.914 9        55.871 9  20658721.933 6         0.000 6     -1160.194 6        37.977 6
G20  21937114.964 9 115280284.181 9      2545.294 9        55.318 9  21937115.281 6         0.000 6      1983.347 6        37.977 6
> 2019 07 03 12 01 15.0000000  0  8       0.000000000000
G07  25340251.548 9 133163874.629 9      2192.227 9        54.134 9  25340252.215 6         0.000 6      1708.230 6        37.977 6
G10  23799322.017 9 125066226.818 9      3518.667 9        54.673 9  23799325.734 6         0.000 6      2741.821 6        37.977 6
G21  21174650.907 9 111273520.866 9     -1266.440 9        55.708 9  21174650.193 6         0.000 6      -986.837 6        37.977 6
G29  24309284.958 9 127746098.128 9     -3149.970 9        54.471 9  24309286.542 6         0.000 6     -2454.525 6        37.977 6
G27  21997028.628 9 115595138.690 9      2517.454 9        55.377 9  21997030.558 6         0.000 6      1961.653 6        37.977 6
G16  20495469.542 9 107704399.080 9       557.421 9        55.977 9  20495468.715 6         0.000 6       434.354 6        37.977 6
G26  20659002.501 9 108563768.585 9     -1489.491 9        55.871 9  20659005.319 6         0.000 6     -1160.643 6        37.977 6
G20  21936630.653 9 115277739.114 9      2544.848 9        55.318 9  21936630.970 6         0.000 6      1983.000 6        37.977 6
> 2019 07 03 12 01 16.0000000  0  8       0.000000000000
G07  25339834.425 9 133161682.634 9      2191.771 9        54.134 9  25339835.091 6         0.000 6      1707.874 6        37.977 6
G10  23798652.450 9 125062708.231 9      3518.527 9        54.673 9  23798656.166 6         0.000 6      2741.712 6        37.977 6
G21  21174891.937 9 111274787.488 9     -1266.805 9        55.708 9  21174891.223 6         0.000 6      -987.121 6        37.977 6
G29  24309884.386 9 127749248.131 9     -3150.056 9        54.471 9  24309885.971 6         0.000 6     -2454.592 6        37.977 6
G27  21996549.595 9 115592621.360 9      2517.211 9        55.377 9  21996551.525 6         0.000 6      1961.464 6        37.977 6
G16  20495363.528 9 107703841.969 9       556.801 9        55.977 9  20495362.701 6         0.000 6       433.871 6        37.977 6
G26  20659285.997 9 108565258.363 9     -1490.067 9        55.871 9  20659288.815 6         0.000 6     -1161.092 6        37.977 6
G20  21936146.427 9 115275194.493 9      2544.403 9        55.319 9  21936146.743 6         0.000 6      1982.653 6        37.977 6
> 2019 07 03 12 01 17.0000000  0  8       0.000000000000
G07  25339417.388 9 133159491.094 9      2191.315 9        54.134 9  25339418.054 6         0.000 6      1707.519 6        37.977 6
G10  23797982.910 9 125059189.785 9      3518.387 9        54.674 9  23797986.625 6         0.000 6      2741.603 6        37.977 6
G21  21175133.037 9 111276054.474 9     -1267.169 9        55.707 9  21175132.323 6         0.000 6      -987.405 6        37.977 6
G29  24310483.830 9 127752398.220 9     -3150.143 9        54.471 9  24310485.415 6         0.000 6     -2454.659 6        37.977 6
G27  21996070.609 9 115590104.273 9      2516.969 9        55.378 9  21996072.539 6         0.000 6      1961.275 6        37.977 6
G16  20495257.631 9 107703285.478 9       556.181 9        55.977 9  20495256.804 6         0.000 6       433.388 6        37.977 6
G26  20659569.602 9 108566748.716 9     -1490.644 9        55.871 9  20659572.420 6         0.000 6     -1161.541 6        37.977 6
G20  21935662.285 9 115272650.317 9      2543.957 9        55.319 9  21935662.602 6         0.000 6      1982.305 6        37.977 6
> 2019 07 03 12 01 18.0000000  0  8       0.000000000000
G07  25339000.438 9 133157300.011 9      2190.859 9        54.134 9  25339001.104 6         0.000 6      1707.163 6        37.977 6
G10  23797313.397 9 125055671.479 9      3518.247 9        54.674 9  23797317.111 6         0.000 6      2741.494 6        37.977 6
G21  21175374.206 9 111277321.825 9     -1267.534 9        55.707 9  21175373.492 6         0.000 6      -987.689 6        37.977 6
G29  24311083.291 9 127755548.396 9     -3150.229 9        54.471 9  24311084.876 6         0.000 6     -2454.727 6        37.977 6
G27  21995591.669 9 115587587.428 9      2516.726 9        55.378 9  21995593.599 6         0.000 6      1961.086 6        37.977 6
G16  20495151.852 9 107702729.607 9       555.561 9        55.977 9  20495151.025 6         0.000 6       432.905 6        37.977 6
G26  20659853.317 9 108568239.647 9     -1491.220 9        55.871 9  20659856.135 6         0.000 6     -1161.990 6        37.977 6
G20  21935178.229 9 115270106.588 9      2543.511 9        55.319 9  21935178.545 6         0.000 6      1981.958 6        37.977 6
> 2019 07 03 12 01 19.0000000  0  8       0.000000000000
G07  25338583.575 9 133155109.385 9      2190.402 9        54.134 9  25338584.241 6         0.000 6      1706.808 6        37.977 6
G10  23796643.910 9 125052153.313 9      3518.106 9        54.674 9  23796647.624 6         0.000 6      2741.384 6        37.977 6
G21  21175615.444 9 111278589.541 9     -1267.899 9        55.707 9  21175614.730 6         0.000 6      -987.973 6        37.977 6
G29  24311682.767 9 127758698.658 9     -3150.316 9        54.471 9  24311684.354 6         0.000 6     -2454.794 6        37.977 6
G27  21995112.775 9 115585070.826 9      2516.483 9        55.378 9  21995114.704 6         0.000 6      1960.897 6        37.977 6
G16  20495046.191 9 107702174.355 9       554.941 9        55.977 9  20495045.364 6         0.000 6       432.422 6        37.977 6
G26  20660137.142 9 108569731.153 9     -1491.797 9        55.871 9  20660139.960 6         0.000 6     -1162.439 6        37.977 6
G20  21934694.257 9 115267563.304 9      2543.065 9        55.319 9  21934694.573 6         0.000 6      1981.610 6        37.977 6
> 2019 07 03 12 01 20.0000000  0  8       0.000000000000
G07  25338166.799 9 133152919.214 9      2189.946 9        54.135 9  25338167.464 6         0.000 6      1706.452 6        37.977 6
G10  23795974.450 9 125048635.288 9      3517.965 9        54.674 9  23795978.163 6         0.000 6      2741.274 6        37.977 6
G21  21175856.752 9 111279857.621 9     -1268.263 9        55.707 9  21175856.038 6         0.000 6      -988.257 6        37.977 6
G29  24312282.261 9 127761849.006 9     -3150.402 9        54.470 9  24312283.848 6         0.000 6     -2454.861 6        37.977 6
G27  21994633.927 9 115582554.467 9      2516.241 9        55.378 9  21994635.856 6         0.000 6      1960.708 6        37.977 6
G16  20494940.649 9 107701619.724 9       554.321 9        55.978 9  20494939.821 6         0.000 6       431.939 6        37.977 6
G26  20660421.076 9 108571223.236 9     -1492.373 9        55.871 9  20660423.894 6         0.000 6     -1162.888 6        37.977 6
G20  21934210.370 9 115265020.467 9      2542.619 9        55.319 9  21934210.686 6         0.000 6      1981.263 6        37.977 6
> 2019 07 03 12 01 21.0000000  0  8       0.000000000000
G07  25337750.109 9 133150729.500 9      2189.489 9        54.135 9  25337750.774 6         0.000 6      1706.097 6        37.977 6
G10  23795305.017 9 125045117.403 9      3517.825 9        54.675 9  23795308.730 6         0.000 6      2741.165 6        37.977 6
G21  21176098.129 9 111281126.066 9     -1268.628 9        55.707 9  21176097.415 6         0.000 6      -988.541 6        37.977 6
G29  24312881.771 9 127764999.441 9     -3150.488 9        54.470 9  24312883.358 6         0.000 6     -2454.928 6        37.977 6
G27  21994155.126 9 115580038.351 9      2515.998 9        55.378 9  21994157.055 6         0.000 6      1960.518 6        37.977 6
G16  20494835.224 9 107701065.713 9       553.701 9        55.978 9  20494834.397 6         0.000 6       431.456 6        37.977 6
G26  20660705.120 9 108572715.895 9     -1492.949 9        55.870 9  20660707.938 6         0.000 6     -1163.337 6        37.977 6
G20  21933726.569 9 115262478.075 9      2542.173 9        55.320 9  21933726.884 6         0.000 6      1980.915 6        37.977 6
> 2019 07 03 12 01 22.0000000  0  8       0.000000000000
G07  25337333.507 9 133148540.243 9      2189.033 9        54.135 9  25337334.172 6         0.000 6      1705.741 6        37.977 6
G10  23794635.610 9 125041599.659 9      3517.684 9        54.675 9  23794639.322 6         0.000 6      2741.055 6        37.977 6
G21  21176339.575 9 111282394.875 9     -1268.992 9        55.707 9  21176338.862 6         0.000 6      -988.825 6        37.977 6
G29  24313481.297 9 127768149.962 9     -3150.575 9        54.470 9  24313482.885 6         0.000 6     -2454.996 6        37.977 6
G27  21993676.370 9 115577522.477 9      2515.755 9        55.379 9  21993678.299 6         0.000 6      1960.329 6        37.977 6
G16  20494729.917 9 107700512.322 9       553.081 9        55.978 9  20494729.090 6         0.000 6       430.972 6        37.977 6
G26  20660989.273 9 108574209.131 9     -1493.525 9        55.870 9  20660992.092 6         0.000 6     -1163.786 6        37.977 6
G20  21933242.852 9 115259936.130 9      2541.727 9        55.320 9  21933243.167 6         0.000 6      1980.567 6        37.977 6
> 2019 07 03 12 01 23.0000000  0  8       0.000000000000
G07  25336916.991 9 133146351.442 9      2188.576 9        54.135 9  25336917.656 6         0.000 6      1705.385 6        37.977 6
G10  23793966.231 9 125038082.057 9      3517.543 9        54.675 9  23793969.942 6         0.000 6      2740.945 6        37.977 6
G21  21176581.091 9 111283664.049 9     -1269.356 9        55.707 9  21176580.378 6         0.000 6      -989.109 6        37.977 6
G29  24314080.839 9 127771300.569 9     -3150.661 9        54.470 9  24314082.428 6         0.000 6     -2455.063 6        37.977 6
G27  21993197.661 9 115575006.846 9      2515.512 9        55.379 9  21993199.590 6         0.000 6      1960.140 6        37.977 6
G16  20494624.728 9 107699959.550 9       552.461 9        55.978 9  20494623.901 6         0.000 6       430.489 6        37.977 6
G26  20661273.537 9 108575702.943 9     -1494.102 9        55.870 9  20661276.355 6         0.000 6     -1164.235 6        37.977 6
G20  21932759.220 9 115257394.630 9      2541.280 9        55.320 9  21932759.534 6         0.000 6      1980.220 6        37.977 6
> 2019 07 03 12 01 24.0000000  0  8       0.000000000000
G07  25336500.562 9 133144163.097 9      2188.120 9        54.135 9  25336501.227 6         0.000 6      1705.029 6        37.977 6
G10  23793296.878 9 125034564.595 9      3517.402 9        54.675 9  23793300.589 6         0.000 6      2740.835 6        37.977 6
G21  21176822.676 9 111284933.587 9     -1269.721 9        55.707 9  21176821.963 6         0.000 6      -989.393 6        37.977 6
G29  24314680.398 9 127774451.263 9     -3150.747 9        54.470 9  24314681.988 6         0.000 6     -2455.130 6        37.977 6
G27  21992718.998 9 115572491.458 9      2515.269 9        55.379 9  21992720.927 6         0.000 6      1959.951 6        37.977 6
G16  20494519.657 9 107699407.399 9       551.841 9        55.978 9  20494518.830 6         0.000 6       430.006 6        37.977 6
G26  20661557.910 9 108577197.331 9     -1494.678 9        55.870 9  20661560.728 6         0.000 6     -1164.684 6        37.977 6
G20  21932275.672 9 115254853.578 9      2540.834 9        55.320 9  21932275.987 6         0.000 6      1979.872 6        37.977 6
> 2019 07 03 12 01 25.0000000  0  8       0.000000000000
G07  25336084.221 9 133141975.210 9      2187.663 9        54.135 9  25336084.885 6         0.000 6      1704.673 6        37.977 6
G10  23792627.552 9 125031047.274 9      3517.261 9        54.675 9  23792631.262 6         0.000 6      2740.725 6        37.977 6
G21  21177064.331 9 111286203.489 9     -1270.085 9        55.707 9  21177063.617 6         0.000 6      -989.677 6        37.977 6
G29  24315279.974 9 127777602.043 9     -3150.833 9        54.469 9  24315281.564 6         0.000 6     -2455.197 6        37.977 6
G27  21992240.382 9 115569976.313 9      2515.026 9        55.379 9  21992242.310 6         0.000 6      1959.761 6        37.977 6
G16  20494414.704 9 107698855.869 9       551.221 9        55.978 9  20494413.877 6         0.000 6       429.523 6        37.977 6
G26  20661842.392 9 108578692.295 9     -1495.254 9        55.870 9  20661845.211 6         0.000 6     -1165.133 6        37.977 6
G20  21931792.210 9 115252312.971 9      2540.388 9        55.320 9  21931792.525 6         0.000 6      1979.524 6        37.977 6
> 2019 07 03 12 01 26.0000000  0  8       0.000000000000
G07  25335667.966 9 133139787.779 9      2187.206 9        54.135 9  25335668.630 6         0.000 6      1704.317 6        37.977 6
G10  23791958.253 9 125027530.094 9      3517.120 9        54.676 9  23791961.962 6         0.000 6      2740.615 6        37.977 6
G21  21177306.055 9 111287473.755 9     -1270.449 9        55.707 9  21177305.341 6         0.000 6      -989.961 6        37.977 6
G29  24315879.566 9 127780752.909 9     -3150.919 9        54.469 9  24315881.157 6         0.000 6     -2455.264 6        37.977 6
G27  21991761.811 9 115567461.411 9      2514.783 9        55.379 9  21991763.739 6         0.000 6      1959.572 6        37.977 6
G16  20494309.869 9 107698304.958 9       550.600 9        55.978 9  20494309.042 6         0.000 6       429.039 6        37.977 6
G26  20662126.984 9 108580187.835 9     -1495.830 9        55.870 9  20662129.803 6         0.000 6     -1165.582 6        37.977 6
G20  21931308.833 9 115249772.812 9      2539.941 9        55.321 9  21931309.147 6         0.000 6      1979.176 6        37.977 6
> 2019 07 03 12 01 27.0000000  0  8       0.000000000000
G07  25335251.798 9 133137600.805 9      2186.749 9        54.136 9  25335252.461 6         0.000 6      1703.961 6        37.977 6
G10  23791288.981 9 125024013.056 9      3516.978 9        54.676 9  23791292.690 6         0.000 6      2740.505 6        37.977 6
G21  21177547.848 9 111288744.386 9     -1270.813 9        55.706 9  21177547.134 6         0.000 6      -990.244 6        37.977 6
G29  24316479.174 9 127783903.861 9     -3151.006 9        54.469 9  24316480.765 6         0.000 6     -2455.332 6        37.977 6
G27  21991283.287 9 115564946.752 9      2514.540 9        55.380 9  21991285.215 6         0.000 6      1959.383 6        37.977 6
G16  20494205.153 9 107697754.668 9       549.980 9        55.978 9  20494204.326 6         0.000 6       428.556 6        37.977 6
G26  20662411.686 9 108581683.951 9     -1496.406 9        55.870 9  20662414.505 6         0.000 6     -1166.031 6        37.977 6
G20  21930825.541 9 115247233.099 9      2539.494 9        55.321 9  21930825.855 6         0.000 6      1978.828 6        37.977 6
> 2019 07 03 12 01 28.0000000  0  8       0.000000000000
G07  25334835.717 9 133135414.288 9      2186.292 9        54.136 9  25334836.380 6         0.000 6      1703.605 6        37.977 6
G10  23790619.736 9 125020496.159 9      3516.837 9        54.676 9  23790623.444 6         0.000 6      2740.395 6        37.977 6
G21  21177789.710 9 111290015.380 9     -1271.177 9        55.706 9  21177788.997 6         0.000 6      -990.528 6        37.977 6
G29  24317078.798 9 127787054.899 9     -3151.092 9        54.469 9  24317080.391 6         0.000 6     -2455.399 6        37.977 6
G27  21990804.809 9 115562432.336 9      2514.297 9        55.380 9  21990806.737 6         0.000 6      1959.193 6        37.977 6
G16  20494100.554 9 107697204.998 9       549.360 9        55.978 9  20494099.727 6         0.000 6       428.073 6        37.977 6
G26  20662696.497 9 108583180.643 9     -1496.982 9        55.870 9  20662699.317 6         0.000 6     -1166.480 6        37.977 6
G20  21930342.334 9 115244693.832 9      2539.047 9        55.321 9  21930342.647 6         0.000 6      1978.480 6        37.977 6
> 2019 07 03 12 01 29.0000000  0  8       0.000000000000
G07  25334419.723 9 133133228.228 9      2185.835 9        54.136 9  25334420.386 6         0.000 6      1703.249 6        37.977 6
G10  23789950.517 9 125016979.403 9      3516.695 9        54.676 9  23789954.225 6         0.000 6      2740.285 6        37.977 6
G21  21178031.642 9 111291286.739 9     -1271.541 9        55.706 9  21178030.929 6         0.000 6      -990.812 6        37.977 6
G29  24317678.439 9 127790206.024 9     -3151.178 9        54.469 9  24317680.032 6         0.000 6     -2455.466 6        37.977 6
G27  21990326.377 9 115559918.164 9      2514.054 9        55.380 9  21990328.305 6         0.000 6      1959.004 6        37.977 6
G16  20493996.073 9 107696655.948 9       548.739 9        55.978 9  20493995.246 6         0.000 6       427.589 6        37.977 6
G26  20662981.418 9 108584677.912 9     -1497.558 9        55.870 9  20662984.238 6         0.000 6     -1166.929 6        37.977 6
G20  21929859.212 9 115242155.013 9      2538.601 9        55.321 9  21929859.525 6         0.000 6      1978.131 6        37.977 6
> 2019 07 03 12 01 30.0000000  0  8       0.000000000000
G07  25334003.816 9 133131042.625 9      2185.378 9        54.136 9  25334004.479 6         0.000 6      1702.893 6        37.977 6
G10  23789281.326 9 125013462.789 9      3516.554 9        54.677 9  23789285.033 6         0.000 6      2740.174 6        37.977 6
G21  21178273.643 9 111292558.462 9     -1271.905 9        55.706 9  21178272.930 6         0.000 6      -991.095 6        37.977 6
G29  24318278.097 9 127793357.235 9     -3151.264 9        54.468 9  24318279.690 6         0.000 6     -2455.533 6        37.977 6
G27  21989847.992 9 115557404.234 9      2513.811 9        55.380 9  21989849.919 6         0.000 6      1958.814 6        37.977 6
G16  20493891.711 9 107696107.519 9       548.119 9        55.978 9  20493890.884 6         0.000 6       427.106 6        37.977 6
G26  20663266.449 9 108586175.756 9     -1498.134 9        55.869 9  20663269.269 6         0.000 6     -1167.378 6        37.977 6
G20  21929376.175 9 115239616.640 9      2538.154 9        55.321 9  21929376.487 6         0.000 6      1977.783 6        37.977 6
> 2019 07 03 12 01 31.0000000  0  8       0.000000000000
G07  25333587.995 9 133128857.480 9      2184.921 9        54.136 9  25333588.658 6         0.000 6      1702.536 6        37.977 6
G10  23788612.161 9 125009946.317 9      3516.412 9        54.677 9  23788615.868 6         0.000 6      2740.064 6        37.977 6
G21  21178515.713 9 111293830.549 9     -1272.269 9        55.706 9  21178515.000 6         0.000 6      -991.379 6        37.977 6
G29  24318877.771 9 127796508.531 9     -3151.350 9        54.468 9  24318879.365 6         0.000 6     -2455.600 6        37.977 6
G27  21989369.653 9 115554890.547 9      2513.568 9        55.380 9  21989371.580 6         0.000 6      1958.625 6        37.977 6
G16  20493787.466 9 107695559.710 9       547.499 9        55.978 9  20493786.639 6         0.000 6       426.622 6        37.977 6
G26  20663551.589 9 108587674.176 9     -1498.710 9        55.869 9  20663554.409 6         0.000 6     -1167.826 6        37.977 6
G20  21928893.222 9 115237078.715 9      2537.706 9        55.322 9  21928893.535 6         0.000 6      1977.435 6        37.977 6
> 2019 07 03 12 01 32.0000000  0  8       0.000000000000
G07  25333172.262 9 133126672.791 9      2184.463 9        54.136 9  25333172.925 6         0.000 6      1702.180 6        37.977 6
G10  23787943.024 9 125006429.986 9      3516.270 9        54.677 9  23787946.730 6         0.000 6      2739.953 6        37.977 6
G21  21178757.852 9 111295102.999 9     -1272.633 9        55.706 9  21178757.139 6         0.000 6      -991.662 6        37.977 6
G29  24319477.461 9 127799659.914 9     -3151.436 9        54.468 9  24319479.056 6         0.000 6     -2455.667 6        37.977 6
G27  21988891.360 9 115552377.104 9      2513.325 9        55.380 9  21988893.287 6         0.000 6      1958.435 6        37.977 6
G16  20493683.340 9 107695012.522 9       546.878 9        55.978 9  20493682.513 6         0.000 6       426.139 6        37.977 6
G26  20663836.839 9 108589173.172 9     -1499.286 9        55.869 9  20663839.659 6         0.000 6     -1168.275 6        37.977 6
G20  21928410.356 9 115234541.236 9      2537.259 9        55.322 9  21928410.668 6         0.000 6      1977.086 6        37.977 6
> 2019 07 03 12 01 33.0000000  0  8       0.000000000000
G07  25332756.616 9 133124488.560 9      2184.006 9        54.136 9  25332757.279 6         0.000 6      1701.824 6        37.977 6
G10  23787273.914 9 125002913.798 9      3516.128 9        54.677 9  23787277.618 6         0.000 6      2739.843 6        37.977 6
G21  21179000.061 9 111296375.813 9     -1272.997 9        55.706 9  21178999.348 6         0.000 6      -991.946 6        37.977 6
G29  24320077.167 9 127802811.383 9     -3151.522 9        54.468 9  24320078.763 6         0.000 6     -2455.734 6        37.977 6
G27  21988413.113 9 115549863.904 9      2513.081 9        55.381 9  21988415.040 6         0.000 6      1958.246 6        37.977 6
G16  20493579.331 9 107694465.954 9       546.258 9        55.978 9  20493578.504 6         0.000 6       425.655 6        37.977 6
G26  20664122.199 9 108590672.744 9     -1499.862 9        55.869 9  20664125.018 6         0.000 6     -1168.724 6        37.977 6
G20  21927927.574 9 115232004.205 9      2536.812 9        55.322 9  21927927.886 6         0.000 6      1976.738 6        37.977 6
> 2019 07 03 12 01 34.0000000  0  8       0.000000000000
G07  25332341.057 9 133122304.787 9      2183.548 9        54.137 9  25332341.720 6         0.000 6      1701.467 6        37.977 6
G10  23786604.830 9 124999397.751 9      3515.986 9        54.678 9  23786608.534 6         0.000 6      2739.732 6        37.977 6
G21  21179242.339 9 111297648.992 9     -1273.361 9        55.706 9  21179241.626 6         0.000 6      -992.229 6        37.977 6
G29  24320676.890 9 127805962.938 9     -3151.608 9        54.467 9  24320678.486 6         0.000 6     -2455.801 6        37.977 6
G27  21987934.913 9 115547350.947 9      2512.838 9        55.381 9  21987936.840 6         0.000 6      1958.056 6        37.977 6
G16  20493475.441 9 107693920.007 9       545.637 9        55.978 9  20493474.614 6         0.000 6       425.172 6        37.977 6
G26  20664407.668 9 108592172.892 9     -1500.438 9        55.869 9  20664410.488 6         0.000 6     -1169.173 6        37.977 6
G20  21927444.877 9 115229467.621 9      2536.365 9        55.322 9  21927445.189 6         0.000 6      1976.389 6        37.977 6
> 2019 07 03 12 01 35.0000000  0  8       0.000000000000
G07  25331925.585 9 133120121.471 9      2183.091 9        54.137 9  25331926.248 6         0.000 6      1701.111 6        37.977 6
G10  23785935.774 9 124995881.847 9      3515.844 9        54.678 9  23785939.477 6         0.000 6      2739.621 6        37.977 6
G21  21179484.686 9 111298922.534 9     -1273.724 9        55.706 9  21179483.973 6         0.000 6      -992.513 6        37.977 6
G29  24321276.629 9 127809114.578 9     -3151.694 9        54.467 9  24321278.226 6         0.000 6     -2455.868 6        37.977 6
G27  21987456.759 9 115544838.233 9      2512.595 9        55.381 9  21987458.686 6         0.000 6      1957.867 6        37.977 6
G16  20493371.669 9 107693374.680 9       545.017 9        55.978 9  20493370.842 6         0.000 6       424.688 6        37.977 6
G26  20664693.246 9 108593673.616 9     -1501.013 9        55.869 9  20664696.066 6         0.000 6     -1169.621 6        37.977 6
G20  21926962.265 9 115226931.485 9      2535.917 9        55.322 9  21926962.577 6         0.000 6      1976.040 6        37.977 6
> 2019 07 03 12 01 36.0000000  0  8       0.000000000000
G07  25331510.201 9 133117938.612 9      2182.633 9        54.137 9  25331510.862 6         0.000 6      1700.754 6        37.977 6
G10  23785266.744 9 124992366.085 9      3515.702 9        54.678 9  23785270.447 6         0.000 6      2739.510 6        37.977 6
G21  21179727.102 9 111300196.439 9     -1274.088 9        55.706 9  21179726.389 6         0.000 6      -992.796 6        37.977 6
G29  24321876.385 9 127812266.305 9     -3151.780 9        54.467 9  24321877.982 6         0.000 6     -2455.935 6        37.977 6
G27  21986978.651 9 115542325.763 9      2512.351 9        55.381 9  21986980.578 6         0.000 6      1957.677 6        37.977 6
G16  20493268.014 9 107692829.974 9       544.396 9        55.978 9  20493267.187 6         0.000 6       424.205 6        37.977 6
G26  20664978.934 9 108595174.915 9     -1501.589 9        55.869 9  20664981.754 6         0.000 6     -1170.070 6        37.977 6
G20  21926479.739 9 115224395.796 9      2535.470 9        55.322 9  21926480.050 6         0.000 6      1975.692 6        37.977 6
> 2019 07 03 12 01 37.0000000  0  8       0.000000000000
G07  25331094.903 9 133115756.211 9      2182.176 9        54.137 9  25331095.564 6         0.000 6      1700.397 6        37.977 6
G10  23784597.742 9 124988850.465 9      3515.559 9        54.678 9  23784601.444 6         0.000 6      2739.399 6        37.977 6
G21  21179969.588 9 111301470.708 9     -1274.452 9        55.705 9  21179968.875 6         0.000 6      -993.079 6        37.977 6
G29  24322476.157 9 127815418.118 9     -3151.866 9        54.467 9  24322477.755 6         0.000 6     -2456.002 6        37.977 6
G27  21986500.590 9 115539813.536 9      2512.108 9        55.381 9  21986502.516 6         0.000 6      1957.487 6        37.977 6
G16  20493164.478 9 107692285.888 9       543.775 9        55.978 9  20493163.651 6         0.000 6       423.721 6        37.977 6
G26  20665264.732 9 108596676.791 9     -1502.165 9        55.869 9  20665267.552 6         0.000 6     -1170.518 6        37.977 6
G20  21925997.298 9 115221860.554 9      2535.022 9        55.323 9  21925997.609 6         0.000 6      1975.343 6        37.977 6
> 2019 07 03 12 01 38.0000000  0  8       0.000000000000
G07  25330679.692 9 133113574.268 9      2181.718 9        54.137 9  25330680.354 6         0.000 6      1700.041 6        37.977 6
G10  23783928.767 9 124985334.987 9      3515.417 9        54.679 9  23783932.469 6         0.000 6      2739.288 6        37.977 6
G21  21180212.142 9 111302745.341 9     -1274.815 9        55.705 9  21180211.430 6         0.000 6      -993.363 6        37.977 6
G29  24323075.945 9 127818570.016 9     -3151.952 9        54.467 9  24323077.544 6         0.000 6     -2456.069 6        37.977 6
G27  21986022.575 9 115537301.553 9      2511.864 9        55.382 9  21986024.501 6         0.000 6      1957.298 6        37.977 6
G16  20493061.061 9 107691742.423 9       543.155 9        55.978 9  20493060.233 6         0.000 6       423.237 6        37.977 6
G26  20665550.639 9 108598179.241 9     -1502.740 9        55.868 9  20665553.460 6         0.000 6     -1170.967 6        37.977 6
G20  21925514.942 9 115219325.761 9      2534.574 9        55.323 9  21925515.252 6         0.000 6      1974.994 6        37.977 6
> 2019 07 03 12 01 39.0000000  0  8       0.000000000000
G07  25330264.569 9 133111392.783 9      2181.260 9        54.137 9  25330265.230 6         0.000 6      1699.684 6        37.977 6
G10  23783259.819 9 124981819.653 9      3515.274 9        54.679 9  23783263.520 6         0.000 6      2739.177 6        37.977 6
G21  21180454.766 9 111304020.337 9     -1275.179 9        55.705 9  21180454.054 6         0.000 6      -993.646 6        37.977 6
G29  24323675.750 9 127821722.001 9     -3152.038 9        54.466 9  24323677.349 6         0.000 6     -2456.136 6        37.977 6
G27  21985544.606 9 115534789.813 9      2511.621 9        55.382 9  21985546.532 6         0.000 6      1957.108 6        37.977 6
G16  20492957.761 9 107691199.579 9       542.534 9        55.978 9  20492956.934 6         0.000 6       422.754 6        37.977 6
G26  20665836.656 9 108599682.268 9     -1503.316 9        55.868 9  20665839.476 6         0.000 6     -1171.416 6        37.977 6
G20  21925032.671 9 115216791.415 9      2534.126 9        55.323 9  21925032.981 6         0.000 6      1974.645 6        37.977 6
> 2019 07 03 12 01 40.0000000  0  8       0.000000000000
G07  25329849.532 9 133109211.755 9      2180.802 9        54.137 9  25329850.193 6         0.000 6      1699.327 6        37.977 6
G10  23782590.898 9 124978304.460 9      3515.131 9        54.679 9  23782594.599 6         0.000 6      2739.066 6        37.977 6
G21  21180697.459 9 111305295.697 9     -1275.542 9        55.705 9  21180696.747 6         0.000 6      -993.929 6        37.977 6
G29  24324275.571 9 127824874.071 9     -3152.124 9        54.466 9  24324277.171 6         0.000 6     -2456.203 6        37.977 6
G27  21985066.684 9 115532278.316 9      2511.377 9        55.382 9  21985068.609 6         0.000 6      1956.918 6        37.977 6
G16  20492854.579 9 107690657.356 9       541.913 9        55.978 9  20492853.752 6         0.000 6       422.270 6        37.977 6
G26  20666122.782 9 108601185.870 9     -1503.892 9        55.868 9  20666125.603 6         0.000 6     -1171.864 6        37.977 6
G20  21924550.485 9 115214257.517 9      2533.679 9        55.323 9  21924550.795 6         0.000 6      1974.296 6        37.977 6
> 2019 07 03 12 01 41.0000000  0  8       0.000000000000
G07  25329434.583 9 133107031.186 9      2180.344 9        54.138 9  25329435.244 6         0.000 6      1698.970 6        37.977 6
G10  23781922.005 9 124974789.411 9      3514.989 9        54.679 9  23781925.704 6         0.000 6      2738.955 6        37.977 6
G21  21180940.221 9 111306571.420 9     -1275.905 9        55.705 9  21180939.509 6         0.000 6      -994.212 6        37.977 6
G29  24324875.408 9 127828026.227 9     -3152.209 9        54.466 9  24324877.009 6         0.000 6     -2456.270 6        37.977 6
G27  21984588.808 9 115529767.064 9      2511.134 9        55.382 9  21984590.733 6         0.000 6      1956.728 6        37.977 6
G16  20492751.515 9 107690115.753 9       541.292 9        55.978 9  20492750.688 6         0.000 6       421.786 6        37.977 6
G26  20666409.018 9 108602690.048 9     -1504.467 9        55.868 9  20666411.839 6         0.000 6     -1172.313 6        37.977 6
G20  21924068.385 9 115211724.067 9      2533.230 9        55.323 9  21924068.695 6         0.000 6      1973.947 6        37.977 6
> 2019 07 03 12 01 42.0000000  0  8       0.000000000000
G07  25329019.721 9 133104851.074 9      2179.886 9        54.138 9  25329020.381 6         0.000 6      1698.613 6        37.977 6
G10  23781253.138 9 124971274.504 9      3514.846 9        54.680 9  23781256.837 6         0.000 6      2738.843 6        37.977 6
G21  21181183.053 9 111307847.506 9     -1276.269 9        55.705 9  21181182.340 6         0.000 6      -994.495 6        37.977 6
G29  24325475.262 9 127831178.469 9     -3152.295 9        54.466 9  24325476.863 6         0.000 6     -2456.337 6        37.977 6
G27  21984110.978 9 115527256.054 9      2510.890 9        55.382 9  21984112.903 6         0.000 6      1956.539 6        37.977 6
G16  20492648.570 9 107689574.771 9       540.671 9        55.979 9  20492647.743 6         0.000 6       421.302 6        37.977 6
G26  20666695.363 9 108604194.801 9     -1505.043 9        55.868 9  20666698.184 6         0.000 6     -1172.761 6        37.977 6
G20  21923586.370 9 115209191.065 9      2532.782 9        55.324 9  21923586.679 6         0.000 6      1973.598 6        37.977 6
> 2019 07 03 12 01 43.0000000  0  8       0.000000000000
G07  25328604.946 9 133102671.421 9      2179.428 9        54.138 9  25328605.606 6         0.000 6      1698.256 6        37.977 6
G10  23780584.299 9 124967759.741 9      3514.703 9        54.680 9  23780587.997 6         0.000 6      2738.732 6        37.977 6
G21  21181425.953 9 111309123.956 9     -1276.632 9        55.705 9  21181425.241 6         0.000 6      -994.778 6        37.977 6
G29  24326075.132 9 127834330.797 9     -3152.381 9        54.466 9  24326076.734 6         0.000 6     -2456.403 6        37.977 6
G27  21983633.194 9 115524745.289 9      2510.647 9        55.383 9  21983635.120 6         0.000 6      1956.349 6        37.977 6
G16  20492545.743 9 107689034.410 9       540.050 9        55.979 9  20492544.916 6         0.000 6       420.819 6        37.977 6
G26  20666981.818 9 108605700.130 9     -1505.618 9        55.868 9  20666984.639 6         0.000 6     -1173.209 6        37.977 6
G20  21923104.440 9 115206658.511 9      2532.334 9        55.324 9  21923104.749 6         0.000 6      1973.249 6        37.977 6
> 2019 07 03 12 01 44.0000000  0  8       0.000000000000
G07  25328190.258 9 133100492.226 9      2178.970 9        54.138 9  25328190.918 6         0.000 6      1697.899 6        37.977 6
G10  23779915.487 9 124964245.120 9      3514.560 9        54.680 9  23779919.184 6         0.000 6      2738.621 6        37.977 6
G21  21181668.923 9 111310400.769 9     -1276.995 9        55.705 9  21181668.210 6         0.000 6      -995.061 6        37.977 6
G29  24326675.018 9 127837483.210 9     -3152.467 9        54.465 9  24326676.621 6         0.000 6     -2456.470 6        37.977 6
G27  21983155.458 9 115522234.767 9      2510.403 9        55.383 9  21983157.383 6         0.000 6      1956.159 6        37.977 6
G16  20492443.034 9 107688494.670 9       539.430 9        55.979 9  20492442.207 6         0.000 6       420.335 6        37.977 6
G26  20667268.383 9 108607206.034 9     -1506.194 9        55.868 9  20667271.204 6         0.000 6     -1173.658 6        37.977 6
G20  21922622.596 9 115204126.405 9      2531.886 9        55.324 9  21922622.905 6         0.000 6      1972.899 6        37.977 6
> 2019 07 03 12 01 45.0000000  0  8       0.000000000000
G07  25327775.658 9 133098313.489 9      2178.511 9        54.138 9  25327776.317 6         0.000 6      1697.542 6        37.977 6
G10  23779246.702 9 124960730.642 9      3514.416 9        54.680 9  23779250.399 6         0.000 6      2738.509 6        37.977 6
G21  21181911.961 9 111311677.945 9     -1277.358 9        55.705 9  21181911.249 6         0.000 6      -995.344 6        37.977 6
G29  24327274.921 9 127840635.710 9     -3152.552 9        54.465 9  24327276.524 6         0.000 6     -2456.537 6        37.977 6
G27  21982677.767 9 115519724.488 9      2510.159 9        55.383 9  21982679.692 6         0.000 6      1955.969 6        37.977 6
G16  20492340.443 9 107687955.551 9       538.809 9        55.979 9  20492339.616 6         0.000 6       419.851 6        37.977 6
G26  20667555.057 9 108608712.513 9     -1506.769 9        55.868 9  20667557.878 6         0.000 6     -1174.106 6        37.977 6
G20  21922140.836 9 115201594.748 9      2531.437 9        55.324 9  21922141.145 6         0.000 6      1972.550 6        37.977 6
> 2019 07 03 12 01 46.0000000  0  8       0.000000000000
G07  25327361.144 9 133096135.210 9      2178.053 9        54.138 9  25327361.804 6         0.000 6      1697.185 6        37.977 6
G10  23778577.944 9 124957216.308 9      3514.273 9        54.681 9  23778581.641 6         0.000 6      2738.397 6        37.977 6
G21  21182155.069 9 111312955.484 9     -1277.721 9        55.705 9  21182154.357 6         0.000 6      -995.627 6        37.977 6
G29  24327874.840 9 127843788.295 9     -3152.638 9        54.465 9  24327876.444 6         0.000 6     -2456.604 6        37.977 6
G27  21982200.123 9 115517214.454 9      2509.915 9        55.383 9  21982202.047 6         0.000 6      1955.779 6        37.977 6
G16  20492237.970 9 107687417.053 9       538.188 9        55.979 9  20492237.143 6         0.000 6       419.367 6        37.977 6
G26  20667841.840 9 108610219.568 9     -1507.344 9        55.867 9  20667844.661 6         0.000 6     -1174.555 6        37.977 6
G20  21921659.162 9 115199063.539 9      2530.989 9        55.324 9  21921659.471 6         0.000 6      1972.200 6        37.977 6
> 2019 07 03 12 01 47.0000000  0  8       0.000000000000
G07  25326946.718 9 133093957.390 9      2177.595 9        54.138 9  25326947.378 6         0.000 6      1696.828 6        37.977 6
G10  23777909.214 9 124953702.118 9      3514.130 9        54.681 9  23777912.910 6         0.000 6      2738.285 6        37.977 6
G21  21182398.246 9 111314233.386 9     -1278.084 9        55.705 9  21182397.534 6         0.000 6      -995.910 6        37.977 6
G29  24328474.775 9 127846940.965 9     -3152.724 9        54.465 9  24328476.379 6         0.000 6     -2456.671 6        37.977 6
G27  21981722.525 9 115514704.663 9      2509.672 9        55.383 9  21981724.450 6         0.000 6      1955.589 6        37.977 6
G16  20492135.615 9 107686879.176 9       537.567 9        55.979 9  20492134.788 6         0.000 6       418.883 6        37.977 6
G26  20668128.733 9 108611727.199 9     -1507.920 9        55.867 9  20668131.554 6         0.000 6     -1175.003 6        37.977 6
G20  21921177.574 9 115196532.779 9      2530.540 9        55.325 9  21921177.882 6         0.000 6      1971.851 6        37.977 6
> 2019 07 03 12 01 48.0000000  0  8       0.000000000000
G07  25326532.379 9 133091780.028 9      2177.136 9        54.139 9  25326533.039 6         0.000 6      1696.471 6        37.977 6
G10  23777240.511 9 124950188.070 9      3513.986 9        54.681 9  23777244.206 6         0.000 6      2738.174 6        37.977 6
G21  21182641.492 9 111315511.651 9     -1278.447 9        55.704 9  21182640.779 6         0.000 6      -996.193 6        37.977 6
G29  24329074.727 9 127850093.722 9     -3152.809 9        54.464 9  24329076.332 6         0.000 6     -2456.737 6        37.977 6
G27  21981244.973 9 115512195.116 9      2509.428 9        55.384 9  21981246.898 6         0.000 6      1955.399 6        37.977 6
G16  20492033.379 9 107686341.920 9       536.945 9        55.979 9  20492032.552 6         0.000 6       418.399 6        37.977 6
G26  20668415.735 9 108613235.404 9     -1508.495 9        55.867 9  20668418.557 6         0.000 6     -1175.451 6        37.977 6
G20  21920696.071 9 115194002.467 9      2530.092 9        55.325 9  21920696.379 6         0.000 6      1971.501 6        37.977 6
> 2019 07 03 12 01 49.0000000  0  8       0.000000000000
G07  25326118.128 9 133089603.125 9      2176.677 9        54.139 9  25326118.787 6         0.000 6      1696.113 6        37.977 6
G10  23776571.835 9 124946674.166 9      3513.842 9        54.681 9  23776575.530 6         0.000 6      2738.062 6        37.977 6
G21  21182884.807 9 111316790.279 9     -1278.810 9        55.704 9  21182884.094 6         0.000 6      -996.476 6        37.977 6
G29  24329674.695 9 127853246.563 9     -3152.895 9        54.464 9  24329676.300 6         0.000 6     -2456.804 6        37.977 6
G27  21980767.468 9 115509685.813 9      2509.184 9        55.384 9  21980769.393 6         0.000 6      1955.209 6        37.977 6
G16  20491931.261 9 107685805.285 9       536.324 9        55.979 9  20491930.434 6         0.000 6       417.915 6        37.977 6
G26  20668702.847 9 108614744.185 9     -1509.070 9        55.867 9  20668705.669 6         0.000 6     -1175.899 6        37.977 6
G20  21920214.653 9 115191472.605 9      2529.643 9        55.325 9  21920214.961 6         0.000 6      1971.151 6        37.977 6
> 2019 07 03 12 01 50.0000000  0  8       0.000000000000
G07  25325703.963 9 133087426.680 9      2176.219 9        54.139 9  25325704.622 6         0.000 6      1695.756 6        37.977 6
G10  23775903.187 9 124943160.406 9      3513.699 9        54.682 9  23775906.881 6         0.000 6      2737.950 6        37.977 6
G21  21183128.191 9 111318069.270 9     -1279.173 9        55.704 9  21183127.479 6         0.000 6      -996.758 6        37.977 6
G29  24330274.679 9 127856399.491 9     -3152.981 9        54.464 9  24330276.285 6         0.000 6     -2456.871 6        37.977 6
G27  21980290.010 9 115507176.754 9      2508.940 9        55.384 9  21980291.934 6         0.000 6      1955.019 6        37.977 6
G16  20491829.261 9 107685269.272 9       535.703 9        55.979 9  20491828.434 6         0.000 6       417.431 6        37.977 6
G26  20668990.068 9 108616253.542 9     -1509.646 9        55.867 9  20668992.890 6         0.000 6     -1176.348 6        37.977 6
G20  21919733.321 9 115188943.190 9      2529.194 9        55.325 9  21919733.628 6         0.000 6      1970.802 6        37.977 6
> 2019 07 03 12 01 51.0000000  0  8       0.000000000000
G07  25325289.886 9 133085250.694 9      2175.760 9        54.139 9  25325290.545 6         0.000 6      1695.398 6        37.977 6
G10  23775234.566 9 124939646.790 9      3513.555 9        54.682 9  23775238.259 6         0.000 6      2737.838 6        37.977 6
G21  21183371.644 9 111319348.624 9     -1279.536 9        55.704 9  21183370.932 6         0.000 6      -997.041 6        37.977 6
G29  24330874.679 9 127859552.504 9     -3153.066 9        54.464 9  24330876.286 6         0.000 6     -2456.937 6        37.977 6
G27  21979812.598 9 115504667.939 9      2508.696 9        55.384 9  21979814.522 6         0.000 6      1954.829 6        37.977 6
G16  20491727.379 9 107684733.879 9       535.082 9        55.979 9  20491726.552 6         0.000 6       416.947 6        37.977 6
G26  20669277.399 9 108617763.473 9     -1510.221 9        55.867 9  20669280.221 6         0.000 6     -1176.796 6        37.977 6
G20  21919252.074 9 115186414.225 9      2528.745 9        55.325 9  21919252.381 6         0.000 6      1970.452 6        37.977 6
> 2019 07 03 12 01 52.0000000  0  8       0.000000000000
G07  25324875.897 9 133083075.167 9      2175.301 9        54.139 9  25324876.555 6         0.000 6      1695.041 6        37.977 6
G10  23774565.973 9 124936133.318 9      3513.411 9        54.682 9  23774569.665 6         0.000 6      2737.725 6        37.977 6
G21  21183615.166 9 111320628.341 9     -1279.899 9        55.704 9  21183614.454 6         0.000 6      -997.324 6        37.977 6
G29  24331474.696 9 127862705.603 9     -3153.152 9        54.464 9  24331476.303 6         0.000 6     -2457.004 6        37.977 6
G27  21979335.232 9 115502159.367 9      2508.452 9        55.384 9  21979337.156 6         0.000 6      1954.639 6        37.977 6
G16  20491625.615 9 107684199.108 9       534.461 9        55.979 9  20491624.788 6         0.000 6       416.463 6        37.977 6
G26  20669564.839 9 108619273.980 9     -1510.796 9        55.867 9  20669567.661 6         0.000 6     -1177.244 6        37.977 6
G20  21918770.912 9 115183885.709 9      2528.296 9        55.325 9  21918771.219 6         0.000 6      1970.102 6        37.977 6
> 2019 07 03 12 01 53.0000000  0  8       0.000000000000
G07  25324461.994 9 133080900.099 9      2174.842 9        54.139 9  25324462.652 6         0.000 6      1694.683 6        37.977 6
G10  23773897.406 9 124932619.989 9      3513.267 9        54.682 9  23773901.098 6         0.000 6      2737.613 6        37.977 6
G21  21183858.757 9 111321908.420 9     -1280.261 9        55.704 9  21183858.045 6         0.000 6      -997.606 6        37.977 6
G29  24332074.729 9 127865858.787 9     -3153.237 9        54.463 9  24332076.337 6         0.000 6     -2457.071 6        37.977 6
G27  21978857.913 9 115499651.040 9      2508.208 9        55.384 9  21978859.836 6         0.000 6      1954.448 6        37.977 6
G16  20491523.970 9 107683664.958 9       533.839 9        55.979 9  20491523.143 6         0.000 6       415.979 6        37.977 6
G26  20669852.389 9 108620785.062 9     -1511.371 9        55.867 9  20669855.211 6         0.000 6     -1177.692 6        37.977 6
G20  21918289.836 9 115181357.642 9      2527.847 9        55.326 9  21918290.143 6         0.000 6      1969.752 6        37.977 6
> 2019 07 03 12 01 54.0000000  0  8       0.000000000000
G07  25324048.179 9 133078725.489 9      2174.383 9        54.139 9  25324048.837 6         0.000 6      1694.326 6        37.977 6
G10  23773228.868 9 124929106.805 9      3513.123 9        54.683 9  23773232.559 6         0.000 6      2737.501 6        37.977 6
G21  21184102.417 9 111323188.862 9     -1280.624 9        55.704 9  21184101.705 6         0.000 6      -997.889 6        37.977 6
G29  24332674.778 9 127869012.057 9     -3153.323 9        54.463 9  24332676.387 6         0.000 6     -2457.137 6        37.977 6
G27  21978380.640 9 115497142.957 9      2507.964 9        55.385 9  21978382.563 6         0.000 6      1954.258 6        37.977 6
G16  20491422.443 9 107683131.429 9       533.218 9        55.979 9  20491421.616 6         0.000 6       415.495 6        37.977 6
G26  20670140.048 9 108622296.719 9     -1511.946 9        55.867 9  20670142.870 6         0.000 6     -1178.140 6        37.977 6
G20  21917808.846 9 115178830.024 9      2527.398 9        55.326 9  21917809.152 6         0.000 6      1969.402 6        37.977 6
> 2019 07 03 12 01 55.0000000  0  8       0.000000000000
G07  25323634.452 9 133076551.339 9      2173.924 9        54.140 9  25323635.109 6         0.000 6      1693.968 6        37.977 6
G10  23772560.356 9 124925593.765 9      3512.978 9        54.683 9  23772564.047 6         0.000 6      2737.388 6        37.977 6
G21  21184346.146 9 111324469.666 9     -1280.987 9        55.704 9  21184345.434 6         0.000 6      -998.172 6        37.977 6
G29  24333274.844 9 127872165.412 9     -3153.408 9        54.463 9  24333276.453 6         0.000 6     -2457.204 6        37.977 6
G27  21977903.413 9 115494635.118 9      2507.720 9        55.385 9  21977905.337 6         0.000 6      1954.068 6        37.977 6
G16  20491321.034 9 107682598.521 9       532.597 9        55.979 9  20491320.207 6         0.000 6       415.011 6        37.977 6
G26  20670427.816 9 108623808.950 9     -1512.521 9        55.866 9  20670430.639 6         0.000 6     -1178.588 6        37.977 6
G20  21917327.941 9 115176302.855 9      2526.948 9        55.326 9  21917328.247 6         0.000 6      1969.052 6        37.977 6
> 2019 07 03 12 01 56.0000000  0  8       0.000000000000
G07  25323220.811 9 133074377.648 9      2173.465 9        54.140 9  25323221.469 6         0.000 6      1693.610 6        37.977 6
G10  23771891.873 9 124922080.869 9      3512.834 9        54.683 9  23771895.563 6         0.000 6      2737.276 6        37.977 6
G21  21184589.945 9 111325750.834 9     -1281.349 9        55.704 9  21184589.233 6         0.000 6      -998.454 6        37.977 6
G29  24333874.925 9 127875318.853 9     -3153.494 9        54.463 9  24333876.535 6         0.000 6     -2457.271 6        37.977 6
G27  21977426.233 9 115492127.523 9      2507.476 9        55.385 9  21977428.156 6         0.000 6      1953.878 6        37.977 6
G16  20491219.743 9 107682066.235 9       531.975 9        55.979 9  20491218.916 6         0.000 6       414.526 6        37.977 6
G26  20670715.694 9 108625321.757 9     -1513.096 9        55.866 9  20670718.517 6         0.000 6     -1179.037 6        37.977 6
G20  21916847.121 9 115173776.136 9      2526.499 9        55.326 9  21916847.427 6         0.000 6      1968.702 6        37.977 6
> 2019 07 03 12 01 57.0000000  0  8       0.000000000000
G07  25322807.258 9 133072204.416 9      2173.006 9        54.140 9  25322807.915 6         0.000 6      1693.252 6        37.977 6
G10  23771223.416 9 124918568.118 9      3512.690 9        54.683 9  23771227.106 6         0.000 6      2737.163 6        37.977 6
G21  21184833.812 9 111327032.363 9     -1281.712 9        55.704 9  21184833.100 6         0.000 6      -998.736 6        37.977 6
G29  24334475.023 9 127878472.379 9     -3153.579 9        54.463 9  24334476.634 6         0.000 6     -2457.337 6        37.977 6
G27  21976949.100 9 115489620.172 9      2507.231 9        55.385 9  21976951.023 6         0.000 6      1953.688 6        37.977 6
G16  20491118.571 9 107681534.571 9       531.354 9        55.979 9  20491117.744 6         0.000 6       414.042 6        37.977 6
G26  20671003.682 9 108626835.139 9     -1513.671 9        55.866 9  20671006.504 6         0.000 6     -1179.485 6        37.977 6
G20  21916366.387 9 115171249.866 9      2526.049 9        55.326 9  21916366.693 6         0.000 6      1968.351 6        37.977 6
> 2019 07 03 12 01 58.0000000  0  8       0.000000000000
G07  25322393.793 9 133070031.643 9      2172.547 9        54.140 9  25322394.450 6         0.000 6      1692.894 6        37.977 6
G10  23770554.987 9 124915055.511 9      3512.545 9        54.684 9  23770558.676 6         0.000 6      2737.051 6        37.977 6
G21  21185077.748 9 111328314.255 9     -1282.074 9        55.703 9  21185077.036 6         0.000 6      -999.019 6        37.977 6
G29  24335075.138 9 127881625.991 9     -3153.665 9        54.462 9  24335076.749 6         0.000 6     -2457.404 6        37.977 6
G27  21976472.013 9 115487113.065 9      2506.987 9        55.385 9  21976473.935 6         0.000 6      1953.497 6        37.977 6
G16  20491017.516 9 107681003.527 9       530.733 9        55.979 9  20491016.689 6         0.000 6       413.558 6        37.977 6
G26  20671291.778 9 108628349.096 9     -1514.246 9        55.866 9  20671294.601 6         0.000 6     -1179.933 6        37.977 6
G20  21915885.739 9 115168724.046 9      2525.600 9        55.327 9  21915886.044 6         0.000 6      1968.001 6        37.977 6
> 2019 07 03 12 01 59.0000000  0  8       0.000000000000
G07  25321980.414 9 133067859.330 9      2172.087 9        54.140 9  25321981.071 6         0.000 6      1692.536 6        37.977 6
G10  23769886.586 9 124911543.049 9      3512.400 9        54.684 9  23769890.274 6         0.000 6      2736.938 6        37.977 6
G21  21185321.753 9 111329596.510 9     -1282.436 9        55.703 9  21185321.041 6         0.000 6      -999.301 6        37.977 6
G29  24335675.268 9 127884779.688 9     -3153.750 9        54.462 9  24335676.880 6         0.000 6     -2457.470 6        37.977 6
G27  21975994.972 9 115484606.203 9      2506.743 9        55.386 9  21975996.895 6         0.000 6      1953.307 6        37.977 6
G16  20490916.581 9 107680473.106 9       530.111 9        55.979 9  20490915.753 6         0.000 6       413.074 6        37.977 6
G26  20671579.985 9 108629863.628 9     -1514.821 9        55.866 9  20671582.807 6         0.000 6     -1180.381 6        37.977 6
G20  21915405.176 9 115166198.676 9      2525.150 9        55.327 9  21915405.481 6         0.000 6      1967.651 6        37.977 6
> 2019 07 03 12 02  0.0000000  0  8       0.000000000000
G07  25321567.124 9 133065687.476 9      2171.628 9        54.140 9  25321567.780 6         0.000 6      1692.178 6        37.977 6
G10  23769218.212 9 124908030.732 9      3512.255 9        54.684 9  23769221.900 6         0.000 6      2736.825 6        37.977 6
G21  21185565.827 9 111330879.127 9     -1282.799 9        55.703 9  21185565.115 6         0.000 6      -999.584 6        37.977 6
G29  24336275.415 9 127887933.470 9     -3153.835 9        54.462 9  24336277.028 6         0.000 6     -2457.537 6        37.977 6
G27  21975517.978 9 115482099.585 9      2506.499 9        55.386 9  21975519.900 6         0.000 6      1953.117 6        37.977 6
G16  20490815.763 9 107679943.305 9       529.490 9        55.979 9  20490814.936 6         0.000 6       412.589 6        37.977 6
G26  20671868.300 9 108631378.735 9     -1515.396 9        55.866 9  20671871.123 6         0.000 6     -1180.829 6        37.977 6
G20  21914924.699 9 115163673.755 9      2524.700 9        55.327 9  21914925.003 6         0.000 6      1967.300 6        37.977 6
> 2019 07 03 12 02  1.0000000  0  8       0.000000000000
G07  25321153.920 9 133063516.081 9      2171.168 9        54.140 9  25321154.577 6         0.000 6      1691.820 6        37.977 6
G10  23768549.866 9 124904518.559 9      3512.111 9        54.684 9  23768553.553 6         0.000 6      2736.712 6        37.977 6
G21  21185809.970 9 111332162.106 9     -1283.161 9        55.703 9  21185809.258 6         0.000 6      -999.866 6        37.977 6
G29  24336875.578 9 127891087.338 9     -3153.921 9        54.462 9  24336877.191 6         0.000 6     -2457.603 6        37.977 6
G27  21975041.030 9 115479593.211 9      2506.254 9        55.386 9  21975042.953 6         0.000 6      1952.926 6        37.977 6
G16  20490715.064 9 107679414.127 9       528.868 9        55.979 9  20490714.236 6         0.000 6       412.105 6        37.977 6
G26  20672156.725 9 108632894.417 9     -1515.971 9        55.866 9  20672159.548 6         0.000 6     -1181.276 6        37.977 6
G20  21914444.307 9 115161149.284 9      2524.250 9        55.327 9  21914444.611 6         0.000 6      1966.950 6        37.977 6
> 2019 07 03 12 02  2.0000000  0  8       0.000000000000
G07  25320740.804 9 133061345.146 9      2170.709 9        54.141 9  25320741.461 6         0.000 6      1691.462 6        37.977 6
G10  23767881.547 9 124901006.532 9      3511.966 9        54.685 9  23767885.234 6         0.000 6      2736.599 6        37.977 6
G21  21186054.182 9 111333445.447 9     -1283.523 9        55.703 9  21186053.470 6         0.000 6     -1000.148 6        37.977 6
G29  24337475.758 9 127894241.291 9     -3154.006 9        54.461 9  24337477.371 6         0.000 6     -2457.670 6        37.977 6
G27  21974564.129 9 115477087.081 9      2506.010 9        55.386 9  21974566.051 6         0.000 6      1952.736 6        37.977 6
G16  20490614.482 9 107678885.569 9       528.246 9        55.979 9  20490613.655 6         0.000 6       411.621 6        37.977 6
G26  20672445.260 9 108634410.673 9     -1516.546 9        55.866 9  20672448.083 6         0.000 6     -1181.724 6        37.977 6
G20  21913964.001 9 115158625.263 9      2523.800 9        55.327 9  21913964.305 6         0.000 6      1966.599 6        37.977 6
> 2019 07 03 12 02  3.0000000  0  8       0.000000000000
G07  25320327.776 9 133059174.671 9      2170.249 9        54.141 9  25320328.432 6         0.000 6      1691.104 6        37.977 6
G10  23767213.256 9 124897494.649 9      3511.820 9        54.685 9  23767216.942 6         0.000 6      2736.486 6        37.977 6
G21  21186298.462 9 111334729.150 9     -1283.885 9        55.703 9  21186297.751 6         0.000 6     -1000.430 6        37.977 6
G29  24338075.953 9 127897395.330 9     -3154.091 9        54.461 9  24338077.568 6         0.000 6     -2457.736 6        37.977 6
G27  21974087.275 9 115474581.196 9      2505.766 9        55.386 9  21974089.197 6         0.000 6      1952.545 6        37.977 6
G16  20490514.020 9 107678357.634 9       527.625 9        55.979 9  20490513.193 6         0.000 6       411.136 6        37.977 6
G26  20672733.903 9 108635927.504 9     -1517.120 9        55.865 9  20672736.726 6         0.000 6     -1182.172 6        37.977 6
G20  21913483.780 9 115156101.692 9      2523.350 9        55.328 9  21913484.084 6         0.000 6      1966.248 6        37.977 6
> 2019 07 03 12 02  4.0000000  0  8       0.000000000000
G07  25319914.835 9 133057004.655 9      2169.789 9        54.141 9  25319915.491 6         0.000 6      1690.746 6        37.977 6
G10  23766544.993 9 124893982.912 9      3511.675 9        54.685 9  23766548.678 6         0.000 6      2736.373 6        37.977 6
G21  21186542.812 9 111336013.216 9     -1284.247 9        55.703 9  21186542.100 6         0.000 6     -1000.712 6        37.977 6
G29  24338676.165 9 127900549.453 9     -3154.177 9        54.461 9  24338677.780 6         0.000 6     -2457.803 6        37.977 6
G27  21973610.467 9 115472075.556 9      2505.521 9        55.387 9  21973612.388 6         0.000 6      1952.355 6        37.977 6
G16  20490413.675 9 107677830.320 9       527.003 9        55.979 9  20490412.848 6         0.000 6       410.652 6        37.977 6
G26  20673022.656 9 108637444.910 9     -1517.695 9        55.865 9  20673025.480 6         0.000 6     -1182.620 6        37.977 6
G20  21913003.646 9 115153578.571 9      2522.900 9        55.328 9  21913003.949 6         0.000 6      1965.897 6        37.977 6
> 2019 07 03 12 02  5.0000000  0  8       0.000000000000
G07  25319501.982 9 133054835.099 9      2169.330 9        54.141 9  25319502.637 6         0.000 6      1690.388 6        37.977 6
G10  23765876.757 9 124890471.320 9      3511.530 9        54.685 9  23765880.441 6         0.000 6      2736.260 6        37.977 6
G21  21186787.231 9 111337297.643 9     -1284.609 9        55.703 9  21186786.519 6         0.000 6     -1000.994 6        37.977 6
G29  24339276.393 9 127903703.662 9     -3154.262 9        54.461 9  24339278.009 6         0.000 6     -2457.869 6        37.977 6
G27  21973133.705 9 115469570.160 9      2505.277 9        55.387 9  21973135.627 6         0.000 6      1952.164 6        37.977 6
G16  20490313.449 9 107677303.628 9       526.381 9        55.980 9  20490312.622 6         0.000 6       410.167 6        37.977 6
G26  20673311.519 9 108638962.891 9     -1518.270 9        55.865 9  20673314.342 6         0.000 6     -1183.068 6        37.977 6
G20  21912523.596 9 115151055.900 9      2522.450 9        55.328 9  21912523.900 6         0.000 6      1965.547 6        37.977 6
> 2019 07 03 12 02  6.0000000  0  8       0.000000000000
G07  25319089.216 9 133052666.003 9      2168.870 9        54.141 9  25319089.871 6         0.000 6      1690.029 6        37.977 6
G10  23765208.549 9 124886959.873 9      3511.385 9        54.686 9  23765212.233 6         0.000 6      2736.146 6        37.977 6
G21  21187031.718 9 111338582.433 9     -1284.971 9        55.703 9  21187031.007 6         0.000 6     -1001.276 6        37.977 6
G29  24339876.637 9 127906857.956 9     -3154.347 9        54.461 9  24339878.253 6         0.000 6     -2457.935 6        37.977 6
G27  21972656.990 9 115467065.008 9      2505.032 9        55.387 9  21972658.912 6         0.000 6      1951.974 6        37.977 6
G16  20490213.341 9 107676777.557 9       525.760 9        55.980 9  20490212.514 6         0.000 6       409.683 6        37.977 6
G26  20673600.491 9 108640481.446 9     -1518.844 9        55.865 9  20673603.314 6         0.000 6     -1183.516 6        37.977 6
G20  21912043.633 9 115148533.680 9      2522.000 9        55.328 9  21912043.936 6         0.000 6      1965.196 6        37.977 6
> 2019 07 03 12 02  7.0000000  0  8       0.000000000000
G07  25318676.537 9 133050497.367 9      2168.410 9        54.141 9  25318677.192 6         0.000 6      1689.671 6        37.977 6
G10  23764540.369 9 124883448.572 9      3511.239 9        54.686 9  23764544.052 6         0.000 6      2736.033 6        37.977 6
G21  21187276.274 9 111339867.584 9     -1285.333 9        55.702 9  21187275.563 6         0.000 6     -1001.559 6        37.977 6
G29  24340476.897 9 127910012.335 9     -3154.432 9        54.460 9  24340478.514 6         0.000 6     -2458.002 6        37.977 6
G27  21972180.322 9 115464560.101 9      2504.787 9        55.387 9  21972182.243 6         0.000 6      1951.783 6        37.977 6
G16  20490113.352 9 107676252.109 9       525.138 9        55.980 9  20490112.524 6         0.000 6       409.198 6        37.977 6
G26  20673889.572 9 108642000.576 9     -1519.419 9        55.865 9  20673892.395 6         0.000 6     -1183.963 6        37.977 6
G20  21911563.755 9 115146011.910 9      2521.549 9        55.328 9  21911564.058 6         0.000 6      1964.845 6        37.977 6
> 2019 07 03 12 02  8.0000000  0  8       0.000000000000
G07  25318263.946 9 133048329.190 9      2167.950 9        54.141 9  25318264.601 6         0.000 6      1689.312 6        37.977 6
G10  23763872.216 9 124879937.416 9      3511.093 9        54.686 9  23763875.898 6         0.000 6      2735.920 6        37.977 6
G21  21187520.900 9 111341153.098 9     -1285.695 9        55.702 9  21187520.188 6         0.000 6     -1001.840 6        37.977 6
G29  24341077.174 9 127913166.800 9     -3154.517 9        54.460 9  24341078.792 6         0.000 6     -2458.068 6        37.977 6
G27  21971703.700 9 115462055.439 9      2504.543 9        55.387 9  21971705.621 6         0.000 6      1951.592 6        37.977 6
G16  20490013.480 9 107675727.282 9       524.516 9        55.980 9  20490012.653 6         0.000 6       408.714 6        37.977 6
G26  20674178.762 9 108643520.281 9     -1519.994 9        55.865 9  20674181.586 6         0.000 6     -1184.411 6        37.977 6
G20  21911083.963 9 115143490.591 9      2521.099 9        55.329 9  21911084.266 6         0.000 6      1964.493 6        37.977 6
> 2019 07 03 12 02  9.0000000  0  8       0.000000000000
G07  25317851.443 9 133046161.474 9      2167.490 9        54.142 9  25317852.098 6         0.000 6      1688.954 6        37.977 6
G10  23763204.091 9 124876426.406 9      3510.948 9        54.686 9  23763207.773 6         0.000 6      2735.806 6        37.977 6
G21  21187765.594 9 111342438.973 9     -1286.057 9        55.702 9  21187764.882 6         0.000 6     -1002.122 6        37.977 6
G29  24341677.467 9 127916321.350 9     -3154.603 9        54.460 9  24341679.085 6         0.000 6     -2458.135 6        37.977 6
G27  21971227.124 9 115459551.021 9      2504.298 9        55.387 9  21971229.045 6         0.000 6      1951.402 6        37.977 6
G16  20489913.727 9 107675203.077 9       523.894 9        55.980 9  20489912.900 6         0.000 6       408.229 6        37.977 6
G26  20674468.062 9 108645040.560 9     -1520.568 9        55.865 9  20674470.886 6         0.000 6     -1184.859 6        37.977 6
G20  21910604.257 9 115140969.722 9      2520.648 9        55.329 9  21910604.559 6         0.000 6      1964.142 6        37.977 6
> 2019 07 03 12 02 10.0000000  0  8       0.000000000000
G07  25317439.027 9 133043994.218 9      2167.029 9        54.142 9  25317439.682 6         0.000 6      1688.595 6        37.977 6
G10  23762535.994 9 124872915.542 9      3510.802 9        54.686 9  23762539.675 6         0.000 6      2735.692 6        37.977 6
G21  21188010.357 9 111343725.210 9     -1286.419 9        55.702 9  21188009.645 6         0.000 6     -1002.404 6        37.977 6
G29  24342277.776 9 127919475.984 9     -3154.688 9        54.460 9  24342279.395 6         0.000 6     -2458.201 6        37.977 6
G27  21970750.596 9 115457046.848 9      2504.053 9        55.388 9  21970752.516 6         0.000 6      1951.211 6        37.977 6
G16  20489814.093 9 107674679.494 9       523.272 9        55.980 9  20489813.266 6         0.000 6       407.745 6        37.977 6
G26  20674757.471 9 108646561.414 9     -1521.143 9        55.865 9  20674760.295 6         0.000 6     -1185.306 6        37.977 6
G20  21910124.637 9 115138449.304 9      2520.197 9        55.329 9  21910124.939 6         0.000 6      1963.791 6        37.977 6
> 2019 07 03 12 02 11.0000000  0  8       0.000000000000
G07  25317026.699 9 133041827.423 9      2166.569 9        54.142 9  25317027.353 6         0.000 6      1688.237 6        37.977 6
G10  23761867.924 9 124869404.823 9      3510.656 9        54.687 9  23761871.605 6         0.000 6      2735.579 6        37.977 6
G21  21188255.188 9 111345011.809 9     -1286.780 9        55.702 9  21188254.477 6         0.000 6     -1002.686 6        37.977 6
G29  24342878.101 9 127922630.704 9     -3154.773 9        54.460 9  24342879.721 6         0.000 6     -2458.267 6        37.977 6
G27  21970274.113 9 115454542.919 9      2503.809 9        55.388 9  21970276.034 6         0.000 6      1951.020 6        37.977 6
G16  20489714.577 9 107674156.533 9       522.650 9        55.980 9  20489713.750 6         0.000 6       407.260 6        37.977 6
G26  20675046.990 9 108648082.842 9     -1521.717 9        55.864 9  20675049.814 6         0.000 6     -1185.754 6        37.977 6
G20  21909645.102 9 115135929.336 9      2519.746 9        55.329 9  21909645.404 6         0.000 6      1963.440 6        37.977 6
> 2019 07 03 12 02 12.0000000  0  8       0.000000000000
G07  25316614.459 9 133039661.087 9      2166.109 9        54.142 9  25316615.112 6         0.000 6      1687.878 6        37.977 6
G10  23761199.883 9 124865894.251 9      3510.510 9        54.687 9  23761203.562 6         0.000 6      2735.465 6        37.977 6
G21  21188500.089 9 111346298.769 9     -1287.142 9        55.702 9  21188499.378 6         0.000 6     -1002.968 6        37.977 6
G29  24343478.442 9 127925785.509 9     -3154.858 9        54.459 9  24343480.063 6         0.000 6     -2458.333 6        37.977 6
G27  21969797.678 9 115452039.236 9      2503.564 9        55.388 9  21969799.598 6         0.000 6      1950.830 6        37.977 6
G16  20489615.179 9 107673634.193 9       522.028 9        55.980 9  20489614.352 6         0.000 6       406.775 6        37.977 6
G26  20675336.618 9 108649604.844 9     -1522.292 9        55.864 9  20675339.442 6         0.000 6     -1186.202 6        37.977 6
G20  21909165.653 9 115133409.820 9      2519.295 9        55.329 9  21909165.955 6         0.000 6      1963.088 6        37.977 6
> 2019 07 03 12 02 13.0000000  0  8       0.000000000000
G07  25316202.306 9 133037495.212 9      2165.648 9        54.142 9  25316202.959 6         0.000 6      1687.519 6        37.977 6
G10  23760531.869 9 124862383.825 9      3510.364 9        54.687 9  23760535.548 6         0.000 6      2735.351 6        37.977 6
G21  21188745.058 9 111347586.091 9     -1287.503 9        55.702 9  21188744.347 6         0.000 6     -1003.250 6        37.977 6
G29  24344078.800 9 127928940.399 9     -3154.943 9        54.459 9  24344080.421 6         0.000 6     -2458.400 6        37.977 6
G27  21969321.289 9 115449535.797 9      2503.319 9        55.388 9  21969323.209 6         0.000 6      1950.639 6        37.977 6
G16  20489515.899 9 107673112.476 9       521.406 9        55.980 9  20489515.072 6         0.000 6       406.291 6        37.977 6
G26  20675626.355 9 108651127.421 9     -1522.866 9        55.864 9  20675629.179 6         0.000 6     -1186.649 6        37.977 6
G20  21908686.290 9 115130890.754 9      2518.844 9        55.329 9  21908686.591 6         0.000 6      1962.737 6        37.977 6
> 2019 07 03 12 02 14.0000000  0  8       0.000000000000
G07  25315790.240 9 133035329.798 9      2165.188 9        54.142 9  25315790.894 6         0.000 6      1687.160 6        37.977 6
G10  23759863.883 9 124858873.545 9      3510.217 9        54.687 9  23759867.561 6         0.000 6      2735.237 6        37.977 6
G21  21188990.096 9 111348873.774 9     -1287.865 9        55.702 9  21188989.385 6         0.000 6     -1003.531 6        37.977 6
G29  24344679.174 9 127932095.374 9     -3155.028 9        54.459 9  24344680.795 6         0.000 6     -2458.466 6        37.977 6
G27  21968844.946 9 115447032.603 9      2503.074 9        55.388 9  21968846.866 6         0.000 6      1950.448 6        37.977 6
G16  20489416.738 9 107672591.381 9       520.784 9        55.980 9  20489415.911 6         0.000 6       405.806 6        37.977 6
G26  20675916.201 9 108652650.573 9     -1523.440 9        55.864 9  20675919.026 6         0.000 6     -1187.097 6        37.977 6
G20  21908207.013 9 115128372.140 9      2518.393 9        55.330 9  21908207.314 6         0.000 6      1962.386 6        37.977 6
> 2019 07 03 12 02 15.0000000  0  8       0.000000000000
G07  25315378.262 9 133033164.844 9      2164.727 9        54.142 9  25315378.916 6         0.000 6      1686.801 6        37.977 6
G10  23759195.924 9 124855363.411 9      3510.071 9        54.688 9  23759199.602 6         0.000 6      2735.123 6        37.977 6
G21  21189235.203 9 111350161.819 9     -1288.226 9        55.702 9  21189234.492 6         0.000 6     -1003.813 6        37.977 6
G29  24345279.564 9 127935250.434 9     -3155.113 9        54.459 9  24345281.186 6         0.000 6     -2458.532 6        37.977 6
G27  21968368.650 9 115444529.654 9      2502.829 9        55.389 9  21968370.570 6         0.000 6      1950.257 6        37.977 6
G16  20489317.695 9 107672070.908 9       520.162 9        55.980 9  20489316.868 6         0.000 6       405.321 6        37.977 6
G26  20676206.157 9 108654174.298 9     -1524.015 9        55.864 9  20676208.981 6         0.000 6     -1187.544 6        37.977 6
G20  21907727.821 9 115125853.977 9      2517.942 9        55.330 9  21907728.122 6         0.000 6      1962.034 6        37.977 6
> 2019 07 03 12 02 16.0000000  0  8       0.000000000000
G07  25314966.372 9 133031000.350 9      2164.267 9        54.143 9  25314967.025 6         0.000 6      1686.442 6        37.977 6
G10  23758527.994 9 124851853.423 9      3509.925 9        54.688 9  23758531.671 6         0.000 6      2735.009 6        37.977 6
G21  21189480.379 9 111351450.226 9     -1288.588 9        55.702 9  21189479.668 6         0.000 6     -1004.095 6        37.977 6
G29  24345879.970 9 127938405.580 9     -3155.198 9        54.458 9  24345881.593 6         0.000 6     -2458.598 6        37.977 6
G27  21967892.401 9 115442026.950 9      2502.584 9        55.389 9  21967894.321 6         0.000 6      1950.067 6        37.977 6
G16  20489218.771 9 107671551.057 9       519.540 9        55.980 9  20489217.944 6         0.000 6       404.836 6        37.977 6
G26  20676496.222 9 108655698.598 9     -1524.589 9        55.864 9  20676499.046 6         0.000 6     -1187.992 6        37.977 6
G20  21907248.716 9 115123336.264 9      2517.491 9        55.330 9  21907249.016 6         0.000 6      1961.682 6        37.977 6
> 2019 07 03 12 02 17.0000000  0  8       0.000000000000
G07  25314554.570 9 133028836.317 9      2163.806 9        54.143 9  25314555.223 6         0.000 6      1686.083 6        37.977 6
G10  23757860.092 9 124848343.583 9      3509.778 9        54.688 9  23757863.768 6         0.000 6      2734.895 6        37.977 6
G21  21189725.624 9 111352738.994 9     -1288.949 9        55.701 9  21189724.913 6         0.000 6     -1004.376 6        37.977 6
G29  24346480.392 9 127941560.810 9     -3155.283 9        54.458 9  24346482.016 6         0.000 6     -2458.665 6        37.977 6
G27  21967416.198 9 115439524.490 9      2502.340 9        55.389 9  21967418.118 6         0.000 6      1949.876 6        37.977 6
G16  20489119.965 9 107671031.828 9       518.918 9        55.980 9  20489119.138 6         0.000 6       404.352 6        37.977 6
G26  20676786.396 9 108657223.473 9     -1525.163 9        55.864 9  20676789.221 6         0.000 6     -1188.439 6        37.977 6
G20  21906769.696 9 115120819.004 9      2517.039 9        55.330 9  21906769.996 6         0.000 6      1961.331 6        37.977 6
> 2019 07 03 12 02 18.0000000  0  8       0.000000000000
G07  25314142.855 9 133026672.745 9      2163.345 9        54.143 9  25314143.508 6         0.000 6      1685.724 6        37.977 6
G10  23757192.217 9 124844833.888 9      3509.631 9        54.688 9  23757195.893 6         0.000 6      2734.780 6        37.977 6
G21  21189970.937 9 111354028.123 9     -1289.311 9        55.701 9  21189970.226 6         0.000 6     -1004.658 6        37.977 6
G29  24347080.831 9 127944716.124 9     -3155.368 9        54.458 9  24347082.455 6         0.000 6     -2458.731 6        37.977 6
G27  21966940.042 9 115437022.276 9      2502.095 9        55.389 9  21966941.962 6         0.000 6      1949.685 6        37.977 6
G16  20489021.278 9 107670513.221 9       518.296 9        55.980 9  20489020.450 6         0.000 6       403.867 6        37.977 6
G26  20677076.680 9 108658748.921 9     -1525.737 9        55.864 9  20677079.505 6         0.000 6     -1188.887 6        37.977 6
G20  21906290.763 9 115118302.194 9      2516.588 9        55.330 9  21906291.062 6         0.000 6      1960.979 6        37.977 6
> 2019 07 03 12 02 19.0000000  0  8       0.000000000000
G07  25313731.228 9 133024509.634 9      2162.884 9        54.143 9  25313731.881 6         0.000 6      1685.365 6        37.977 6
G10  23756524.370 9 124841324.341 9      3509.485 9        54.689 9  23756528.045 6         0.000 6      2734.666 6        37.977 6
G21  21190216.319 9 111355317.613 9     -1289.672 9        55.701 9  21190215.608 6         0.000 6     -1004.939 6        37.977 6
G29  24347681.285 9 127947871.524 9     -3155.453 9        54.458 9  24347682.910 6         0.000 6     -2458.797 6        37.977 6
G27  21966463.933 9 115434520.307 9      2501.849 9        55.389 9  21966465.852 6         0.000 6      1949.494 6        37.977 6
G16  20488922.708 9 107669995.237 9       517.673 9        55.980 9  20488921.881 6         0.000 6       403.382 6        37.977 6
G26  20677367.072 9 108660274.944 9     -1526.312 9        55.863 9  20677369.897 6         0.000 6     -1189.334 6        37.977 6
G20  21905811.915 9 115115785.837 9      2516.136 9        55.331 9  21905812.214 6         0.000 6      1960.627 6        37.977 6
> 2019 07 03 12 02 20.0000000  0  8       0.000000000000
G07  25313319.689 9 133022346.984 9      2162.423 9        54.143 9  25313320.341 6         0.000 6      1685.006 6        37.977 6
G10  23755856.552 9 124837814.940 9      3509.338 9        54.689 9  23755860.226 6         0.000 6      2734.551 6        37.977 6
G21  21190461.770 9 111356607.465 9     -1290.033 9        55.701 9  21190461.059 6         0.000 6     -1005.221 6        37.977 6
G29  24348281.756 9 127951027.009 9     -3155.538 9        54.458 9  24348283.381 6         0.000 6     -2458.863 6        37.977 6
G27  21965987.870 9 115432018.582 9      2501.604 9        55.390 9  21965989.789 6         0.000 6      1949.303 6        37.977 6
G16  20488824.258 9 107669477.875 9       517.051 9        55.980 9  20488823.430 6         0.000 6       402.897 6        37.977 6
G26  20677657.574 9 108661801.541 9     -1526.886 9        55.863 9  20677660.400 6         0.000 6     -1189.782 6        37.977 6
G20  21905333.153 9 115113269.931 9      2515.685 9        55.331 9  21905333.452 6         0.000 6      1960.275 6        37.977 6
> 2019 07 03 12 02 21.0000000  0  8       0.000000000000
G07  25312908.237 9 133020184.795 9      2161.962 9        54.143 9  25312908.889 6         0.000 6      1684.647 6        37.977 6
G10  23755188.761 9 124834305.687 9      3509.191 9        54.689 9  23755192.435 6         0.000 6      2734.437 6        37.977 6
G21  21190707.289 9 111357897.678 9     -1290.394 9        55.701 9  21190706.578 6         0.000 6     -1005.502 6        37.977 6
G29  24348882.243 9 127954182.579 9     -3155.622 9        54.457 9  24348883.869 6         0.000 6     -2458.929 6        37.977 6
G27  21965511.854 9 115429517.103 9      2501.359 9        55.390 9  21965513.773 6         0.000 6      1949.112 6        37.977 6
G16  20488725.925 9 107668961.135 9       516.429 9        55.980 9  20488725.098 6         0.000 6       402.412 6        37.977 6
G26  20677948.186 9 108663328.712 9     -1527.460 9        55.863 9  20677951.011 6         0.000 6     -1190.229 6        37.977 6
G20  21904854.477 9 115110754.476 9      2515.233 9        55.331 9  21904854.776 6         0.000 6      1959.923 6        37.977 6
> 2019 07 03 12 02 22.0000000  0  8       0.000000000000
G07  25312496.873 9 133018023.067 9      2161.501 9        54.143 9  25312497.525 6         0.000 6      1684.288 6        37.977 6
G10  23754520.998 9 124830796.580 9      3509.044 9        54.689 9  23754524.671 6         0.000 6      2734.322 6        37.977 6
G21  21190952.877 9 111359188.251 9     -1290.755 9        55.701 9  21190952.166 6         0.000 6     -1005.783 6        37.977 6
G29  24349482.746 9 127957338.233 9     -3155.707 9        54.457 9  24349484.373 6         0.000 6     -2458.995 6        37.977 6
G27  21965035.884 9 115427015.869 9      2501.114 9        55.390 9  21965037.803 6         0.000 6      1948.921 6        37.977 6
G16  20488627.711 9 107668445.017 9       515.806 9        55.980 9  20488626.884 6         0.000 6       401.927 6        37.977 6
G26  20678238.906 9 108664856.457 9     -1528.034 9        55.863 9  20678241.732 6         0.000 6     -1190.676 6        37.977 6
G20  21904375.887 9 115108239.474 9      2514.781 9        55.331 9  21904376.186 6         0.000 6      1959.571 6        37.977 6
> 2019 07 03 12 02 23.0000000  0  8       0.000000000000
G07  25312085.597 9 133015861.800 9      2161.040 9        54.143 9  25312086.249 6         0.000 6      1683.928 6        37.977 6
G10  23753853.263 9 124827287.620 9      3508.896 9        54.690 9  23753856.936 6         0.000 6      2734.208 6        37.977 6
G21  21191198.534 9 111360479.186 9     -1291.116 9        55.701 9  21191197.823 6         0.000 6     -1006.065 6        37.977 6
G29  24350083.265 9 127960493.972 9     -3155.792 9        54.457 9  24350084.892 6         0.000 6     -2459.061 6        37.977 6
G27  21964559.961 9 115424514.881 9      2500.869 9        55.390 9  21964561.880 6         0.000 6      1948.730 6        37.977 6
G16  20488529.616 9 107667929.522 9       515.184 9        55.980 9  20488528.789 6         0.000 6       401.442 6        37.977 6
G26  20678529.736 9 108666384.776 9     -1528.608 9        55.863 9  20678532.562 6         0.000 6     -1191.123 6        37.977 6
G20  21903897.383 9 115105724.923 9      2514.329 9        55.331 9  21903897.682 6         0.000 6      1959.219 6        37.977 6
> 2019 07 03 12 02 24.0000000  0  8       0.000000000000
G07  25311674.409 9 133013700.994 9      2160.579 9        54.144 9  25311675.060 6         0.000 6      1683.569 6        37.977 6
G10  23753185.556 9 124823778.808 9      3508.749 9        54.690 9  23753189.228 6         0.000 6      2734.093 6        37.977 6
G21  21191444.260 9 111361770.482 9     -1291.477 9        55.701 9  21191443.549 6         0.000 6     -1006.346 6        37.977 6
G29  24350683.800 9 127963649.796 9     -3155.877 9        54.457 9  24350685.428 6         0.000 6     -2459.127 6        37.977 6
G27  21964084.085 9 115422014.137 9      2500.624 9        55.390 9  21964086.004 6         0.000 6      1948.539 6        37.977 6
G16  20488431.639 9 107667414.649 9       514.562 9        55.980 9  20488430.812 6         0.000 6       400.957 6        37.977 6
G26  20678820.675 9 108667913.669 9     -1529.182 9        55.863 9  20678823.501 6         0.000 6     -1191.571 6        37.977 6
G20  21903418.965 9 115103210.824 9      2513.877 9        55.332 9  21903419.263 6         0.000 6      1958.866 6        37.977 6
> 2019 07 03 12 02 25.0000000  0  8       0.000000000000
G07  25311263.308 9 133011540.649 9      2160.117 9        54.144 9  25311263.959 6         0.000 6      1683.209 6        37.977 6
G10  23752517.878 9 124820270.143 9      3508.602 9        54.690 9  23752521.549 6         0.000 6      2733.978 6        37.977 6
G21  21191690.054 9 111363062.139 9     -1291.838 9        55.701 9  21191689.343 6         0.000 6     -1006.627 6        37.977 6
G29  24351284.352 9 127966805.705 9     -3155.962 9        54.457 9  24351285.981 6         0.000 6     -2459.194 6        37.977 6
G27  21963608.256 9 115419513.639 9      2500.378 9        55.391 9  21963610.174 6         0.000 6      1948.347 6        37.977 6
G16  20488333.780 9 107666900.399 9       513.939 9        55.980 9  20488332.953 6         0.000 6       400.472 6        37.977 6
G26  20679111.723 9 108669443.136 9     -1529.756 9        55.863 9  20679114.549 6         0.000 6     -1192.018 6        37.977 6
G20  21902940.633 9 115100697.178 9      2513.425 9        55.332 9  21902940.931 6         0.000 6      1958.514 6        37.977 6
> 2019 07 03 12 02 26.0000000  0  8       0.000000000000
G07  25310852.296 9 133009380.766 9      2159.656 9        54.144 9  25310852.946 6         0.000 6      1682.850 6        37.977 6
G10  23751850.227 9 124816761.626 9      3508.454 9        54.690 9  23751853.898 6         0.000 6      2733.863 6        37.977 6
G21  21191935.917 9 111364354.157 9     -1292.199 9        55.701 9  21191935.206 6         0.000 6     -1006.908 6        37.977 6
G29  24351884.920 9 127969961.699 9     -3156.046 9        54.456 9  24351886.549 6         0.000 6     -2459.260 6        37.977 6
G27  21963132.473 9 115417013.386 9      2500.133 9        55.391 9  21963134.391 6         0.000 6      1948.156 6        37.977 6
G16  20488236.040 9 107666386.771 9       513.317 9        55.980 9  20488235.213 6         0.000 6       399.987 6        37.977 6
G26  20679402.881 9 108670973.177 9     -1530.330 9        55.863 9  20679405.707 6         0.000 6     -1192.465 6        37.977 6
G20  21902462.388 9 115098183.983 9      2512.973 9        55.332 9  21902462.685 6         0.000 6      1958.162 6        37.977 6
> 2019 07 03 12 02 27.0000000  0  8       0.000000000000
G07  25310441.371 9 133007221.344 9      2159.195 9        54.144 9  25310442.021 6         0.000 6      1682.490 6        37.977 6
G10  23751182.604 9 124813253.256 9      3508.307 9        54.691 9  23751186.274 6         0.000 6      2733.748 6        37.977 6
G21  21192181.848 9 111365646.535 9     -1292.560 9        55.700 9  21192181.138 6         0.000 6     -1007.190 6        37.977 6
G29  24352485.503 9 127973117.777 9     -3156.131 9        54.456 9  24352487.133 6         0.000 6     -2459.326 6        37.977 6
G27  21962656.737 9 115414513.378 9      2499.888 9        55.391 9  21962658.655 6         0.000 6      1947.965 6        37.977 6
G16  20488138.418 9 107665873.765 9       512.694 9        55.980 9  20488137.591 6         0.000 6       399.502 6        37.977 6
G26  20679694.148 9 108672503.792 9     -1530.904 9        55.863 9  20679696.973 6         0.000 6     -1192.912 6        37.977 6
G20  21901984.228 9 115095671.241 9      2512.520 9        55.332 9  21901984.525 6         0.000 6      1957.809 6        37.977 6
> 2019 07 03 12 02 28.0000000  0  8       0.000000000000
G07  25310030.533 9 133005062.384 9      2158.733 9        54.144 9  25310031.184 6         0.000 6      1682.130 6        37.977 6
G10  23750515.010 9 124809745.034 9      3508.159 9        54.691 9  23750518.679 6         0.000 6      2733.633 6        37.977 6
G21  21192427.849 9 111366939.275 9     -1292.920 9        55.700 9  21192427.138 6         0.000 6     -1007.471 6        37.977 6
G29  24353086.103 9 127976273.940 9     -3156.216 9        54.456 9  24353087.734 6         0.000 6     -2459.392 6        37.977 6
G27  21962181.047 9 115412013.616 9      2499.642 9        55.391 9  21962182.965 6         0.000 6      1947.774 6        37.977 6
G16  20488040.915 9 107665361.383 9       512.072 9        55.980 9  20488040.088 6         0.000 6       399.017 6        37.977 6
G26  20679985.523 9 108674034.980 9     -1531.477 9        55.862 9  20679988.349 6         0.000 6     -1193.360 6        37.977 6
G20  21901506.154 9 115093158.951 9      2512.068 9        55.332 9  21901506.451 6         0.000 6      1957.457 6        37.977 6
> 2019 07 03 12 02 29.0000000  0  8       0.000000000000
G07  25309619.784 9 133002903.885 9      2158.271 9        54.144 9  25309620.434 6         0.000 6      1681.771 6        37.977 6
G10  23749847.444 9 124806236.959 9      3508.011 9        54.691 9  23749851.112 6         0.000 6      2733.518 6        37.977 6
G21  21192673.918 9 111368232.375 9     -1293.281 9        55.700 9  21192673.207 6         0.000 6     -1007.752 6        37.977 6
G29  24353686.719 9 127979430.188 9     -3156.300 9        54.456 9  24353688.350 6         0.000 6     -2459.457 6        37.977 6
G27  21961705.404 9 115409514.099 9      2499.397 9        55.391 9  21961707.322 6         0.000 6      1947.583 6        37.977 6
G16  20487943.530 9 107664849.622 9       511.449 9        55.981 9  20487942.703 6         0.000 6       398.532 6        37.977 6
G26  20680277.008 9 108675566.743 9     -1532.051 9        55.862 9  20680279.835 6         0.000 6     -1193.807 6        37.977 6
G20  21901028.166 9 115090647.114 9      2511.615 9        55.332 9  21901028.463 6         0.000 6      1957.104 6        37.977 6
> 2019 07 03 12 02 30.0000000  0  8       0.000000000000
G07  25309209.123 9 133000745.848 9      2157.810 9        54.144 9  25309209.773 6         0.000 6      1681.411 6        37.977 6
G10  23749179.905 9 124802729.033 9      3507.863 9        54.691 9  23749183.573 6         0.000 6      2733.402 6        37.977 6
G21  21192920.055 9 111369525.835 9     -1293.642 9        55.700 9  21192919.345 6         0.000 6     -1008.033 6        37.977 6
G29  24354287.351 9 127982586.520 9     -3156.385 9        54.455 9  24354288.983 6         0.000 6     -2459.523 6        37.977 6
G27  21961229.808 9 115407014.827 9      2499.151 9        55.391 9  21961231.726 6         0.000 6      1947.391 6        37.977 6
G16  20487846.264 9 107664338.485 9       510.826 9        55.981 9  20487845.437 6         0.000 6       398.046 6        37.977 6
G26  20680568.603 9 108677099.079 9     -1532.625 9        55.862 9  20680571.429 6         0.000 6     -1194.254 6        37.977 6
G20  21900550.265 9 115088135.729 9      2511.163 9        55.333 9  21900550.562 6         0.000 6      1956.751 6        37.977 6
> 2019 07 03 12 02 31.0000000  0  8       0.000000000000
G07  25308798.549 9 132998588.273 9      2157.348 9        54.145 9  25308799.199 6         0.000 6      1681.051 6        37.977 6
G10  23748512.395 9 124799221.254 9      3507.715 9        54.692 9  23748516.063 6         0.000 6      2733.287 6        37.977 6
G21  21193166.261 9 111370819.656 9     -1294.002 9        55.700 9  21193165.551 6         0.000 6     -1008.314 6        37.977 6
G29  24354887.999 9 127985742.937 9     -3156.470 9        54.455 9  24354889.632 6         0.000 6     -2459.589 6        37.977 6
G27  21960754.259 9 115404515.801 9      2498.906 9        55.392 9  21960756.176 6         0.000 6      1947.200 6        37.977 6
G16  20487749.116 9 107663827.970 9       510.204 9        55.981 9  20487748.289 6         0.000 6       397.561 6        37.977 6
G26  20680860.306 9 108678631.989 9     -1533.199 9        55.862 9  20680863.133 6         0.000 6     -1194.701 6        37.977 6
G20  21900072.450 9 115085624.797 9      2510.710 9        55.333 9  21900072.746 6         0.000 6      1956.399 6        37.977 6
> 2019 07 03 12 02 32.0000000  0  8       0.000000000000
G07  25308388.063 9 132996431.160 9      2156.886 9        54.145 9  25308388.713 6         0.000 6      1680.691 6        37.977 6
G10  23747844.913 9 124795713.623 9      3507.567 9        54.692 9  23747848.580 6         0.000 6      2733.172 6        37.977 6
G21  21193412.536 9 111372113.838 9     -1294.363 9        55.700 9  21193411.826 6         0.000 6     -1008.595 6        37.977 6
G29  24355488.663 9 127988899.438 9     -3156.554 9        54.455 9  24355490.297 6         0.000 6     -2459.655 6        37.977 6
G27  21960278.756 9 115402017.021 9      2498.660 9        55.392 9  21960280.673 6         0.000 6      1947.009 6        37.977 6
G16  20487652.087 9 107663318.077 9       509.581 9        55.981 9  20487651.260 6         0.000 6       397.076 6        37.977 6
G26  20681152.119 9 108680165.473 9     -1533.772 9        55.862 9  20681154.945 6         0.000 6     -1195.148 6        37.977 6
G20  21899594.721 9 115083114.318 9      2510.257 9        55.333 9  21899595.017 6         0.000 6      1956.046 6        37.977 6
> 2019 07 03 12 02 33.0000000  0  8       0.000000000000
G07  25307977.666 9 132994274.508 9      2156.424 9        54.145 9  25307978.315 6         0.000 6      1680.331 6        37.977 6
G10  23747177.460 9 124792206.141 9      3507.419 9        54.692 9  23747181.126 6         0.000 6      2733.056 6        37.977 6
G21  21193658.879 9 111373408.381 9     -1294.723 9        55.700 9  21193658.169 6         0.000 6     -1008.875 6        37.977 6
G29  24356089.344 9 127992056.024 9     -3156.639 9        54.455 9  24356090.978 6         0.000 6     -2459.721 6        37.977 6
G27  21959803.300 9 115399518.486 9      2498.415 9        55.392 9  21959805.217 6         0.000 6      1946.817 6        37.977 6
G16  20487555.176 9 107662808.808 9       508.958 9        55.981 9  20487554.349 6         0.000 6       396.591 6        37.977 6
G26  20681444.041 9 108681699.531 9     -1534.346 9        55.862 9  20681446.867 6         0.000 6     -1195.595 6        37.977 6
G20  21899117.078 9 115080604.291 9      2509.804 9        55.333 9  21899117.373 6         0.000 6      1955.693 6        37.977 6
> 2019 07 03 12 02 34.0000000  0  8       0.000000000000
G07  25307567.356 9 132992118.319 9      2155.962 9        54.145 9  25307568.005 6         0.000 6      1679.971 6        37.977 6
G10  23746510.034 9 124788698.807 9      3507.270 9        54.692 9  23746513.700 6         0.000 6      2732.940 6        37.977 6
G21  21193905.291 9 111374703.283 9     -1295.084 9        55.700 9  21193904.581 6         0.000 6     -1009.156 6        37.977 6
G29  24356690.040 9 127995212.695 9     -3156.723 9        54.455 9  24356691.675 6         0.000 6     -2459.787 6        37.977 6
G27  21959327.891 9 115397020.197 9      2498.169 9        55.392 9  21959329.808 6         0.000 6      1946.626 6        37.977 6
G16  20487458.384 9 107662300.161 9       508.335 9        55.981 9  20487457.557 6         0.000 6       396.105 6        37.977 6
G26  20681736.071 9 108683234.162 9     -1534.920 9        55.862 9  20681738.898 6         0.000 6     -1196.042 6        37.977 6
G20  21898639.521 9 115078094.717 9      2509.352 9        55.333 9  21898639.816 6         0.000 6      1955.340 6        37.977 6
> 2019 07 03 12 02 35.0000000  0  8       0.000000000000
G07  25307157.134 9 132989962.591 9      2155.500 9        54.145 9  25307157.783 6         0.000 6      1679.611 6        37.977 6
G10  23745842.637 9 124785191.622 9      3507.122 9        54.693 9  23745846.302 6         0.000 6      2732.825 6        37.977 6
G21  21194151.772 9 111375998.546 9     -1295.444 9        55.700 9  21194151.062 6         0.000 6     -1009.437 6        37.977 6
G29  24357290.753 9 127998369.450 9     -3156.808 9        54.454 9  24357292.388 6         0.000 6     -2459.853 6        37.977 6
G27  21958852.529 9 115394522.153 9      2497.923 9        55.392 9  21958854.446 6         0.000 6      1946.435 6        37.977 6
G16  20487361.710 9 107661792.137 9       507.713 9        55.981 9  20487360.883 6         0.000 6       395.620 6        37.977 6
G26  20682028.212 9 108684769.366 9     -1535.493 9        55.862 9  20682031.038 6         0.000 6     -1196.489 6        37.977 6
G20  21898162.050 9 115075585.597 9      2508.898 9        55.334 9  21898162.345 6         0.000 6      1954.987 6        37.977 6
> 2019 07 03 12 02 36.0000000  0  8       0.000000000000
G07  25306747.000 9 132987807.326 9      2155.038 9        54.145 9  25306747.648 6         0.000 6      1679.251 6        37.977 6
G10  23745175.268 9 124781684.585 9      3506.973 9        54.693 9  23745178.932 6         0.000 6      2732.709 6        37.977 6
G21  21194398.321 9 111377294.170 9     -1295.804 9        55.700 9  21194397.611 6         0.000 6     -1009.718 6        37.977 6
G29  24357891.481 9 128001526.290 9     -3156.892 9        54.454 9  24357893.117 6         0.000 6     -2459.919 6        37.977 6
G27  21958377.213 9 115392024.355 9      2497.678 9        55.393 9  21958379.130 6         0.000 6      1946.243 6        37.977 6
G16  20487265.155 9 107661284.736 9       507.090 9        55.981 9  20487264.328 6         0.000 6       395.135 6        37.977 6
G26  20682320.461 9 108686305.145 9     -1536.067 9        55.861 9  20682323.288 6         0.000 6     -1196.936 6        37.977 6
G20  21897684.666 9 115073076.929 9      2508.445 9        55.334 9  21897684.961 6         0.000 6      1954.634 6        37.977 6
> 2019 07 03 12 02 37.0000000  0  8       0.000000000000
G07  25306336.954 9 132985652.523 9      2154.576 9        54.145 9  25306337.602 6         0.000 6      1678.891 6        37.977 6
G10  23744507.928 9 124778177.696 9      3506.825 9        54.693 9  23744511.591 6         0.000 6      2732.593 6        37.977 6
G21  21194644.938 9 111378590.153 9     -1296.165 9        55.699 9  21194644.228 6         0.000 6     -1009.999 6        37.977 6
G29  24358492.226 9 128004683.214 9     -3156.977 9        54.454 9  24358493.862 6         0.000 6     -2459.985 6        37.977 6
G27  21957901.944 9 115389526.803 9      2497.432 9        55.393 9  21957903.861 6         0.000 6      1946.052 6        37.977 6
G16  20487168.719 9 107660777.958 9       506.467 9        55.981 9  20487167.891 6         0.000 6       394.649 6        37.977 6
G26  20682612.819 9 108687841.496 9     -1536.640 9        55.861 9  20682615.646 6         0.000 6     -1197.383 6        37.977 6
G20  21897207.368 9 115070568.715 9      2507.992 9        55.334 9  21897207.662 6         0.000 6      1954.281 6        37.977 6
> 2019 07 03 12 02 38.0000000  0  8       0.000000000000
G07  25305926.996 9 132983498.182 9      2154.113 9        54.146 9  25305927.644 6         0.000 6      1678.531 6        37.977 6
G10  23743840.615 9 124774670.956 9      3506.676 9        54.693 9  23743844.278 6         0.000 6      2732.477 6        37.977 6
G21  21194891.625 9 111379886.497 9     -1296.525 9        55.699 9  21194890.915 6         0.000 6     -1010.279 6        37.977 6
G29  24359092.987 9 128007840.222 9     -3157.061 9        54.454 9  24359094.624 6         0.000 6     -2460.050 6        37.977 6
G27  21957426.722 9 115387029.497 9      2497.186 9        55.393 9  21957428.638 6         0.000 6      1945.860 6        37.977 6
G16  20487072.400 9 107660271.803 9       505.844 9        55.981 9  20487071.573 6         0.000 6       394.164 6        37.977 6
G26  20682905.287 9 108689378.421 9     -1537.214 9        55.861 9  20682908.114 6         0.000 6     -1197.829 6        37.977 6
G20  21896730.156 9 115068060.954 9      2507.539 9        55.334 9  21896730.450 6         0.000 6      1953.927 6        37.977 6
> 2019 07 03 12 02 39.0000000  0  8       0.000000000000
G07  25305517.125 9 132981344.303 9      2153.651 9        54.146 9  25305517.773 6         0.000 6      1678.170 6        37.977 6
G10  23743173.331 9 124771164.365 9      3506.527 9        54.694 9  23743176.993 6         0.000 6      2732.361 6        37.977 6
G21  21195138.379 9 111381183.201 9     -1296.885 9        55.699 9  21195137.669 6         0.000 6     -1010.560 6        37.977 6
G29  24359693.764 9 128010997.315 9     -3157.146 9        54.454 9  24359695.401 6         0.000 6     -2460.116 6        37.977 6
G27  21956951.547 9 115384532.436 9      2496.940 9        55.393 9  21956953.463 6         0.000 6      1945.668 6        37.977 6
G16  20486976.201 9 107659766.270 9       505.221 9        55.981 9  20486975.374 6         0.000 6       393.679 6        37.977 6
G26  20683197.863 9 108690915.920 9     -1537.787 9        55.861 9  20683200.690 6         0.000 6     -1198.276 6        37.977 6
G20  21896253.030 9 115065553.646 9      2507.085 9        55.334 9  21896253.324 6         0.000 6      1953.574 6        37.977 6
> 2019 07 03 12 02 40.0000000  0  8       0.000000000000
G07  25305107.343 9 132979190.887 9      2153.188 9        54.146 9  25305107.991 6         0.000 6      1677.810 6        37.977 6
G10  23742506.075 9 124767657.923 9      3506.378 9        54.694 9  23742509.737 6         0.000 6      2732.245 6        37.977 6
G21  21195385.203 9 111382480.265 9     -1297.245 9        55.699 9  21195384.493 6         0.000 6     -1010.840 6        37.977 6
G29  24360294.556 9 128014154.493 9     -3157.230 9        54.453 9  24360296.195 6         0.000 6     -2460.182 6        37.977 6
G27  21956476.418 9 115382035.622 9      2496.694 9        55.393 9  21956478.334 6         0.000 6      1945.477 6        37.977 6
G16  20486880.120 9 107659261.361 9       504.598 9        55.981 9  20486879.293 6         0.000 6       393.193 6        37.977 6
G26  20683490.549 9 108692453.992 9     -1538.361 9        55.861 9  20683493.376 6         0.000 6     -1198.723 6        37.977 6
G20  21895775.991 9 115063046.792 9      2506.632 9        55.335 9  21895776.285 6         0.000 6      1953.221 6        37.977 6
> 2019 07 03 12 02 41.0000000  0  8       0.000000000000
G07  25304697.649 9 132977037.933 9      2152.726 9        54.146 9  25304698.297 6         0.000 6      1677.450 6        37.977 6
G10  23741838.848 9 124764151.630 9      3506.229 9        54.694 9  23741842.509 6         0.000 6      2732.129 6        37.977 6
G21  21195632.094 9 111383777.690 9     -1297.605 9        55.699 9  21195631.384 6         0.000 6     -1011.121 6        37.977 6
G29  24360895.365 9 128017311.754 9     -3157.314 9        54.453 9  24360897.004 6         0.000 6     -2460.248 6        37.977 6
G27  21956001.337 9 115379539.053 9      2496.449 9        55.394 9  21956003.252 6         0.000 6      1945.285 6        37.977 6
G16  20486784.157 9 107658757.075 9       503.975 9        55.981 9  20486783.330 6         0.000 6       392.708 6        37.977 6
G26  20683783.344 9 108693992.638 9     -1538.934 9        55.861 9  20683786.171 6         0.000 6     -1199.170 6        37.977 6
G20  21895299.038 9 115060540.392 9      2506.178 9        55.335 9  21895299.331 6         0.000 6      1952.867 6        37.977 6
> 2019 07 03 12 02 42.0000000  0  8       0.000000000000
G07  25304288.043 9 132974885.442 9      2152.263 9        54.146 9  25304288.690 6         0.000 6      1677.089 6        37.977 6
G10  23741171.649 9 124760645.487 9      3506.080 9        54.694 9  23741175.309 6         0.000 6      2732.013 6        37.977 6
G21  21195879.055 9 111385075.474 9     -1297.965 9        55.699 9  21195878.345 6         0.000 6     -1011.401 6        37.977 6
G29  24361496.190 9 128020469.100 9     -3157.399 9        54.453 9  24361497.830 6         0.000 6     -2460.313 6        37.977 6
G27  21955526.302 9 115377042.730 9      2496.203 9        55.394 9  21955528.217 6         0.000 6      1945.094 6        37.977 6
G16  20486688.313 9 107658253.412 9       503.352 9        55.981 9  20486687.486 6         0.000 6       392.222 6        37.977 6
G26  20684076.248 9 108695531.856 9     -1539.507 9        55.861 9  20684079.075 6         0.000 6     -1199.617 6        37.977 6
G20  21894822.171 9 115058034.445 9      2505.724 9        55.335 9  21894822.464 6         0.000 6      1952.514 6        37.977 6
> 2019 07 03 12 02 43.0000000  0  8       0.000000000000
G07  25303878.525 9 132972733.414 9      2151.801 9        54.146 9  25303879.172 6         0.000 6      1676.729 6        37.977 6
G10  23740504.479 9 124757139.492 9      3505.930 9        54.695 9  23740508.138 6         0.000 6      2731.896 6        37.977 6
G21  21196126.083 9 111386373.618 9     -1298.325 9        55.699 9  21196125.373 6         0.000 6     -1011.682 6        37.977 6
G29  24362097.031 9 128023626.531 9     -3157.483 9        54.453 9  24362098.672 6         0.000 6     -2460.379 6        37.977 6
G27  21955051.313 9 115374546.653 9      2495.957 9        55.394 9  21955053.229 6         0.000 6      1944.902 6        37.977 6
G16  20486592.588 9 107657750.372 9       502.729 9        55.981 9  20486591.761 6         0.000 6       391.737 6        37.977 6
G26  20684369.261 9 108697071.649 9     -1540.081 9        55.861 9  20684372.089 6         0.000 6     -1200.063 6        37.977 6
G20  21894345.391 9 115055528.952 9      2505.271 9        55.335 9  21894345.684 6         0.000 6      1952.160 6        37.977 6
> 2019 07 03 12 02 44.0000000  0  8       0.000000000000
G07  25303469.095 9 132970581.848 9      2151.338 9        54.146 9  25303469.742 6         0.000 6      1676.368 6        37.977 6
G10  23739837.336 9 124753633.647 9      3505.781 9        54.695 9  23739840.995 6         0.000 6      2731.780 6        37.977 6
G21  21196373.181 9 111387672.122 9     -1298.685 9        55.699 9  21196372.471 6         0.000 6     -1011.962 6        37.977 6
G29  24362697.888 9 128026784.045 9     -3157.567 9        54.452 9  24362699.529 6         0.000 6     -2460.445 6        37.977 6
G27  21954576.372 9 115372050.822 9      2495.711 9        55.394 9  21954578.287 6         0.000 6      1944.710 6        37.977 6
G16  20486496.981 9 107657247.955 9       502.105 9        55.981 9  20486496.154 6         0.000 6       391.251 6        37.977 6
G26  20684662.383 9 108698612.014 9     -1540.654 9        55.860 9  20684665.211 6         0.000 6     -1200.510 6        37.977 6
G20  21893868.697 9 115053023.913 9      2504.817 9        55.335 9  21893868.990 6         0.000 6      1951.806 6        37.977 6
> 2019 07 03 12 02 45.0000000  0  8       0.000000000000
G07  25303059.753 9 132968430.745 9      2150.875 9        54.147 9  25303060.400 6         0.000 6      1676.007 6        37.977 6
G10  23739170.223 9 124750127.951 9      3505.631 9        54.695 9  23739173.881 6         0.000 6      2731.663 6        37.977 6
G21  21196620.346 9 111388970.986 9     -1299.044 9        55.699 9  21196619.637 6         0.000 6     -1012.243 6        37.977 6
G29  24363298.762 9 128029941.644 9     -3157.652 9        54.452 9  24363300.403 6         0.000 6     -2460.510 6        37.977 6
G27  21954101.478 9 115369555.237 9      2495.465 9        55.394 9  21954103.393 6         0.000 6      1944.519 6        37.977 6
G16  20486401.493 9 107656746.161 9       501.482 9        55.981 9  20486400.666 6         0.000 6       390.765 6        37.977 6
G26  20684955.614 9 108700152.952 9     -1541.227 9        55.860 9  20684958.442 6         0.000 6     -1200.957 6        37.977 6
G20  21893392.089 9 115050519.327 9      2504.363 9        55.335 9  21893392.382 6         0.000 6      1951.452 6        37.977 6
> 2019 07 03 12 02 46.0000000  0  8       0.000000000000
G07  25302650.499 9 132966280.105 9      2150.412 9        54.147 9  25302651.146 6         0.000 6      1675.647 6        37.977 6
G10  23738503.137 9 124746622.405 9      3505.482 9        54.695 9  23738506.795 6         0.000 6      2731.547 6        37.977 6
G21  21196867.580 9 111390270.209 9     -1299.404 9        55.699 9  21196866.871 6         0.000 6     -1012.523 6        37.977 6
G29  24363899.651 9 128033099.328 9     -3157.736 9        54.452 9  24363901.293 6         0.000 6     -2460.576 6        37.977 6
G27  21953626.630 9 115367059.898 9      2495.218 9        55.394 9  21953628.545 6         0.000 6      1944.327 6        37.977 6
G16  20486306.123 9 107656244.990 9       500.859 9        55.981 9  20486305.296 6         0.000 6       390.280 6        37.977 6
G26  20685248.954 9 108701694.464 9     -1541.800 9        55.860 9  20685251.782 6         0.000 6     -1201.403 6        37.977 6
G20  21892915.568 9 115048015.196 9      2503.909 9        55.336 9  21892915.860 6         0.000 6      1951.099 6        37.977 6
> 2019 07 03 12 02 47.0000000  0  8       0.000000000000
G07  25302241.333 9 132964129.928 9      2149.949 9        54.147 9  25302241.980 6         0.000 6      1675.286 6        37.977 6
G10  23737836.081 9 124743117.008 9      3505.332 9        54.696 9  23737839.738 6         0.000 6      2731.430 6        37.977 6
G21  21197114.883 9 111391569.792 9     -1299.764 9        55.698 9  21197114.173 6         0.000 6     -1012.803 6        37.977 6
G29  24364500.556 9 128036257.095 9     -3157.820 9        54.452 9  24364502.199 6         0.000 6     -2460.642 6        37.977 6
G27  21953151.829 9 115364564.805 9      2494.972 9        55.395 9  21953153.744 6         0.000 6      1944.135 6        37.977 6
G16  20486210.872 9 107655744.443 9       500.236 9        55.981 9  20486210.045 6         0.000 6       389.794 6        37.977 6
G26  20685542.404 9 108703236.549 9     -1542.373 9        55.860 9  20685545.232 6         0.000 6     -1201.850 6        37.977 6
G20  21892439.133 9 115045511.519 9      2503.454 9        55.336 9  21892439.425 6         0.000 6      1950.745 6        37.977 6
> 2019 07 03 12 02 48.0000000  0  8       0.000000000000
G07  25301832.256 9 132961980.214 9      2149.486 9        54.147 9  25301832.902 6         0.000 6      1674.925 6        37.977 6
G10  23737169.052 9 124739611.761 9      3505.182 9        54.696 9  23737172.709 6         0.000 6      2731.313 6        37.977 6
G21  21197362.254 9 111392869.735 9     -1300.123 9        55.698 9  21197361.544 6         0.000 6     -1013.083 6        37.977 6
G29  24365101.477 9 128039414.947 9     -3157.904 9        54.452 9  24365103.120 6         0.000 6     -2460.707 6        37.977 6
G27  21952677.075 9 115362069.959 9      2494.726 9        55.395 9  21952678.989 6         0.000 6      1943.943 6        37.977 6
G16  20486115.740 9 107655244.519 9       499.612 9        55.981 9  20486114.913 6         0.000 6       389.308 6        37.977 6
G26  20685835.962 9 108704779.207 9     -1542.946 9        55.860 9  20685838.790 6         0.000 6     -1202.296 6        37.977 6
G20  21891962.785 9 115043008.296 9      2503.000 9        55.336 9  21891963.077 6         0.000 6      1950.391 6        37.977 6
> 2019 07 03 12 02 49.0000000  0  8       0.000000000000
G07  25301423.266 9 132959830.963 9      2149.023 9        54.147 9  25301423.912 6         0.000 6      1674.564 6        37.977 6
G10  23736502.053 9 124736106.664 9      3505.032 9        54.696 9  23736505.708 6         0.000 6      2731.197 6        37.977 6
G21  21197609.694 9 111394170.038 9     -1300.483 9        55.698 9  21197608.984 6         0.000 6     -1013.364 6        37.977 6
G29  24365702.414 9 128042572.883 9     -3157.988 9        54.451 9  24365704.058 6         0.000 6     -2460.773 6        37.977 6
G27  21952202.368 9 115359575.358 9      2494.480 9        55.395 9  21952204.282 6         0.000 6      1943.751 6        37.977 6
G16  20486020.726 9 107654745.218 9       498.989 9        55.981 9  20486019.899 6         0.000 6       388.823 6        37.977 6
G26  20686129.630 9 108706322.438 9     -1543.519 9        55.860 9  20686132.458 6         0.000 6     -1202.743 6        37.977 6
G20  21891486.523 9 115040505.528 9      2502.546 9        55.336 9  21891486.815 6         0.000 6      1950.037 6        37.977 6
> 2019 07 03 12 02 50.0000000  0  8       0.000000000000
G07  25301014.365 9 132957682.176 9      2148.560 9        54.147 9  25301015.011 6         0.000 6      1674.203 6        37.977 6
G10  23735835.081 9 124732601.717 9      3504.882 9        54.696 9  23735838.737 6         0.000 6      2731.080 6        37.977 6
G21  21197857.201 9 111395470.700 9     -1300.843 9        55.698 9  21197856.492 6         0.000 6     -1013.644 6        37.977 6
G29  24366303.367 9 128045730.903 9     -3158.073 9        54.451 9  24366305.012 6         0.000 6     -2460.838 6        37.977 6
G27  21951727.707 9 115357081.004 9      2494.234 9        55.395 9  21951729.622 6         0.000 6      1943.559 6        37.977 6
G16  20485925.831 9 107654246.541 9       498.366 9        55.981 9  20485925.004 6         0.000 6       388.337 6        37.977 6
G26  20686423.406 9 108707866.242 9     -1544.092 9        55.860 9  20686426.235 6         0.000 6     -1203.189 6        37.977 6
G20  21891010.348 9 115038003.214 9      2502.091 9        55.336 9  21891010.639 6         0.000 6      1949.683 6        37.977 6
> 2019 07 03 12 02 51.0000000  0  8       0.000000000000
G07  25300605.552 9 132955533.851 9      2148.096 9        54.147 9  25300606.197 6         0.000 6      1673.842 6        37.977 6
G10  23735168.139 9 124729096.921 9      3504.732 9        54.696 9  23735171.793 6         0.000 6      2730.963 6        37.977 6
G21  21198104.778 9 111396771.721 9     -1301.202 9        55.698 9  21198104.068 6         0.000 6     -1013.924 6        37.977 6
G29  24366904.337 9 128048889.007 9     -3158.157 9        54.451 9  24366905.982 6         0.000 6     -2460.904 6        37.977 6
G27  21951253.094 9 115354586.896 9      2493.987 9        55.395 9  21951255.008 6         0.000 6      1943.367 6        37.977 6
G16  20485831.055 9 107653748.487 9       497.742 9        55.981 9  20485830.227 6         0.000 6       387.851 6        37.977 6
G26  20686717.292 9 108709410.619 9     -1544.665 9        55.860 9  20686720.120 6         0.000 6     -1203.636 6        37.977 6
G20  21890534.259 9 115035501.354 9      2501.637 9        55.337 9  21890534.550 6         0.000 6      1949.328 6        37.977 6
> 2019 07 03 12 02 52.0000000  0  8       0.000000000000
G07  25300196.827 9 132953385.990 9      2147.633 9        54.148 9  25300197.472 6         0.000 6      1673.481 6        37.977 6
G10  23734501.225 9 124725592.274 9      3504.582 9        54.697 9  23734504.879 6         0.000 6      2730.846 6        37.977 6
G21  21198352.422 9 111398073.102 9     -1301.561 9        55.698 9  21198351.713 6         0.000 6     -1014.204 6        37.977 6
G29  24367505.322 9 128052047.195 9     -3158.241 9        54.451 9  24367506.968 6         0.000 6     -2460.970 6        37.977 6
G27  21950778.527 9 115352093.035 9      2493.741 9        55.396 9  21950780.441 6         0.000 6      1943.176 6        37.977 6
G16  20485736.397 9 107653251.056 9       497.119 9        55.981 9  20485735.570 6         0.000 6       387.365 6        37.977 6
G26  20687011.286 9 108710955.569 9     -1545.238 9        55.859 9  20687014.115 6         0.000 6     -1204.082 6        37.977 6
G20  21890058.257 9 115032999.949 9      2501.182 9        55.337 9  21890058.547 6         0.000 6      1948.974 6        37.977 6
> 2019 07 03 12 02 53.0000000  0  8       0.000000000000
G07  25299788.190 9 132951238.592 9      2147.170 9        54.148 9  25299788.835 6         0.000 6      1673.120 6        37.977 6
G10  23733834.339 9 124722087.777 9      3504.432 9        54.697 9  23733837.992 6         0.000 6      2730.729 6        37.977 6
G21  21198600.136 9 111399374.842 9     -1301.921 9        55.698 9  21198599.426 6         0.000 6     -1014.484 6        37.977 6
G29  24368106.323 9 128055205.467 9     -3158.325 9        54.451 9  24368107.970 6         0.000 6     -2461.035 6        37.977 6
G27  21950304.008 9 115349599.420 9      2493.495 9        55.396 9  21950305.921 6         0.000 6      1942.984 6        37.977 6
G16  20485641.857 9 107652754.249 9       496.495 9        55.981 9  20485641.030 6         0.000 6       386.879 6        37.977 6
G26  20687305.390 9 108712501.092 9     -1545.811 9        55.859 9  20687308.219 6         0.000 6     -1204.529 6        37.977 6
G20  21889582.341 9 115030498.999 9      2500.727 9        55.337 9  21889582.631 6         0.000 6      1948.620 6        37.977 6
> 2019 07 03 12 02 54.0000000  0  8       0.000000000000
G07  25299379.641 9 132949091.658 9      2146.706 9        54.148 9  25299380.286 6         0.000 6      1672.759 6        37.977 6
G10  23733167.482 9 124718583.431 9      3504.281 9        54.697 9  23733171.135 6         0.000 6      2730.611 6        37.977 6
G21  21198847.917 9 111400676.942 9     -1302.280 9        55.698 9  21198847.208 6         0.000 6     -1014.764 6        37.977 6
G29  24368707.340 9 128058363.824 9     -3158.409 9        54.450 9  24368708.988 6         0.000 6     -2461.101 6        37.977 6
G27  21949829.535 9 115347106.051 9      2493.248 9        55.396 9  21949831.448 6         0.000 6      1942.792 6        37.977 6
G16  20485547.437 9 107652258.065 9       495.872 9        55.982 9  20485546.610 6         0.000 6       386.394 6        37.977 6
G26  20687599.602 9 108714047.188 9     -1546.384 9        55.859 9  20687602.431 6         0.000 6     -1204.975 6        37.977 6
G20  21889106.512 9 115027998.503 9      2500.272 9        55.337 9  21889106.802 6         0.000 6      1948.265 6        37.977 6
> 2019 07 03 12 02 55.0000000  0  8       0.000000000000
G07  25298971.181 9 132946945.187 9      2146.242 9        54.148 9  25298971.825 6         0.000 6      1672.398 6        37.977 6
G10  23732500.654 9 124715079.236 9      3504.131 9        54.697 9  23732504.306 6         0.000 6      2730.494 6        37.977 6
G21  21199095.767 9 111401979.401 9     -1302.639 9        55.698 9  21199095.058 6         0.000 6     -1015.044 6        37.977 6
G29  24369308.374 9 128061522.264 9     -3158.493 9        54.450 9  24369310.022 6         0.000 6     -2461.166 6        37.977 6
G27  21949355.109 9 115344612.928 9      2493.002 9        55.396 9  21949357.022 6         0.000 6      1942.600 6        37.977 6
G16  20485453.135 9 107651762.505 9       495.248 9        55.982 9  20485452.308 6         0.000 6       385.908 6        37.977 6
G26  20687893.924 9 108715593.857 9     -1546.957 9        55.859 9  20687896.753 6         0.000 6     -1205.421 6        37.977 6
G20  21888630.769 9 115025498.463 9      2499.817 9        55.337 9  21888631.059 6         0.000 6      1947.911 6        37.977 6
> 2019 07 03 12 02 56.0000000  0  8       0.000000000000
G07  25298562.808 9 132944799.180 9      2145.779 9        54.148 9  25298563.453 6         0.000 6      1672.036 6        37.977 6
G10  23731833.855 9 124711575.191 9      3503.980 9        54.698 9  23731837.506 6         0.000 6      2730.377 6        37.977 6
G21  21199343.685 9 111403282.219 9     -1302.998 9        55.698 9  21199342.976 6         0.000 6     -1015.324 6        37.977 6
G29  24369909.423 9 128064680.789 9     -3158.577 9        54.450 9  24369911.071 6         0.000 6     -2461.231 6        37.977 6
G27  21948880.730 9 115342120.053 9      2492.755 9        55.396 9  21948882.643 6         0.000 6      1942.407 6        37.977 6
G16  20485358.952 9 107651267.569 9       494.625 9        55.982 9  20485358.124 6         0.000 6       385.422 6        37.977 6
G26  20688188.355 9 108717141.098 9     -1547.530 9        55.859 9  20688191.184 6         0.000 6     -1205.868 6        37.977 6
G20  21888155.113 9 115022998.877 9      2499.362 9        55.338 9  21888155.402 6         0.000 6      1947.556 6        37.977 6
> 2019 07 03 12 02 57.0000000  0  8       0.000000000000
G07  25298154.524 9 132942653.636 9      2145.315 9        54.148 9  25298155.168 6         0.000 6      1671.675 6        37.977 6
G10  23731167.084 9 124708071.297 9      3503.829 9        54.698 9  23731170.734 6         0.000 6      2730.259 6        37.977 6
G21  21199591.672 9 111404585.396 9     -1303.358 9        55.697 9  21199590.962 6         0.000 6     -1015.603 6        37.977 6
G29  24370510.488 9 128067839.397 9     -3158.661 9        54.450 9  24370512.137 6         0.000 6     -2461.297 6        37.977 6
G27  21948406.398 9 115339627.423 9      2492.509 9        55.397 9  21948408.311 6         0.000 6      1942.215 6        37.977 6
G16  20485264.887 9 107650773.256 9       494.001 9        55.982 9  20485264.060 6         0.000 6       384.936 6        37.977 6
G26  20688482.894 9 108718688.913 9     -1548.102 9        55.859 9  20688485.724 6         0.000 6     -1206.314 6        37.977 6
G20  21887679.543 9 115020499.746 9      2498.907 9        55.338 9  21887679.832 6         0.000 6      1947.202 6        37.977 6
> 2019 07 03 12 02 58.0000000  0  8       0.000000000000
G07  25297746.329 9 132940508.557 9      2144.851 9        54.148 9  25297746.972 6         0.000 6      1671.314 6        37.977 6
G10  23730500.342 9 124704567.554 9      3503.678 9        54.698 9  23730503.992 6         0.000 6      2730.142 6        37.977 6
G21  21199839.726 9 111405888.932 9     -1303.717 9        55.697 9  21199839.017 6         0.000 6     -1015.883 6        37.977 6
G29  24371111.569 9 128070998.090 9     -3158.745 9        54.449 9  24371113.219 6         0.000 6     -2461.362 6        37.977 6
G27  21947932.113 9 115337135.040 9      2492.262 9        55.397 9  21947934.025 6         0.000 6      1942.023 6        37.977 6
G16  20485170.941 9 107650279.567 9       493.377 9        55.982 9  20485170.114 6         0.000 6       384.450 6        37.977 6
G26  20688777.543 9 108720237.300 9     -1548.675 9        55.859 9  20688780.372 6         0.000 6     -1206.760 6        37.977 6
G20  21887204.060 9 115018001.071 9      2498.452 9        55.338 9  21887204.349 6         0.000 6      1946.847 6        37.977 6
> 2019 07 03 12 02 59.0000000  0  8       0.000000000000
G07  25297338.221 9 132938363.941 9      2144.387 9        54.149 9  25297338.865 6         0.000 6      1670.952 6        37.977 6
G10  23729833.628 9 124701063.961 9      3503.527 9        54.698 9  23729837.278 6         0.000 6      2730.024 6        37.977 6
G21  21200087.850 9 111407192.828 9     -1304.076 9        55.697 9  21200087.140 6         0.000 6     -1016.163 6        37.977 6
G29  24371712.666 9 128074156.866 9     -3158.829 9        54.449 9  24371714.317 6         0.000 6     -2461.428 6        37.977 6
G27  21947457.874 9 115334642.904 9      2492.016 9        55.397 9  21947459.787 6         0.000 6      1941.831 6        37.977 6
G16  20485077.114 9 107649786.501 9       492.754 9        55.982 9  20485076.287 6         0.000 6       383.964 6        37.977 6
G26  20689072.300 9 108721786.259 9     -1549.248 9        55.859 9  20689075.130 6         0.000 6     -1207.207 6        37.977 6
G20  21886728.664 9 115015502.851 9      2497.997 9        55.338 9  21886728.953 6         0.000 6      1946.492 6        37.977 6
> 2019 07 03 12 03  0.0000000  0  8       0.000000000000
G07  25296930.202 9 132936219.789 9      2143.923 9        54.149 9  25296930.845 6         0.000 6      1670.591 6        37.977 6
G10  23729166.943 9 124697560.520 9      3503.376 9        54.699 9  23729170.592 6         0.000 6      2729.906 6        37.977 6
G21  21200336.041 9 111408497.082 9     -1304.435 9        55.697 9  21200335.332 6         0.000 6     -1016.443 6        37.977 6
G29  24372313.779 9 128077315.726 9     -3158.913 9        54.449 9  24372315.431 6         0.000 6     -2461.493 6        37.977 6
G27  21946983.683 9 115332151.014 9      2491.769 9        55.397 9  21946985.595 6         0.000 6      1941.639 6        37.977 6
G16  20484983.405 9 107649294.060 9       492.130 9        55.982 9  20484982.578 6         0.000 6       383.478 6        37.977 6
G26  20689367.167 9 108723335.792 9     -1549.820 9        55.858 9  20689369.997 6         0.000 6     -1207.653 6        37.977 6
G20  21886253.354 9 115013005.086 9      2497.541 9        55.338 9  21886253.643 6         0.000 6      1946.137 6        37.977 6
> 2019 07 03 12 03  1.0000000  0  8       0.000000000000
G07  25296522.271 9 132934076.101 9      2143.459 9        54.149 9  25296522.914 6         0.000 6      1670.229 6        37.977 6
G10  23728500.287 9 124694057.229 9      3503.225 9        54.699 9  23728503.936 6         0.000 6      2729.788 6        37.977 6
G21  21200584.301 9 111409801.695 9     -1304.793 9        55.697 9  21200583.592 6         0.000 6     -1016.722 6        37.977 6
G29  24372914.909 9 128080474.670 9     -3158.997 9        54.449 9  24372916.560 6         0.000 6     -2461.558 6        37.977 6
G27  21946509.539 9 115329659.371 9      2491.522 9        55.397 9  21946511.451 6         0.000 6      1941.447 6        37.977 6
G16  20484889.815 9 107648802.242 9       491.506 9        55.982 9  20484888.988 6         0.000 6       382.992 6        37.977 6
G26  20689662.143 9 108724885.896 9     -1550.393 9        55.858 9  20689664.972 6         0.000 6     -1208.099 6        37.977 6
G20  21885778.131 9 115010507.777 9      2497.086 9        55.338 9  21885778.419 6         0.000 6      1945.782 6        37.977 6
> 2019 07 03 12 03  2.0000000  0  8       0.000000000000
G07  25296114.428 9 132931932.877 9      2142.995 9        54.149 9  25296115.071 6         0.000 6      1669.867 6        37.977 6
G10  23727833.660 9 124690554.090 9      3503.074 9        54.699 9  23727837.308 6         0.000 6      2729.670 6        37.977 6
G21  21200832.629 9 111411106.667 9     -1305.152 9        55.697 9  21200831.920 6         0.000 6     -1017.002 6        37.977 6
G29  24373516.054 9 128083633.698 9     -3159.080 9        54.449 9  24373517.706 6         0.000 6     -2461.624 6        37.977 6
G27  21946035.441 9 115327167.975 9      2491.276 9        55.397 9  21946037.353 6         0.000 6      1941.254 6        37.977 6
G16  20484796.344 9 107648311.047 9       490.882 9        55.982 9  20484795.517 6         0.000 6       382.506 6        37.977 6
G26  20689957.227 9 108726436.574 9     -1550.966 9        55.858 9  20689960.057 6         0.000 6     -1208.545 6        37.977 6
G20  21885302.995 9 115008010.923 9      2496.630 9        55.339 9  21885303.283 6         0.000 6      1945.427 6        37.977 6
> 2019 07 03 12 03  3.0000000  0  8       0.000000000000
G07  25295706.674 9 132929790.118 9      2142.531 9        54.149 9  25295707.317 6         0.000 6      1669.506 6        37.977 6
G10  23727167.062 9 124687051.103 9      3502.922 9        54.699 9  23727170.709 6         0.000 6      2729.553 6        37.977 6
G21  21201081.025 9 111412411.998 9     -1305.511 9        55.697 9  21201080.316 6         0.000 6     -1017.282 6        37.977 6
G29  24374117.215 9 128086792.810 9     -3159.164 9        54.448 9  24374118.868 6         0.000 6     -2461.689 6        37.977 6
G27  21945561.391 9 115324676.826 9      2491.029 9        55.398 9  21945563.303 6         0.000 6      1941.062 6        37.977 6
G16  20484702.992 9 107647820.477 9       490.258 9        55.982 9  20484702.165 6         0.000 6       382.020 6        37.977 6
G26  20690252.420 9 108727987.824 9     -1551.538 9        55.858 9  20690255.250 6         0.000 6     -1208.991 6        37.977 6
G20  21884827.945 9 115005514.525 9      2496.175 9        55.339 9  21884828.233 6         0.000 6      1945.072 6        37.977 6
> 2019 07 03 12 03  4.0000000  0  8       0.000000000000
G07  25295299.008 9 132927647.822 9      2142.067 9        54.149 9  25295299.651 6         0.000 6      1669.144 6        37.977 6
G10  23726500.492 9 124683548.266 9      3502.771 9        54.700 9  23726504.139 6         0.000 6      2729.434 6        37.977 6
G21  21201329.490 9 111413717.688 9     -1305.870 9        55.697 9  21201328.781 6         0.000 6     -1017.561 6        37.977 6
G29  24374718.392 9 128089952.006 9     -3159.248 9        54.448 9  24374720.045 6         0.000 6     -2461.754 6        37.977 6
G27  21945087.387 9 115322185.923 9      2490.782 9        55.398 9  21945089.299 6         0.000 6      1940.870 6        37.977 6
G16  20484609.758 9 107647330.530 9       489.635 9        55.982 9  20484608.931 6         0.000 6       381.533 6        37.977 6
G26  20690547.723 9 108729539.647 9     -1552.111 9        55.858 9  20690550.553 6         0.000 6     -1209.437 6        37.977 6
G20  21884352.982 9 115003018.582 9      2495.719 9        55.339 9  21884353.270 6         0.000 6      1944.717 6        37.977 6
> 2019 07 03 12 03  5.0000000  0  8       0.000000000000
G07  25294891.431 9 132925505.991 9      2141.602 9        54.149 9  25294892.073 6         0.000 6      1668.782 6        37.977 6
G10  23725833.952 9 124680045.581 9      3502.619 9        54.700 9  23725837.597 6         0.000 6      2729.316 6        37.977 6
G21  21201578.023 9 111415023.736 9     -1306.228 9        55.697 9  21201577.314 6         0.000 6     -1017.841 6        37.977 6
G29  24375319.584 9 128093111.285 9     -3159.332 9        54.448 9  24375321.239 6         0.000 6     -2461.820 6        37.977 6
G27  21944613.431 9 115319695.267 9      2490.535 9        55.398 9  21944615.342 6         0.000 6      1940.677 6        37.977 6
G16  20484516.643 9 107646841.208 9       489.011 9        55.982 9  20484515.816 6         0.000 6       381.047 6        37.977 6
G26  20690843.134 9 108731092.042 9     -1552.683 9        55.858 9  20690845.964 6         0.000 6     -1209.883 6        37.977 6
G20  21883878.106 9 115000523.096 9      2495.263 9        55.339 9  21883878.393 6         0.000 6      1944.362 6        37.977 6
> 2019 07 03 12 03  6.0000000  0  8       0.000000000000
G07  25294483.941 9 132923364.625 9      2141.138 9        54.150 9  25294484.584 6         0.000 6      1668.420 6        37.977 6
G10  23725167.440 9 124676543.048 9      3502.468 9        54.700 9  23725171.085 6         0.000 6      2729.198 6        37.977 6
G21  21201826.624 9 111416330.143 9     -1306.587 9        55.697 9  21201825.915 6         0.000 6     -1018.120 6        37.977 6
G29  24375920.793 9 128096270.649 9     -3159.416 9        54.448 9  24375922.448 6         0.000 6     -2461.885 6        37.977 6
G27  21944139.521 9 115317204.858 9      2490.288 9        55.398 9  21944141.432 6         0.000 6      1940.485 6        37.977 6
G16  20484423.647 9 107646352.509 9       488.387 9        55.982 9  20484422.820 6         0.000 6       380.561 6        37.977 6
G26  20691138.654 9 108732645.009 9     -1553.256 9        55.858 9  20691141.485 6         0.000 6     -1210.329 6        37.977 6
G20  21883403.317 9 114998028.065 9      2494.807 9        55.339 9  21883403.604 6         0.000 6      1944.007 6        37.977 6
> 2019 07 03 12 03  7.0000000  0  8       0.000000000000
G07  25294076.541 9 132921223.722 9      2140.674 9        54.150 9  25294077.183 6         0.000 6      1668.058 6        37.977 6
G10  23724500.957 9 124673040.667 9      3502.316 9        54.700 9  23724504.601 6         0.000 6      2729.080 6        37.977 6
G21  21202075.293 9 111417636.909 9     -1306.946 9        55.696 9  21202074.584 6         0.000 6     -1018.399 6        37.977 6
G29  24376522.018 9 128099430.096 9     -3159.499 9        54.448 9  24376523.674 6         0.000 6     -2461.950 6        37.977 6
G27  21943665.658 9 115314714.696 9      2490.041 9        55.398 9  21943667.570 6         0.000 6      1940.293 6        37.977 6
G16  20484330.769 9 107645864.434 9       487.763 9        55.982 9  20484329.942 6         0.000 6       380.075 6        37.977 6
G26  20691434.283 9 108734198.549 9     -1553.828 9        55.858 9  20691437.114 6         0.000 6     -1210.775 6        37.977 6
G20  21882928.614 9 114995533.490 9      2494.351 9        55.340 9  21882928.901 6         0.000 6      1943.651 6        37.977 6
> 2019 07 03 12 03  8.0000000  0  8       0.000000000000
G07  25293669.228 9 132919083.285 9      2140.209 9        54.150 9  25293669.870 6         0.000 6      1667.696 6        37.977 6
G10  23723834.503 9 124669538.438 9      3502.164 9        54.701 9  23723838.146 6         0.000 6      2728.961 6        37.977 6
G21  21202324.031 9 111418944.033 9     -1307.304 9        55.696 9  21202323.322 6         0.000 6     -1018.679 6        37.977 6
G29  24377123.259 9 128102589.626 9     -3159.583 9        54.447 9  24377124.915 6         0.000 6     -2462.015 6        37.977 6
G27  21943191.843 9 115312224.781 9      2489.794 9        55.399 9  21943193.754 6         0.000 6      1940.100 6        37.977 6
G16  20484238.010 9 107645376.983 9       487.139 9        55.982 9  20484237.183 6         0.000 6       379.589 6        37.977 6
G26  20691730.022 9 108735752.661 9     -1554.400 9        55.857 9  20691732.852 6         0.000 6     -1211.221 6        37.977 6
G20  21882453.998 9 114993039.371 9      2493.895 9        55.340 9  21882454.285 6         0.000 6      1943.296 6        37.977 6
> 2019 07 03 12 03  9.0000000  0  8       0.000000000000
G07  25293262.004 9 132916943.311 9      2139.744 9        54.150 9  25293262.646 6         0.000 6      1667.334 6        37.977 6
G10  23723168.078 9 124666036.360 9      3502.012 9        54.701 9  23723171.721 6         0.000 6      2728.843 6        37.977 6
G21  21202572.837 9 111420251.516 9     -1307.663 9        55.696 9  21202572.128 6         0.000 6     -1018.958 6        37.977 6
G29  24377724.515 9 128105749.241 9     -3159.667 9        54.447 9  24377726.172 6         0.000 6     -2462.081 6        37.977 6
G27  21942718.074 9 115309735.112 9      2489.547 9        55.399 9  21942719.985 6         0.000 6      1939.908 6        37.977 6
G16  20484145.370 9 107644890.157 9       486.515 9        55.982 9  20484144.543 6         0.000 6       379.102 6        37.977 6
G26  20692025.869 9 108737307.346 9     -1554.973 9        55.857 9  20692028.699 6         0.000 6     -1211.667 6        37.977 6
G20  21881979.469 9 114990545.709 9      2493.439 9        55.340 9  21881979.755 6         0.000 6      1942.940 6        37.977 6
> 2019 07 03 12 03 10.0000000  0  8       0.000000000000
G07  25292854.869 9 132914803.803 9      2139.280 9        54.150 9  25292855.510 6         0.000 6      1666.972 6        37.977 6
G10  23722501.681 9 124662534.435 9      3501.860 9        54.701 9  23722505.324 6         0.000 6      2728.724 6        37.977 6
G21  21202821.711 9 111421559.357 9     -1308.021 9        55.696 9  21202821.002 6         0.000 6     -1019.237 6        37.977 6
G29  24378325.788 9 128108908.939 9     -3159.750 9        54.447 9  24378327.446 6         0.000 6     -2462.146 6        37.977 6
G27  21942244.352 9 115307245.691 9      2489.300 9        55.399 9  21942246.263 6         0.000 6      1939.715 6        37.977 6
G16  20484052.849 9 107644403.954 9       485.891 9        55.982 9  20484052.022 6         0.000 6       378.616 6        37.977 6
G26  20692321.824 9 108738862.602 9     -1555.545 9        55.857 9  20692324.655 6         0.000 6     -1212.113 6        37.977 6
G20  21881505.027 9 114988052.503 9      2492.982 9        55.340 9  21881505.313 6         0.000 6      1942.585 6        37.977 6
> 2019 07 03 12 03 11.0000000  0  8       0.000000000000
G07  25292447.821 9 132912664.759 9      2138.815 9        54.150 9  25292448.463 6         0.000 6      1666.610 6        37.977 6
G10  23721835.314 9 124659032.661 9      3501.707 9        54.701 9  23721838.956 6         0.000 6      2728.606 6        37.977 6
G21  21203070.653 9 111422867.556 9     -1308.379 9        55.696 9  21203069.944 6         0.000 6     -1019.517 6        37.977 6
G29  24378927.076 9 128112068.720 9     -3159.834 9        54.447 9  24378928.735 6         0.000 6     -2462.211 6        37.977 6
G27  21941770.678 9 115304756.517 9      2489.053 9        55.399 9  21941772.589 6         0.000 6      1939.523 6        37.977 6
G16  20483960.447 9 107643918.376 9       485.266 9        55.982 9  20483959.619 6         0.000 6       378.130 6        37.977 6
G26  20692617.889 9 108740418.432 9     -1556.117 9        55.857 9  20692620.720 6         0.000 6     -1212.559 6        37.977 6
G20  21881030.672 9 114985559.753 9      2492.526 9        55.340 9  21881030.957 6         0.000 6      1942.229 6        37.977 6
> 2019 07 03 12 03 12.0000000  0  8       0.000000000000
G07  25292040.863 9 132910526.180 9      2138.350 9        54.150 9  25292041.504 6         0.000 6      1666.248 6        37.977 6
G10  23721168.976 9 124655531.040 9      3501.555 9        54.702 9  23721172.617 6         0.000 6      2728.487 6        37.977 6
G21  21203319.663 9 111424176.114 9     -1308.738 9        55.696 9  21203318.955 6         0.000 6     -1019.796 6        37.977 6
G29  24379528.381 9 128115228.586 9     -3159.918 9        54.446 9  24379530.040 6         0.000 6     -2462.276 6        37.977 6
G27  21941297.050 9 115302267.590 9      2488.806 9        55.399 9  21941298.961 6         0.000 6      1939.330 6        37.977 6
G16  20483868.163 9 107643433.421 9       484.642 9        55.982 9  20483867.336 6         0.000 6       377.643 6        37.977 6
G26  20692914.063 9 108741974.833 9     -1556.689 9        55.857 9  20692916.894 6         0.000 6     -1213.005 6        37.977 6
G20  21880556.403 9 114983067.459 9      2492.069 9        55.341 9  21880556.689 6         0.000 6      1941.873 6        37.977 6
> 2019 07 03 12 03 13.0000000  0  8       0.000000000000
G07  25291633.993 9 132908388.066 9      2137.885 9        54.151 9  25291634.633 6         0.000 6      1665.885 6        37.977 6
G10  23720502.667 9 124652029.572 9      3501.403 9        54.702 9  23720506.307 6         0.000 6      2728.368 6        37.977 6
G21  21203568.742 9 111425485.030 9     -1309.096 9        55.696 9  21203568.033 6         0.000 6     -1020.075 6        37.977 6
G29  24380129.701 9 128118388.535 9     -3160.001 9        54.446 9  24380131.361 6         0.000 6     -2462.341 6        37.977 6
G27  21940823.470 9 115299778.910 9      2488.559 9        55.400 9  21940825.380 6         0.000 6      1939.138 6        37.977 6
G16  20483775.998 9 107642949.091 9       484.018 9        55.982 9  20483775.171 6         0.000 6       377.157 6        37.977 6
G26  20693210.345 9 108743531.806 9     -1557.261 9        55.857 9  20693213.176 6         0.000 6     -1213.451 6        37.977 6
G20  21880082.222 9 114980575.622 9      2491.613 9        55.341 9  21880082.507 6         0.000 6      1941.518 6        37.977 6
> 2019 07 03 12 03 14.0000000  0  8       0.000000000000
G07  25291227.211 9 132906250.417 9      2137.420 9        54.151 9  25291227.851 6         0.000 6      1665.523 6        37.977 6
G10  23719836.386 9 124648528.256 9      3501.250 9        54.702 9  23719840.026 6         0.000 6      2728.249 6        37.977 6
G21  21203817.889 9 111426794.304 9     -1309.454 9        55.696 9  21203817.180 6         0.000 6     -1020.354 6        37.977 6
G29  24380731.037 9 128121548.567 9     -3160.085 9        54.446 9  24380732.698 6         0.000 6     -2462.406 6        37.977 6
G27  21940349.936 9 115297290.477 9      2488.312 9        55.400 9  21940351.846 6         0.000 6      1938.945 6        37.977 6
G16  20483683.952 9 107642465.385 9       483.394 9        55.982 9  20483683.125 6         0.000 6       376.670 6        37.977 6
G26  20693506.737 9 108745089.352 9     -1557.833 9        55.857 9  20693509.568 6         0.000 6     -1213.897 6        37.977 6
G20  21879608.127 9 114978084.242 9      2491.156 9        55.341 9  21879608.412 6         0.000 6      1941.162 6        37.977 6
> 2019 07 03 12 03 15.0000000  0  8       0.000000000000
G07  25290820.518 9 132904113.233 9      2136.955 9        54.151 9  25290821.158 6         0.000 6      1665.161 6        37.977 6
G10  23719170.135 9 124645027.092 9      3501.097 9        54.702 9  23719173.774 6         0.000 6      2728.131 6        37.977 6
G21  21204067.103 9 111428103.936 9     -1309.812 9        55.696 9  21204066.395 6         0.000 6     -1020.633 6        37.977 6
G29  24381332.389 9 128124708.683 9     -3160.168 9        54.446 9  24381334.050 6         0.000 6     -2462.472 6        37.977 6
G27  21939876.450 9 115294802.292 9      2488.065 9        55.400 9  21939878.360 6         0.000 6      1938.752 6        37.977 6
G16  20483592.024 9 107641982.304 9       482.770 9        55.982 9  20483591.197 6         0.000 6       376.184 6        37.977 6
G26  20693803.237 9 108746647.469 9     -1558.405 9        55.857 9  20693806.068 6         0.000 6     -1214.342 6        37.977 6
G20  21879134.119 9 114975593.319 9      2490.699 9        55.341 9  21879134.404 6         0.000 6      1940.806 6        37.977 6
> 2019 07 03 12 03 16.0000000  0  8       0.000000000000
G07  25290413.913 9 132901976.515 9      2136.490 9        54.151 9  25290414.553 6         0.000 6      1664.798 6        37.977 6
G10  23718503.913 9 124641526.082 9      3500.945 9        54.703 9  23718507.551 6         0.000 6      2728.011 6        37.977 6
G21  21204316.386 9 111429413.926 9     -1310.170 9        55.695 9  21204315.678 6         0.000 6     -1020.912 6        37.977 6
G29  24381933.757 9 128127868.883 9     -3160.252 9        54.446 9  24381935.419 6         0.000 6     -2462.537 6        37.977 6
G27  21939403.010 9 115292314.353 9      2487.817 9        55.400 9  21939404.920 6         0.000 6      1938.560 6        37.977 6
G16  20483500.216 9 107641499.846 9       482.145 9        55.982 9  20483499.389 6         0.000 6       375.698 6        37.977 6
G26  20694099.846 9 108748206.159 9     -1558.978 9        55.856 9  20694102.678 6         0.000 6     -1214.788 6        37.977 6
G20  21878660.198 9 114973102.852 9      2490.243 9        55.341 9  21878660.482 6         0.000 6      1940.450 6        37.977 6
> 2019 07 03 12 03 17.0000000  0  8       0.000000000000
G07  25290007.397 9 132899840.261 9      2136.024 9        54.151 9  25290008.036 6         0.000 6      1664.436 6        37.977 6
G10  23717837.720 9 124638025.224 9      3500.792 9        54.703 9  23717841.358 6         0.000 6      2727.892 6        37.977 6
G21  21204565.738 9 111430724.275 9     -1310.528 9        55.695 9  21204565.029 6         0.000 6     -1021.191 6        37.977 6
G29  24382535.141 9 128131029.166 9     -3160.335 9        54.445 9  24382536.803 6         0.000 6     -2462.602 6        37.977 6
G27  21938929.618 9 115289826.662 9      2487.570 9        55.400 9  21938931.528 6         0.000 6      1938.367 6        37.977 6
G16  20483408.526 9 107641018.013 9       481.521 9        55.982 9  20483407.699 6         0.000 6       375.211 6        37.977 6
G26  20694396.564 9 108749765.420 9     -1559.549 9        55.856 9  20694399.396 6         0.000 6     -1215.234 6        37.977 6
G20  21878186.364 9 114970612.842 9      2489.786 9        55.341 9  21878186.648 6         0.000 6      1940.094 6        37.977 6
> 2019 07 03 12 03 18.0000000  0  8       0.000000000000
G07  25289600.969 9 132897704.473 9      2135.559 9        54.151 9  25289601.609 6         0.000 6      1664.073 6        37.977 6
G10  23717171.556 9 124634524.519 9      3500.639 9        54.703 9  23717175.193 6         0.000 6      2727.773 6        37.977 6
G21  21204815.157 9 111432034.981 9     -1310.886 9        55.695 9  21204814.449 6         0.000 6     -1021.470 6        37.977 6
G29  24383136.541 9 128134189.532 9     -3160.419 9        54.445 9  24383138.204 6         0.000 6     -2462.667 6        37.977 6
G27  21938456.273 9 115287339.219 9      2487.323 9        55.400 9  21938458.182 6         0.000 6      1938.174 6        37.977 6
G16  20483316.955 9 107640536.805 9       480.896 9        55.982 9  20483316.128 6         0.000 6       374.725 6        37.977 6
G26  20694693.391 9 108751325.254 9     -1560.121 9        55.856 9  20694696.223 6         0.000 6     -1215.680 6        37.977 6
G20  21877712.617 9 114968123.290 9      2489.328 9        55.342 9  21877712.901 6         0.000 6      1939.738 6        37.977 6
> 2019 07 03 12 03 19.0000000  0  8       0.000000000000
G07  25289194.630 9 132895569.150 9      2135.094 9        54.151 9  25289195.269 6         0.000 6      1663.710 6        37.977 6
G10  23716505.421 9 124631023.966 9      3500.486 9        54.703 9  23716509.058 6         0.000 6      2727.654 6        37.977 6
G21  21205064.644 9 111433346.045 9     -1311.244 9        55.695 9  21205063.936 6         0.000 6     -1021.749 6        37.977 6
G29  24383737.957 9 128137349.982 9     -3160.502 9        54.445 9  24383739.620 6         0.000 6     -2462.732 6        37.977 6
G27  21937982.974 9 115284852.022 9      2487.075 9        55.401 9  21937984.884 6         0.000 6      1937.981 6        37.977 6
G16  20483225.503 9 107640056.220 9       480.272 9        55.983 9  20483224.676 6         0.000 6       374.238 6        37.977 6
G26  20694990.327 9 108752885.660 9     -1560.693 9        55.856 9  20694993.158 6         0.000 6     -1216.125 6        37.977 6
G20  21877238.957 9 114965634.194 9      2488.871 9        55.342 9  21877239.241 6         0.000 6      1939.381 6        37.977 6
> 2019 07 03 12 03 20.0000000  0  8       0.000000000000
G07  25288788.379 9 132893434.292 9      2134.628 9        54.151 9  25288789.018 6         0.000 6      1663.348 6        37.977 6
G10  23715839.315 9 124627523.568 9      3500.333 9        54.704 9  23715842.951 6         0.000 6      2727.535 6        37.977 6
G21  21205314.200 9 111434657.468 9     -1311.602 9        55.695 9  21205313.492 6         0.000 6     -1022.028 6        37.977 6
G29  24384339.388 9 128140510.516 9     -3160.586 9        54.445 9  24384341.052 6         0.000 6     -2462.797 6        37.977 6
G27  21937509.723 9 115282365.073 9      2486.828 9        55.401 9  21937511.632 6         0.000 6      1937.789 6        37.977 6
G16  20483134.170 9 107639576.261 9       479.648 9        55.983 9  20483133.342 6         0.000 6       373.751 6        37.977 6
G26  20695287.371 9 108754446.637 9     -1561.265 9        55.856 9  20695290.203 6         0.000 6     -1216.571 6        37.977 6
G20  21876765.384 9 114963145.556 9      2488.414 9        55.342 9  21876765.668 6         0.000 6      1939.025 6        37.977 6
> 2019 07 03 12 03 21.0000000  0  8       0.000000000000
G07  25288382.217 9 132891299.900 9      2134.163 9        54.152 9  25288382.856 6         0.000 6      1662.985 6        37.977 6
G10  23715173.239 9 124624023.322 9      3500.179 9        54.704 9  23715176.874 6         0.000 6      2727.415 6        37.977 6
G21  21205563.823 9 111435969.248 9     -1311.960 9        55.695 9  21205563.115 6         0.000 6     -1022.306 6        37.977 6
G29  24384940.836 9 128143671.133 9     -3160.669 9        54.445 9  24384942.500 6         0.000 6     -2462.862 6        37.977 6
G27  21937036.519 9 115279878.372 9      2486.580 9        55.401 9  21937038.428 6         0.000 6      1937.596 6        37.977 6
G16  20483042.955 9 107639096.925 9       479.023 9        55.983 9  20483042.128 6         0.000 6       373.265 6        37.977 6
G26  20695584.524 9 108756008.186 9     -1561.837 9        55.856 9  20695587.356 6         0.000 6     -1217.016 6        37.977 6
G20  21876291.899 9 114960657.375 9      2487.957 9        55.342 9  21876292.181 6         0.000 6      1938.669 6        37.977 6
> 2019 07 03 12 03 22.0000000  0  8       0.000000000000
G07  25287976.144 9 132889165.973 9      2133.697 9        54.152 9  25287976.783 6         0.000 6      1662.622 6        37.977 6
G10  23714507.191 9 124620523.229 9      3500.026 9        54.704 9  23714510.826 6         0.000 6      2727.296 6        37.977 6
G21  21205813.515 9 111437281.385 9     -1312.317 9        55.695 9  21205812.807 6         0.000 6     -1022.585 6        37.977 6
G29  24385542.299 9 128146831.833 9     -3160.752 9        54.444 9  24385543.964 6         0.000 6     -2462.927 6        37.977 6
G27  21936563.362 9 115277391.918 9      2486.333 9        55.401 9  21936565.271 6         0.000 6      1937.403 6        37.977 6
G16  20482951.860 9 107638618.214 9       478.399 9        55.983 9  20482951.032 6         0.000 6       372.778 6        37.977 6
G26  20695881.787 9 108757570.307 9     -1562.409 9        55.856 9  20695884.619 6         0.000 6     -1217.462 6        37.977 6
G20  21875818.500 9 114958169.651 9      2487.499 9        55.342 9  21875818.782 6         0.000 6      1938.312 6        37.977 6
> 2019 07 03 12 03 23.0000000  0  8       0.000000000000
G07  25287570.159 9 132887032.513 9      2133.231 9        54.152 9  25287570.798 6         0.000 6      1662.259 6        37.977 6
G10  23713841.173 9 124617023.291 9      3499.872 9        54.704 9  23713844.807 6         0.000 6      2727.176 6        37.977 6
G21  21206063.275 9 111438593.881 9     -1312.675 9        55.695 9  21206062.567 6         0.000 6     -1022.864 6        37.977 6
G29  24386143.778 9 128149992.617 9     -3160.836 9        54.444 9  24386145.444 6         0.000 6     -2462.992 6        37.977 6
G27  21936090.252 9 115274905.712 9      2486.085 9        55.401 9  21936092.161 6         0.000 6      1937.210 6        37.977 6
G16  20482860.883 9 107638140.128 9       477.774 9        55.983 9  20482860.056 6         0.000 6       372.291 6        37.977 6
G26  20696179.157 9 108759133.000 9     -1562.981 9        55.856 9  20696181.990 6         0.000 6     -1217.907 6        37.977 6
G20  21875345.188 9 114955682.385 9      2487.042 9        55.343 9  21875345.470 6         0.000 6      1937.956 6        37.977 6
> 2019 07 03 12 03 24.0000000  0  8       0.000000000000
G07  25287164.263 9 132884899.518 9      2132.766 9        54.152 9  25287164.901 6         0.000 6      1661.896 6        37.977 6
G10  23713175.184 9 124613523.505 9      3499.719 9        54.705 9  23713178.818 6         0.000 6      2727.056 6        37.977 6
G21  21206313.102 9 111439906.734 9     -1313.033 9        55.695 9  21206312.394 6         0.000 6     -1023.142 6        37.977 6
G29  24386745.273 9 128153153.483 9     -3160.919 9        54.444 9  24386746.940 6         0.000 6     -2463.057 6        37.977 6
G27  21935617.190 9 115272419.753 9      2485.838 9        55.402 9  21935619.098 6         0.000 6      1937.017 6        37.977 6
G16  20482770.025 9 107637662.666 9       477.149 9        55.983 9  20482769.198 6         0.000 6       371.805 6        37.977 6
G26  20696476.637 9 108760696.265 9     -1563.552 9        55.855 9  20696479.470 6         0.000 6     -1218.353 6        37.977 6
G20  21874871.963 9 114953195.576 9      2486.584 9        55.343 9  21874872.245 6         0.000 6      1937.599 6        37.977 6
> 2019 07 03 12 03 25.0000000  0  8       0.000000000000
G07  25286758.456 9 132882766.988 9      2132.300 9        54.152 9  25286759.094 6         0.000 6      1661.533 6        37.977 6
G10  23712509.224 9 124610023.873 9      3499.565 9        54.705 9  23712512.857 6         0.000 6      2726.937 6        37.977 6
G21  21206562.998 9 111441219.944 9     -1313.390 9        55.695 9  21206562.290 6         0.000 6     -1023.421 6        37.977 6
G29  24387346.784 9 128156314.434 9     -3161.002 9        54.444 9  24387348.451 6         0.000 6     -2463.121 6        37.977 6
G27  21935144.174 9 115269934.042 9      2485.590 9        55.402 9  21935146.082 6         0.000 6      1936.824 6        37.977 6
G16  20482679.286 9 107637185.829 9       476.525 9        55.983 9  20482678.459 6         0.000 6       371.318 6        37.977 6
G26  20696774.226 9 108762260.101 9     -1564.124 9        55.855 9  20696777.058 6         0.000 6     -1218.798 6        37.977 6
G20  21874398.825 9 114950709.225 9      2486.126 9        55.343 9  21874399.107 6         0.000 6      1937.242 6        37.977 6
> 2019 07 03 12 03 26.0000000  0  8       0.000000000000
G07  25286352.737 9 132880634.925 9      2131.834 9        54.152 9  25286353.375 6         0.000 6      1661.170 6        37.977 6
G10  23711843.294 9 124606524.395 9      3499.411 9        54.705 9  23711846.926 6         0.000 6      2726.817 6        37.977 6
G21  21206812.962 9 111442533.512 9     -1313.748 9        55.694 9  21206812.254 6         0.000 6     -1023.700 6        37.977 6
G29  24387948.311 9 128159475.467 9     -3161.086 9        54.443 9  24387949.979 6         0.000 6     -2463.186 6        37.977 6
G27  21934671.206 9 115267448.578 9      2485.342 9        55.402 9  21934673.114 6         0.000 6      1936.631 6        37.977 6
G16  20482588.665 9 107636709.617 9       475.900 9        55.983 9  20482587.838 6         0.000 6       370.831 6        37.977 6
G26  20697071.923 9 108763824.509 9     -1564.696 9        55.855 9  20697074.756 6         0.000 6     -1219.244 6        37.977 6
G20  21873925.775 9 114948223.332 9      2485.669 9        55.343 9  21873926.056 6         0.000 6      1936.886 6        37.977 6
> 2019 07 03 12 03 27.0000000  0  8       0.000000000000
G07  25285947.107 9 132878503.327 9      2131.368 9        54.152 9  25285947.744 6         0.000 6      1660.807 6        37.977 6
G10  23711177.393 9 124603025.071 9      3499.257 9        54.705 9  23711181.024 6         0.000 6      2726.697 6        37.977 6
G21  21207062.994 9 111443847.438 9     -1314.105 9        55.694 9  21207062.286 6         0.000 6     -1023.978 6        37.977 6
G29  24388549.853 9 128162636.584 9     -3161.169 9        54.443 9  24388551.522 6         0.000 6     -2463.251 6        37.977 6
G27  21934198.284 9 115264963.362 9      2485.095 9        55.402 9  21934200.192 6         0.000 6      1936.438 6        37.977 6
G16  20482498.164 9 107636234.029 9       475.275 9        55.983 9  20482497.337 6         0.000 6       370.344 6        37.977 6
G26  20697369.729 9 108765389.489 9     -1565.267 9        55.855 9  20697372.562 6         0.000 6     -1219.689 6        37.977 6
G20  21873452.811 9 114945737.897 9      2485.211 9        55.343 9  21873453.093 6         0.000 6      1936.529 6        37.977 6
> 2019 07 03 12 03 28.0000000  0  8       0.000000000000
G07  25285541.565 9 132876372.196 9      2130.902 9        54.153 9  25285542.203 6         0.000 6      1660.444 6        37.977 6
G10  23710511.521 9 124599525.901 9      3499.103 9        54.706 9  23710515.152 6         0.000 6      2726.577 6        37.977 6
G21  21207313.094 9 111445161.721 9     -1314.462 9        55.694 9  21207312.386 6         0.000 6     -1024.257 6        37.977 6
G29  24389151.411 9 128165797.784 9     -3161.252 9        54.443 9  24389153.081 6         0.000 6     -2463.316 6        37.977 6
G27  21933725.410 9 115262478.394 9      2484.847 9        55.402 9  21933727.318 6         0.000 6      1936.245 6        37.977 6
G16  20482407.782 9 107635759.066 9       474.651 9        55.983 9  20482406.955 6         0.000 6       369.858 6        37.977 6
G26  20697667.644 9 108766955.040 9     -1565.839 9        55.855 9  20697670.477 6         0.000 6     -1220.135 6        37.977 6
G20  21872979.935 9 114943252.919 9      2484.753 9        55.344 9  21872980.216 6         0.000 6      1936.172 6        37.977 6
> 2019 07 03 12 03 29.0000000  0  8       0.000000000000
G07  25285136.112 9 132874241.531 9      2130.436 9        54.153 9  25285136.750 6         0.000 6      1660.081 6        37.977 6
G10  23709845.678 9 124596026.885 9      3498.949 9        54.706 9  23709849.308 6         0.000 6      2726.457 6        37.977 6
G21  21207563.262 9 111446476.361 9     -1314.820 9        55.694 9  21207562.554 6         0.000 6     -1024.535 6        37.977 6
G29  24389752.986 9 128168959.067 9     -3161.335 9        54.443 9  24389754.656 6         0.000 6     -2463.381 6        37.977 6
G27  21933252.583 9 115259993.673 9      2484.599 9        55.403 9  21933254.491 6         0.000 6      1936.052 6        37.977 6
G16  20482317.518 9 107635284.728 9       474.026 9        55.983 9  20482316.691 6         0.000 6       369.371 6        37.977 6
G26  20697965.668 9 108768521.163 9     -1566.410 9        55.855 9  20697968.500 6         0.000 6     -1220.580 6        37.977 6
G20  21872507.146 9 114940768.400 9      2484.295 9        55.344 9  21872507.427 6         0.000 6      1935.815 6        37.977 6
> 2019 07 03 12 03 30.0000000  0  8       0.000000000000
G07  25284730.748 9 132872111.331 9      2129.970 9        54.153 9  25284731.385 6         0.000 6      1659.717 6        37.977 6
G10  23709179.865 9 124592528.023 9      3498.795 9        54.706 9  23709183.495 6         0.000 6      2726.336 6        37.977 6
G21  21207813.498 9 111447791.359 9     -1315.177 9        55.694 9  21207812.790 6         0.000 6     -1024.813 6        37.977 6
G29  24390354.576 9 128172120.434 9     -3161.419 9        54.443 9  24390356.246 6         0.000 6     -2463.446 6        37.977 6
G27  21932779.803 9 115257509.201 9      2484.351 9        55.403 9  21932781.710 6         0.000 6      1935.859 6        37.977 6
G16  20482227.373 9 107634811.014 9       473.401 9        55.983 9  20482226.546 6         0.000 6       368.884 6        37.977 6
G26  20698263.800 9 108770087.857 9     -1566.982 9        55.855 9  20698266.633 6         0.000 6     -1221.025 6        37.977 6
G20  21872034.444 9 114938284.339 9      2483.836 9        55.344 9  21872034.724 6         0.000 6      1935.458 6        37.977 6
> 2019 07 03 12 03 31.0000000  0  8       0.000000000000
G07  25284325.473 9 132869981.598 9      2129.503 9        54.153 9  25284326.110 6         0.000 6      1659.354 6        37.977 6
G10  23708514.081 9 124589029.315 9      3498.641 9        54.706 9  23708517.710 6         0.000 6      2726.216 6        37.977 6
G21  21208063.801 9 111449106.714 9     -1315.534 9        55.694 9  21208063.094 6         0.000 6     -1025.092 6        37.977 6
G29  24390956.182 9 128175281.883 9     -3161.502 9        54.442 9  24390957.853 6         0.000 6     -2463.511 6        37.977 6
G27  21932307.070 9 115255024.976 9      2484.104 9        55.403 9  21932308.977 6         0.000 6      1935.666 6        37.977 6
G16  20482137.348 9 107634337.926 9       472.776 9        55.983 9  20482136.521 6         0.000 6       368.397 6        37.977 6
G26  20698562.041 9 108771655.123 9     -1567.553 9        55.855 9  20698564.874 6         0.000 6     -1221.471 6        37.977 6
G20  21871561.829 9 114935800.736 9      2483.378 9        55.344 9  21871562.109 6         0.000 6      1935.101 6        37.977 6
> 2019 07 03 12 03 32.0000000  0  8       0.000000000000
G07  25283920.286 9 132867852.332 9      2129.037 9        54.153 9  25283920.923 6         0.000 6      1658.991 6        37.977 6
G10  23707848.327 9 124585530.762 9      3498.486 9        54.706 9  23707851.955 6         0.000 6      2726.096 6        37.977 6
G21  21208314.173 9 111450422.426 9     -1315.891 9        55.694 9  21208313.466 6         0.000 6     -1025.370 6        37.977 6
G29  24391557.803 9 128178443.416 9     -3161.585 9        54.442 9  24391559.475 6         0.000 6     -2463.575 6        37.977 6
G27  21931834.385 9 115252540.999 9      2483.856 9        55.403 9  21931836.292 6         0.000 6      1935.473 6        37.977 6
G16  20482047.441 9 107633865.462 9       472.151 9        55.983 9  20482046.614 6         0.000 6       367.910 6        37.977 6
G26  20698860.391 9 108773222.960 9     -1568.125 9        55.854 9  20698863.224 6         0.000 6     -1221.916 6        37.977 6
G20  21871089.302 9 114933317.591 9      2482.920 9        55.344 9  21871089.582 6         0.000 6      1934.744 6        37.977 6
> 2019 07 03 12 03 33.0000000  0  8       0.000000000000
G07  25283515.188 9 132865723.532 9      2128.570 9        54.153 9  25283515.825 6         0.000 6      1658.627 6        37.977 6
G10  23707182.601 9 124582032.363 9      3498.332 9        54.707 9  23707186.229 6         0.000 6      2725.975 6        37.977 6
G21  21208564.613 9 111451738.495 9     -1316.249 9        55.694 9  21208563.906 6         0.000 6     -1025.648 6        37.977 6
G29  24392159.441 9 128181605.032 9     -3161.668 9        54.442 9  24392161.113 6         0.000 6     -2463.640 6        37.977 6
G27  21931361.746 9 115250057.270 9      2483.608 9        55.403 9  21931363.653 6         0.000 6      1935.279 6        37.977 6
G16  20481957.653 9 107633393.623 9       471.526 9        55.983 9  20481956.826 6         0.000 6       367.423 6        37.977 6
G26  20699158.849 9 108774791.368 9     -1568.696 9        55.854 9  20699161.683 6         0.000 6     -1222.361 6        37.977 6
G20  21870616.861 9 114930834.905 9      2482.461 9        55.344 9  21870617.141 6         0.000 6      1934.387 6        37.977 6
> 2019 07 03 12 03 34.0000000  0  8       0.000000000000
G07  25283110.179 9 132863595.198 9      2128.104 9        54.153 9  25283110.815 6         0.000 6      1658.264 6        37.977 6
G10  23706516.906 9 124578534.119 9      3498.177 9        54.707 9  23706520.533 6         0.000 6      2725.855 6        37.977 6
G21  21208815.121 9 111453054.922 9     -1316.606 9        55.694 9  21208814.413 6         0.000 6     -1025.927 6        37.977 6
G29  24392761.094 9 128184766.731 9     -3161.751 9        54.442 9  24392762.767 6         0.000 6     -2463.705 6        37.977 6
G27  21930889.155 9 115247573.789 9      2483.360 9        55.403 9  21930891.062 6         0.000 6      1935.086 6        37.977 6
G16  20481867.984 9 107632922.409 9       470.901 9        55.983 9  20481867.157 6         0.000 6       366.936 6        37.977 6
G26  20699457.417 9 108776360.348 9     -1569.267 9        55.854 9  20699460.250 6         0.000 6     -1222.806 6        37.977 6
G20  21870144.508 9 114928352.677 9      2482.003 9        55.345 9  21870144.788 6         0.000 6      1934.029 6        37.977 6
> 2019 07 03 12 03 35.0000000  0  8       0.000000000000
G07  25282705.259 9 132861467.331 9      2127.637 9        54.154 9  25282705.895 6         0.000 6      1657.900 6        37.977 6
G10  23705851.239 9 124575036.030 9      3498.022 9        54.707 9  23705854.866 6         0.000 6      2725.734 6        37.977 6
G21  21209065.697 9 111454371.705 9     -1316.963 9        55.694 9  21209064.989 6         0.000 6     -1026.205 6        37.977 6
G29  24393362.763 9 128187928.513 9     -3161.834 9        54.442 9  24393364.437 6         0.000 6     -2463.770 6        37.977 6
G27  21930416.611 9 115245090.556 9      2483.112 9        55.404 9  21930418.518 6         0.000 6      1934.893 6        37.977 6
G16  20481778.434 9 107632451.820 9       470.276 9        55.983 9  20481777.607 6         0.000 6       366.449 6        37.977 6
G26  20699756.093 9 108777929.899 9     -1569.839 9        55.854 9  20699758.926 6         0.000 6     -1223.251 6        37.977 6
G20  21869672.242 9 114925870.908 9      2481.544 9        55.345 9  21869672.522 6         0.000 6      1933.672 6        37.977 6
> 2019 07 03 12 03 36.0000000  0  8       0.000000000000
G07  25282300.427 9 132859339.930 9      2127.171 9        54.154 9  25282301.063 6         0.000 6      1657.536 6        37.977 6
G10  23705185.603 9 124571538.095 9      3497.868 9        54.707 9  23705189.229 6         0.000 6      2725.614 6        37.977 6
G21  21209316.340 9 111455688.845 9     -1317.320 9        55.693 9  21209315.633 6         0.000 6     -1026.483 6        37.977 6
G29  24393964.448 9 128191090.378 9     -3161.917 9        54.441 9  24393966.123 6         0.000 6     -2463.834 6        37.977 6
G27  21929944.114 9 115242607.571 9      2482.864 9        55.404 9  21929946.021 6         0.000 6      1934.700 6        37.977 6
G16  20481689.003 9 107631981.856 9       469.651 9        55.983 9  20481688.175 6         0.000 6       365.962 6        37.977 6
G26  20700054.877 9 108779500.022 9     -1570.410 9        55.854 9  20700057.711 6         0.000 6     -1223.697 6        37.977 6
G20  21869200.064 9 114923389.597 9      2481.085 9        55.345 9  21869200.343 6         0.000 6      1933.314 6        37.977 6
> 2019 07 03 12 03 37.0000000  0  8       0.000000000000
G07  25281895.685 9 132857212.996 9      2126.704 9        54.154 9  25281896.320 6         0.000 6      1657.173 6        37.977 6
G10  23704519.995 9 124568040.315 9      3497.713 9        54.708 9  23704523.621 6         0.000 6      2725.493 6        37.977 6
G21  21209567.052 9 111457006.342 9     -1317.676 9        55.693 9  21209566.344 6         0.000 6     -1026.761 6        37.977 6
G29  24394566.149 9 128194252.326 9     -3162.000 9        54.441 9  24394567.824 6         0.000 6     -2463.899 6        37.977 6
G27  21929471.664 9 115240124.834 9      2482.616 9        55.404 9  21929473.571 6         0.000 6      1934.506 6        37.977 6
G16  20481599.690 9 107631512.517 9       469.026 9        55.983 9  20481598.863 6         0.000 6       365.475 6        37.977 6
G26  20700353.771 9 108781070.716 9     -1570.981 9        55.854 9  20700356.605 6         0.000 6     -1224.142 6        37.977 6
G20  21868727.973 9 114920908.745 9      2480.627 9        55.345 9  21868728.251 6         0.000 6      1932.957 6        37.977 6
> 2019 07 03 12 03 38.0000000  0  8       0.000000000000
G07  25281491.031 9 132855086.529 9      2126.237 9        54.154 9  25281491.666 6         0.000 6      1656.809 6        37.977 6
G10  23703854.417 9 124564542.690 9      3497.558 9        54.708 9  23703858.042 6         0.000 6      2725.372 6        37.977 6
G21  21209817.831 9 111458324.196 9     -1318.033 9        55.693 9  21209817.124 6         0.000 6     -1027.039 6        37.977 6
G29  24395167.865 9 128197414.357 9     -3162.083 9        54.441 9  24395169.541 6         0.000 6     -2463.964 6        37.977 6
G27  21928999.262 9 115237642.345 9      2482.367 9        55.404 9  21929001.168 6         0.000 6      1934.313 6        37.977 6
G16  20481510.497 9 107631043.803 9       468.401 9        55.983 9  20481509.670 6         0.000 6       364.988 6        37.977 6
G26  20700652.773 9 108782641.981 9     -1571.552 9        55.854 9  20700655.607 6         0.000 6     -1224.587 6        37.977 6
G20  21868255.969 9 114918428.352 9      2480.168 9        55.345 9  21868256.247 6         0.000 6      1932.599 6        37.977 6
> 2019 07 03 12 03 39.0000000  0  8       0.000000000000
G07  25281086.466 9 132852960.529 9      2125.770 9        54.154 9  25281087.101 6         0.000 6      1656.445 6        37.977 6
G10  23703188.869 9 124561045.220 9      3497.402 9        54.708 9  23703192.493 6         0.000 6      2725.251 6        37.977 6
G21  21210068.678 9 111459642.407 9     -1318.390 9        55.693 9  21210067.971 6         0.000 6     -1027.317 6        37.977 6
G29  24395769.598 9 128200576.471 9     -3162.166 9        54.441 9  24395771.274 6         0.000 6     -2464.028 6        37.977 6
G27  21928526.907 9 115235160.105 9      2482.119 9        55.404 9  21928528.813 6         0.000 6      1934.120 6        37.977 6
G16  20481421.423 9 107630575.715 9       467.776 9        55.983 9  20481420.596 6         0.000 6       364.501 6        37.977 6
G26  20700951.884 9 108784213.817 9     -1572.124 9        55.854 9  20700954.718 6         0.000 6     -1225.032 6        37.977 6
G20  21867784.052 9 114915948.418 9      2479.709 9        55.346 9  21867784.330 6         0.000 6      1932.242 6        37.977 6
> 2019 07 03 12 03 40.0000000  0  8       0.000000000000
G07  25280681.990 9 132850834.996 9      2125.303 9        54.154 9  25280682.625 6         0.000 6      1656.081 6        37.977 6
G10  23702523.350 9 124557547.906 9      3497.247 9        54.708 9  23702526.974 6         0.000 6      2725.130 6        37.977 6
G21  21210319.594 9 111460960.975 9     -1318.747 9        55.693 9  21210318.886 6         0.000 6     -1027.595 6        37.977 6
G29  24396371.346 9 128203738.668 9     -3162.249 9        54.440 9  24396373.023 6         0.000 6     -2464.093 6        37.977 6
G27  21928054.599 9 115232678.112 9      2481.871 9        55.405 9  21928056.505 6         0.000 6      1933.926 6        37.977 6
G16  20481332.467 9 107630108.251 9       467.151 9        55.983 9  20481331.640 6         0.000 6       364.014 6        37.977 6
G26  20701251.103 9 108785786.224 9     -1572.695 9        55.853 9  20701253.938 6         0.000 6     -1225.477 6        37.977 6
G20  21867312.223 9 114913468.943 9      2479.250 9        55.346 9  21867312.501 6         0.000 6      1931.884 6        37.977 6
> 2019 07 03 12 03 41.0000000  0  8       0.000000000000
G07  25280277.602 9 132848709.929 9      2124.836 9        54.154 9  25280278.237 6         0.000 6      1655.717 6        37.977 6
G10  23701857.861 9 124554050.747 9      3497.092 9        54.709 9  23701861.484 6         0.000 6      2725.009 6        37.977 6
G21  21210570.577 9 111462279.899 9     -1319.103 9        55.693 9  21210569.870 6         0.000 6     -1027.873 6        37.977 6
G29  24396973.110 9 128206900.947 9     -3162.332 9        54.440 9  24396974.787 6         0.000 6     -2464.157 6        37.977 6
G27  21927582.338 9 115230196.368 9      2481.623 9        55.405 9  21927584.244 6         0.000 6      1933.733 6        37.977 6
G16  20481243.631 9 107629641.413 9       466.526 9        55.983 9  20481242.804 6         0.000 6       363.527 6        37.977 6
G26  20701550.431 9 108787359.202 9     -1573.266 9        55.853 9  20701553.266 6         0.000 6     -1225.922 6        37.977 6
G20  21866840.481 9 114910989.928 9      2478.790 9        55.346 9  21866840.759 6         0.000 6      1931.526 6        37.977 6
> 2019 07 03 12 03 42.0000000  0  8       0.000000000000
G07  25279873.304 9 132846585.330 9      2124.369 9        54.155 9  25279873.938 6         0.000 6      1655.353 6        37.977 6
G10  23701192.402 9 124550553.743 9      3496.936 9        54.709 9  23701196.024 6         0.000 6      2724.888 6        37.977 6
G21  21210821.628 9 111463599.180 9     -1319.460 9        55.693 9  21210820.921 6         0.000 6     -1028.151 6        37.977 6
G29  24397574.889 9 128210063.310 9     -3162.415 9        54.440 9  24397576.568 6         0.000 6     -2464.222 6        37.977 6
G27  21927110.125 9 115227714.872 9      2481.374 9        55.405 9  21927112.030 6         0.000 6      1933.539 6        37.977 6
G16  20481154.914 9 107629175.200 9       465.901 9        55.983 9  20481154.086 6         0.000 6       363.039 6        37.977 6
G26  20701849.868 9 108788932.751 9     -1573.837 9        55.853 9  20701852.703 6         0.000 6     -1226.367 6        37.977 6
G20  21866368.827 9 114908511.371 9      2478.331 9        55.346 9  21866369.104 6         0.000 6      1931.168 6        37.977 6
> 2019 07 03 12 03 43.0000000  0  8       0.000000000000
G07  25279469.094 9 132844461.198 9      2123.902 9        54.155 9  25279469.729 6         0.000 6      1654.989 6        37.977 6
G10  23700526.972 9 124547056.895 9      3496.781 9        54.709 9  23700530.593 6         0.000 6      2724.767 6        37.977 6
G21  21211072.747 9 111464918.818 9     -1319.817 9        55.693 9  21211072.039 6         0.000 6     -1028.429 6        37.977 6
G29  24398176.685 9 128213225.756 9     -3162.498 9        54.440 9  24398178.364 6         0.000 6     -2464.287 6        37.977 6
G27  21926637.958 9 115225233.624 9      2481.126 9        55.405 9  21926639.864 6         0.000 6      1933.346 6        37.977 6
G16  20481066.315 9 107628709.612 9       465.275 9        55.983 9  20481065.488 6         0.000 6       362.552 6        37.977 6
G26  20702149.414 9 108790506.872 9     -1574.408 9        55.853 9  20702152.248 6         0.000 6     -1226.812 6        37.977 6
G20  21865897.260 9 114906033.274 9      2477.872 9        55.346 9  21865897.537 6         0.000 6      1930.810 6        37.977 6
> 2019 07 03 12 03 44.0000000  0  8       0.000000000000
G07  25279064.974 9 132842337.533 9      2123.435 9        54.155 9  25279065.608 6         0.000 6      1654.625 6        37.977 6
G10  23699861.571 9 124543560.202 9      3496.625 9        54.709 9  23699865.192 6         0.000 6      2724.645 6        37.977 6
G21  21211323.933 9 111466238.812 9     -1320.173 9        55.693 9  21211323.226 6         0.000 6     -1028.706 6        37.977 6
G29  24398778.496 9 128216388.284 9     -3162.581 9        54.440 9  24398780.176 6         0.000 6     -2464.351 6        37.977 6
G27  21926165.839 9 115222752.625 9      2480.878 9        55.405 9  21926167.745 6         0.000 6      1933.152 6        37.977 6
G16  20480977.836 9 107628244.649 9       464.650 9        55.983 9  20480977.009 6         0.000 6       362.065 6        37.977 6
G26  20702449.068 9 108792081.563 9     -1574.979 9        55.853 9  20702451.903 6         0.000 6     -1227.257 6        37.977 6
G20  21865425.780 9 114903555.636 9      2477.412 9        55.347 9  21865426.057 6         0.000 6      1930.452 6        37.977 6
> 2019 07 03 12 03 45.0000000  0  8       0.000000000000
G07  25278660.942 9 132840214.335 9      2122.967 9        54.155 9  25278661.576 6         0.000 6      1654.261 6        37.977 6
G10  23699196.200 9 124540063.666 9      3496.469 9        54.710 9  23699199.820 6         0.000 6      2724.524 6        37.977 6
G21  21211575.188 9 111467559.162 9     -1320.529 9        55.693 9  21211574.481 6         0.000 6     -1028.984 6        37.977 6
G29  24399380.323 9 128219550.896 9     -3162.663 9        54.439 9  24399382.003 6         0.000 6     -2464.416 6        37.977 6
G27  21925693.768 9 115220271.874 9      2480.629 9        55.406 9  21925695.673 6         0.000 6      1932.959 6        37.977 6
G16  20480889.475 9 107627780.312 9       464.025 9        55.984 9  20480888.648 6         0.000 6       361.578 6        37.977 6
G26  20702748.831 9 108793656.825 9     -1575.550 9        55.853 9  20702751.666 6         0.000 6     -1227.701 6        37.977 6
G20  21864954.388 9 114901078.458 9      2476.953 9        55.347 9  21864954.665 6         0.000 6      1930.094 6        37.977 6
> 2019 07 03 12 03 46.0000000  0  8       0.000000000000
G07  25278256.999 9 132838091.605 9      2122.500 9        54.155 9  25278257.633 6         0.000 6      1653.897 6        37.977 6
G10  23698530.859 9 124536567.285 9      3496.313 9        54.710 9  23698534.479 6         0.000 6      2724.403 6        37.977 6
G21  21211826.510 9 111468879.869 9     -1320.886 9        55.692 9  21211825.803 6         0.000 6     -1029.262 6        37.977 6
G29  24399982.166 9 128222713.590 9     -3162.746 9        54.439 9  24399983.847 6         0.000 6     -2464.480 6        37.977 6
G27  21925221.743 9 115217791.372 9      2480.381 9        55.406 9  21925223.648 6         0.000 6      1932.765 6        37.977 6
G16  20480801.234 9 107627316.600 9       463.399 9        55.984 9  20480800.407 6         0.000 6       361.090 6        37.977 6
G26  20703048.702 9 108795232.658 9     -1576.120 9        55.853 9  20703051.537 6         0.000 6     -1228.146 6        37.977 6
G20  21864483.083 9 114898601.739 9      2476.493 9        55.347 9  21864483.360 6         0.000 6      1929.736 6        37.977 6
> 2019 07 03 12 03 47.0000000  0  8       0.000000000000
G07  25277853.145 9 132835969.342 9      2122.032 9        54.155 9  25277853.779 6         0.000 6      1653.533 6        37.977 6
G10  23697865.548 9 124533071.060 9      3496.157 9        54.710 9  23697869.167 6         0.000 6      2724.281 6        37.977 6
G21  21212077.900 9 111470200.932 9     -1321.242 9        55.692 9  21212077.193 6         0.000 6     -1029.540 6        37.977 6
G29  24400584.024 9 128225876.366 9     -3162.829 9        54.439 9  24400585.706 6         0.000 6     -2464.545 6        37.977 6
G27  21924749.766 9 115215311.118 9      2480.132 9        55.406 9  21924751.671 6         0.000 6      1932.571 6        37.977 6
G16  20480713.111 9 107626853.513 9       462.774 9        55.984 9  20480712.284 6         0.000 6       360.603 6        37.977 6
G26  20703348.682 9 108796809.062 9     -1576.691 9        55.853 9  20703351.517 6         0.000 6     -1228.591 6        37.977 6
G20  21864011.866 9 114896125.480 9      2476.033 9        55.347 9  21864012.142 6         0.000 6      1929.378 6        37.977 6
> 2019 07 03 12 03 48.0000000  0  8       0.000000000000
G07  25277449.380 9 132833847.547 9      2121.565 9        54.155 9  25277450.014 6         0.000 6      1653.168 6        37.977 6
G10  23697200.266 9 124529574.991 9      3496.001 9        54.710 9  23697203.884 6         0.000 6      2724.159 6        37.977 6
G21  21212329.358 9 111471522.352 9     -1321.598 9        55.692 9  21212328.651 6         0.000 6     -1029.817 6        37.977 6
G29  24401185.898 9 128229039.226 9     -3162.912 9        54.439 9  24401187.581 6         0.000 6     -2464.609 6        37.977 6
G27  21924277.836 9 115212831.112 9      2479.884 9        55.406 9  21924279.741 6         0.000 6      1932.378 6        37.977 6
G16  20480625.108 9 107626391.052 9       462.148 9        55.984 9  20480624.281 6         0.000 6       360.116 6        37.977 6
G26  20703648.771 9 108798386.037 9     -1577.262 9        55.852 9  20703651.606 6         0.000 6     -1229.036 6        37.977 6
G20  21863540.736 9 114893649.681 9      2475.574 9        55.347 9  21863541.012 6         0.000 6      1929.019 6        37.977 6
> 2019 07 03 12 03 49.0000000  0  8       0.000000000000
G07  25277045.704 9 132831726.220 9      2121.097 9        54.156 9  25277046.338 6         0.000 6      1652.804 6        37.977 6
G10  23696535.014 9 124526079.078 9      3495.845 9        54.711 9  23696538.632 6         0.000 6      2724.038 6        37.977 6
G21  21212580.884 9 111472844.128 9     -1321.955 9        55.692 9  21212580.177 6         0.000 6     -1030.095 6        37.977 6
G29  24401787.788 9 128232202.168 9     -3162.994 9        54.439 9  24401789.471 6         0.000 6     -2464.674 6        37.977 6
G27  21923805.954 9 115210351.355 9      2479.635 9        55.406 9  21923807.858 6         0.000 6      1932.184 6        37.977 6
G16  20480537.224 9 107625929.217 9       461.523 9        55.984 9  20480536.396 6         0.000 6       359.628 6        37.977 6
G26  20703948.968 9 108799963.583 9     -1577.833 9        55.852 9  20703951.803 6         0.000 6     -1229.481 6        37.977 6
G20  21863069.694 9 114891174.342 9      2475.114 9        55.347 9  21863069.970 6         0.000 6      1928.661 6        37.977 6
> 2019 07 03 12 03 50.0000000  0  8       0.000000000000
G07  25276642.118 9 132829605.360 9      2120.630 9        54.156 9  25276642.750 6         0.000 6      1652.440 6        37.977 6
G10  23695869.792 9 124522583.321 9      3495.689 9        54.711 9  23695873.409 6         0.000 6      2723.916 6        37.977 6
G21  21212832.477 9 111474166.259 9     -1322.311 9        55.692 9  21212831.770 6         0.000 6     -1030.372 6        37.977 6
G29  24402389.694 9 128235365.194 9     -3163.077 9        54.438 9  24402391.377 6         0.000 6     -2464.738 6        37.977 6
G27  21923334.118 9 115207871.847 9      2479.387 9        55.406 9  21923336.023 6         0.000 6      1931.990 6        37.977 6
G16  20480449.458 9 107625468.006 9       460.897 9        55.984 9  20480448.631 6         0.000 6       359.141 6        37.977 6
G26  20704249.274 9 108801541.699 9     -1578.404 9        55.852 9  20704252.109 6         0.000 6     -1229.925 6        37.977 6
G20  21862598.739 9 114888699.463 9      2474.654 9        55.348 9  21862599.015 6         0.000 6      1928.303 6        37.977 6
> 2019 07 03 12 03 51.0000000  0  8       0.000000000000
G07  25276238.620 9 132827484.967 9      2120.162 9        54.156 9  25276239.252 6         0.000 6      1652.075 6        37.977 6
G10  23695204.599 9 124519087.721 9      3495.532 9        54.711 9  23695208.216 6         0.000 6      2723.794 6        37.977 6
G21  21213084.138 9 111475488.748 9     -1322.667 9        55.692 9  21213083.432 6         0.000 6     -1030.650 6        37.977 6
G29  24402991.615 9 128238528.301 9     -3163.160 9        54.438 9  24402993.300 6         0.000 6     -2464.802 6        37.977 6
G27  21922862.330 9 115205392.587 9      2479.138 9        55.407 9  21922864.235 6         0.000 6      1931.797 6        37.977 6
G16  20480361.812 9 107625007.422 9       460.272 9        55.984 9  20480360.985 6         0.000 6       358.653 6        37.977 6
G26  20704549.689 9 108803120.386 9     -1578.974 9        55.852 9  20704552.524 6         0.000 6     -1230.370 6        37.977 6
G20  21862127.872 9 114886225.044 9      2474.193 9        55.348 9  21862128.147 6         0.000 6      1927.944 6        37.977 6
> 2019 07 03 12 03 52.0000000  0  8       0.000000000000
G07  25275835.211 9 132825365.043 9      2119.694 9        54.156 9  25275835.843 6         0.000 6      1651.710 6        37.977 6
G10  23694539.436 9 124515592.277 9      3495.376 9        54.711 9  23694543.052 6         0.000 6      2723.672 6        37.977 6
G21  21213335.867 9 111476811.592 9     -1323.023 9        55.692 9  21213335.161 6         0.000 6     -1030.927 6        37.977 6
G29  24403593.552 9 128241691.492 9     -3163.242 9        54.438 9  24403595.237 6         0.000 6     -2464.867 6        37.977 6
G27  21922390.590 9 115202913.576 9      2478.889 9        55.407 9  21922392.494 6         0.000 6      1931.603 6        37.977 6
G16  20480274.285 9 107624547.463 9       459.646 9        55.984 9  20480273.457 6         0.000 6       358.166 6        37.977 6
G26  20704850.212 9 108804699.643 9     -1579.545 9        55.852 9  20704853.047 6         0.000 6     -1230.815 6        37.977 6
G20  21861657.093 9 114883751.084 9      2473.733 9        55.348 9  21861657.367 6         0.000 6      1927.585 6        37.977 6
> 2019 07 03 12 03 53.0000000  0  8       0.000000000000
G07  25275431.891 9 132823245.586 9      2119.226 9        54.156 9  25275432.523 6         0.000 6      1651.346 6        37.977 6
G10  23693874.303 9 124512096.990 9      3495.219 9        54.712 9  23693877.919 6         0.000 6      2723.550 6        37.977 6
G21  21213587.664 9 111478134.792 9     -1323.379 9        55.692 9  21213586.958 6         0.000 6     -1031.205 6        37.977 6
G29  24404195.505 9 128244854.765 9     -3163.325 9        54.438 9  24404197.191 6         0.000 6     -2464.931 6        37.977 6
G27  21921918.897 9 115200434.814 9      2478.641 9        55.407 9  21921920.800 6         0.000 6      1931.409 6        37.977 6
G16  20480186.876 9 107624088.129 9       459.021 9        55.984 9  20480186.049 6         0.000 6       357.678 6        37.977 6
G26  20705150.843 9 108806279.472 9     -1580.115 9        55.852 9  20705153.679 6         0.000 6     -1231.259 6        37.977 6
G20  21861186.401 9 114881277.586 9      2473.273 9        55.348 9  21861186.675 6         0.000 6      1927.227 6        37.977 6
> 2019 07 03 12 03 54.0000000  0  8       0.000000000000
G07  25275028.660 9 132821126.598 9      2118.758 9        54.156 9  25275029.292 6         0.000 6      1650.981 6        37.977 6
G10  23693209.200 9 124508601.860 9      3495.062 9        54.712 9  23693212.815 6         0.000 6      2723.428 6        37.977 6
G21  21213839.529 9 111479458.348 9     -1323.735 9        55.692 9  21213838.822 6         0.000 6     -1031.482 6        37.977 6
G29  24404797.474 9 128248018.120 9     -3163.408 9        54.438 9  24404799.160 6         0.000 6     -2464.996 6        37.977 6
G27  21921447.251 9 115197956.300 9      2478.392 9        55.407 9  21921449.154 6         0.000 6      1931.215 6        37.977 6
G16  20480099.587 9 107623629.422 9       458.395 9        55.984 9  20480098.760 6         0.000 6       357.191 6        37.977 6
G26  20705451.584 9 108807859.870 9     -1580.686 9        55.852 9  20705454.419 6         0.000 6     -1231.704 6        37.977 6
G20  21860715.796 9 114878804.547 9      2472.813 9        55.348 9  21860716.071 6         0.000 6      1926.868 6        37.977 6
> 2019 07 03 12 03 55.0000000  0  8       0.000000000000
G07  25274625.518 9 132819008.077 9      2118.290 9        54.156 9  25274626.150 6         0.000 6      1650.616 6        37.977 6
G10  23692544.127 9 124505106.886 9      3494.905 9        54.712 9  23692547.741 6         0.000 6      2723.305 6        37.977 6
G21  21214091.461 9 111480782.260 9     -1324.091 9        55.691 9  21214090.754 6         0.000 6     -1031.759 6        37.977 6
G29  24405399.458 9 128251181.558 9     -3163.490 9        54.437 9  24405401.145 6         0.000 6     -2465.060 6        37.977 6
G27  21920975.652 9 115195478.035 9      2478.143 9        55.407 9  21920977.555 6         0.000 6      1931.021 6        37.977 6
G16  20480012.417 9 107623171.339 9       457.769 9        55.984 9  20480011.590 6         0.000 6       356.703 6        37.977 6
G26  20705752.432 9 108809440.840 9     -1581.256 9        55.852 9  20705755.268 6         0.000 6     -1232.148 6        37.977 6
G20  21860245.280 9 114876331.969 9      2472.352 9        55.349 9  21860245.554 6         0.000 6      1926.509 6        37.977 6
> 2019 07 03 12 03 56.0000000  0  8       0.000000000000
G07  25274222.466 9 132816890.025 9      2117.822 9        54.157 9  25274223.097 6         0.000 6      1650.252 6        37.977 6
G10  23691879.083 9 124501612.070 9      3494.748 9        54.712 9  23691882.697 6         0.000 6      2723.183 6        37.977 6
G21  21214343.461 9 111482106.528 9     -1324.447 9        55.691 9  21214342.754 6         0.000 6     -1032.036 6        37.977 6
G29  24406001.458 9 128254345.079 9     -3163.573 9        54.437 9  24406003.146 6         0.000 6     -2465.124 6        37.977 6
G27  21920504.101 9 115193000.019 9      2477.894 9        55.408 9  21920506.004 6         0.000 6      1930.827 6        37.977 6
G16  20479925.366 9 107622713.883 9       457.144 9        55.984 9  20479924.539 6         0.000 6       356.216 6        37.977 6
G26  20706053.390 9 108811022.380 9     -1581.827 9        55.851 9  20706056.226 6         0.000 6     -1232.593 6        37.977 6
G20  21859774.851 9 114873859.852 9      2471.891 9        55.349 9  21859775.124 6         0.000 6      1926.150 6        37.977 6
> 2019 07 03 12 03 57.0000000  0  8       0.000000000000
G07  25273819.502 9 132814772.440 9      2117.354 9        54.157 9  25273820.134 6         0.000 6      1649.887 6        37.977 6
G10  23691214.070 9 124498117.410 9      3494.591 9        54.713 9  23691217.683 6         0.000 6      2723.061 6        37.977 6
G21  21214595.529 9 111483431.151 9     -1324.802 9        55.691 9  21214594.822 6         0.000 6     -1032.314 6        37.977 6
G29  24406603.474 9 128257508.683 9     -3163.655 9        54.437 9  24406605.162 6         0.000 6     -2465.189 6        37.977 6
G27  21920032.597 9 115190522.252 9      2477.645 9        55.408 9  21920034.500 6         0.000 6      1930.633 6        37.977 6
G16  20479838.434 9 107622257.052 9       456.518 9        55.984 9  20479837.607 6         0.000 6       355.728 6        37.977 6
G26  20706354.456 9 108812604.490 9     -1582.397 9        55.851 9  20706357.292 6         0.000 6     -1233.037 6        37.977 6
G20  21859304.509 9 114871388.195 9      2471.431 9        55.349 9  21859304.782 6         0.000 6      1925.791 6        37.977 6
> 2019 07 03 12 03 58.0000000  0  8       0.000000000000
G07  25273416.628 9 132812655.324 9      2116.885 9        54.157 9  25273417.259 6         0.000 6      1649.522 6        37.977 6
G10  23690549.086 9 124494622.907 9      3494.434 9        54.713 9  23690552.698 6         0.000 6      2722.938 6        37.977 6
G21  21214847.664 9 111484756.131 9     -1325.158 9        55.691 9  21214846.958 6         0.000 6     -1032.591 6        37.977 6
G29  24407205.505 9 128260672.368 9     -3163.738 9        54.437 9  24407207.194 6         0.000 6     -2465.253 6        37.977 6
G27  21919561.140 9 115188044.734 9      2477.396 9        55.408 9  21919563.043 6         0.000 6      1930.439 6        37.977 6
G16  20479751.621 9 107621800.847 9       455.892 9        55.984 9  20479750.794 6         0.000 6       355.240 6        37.977 6
G26  20706655.630 9 108814187.171 9     -1582.968 9        55.851 9  20706658.467 6         0.000 6     -1233.482 6        37.977 6
G20  21858834.255 9 114868916.999 9      2470.970 9        55.349 9  21858834.528 6         0.000 6      1925.432 6        37.977 6
> 2019 07 03 12 03 59.0000000  0  8       0.000000000000
G07  25273013.843 9 132810538.677 9      2116.417 9        54.157 9  25273014.474 6         0.000 6      1649.157 6        37.977 6
G10  23689884.132 9 124491128.562 9      3494.277 9        54.713 9  23689887.744 6         0.000 6      2722.816 6        37.977 6
G21  21215099.867 9 111486081.466 9     -1325.514 9        55.691 9  21215099.161 6         0.000 6     -1032.868 6        37.977 6
G29  24407807.552 9 128263836.137 9     -3163.820 9        54.436 9  24407809.242 6         0.000 6     -2465.317 6        37.977 6
G27  21919089.731 9 115185567.465 9      2477.147 9        55.408 9  21919091.634 6         0.000 6      1930.245 6        37.977 6
G16  20479664.927 9 107621345.268 9       455.266 9        55.984 9  20479664.100 6         0.000 6       354.753 6        37.977 6
G26  20706956.913 9 108815770.422 9     -1583.538 9        55.851 9  20706959.750 6         0.000 6     -1233.926 6        37.977 6
G20  21858364.089 9 114866446.263 9      2470.509 9        55.349 9  21858364.362 6         0.000 6      1925.073 6        37.977 6
> 2019 07 03 12 04  0.0000000  0  8       0.000000000000
G07  25272611.146 9 132808422.497 9      2115.948 9        54.157 9  25272611.777 6         0.000 6      1648.792 6        37.977 6
G10  23689219.209 9 124487634.374 9      3494.120 9        54.713 9  23689222.819 6         0.000 6      2722.693 6        37.977 6
G21  21215352.138 9 111487407.157 9     -1325.869 9        55.691 9  21215351.431 6         0.000 6     -1033.145 6        37.977 6
G29  24408409.615 9 128266999.987 9     -3163.903 9        54.436 9  24408411.305 6         0.000 6     -2465.381 6        37.977 6
G27  21918618.369 9 115183090.444 9      2476.898 9        55.408 9  21918620.272 6         0.000 6      1930.051 6        37.977 6
G16  20479578.353 9 107620890.315 9       454.640 9        55.984 9  20479577.525 6         0.000 6       354.265 6        37.977 6
G26  20707258.305 9 108817354.243 9     -1584.109 9        55.851 9  20707261.141 6         0.000 6     -1234.371 6        37.977 6
G20  21857894.011 9 114863975.989 9      2470.048 9        55.349 9  21857894.283 6         0.000 6      1924.714 6        37.977 6
> 2019 07 03 12 04  1.0000000  0  8       0.000000000000
G07  25272208.539 9 132806306.787 9      2115.480 9        54.157 9  25272209.170 6         0.000 6      1648.427 6        37.977 6
G10  23688554.315 9 124484140.343 9      3493.962 9        54.714 9  23688557.925 6         0.000 6      2722.570 6        37.977 6
G21  21215604.476 9 111488733.203 9     -1326.225 9        55.691 9  21215603.770 6         0.000 6     -1033.422 6        37.977 6
G29  24409011.694 9 128270163.921 9     -3163.985 9        54.436 9  24409013.385 6         0.000 6     -2465.446 6        37.977 6
G27  21918147.055 9 115180613.673 9      2476.649 9        55.409 9  21918148.957 6         0.000 6      1929.857 6        37.977 6
G16  20479491.897 9 107620435.988 9       454.014 9        55.984 9  20479491.070 6         0.000 6       353.777 6        37.977 6
G26  20707559.805 9 108818938.635 9     -1584.679 9        55.851 9  20707562.642 6         0.000 6     -1234.815 6        37.977 6
G20  21857424.020 9 114861506.175 9      2469.587 9        55.350 9  21857424.292 6         0.000 6      1924.355 6        37.977 6
> 2019 07 03 12 04  2.0000000  0  8       0.000000000000
G07  25271806.021 9 132804191.544 9      2115.011 9        54.157 9  25271806.652 6         0.000 6      1648.062 6        37.977 6
G10  23687889.451 9 124480646.470 9      3493.805 9        54.714 9  23687893.060 6         0.000 6      2722.448 6        37.977 6
G21  21215856.882 9 111490059.605 9     -1326.580 9        55.691 9  21215856.176 6         0.000 6     -1033.699 6        37.977 6
G29  24409613.788 9 128273327.936 9     -3164.067 9        54.436 9  24409615.479 6         0.000 6     -2465.510 6        37.977 6
G27  21917675.788 9 115178137.151 9      2476.400 9        55.409 9  21917677.690 6         0.000 6      1929.663 6        37.977 6
G16  20479405.560 9 107619982.286 9       453.388 9        55.984 9  20479404.733 6         0.000 6       353.290 6        37.977 6
G26  20707861.414 9 108820523.597 9     -1585.249 9        55.851 9  20707864.250 6         0.000 6     -1235.259 6        37.977 6
G20  21856954.117 9 114859036.823 9      2469.126 9        55.350 9  21856954.389 6         0.000 6      1923.995 6        37.977 6
> 2019 07 03 12 04  3.0000000  0  8       0.000000000000
G07  25271403.593 9 132802076.771 9      2114.543 9        54.157 9  25271404.223 6         0.000 6      1647.696 6        37.977 6
G10  23687224.617 9 124477152.755 9      3493.647 9        54.714 9  23687228.226 6         0.000 6      2722.325 6        37.977 6
G21  21216109.356 9 111491386.362 9     -1326.936 9        55.691 9  21216108.650 6         0.000 6     -1033.976 6        37.977 6
G29  24410215.898 9 128276492.034 9     -3164.150 9        54.436 9  24410217.590 6         0.000 6     -2465.574 6        37.977 6
G27  21917204.568 9 115175660.878 9      2476.151 9        55.409 9  21917206.470 6         0.000 6      1929.469 6        37.977 6
G16  20479319.343 9 107619529.211 9       452.762 9        55.984 9  20479318.516 6         0.000 6       352.802 6        37.977 6
G26  20708163.131 9 108822109.129 9     -1585.819 9        55.851 9  20708165.968 6         0.000 6     -1235.704 6        37.977 6
G20  21856484.302 9 114856567.932 9      2468.665 9        55.350 9  21856484.574 6         0.000 6      1923.636 6        37.977 6
> 2019 07 03 12 04  4.0000000  0  8       0.000000000000
G07  25271001.253 9 132799962.466 9      2114.074 9        54.158 9  25271001.883 6         0.000 6      1647.331 6        37.977 6
G10  23686559.813 9 124473659.197 9      3493.489 9        54.714 9  23686563.421 6         0.000 6      2722.202 6        37.977 6
G21  21216361.897 9 111492713.474 9     -1327.291 9        55.691 9  21216361.191 6         0.000 6     -1034.253 6        37.977 6
G29  24410818.023 9 128279656.214 9     -3164.232 9        54.435 9  24410819.716 6         0.000 6     -2465.638 6        37.977 6
G27  21916733.396 9 115173184.854 9      2475.902 9        55.409 9  21916735.298 6         0.000 6      1929.275 6        37.977 6
G16  20479233.245 9 107619076.761 9       452.136 9        55.984 9  20479232.418 6         0.000 6       352.314 6        37.977 6
G26  20708464.956 9 108823695.232 9     -1586.389 9        55.850 9  20708467.793 6         0.000 6     -1236.148 6        37.977 6
G20  21856014.574 9 114854099.502 9      2468.204 9        55.350 9  21856014.846 6         0.000 6      1923.277 6        37.977 6
> 2019 07 03 12 04  5.0000000  0  8       0.000000000000
G07  25270599.003 9 132797848.630 9      2113.605 9        54.158 9  25270599.633 6         0.000 6      1646.966 6        37.977 6
G10  23685895.039 9 124470165.797 9      3493.331 9        54.715 9  23685898.647 6         0.000 6      2722.079 6        37.977 6
G21  21216614.506 9 111494040.942 9     -1327.646 9        55.690 9  21216613.800 6         0.000 6     -1034.530 6        37.977 6
G29  24411420.164 9 128282820.477 9     -3164.315 9        54.435 9  24411421.858 6         0.000 6     -2465.702 6        37.977 6
G27  21916262.271 9 115170709.079 9      2475.653 9        55.409 9  21916264.173 6         0.000 6      1929.081 6        37.977 6
G16  20479147.266 9 107618624.938 9       451.510 9        55.984 9  20479146.439 6         0.000 6       351.826 6        37.977 6
G26  20708766.890 9 108825281.904 9     -1586.960 9        55.850 9  20708769.728 6         0.000 6     -1236.592 6        37.977 6
G20  21855544.935 9 114851631.533 9      2467.742 9        55.350 9  21855545.206 6         0.000 6      1922.917 6        37.977 6
> 2019 07 03 12 04  6.0000000  0  8       0.000000000000
G07  25270196.842 9 132795735.263 9      2113.136 9        54.158 9  25270197.471 6         0.000 6      1646.601 6        37.977 6
G10  23685230.295 9 124466672.555 9      3493.173 9        54.715 9  23685233.902 6         0.000 6      2721.956 6        37.977 6
G21  21216867.182 9 111495368.765 9     -1328.002 9        55.690 9  21216866.476 6         0.000 6     -1034.807 6        37.977 6
G29  24412022.321 9 128285984.822 9     -3164.397 9        54.435 9  24412024.015 6         0.000 6     -2465.766 6        37.977 6
G27  21915791.194 9 115168233.553 9      2475.404 9        55.409 9  21915793.095 6         0.000 6      1928.887 6        37.977 6
G16  20479061.406 9 107618173.741 9       450.884 9        55.984 9  20479060.579 6         0.000 6       351.338 6        37.977 6
G26  20709068.933 9 108826869.147 9     -1587.530 9        55.850 9  20709071.770 6         0.000 6     -1237.037 6        37.977 6
G20  21855075.383 9 114849164.026 9      2467.281 9        55.351 9  21855075.654 6         0.000 6      1922.557 6        37.977 6
> 2019 07 03 12 04  7.0000000  0  8       0.000000000000
G07  25269794.770 9 132793622.364 9      2112.667 9        54.158 9  25269795.399 6         0.000 6      1646.235 6        37.977 6
G10  23684565.582 9 124463179.471 9      3493.015 9        54.715 9  23684569.188 6         0.000 6      2721.832 6        37.977 6
G21  21217119.926 9 111496696.944 9     -1328.357 9        55.690 9  21217119.220 6         0.000 6     -1035.083 6        37.977 6
G29  24412624.494 9 128289149.249 9     -3164.479 9        54.435 9  24412626.189 6         0.000 6     -2465.831 6        37.977 6
G27  21915320.164 9 115165758.277 9      2475.154 9        55.410 9  21915322.065 6         0.000 6      1928.692 6        37.977 6
G16  20478975.665 9 107617723.169 9       450.258 9        55.984 9  20478974.838 6         0.000 6       350.851 6        37.977 6
G26  20709371.084 9 108828456.960 9     -1588.100 9        55.850 9  20709373.921 6         0.000 6     -1237.481 6        37.977 6
G20  21854605.919 9 114846696.980 9      2466.819 9        55.351 9  21854606.190 6         0.000 6      1922.198 6        37.977 6
> 2019 07 03 12 04  8.0000000  0  8       0.000000000000
G07  25269392.788 9 132791509.935 9      2112.198 9        54.158 9  25269393.417 6         0.000 6      1645.870 6        37.977 6
G10  23683900.898 9 124459686.545 9      3492.857 9        54.715 9  23683904.504 6         0.000 6      2721.709 6        37.977 6
G21  21217372.738 9 111498025.478 9     -1328.712 9        55.690 9  21217372.032 6         0.000 6     -1035.360 6        37.977 6
G29  24413226.682 9 128292313.759 9     -3164.561 9        54.435 9  24413228.378 6         0.000 6     -2465.895 6        37.977 6
G27  21914849.181 9 115163283.250 9      2474.905 9        55.410 9  21914851.083 6         0.000 6      1928.498 6        37.977 6
G16  20478890.043 9 107617273.224 9       449.632 9        55.984 9  20478889.216 6         0.000 6       350.363 6        37.977 6
G26  20709673.344 9 108830045.342 9     -1588.670 9        55.850 9  20709676.181 6         0.000 6     -1237.925 6        37.977 6
G20  21854136.543 9 114844230.396 9      2466.357 9        55.351 9  21854136.813 6         0.000 6      1921.838 6        37.977 6
> 2019 07 03 12 04  9.0000000  0  8       0.000000000000
G07  25268990.894 9 132789397.975 9      2111.729 9        54.158 9  25268991.523 6         0.000 6      1645.504 6        37.977 6
G10  23683236.245 9 124456193.778 9      3492.699 9        54.716 9  23683239.850 6         0.000 6      2721.586 6        37.977 6
G21  21217625.617 9 111499354.366 9     -1329.067 9        55.690 9  21217624.912 6         0.000 6     -1035.637 6        37.977 6
G29  24413828.886 9 128295478.351 9     -3164.644 9        54.434 9  24413830.582 6         0.000 6     -2465.959 6        37.977 6
G27  21914378.246 9 115160808.472 9      2474.656 9        55.410 9  21914380.148 6         0.000 6      1928.304 6        37.977 6
G16  20478804.541 9 107616823.905 9       449.006 9        55.984 9  20478803.713 6         0.000 6       349.875 6        37.977 6
G26  20709975.712 9 108831634.295 9     -1589.240 9        55.850 9  20709978.549 6         0.000 6     -1238.369 6        37.977 6
G20  21853667.255 9 114841764.274 9      2465.896 9        55.351 9  21853667.525 6         0.000 6      1921.478 6        37.977 6
> 2019 07 03 12 04 10.0000000  0  8       0.000000000000
G07  25268589.090 9 132787286.484 9      2111.260 9        54.158 9  25268589.719 6         0.000 6      1645.138 6        37.977 6
G10  23682571.621 9 124452701.169 9      3492.540 9        54.716 9  23682575.226 6         0.000 6      2721.462 6        37.977 6
G21  21217878.564 9 111500683.610 9     -1329.422 9        55.690 9  21217877.858 6         0.000 6     -1035.914 6        37.977 6
G29  24414431.105 9 128298643.025 9     -3164.726 9        54.434 9  24414432.802 6         0.000 6     -2466.023 6        37.977 6
G27  21913907.359 9 115158333.944 9      2474.406 9        55.410 9  21913909.260 6         0.000 6      1928.109 6        37.977 6
G16  20478719.157 9 107616375.212 9       448.380 9        55.984 9  20478718.330 6         0.000 6       349.387 6        37.977 6
G26  20710278.188 9 108833223.818 9     -1589.810 9        55.850 9  20710281.026 6         0.000 6     -1238.813 6        37.977 6
G20  21853198.054 9 114839298.614 9      2465.434 9        55.351 9  21853198.324 6         0.000 6      1921.118 6        37.977 6
> 2019 07 03 12 04 11.0000000  0  8       0.000000000000
G07  25268187.375 9 132785175.462 9      2110.791 9        54.159 9  25268188.004 6         0.000 6      1644.773 6        37.977 6
G10  23681907.028 9 124449208.718 9      3492.382 9        54.716 9  23681910.632 6         0.000 6      2721.339 6        37.977 6
G21  21218131.579 9 111502013.209 9     -1329.777 9        55.690 9  21218130.873 6         0.000 6     -1036.190 6        37.977 6
G29  24415033.340 9 128301807.781 9     -3164.808 9        54.434 9  24415035.038 6         0.000 6     -2466.087 6        37.977 6
G27  21913436.519 9 115155859.665 9      2474.157 9        55.410 9  21913438.419 6         0.000 6      1927.915 6        37.977 6
G16  20478633.893 9 107615927.146 9       447.753 9        55.984 9  20478633.066 6         0.000 6       348.899 6        37.977 6
G26  20710580.773 9 108834813.911 9     -1590.379 9        55.850 9  20710583.611 6         0.000 6     -1239.257 6        37.977 6
G20  21852728.942 9 114836833.415 9      2464.972 9        55.352 9  21852729.211 6         0.000 6      1920.758 6        37.977 6
> 2019 07 03 12 04 12.0000000  0  8       0.000000000000
G07  25267785.750 9 132783064.909 9      2110.321 9        54.159 9  25267786.378 6         0.000 6      1644.407 6        37.977 6
G10  23681242.465 9 124445716.426 9      3492.223 9        54.716 9  23681246.068 6         0.000 6      2721.215 6        37.977 6
G21  21218384.661 9 111503343.163 9     -1330.132 9        55.690 9  21218383.955 6         0.000 6     -1036.467 6        37.977 6
G29  24415635.591 9 128304972.619 9     -3164.890 9        54.434 9  24415637.289 6         0.000 6     -2466.151 6        37.977 6
G27  21912965.726 9 115153385.635 9      2473.907 9        55.411 9  21912967.627 6         0.000 6      1927.721 6        37.977 6
G16  20478548.748 9 107615479.705 9       447.127 9        55.984 9  20478547.921 6         0.000 6       348.411 6        37.977 6
G26  20710883.466 9 108836404.573 9     -1590.949 9        55.849 9  20710886.304 6         0.000 6     -1239.701 6        37.977 6
G20  21852259.917 9 114834368.679 9      2464.510 9        55.352 9  21852260.187 6         0.000 6      1920.398 6        37.977 6
> 2019 07 03 12 04 13.0000000  0  8       0.000000000000
G07  25267384.214 9 132780954.826 9      2109.852 9        54.159 9  25267384.842 6         0.000 6      1644.041 6        37.977 6
G10  23680577.932 9 124442224.293 9      3492.064 9        54.716 9  23680581.535 6         0.000 6      2721.092 6        37.977 6
G21  21218637.810 9 111504673.471 9     -1330.487 9        55.690 9  21218637.104 6         0.000 6     -1036.743 6        37.977 6
G29  24416237.858 9 128308137.540 9     -3164.972 9        54.433 9  24416239.556 6         0.000 6     -2466.215 6        37.977 6
G27  21912494.981 9 115150911.855 9      2473.658 9        55.411 9  21912496.881 6         0.000 6      1927.526 6        37.977 6
G16  20478463.722 9 107615032.891 9       446.501 9        55.985 9  20478462.895 6         0.000 6       347.923 6        37.977 6
G26  20711186.268 9 108837995.805 9     -1591.519 9        55.849 9  20711189.106 6         0.000 6     -1240.145 6        37.977 6
G20  21851790.981 9 114831904.404 9      2464.048 9        55.352 9  21851791.250 6         0.000 6      1920.038 6        37.977 6
> 2019 07 03 12 04 14.0000000  0  8       0.000000000000
G07  25266982.767 9 132778845.212 9      2109.382 9        54.159 9  25266983.395 6         0.000 6      1643.675 6        37.977 6
G10  23679913.430 9 124438732.318 9      3491.905 9        54.717 9  23679917.032 6         0.000 6      2720.968 6        37.977 6
G21  21218891.027 9 111506004.135 9     -1330.842 9        55.690 9  21218890.321 6         0.000 6     -1037.020 6        37.977 6
G29  24416840.140 9 128311302.543 9     -3165.054 9        54.433 9  24416841.839 6         0.000 6     -2466.279 6        37.977 6
G27  21912024.283 9 115148438.325 9      2473.408 9        55.411 9  21912026.183 6         0.000 6      1927.332 6        37.977 6
G16  20478378.815 9 107614586.704 9       445.874 9        55.985 9  20478377.988 6         0.000 6       347.435 6        37.977 6
G26  20711489.178 9 108839587.607 9     -1592.089 9        55.849 9  20711492.017 6         0.000 6     -1240.589 6        37.977 6
G20  21851322.132 9 114829440.592 9      2463.585 9        55.352 9  21851322.401 6         0.000 6      1919.678 6        37.977 6
> 2019 07 03 12 04 15.0000000  0  8       0.000000000000
G07  25266581.410 9 132776736.068 9      2108.913 9        54.159 9  25266582.037 6         0.000 6      1643.310 6        37.977 6
G10  23679248.957 9 124435240.502 9      3491.746 9        54.717 9  23679252.559 6         0.000 6      2720.844 6        37.977 6
G21  21219144.312 9 111507335.153 9     -1331.196 9        55.689 9  21219143.606 6         0.000 6     -1037.296 6        37.977 6
G29  24417442.437 9 128314467.627 9     -3165.136 9        54.433 9  24417444.137 6         0.000 6     -2466.343 6        37.977 6
G27  21911553.633 9 115145965.044 9      2473.159 9        55.411 9  21911555.533 6         0.000 6      1927.137 6        37.977 6
G16  20478294.028 9 107614141.142 9       445.248 9        55.985 9  20478293.201 6         0.000 6       346.947 6        37.977 6
G26  20711792.197 9 108841179.979 9     -1592.659 9        55.849 9  20711795.035 6         0.000 6     -1241.033 6        37.977 6
G20  21850853.371 9 114826977.242 9      2463.123 9        55.352 9  21850853.640 6         0.000 6      1919.318 6        37.977 6
> 2019 07 03 12 04 16.0000000  0  8       0.000000000000
G07  25266180.142 9 132774627.393 9      2108.443 9        54.159 9  25266180.769 6         0.000 6      1642.944 6        37.977 6
G10  23678584.515 9 124431748.846 9      3491.587 9        54.717 9  23678588.116 6         0.000 6      2720.720 6        37.977 6
G21  21219397.664 9 111508666.526 9     -1331.551 9        55.689 9  21219396.958 6         0.000 6     -1037.573 6        37.977 6
G29  24418044.750 9 128317632.794 9     -3165.219 9        54.433 9  24418046.451 6         0.000 6     -2466.407 6        37.977 6
G27  21911083.030 9 115143492.013 9      2472.909 9        55.411 9  21911084.930 6         0.000 6      1926.943 6        37.977 6
G16  20478209.359 9 107613696.207 9       444.622 9        55.985 9  20478208.532 6         0.000 6       346.458 6        37.977 6
G26  20712095.324 9 108842772.921 9     -1593.228 9        55.849 9  20712098.163 6         0.000 6     -1241.477 6        37.977 6
G20  21850384.698 9 114824514.354 9      2462.661 9        55.352 9  21850384.967 6         0.000 6      1918.957 6        37.977 6
> 2019 07 03 12 04 17.0000000  0  8       0.000000000000
G07  25265778.963 9 132772519.188 9      2107.974 9        54.159 9  25265779.590 6         0.000 6      1642.578 6        37.977 6
G10  23677920.103 9 124428257.348 9      3491.428 9        54.717 9  23677923.703 6         0.000 6      2720.596 6        37.977 6
G21  21219651.083 9 111509998.254 9     -1331.906 9        55.689 9  21219650.378 6         0.000 6     -1037.849 6        37.977 6
G29  24418647.079 9 128320798.043 9     -3165.301 9        54.433 9  24418648.781 6         0.000 6     -2466.471 6        37.977 6
G27  21910612.475 9 115141019.231 9      2472.659 9        55.412 9  21910614.375 6         0.000 6      1926.748 6        37.977 6
G16  20478124.810 9 107613251.899 9       443.995 9        55.985 9  20478123.983 6         0.000 6       345.970 6        37.977 6
G26  20712398.560 9 108844366.432 9     -1593.798 9        55.849 9  20712401.398 6         0.000 6     -1241.921 6        37.977 6
G20  21849916.114 9 114822051.929 9      2462.198 9        55.353 9  21849916.382 6         0.000 6      1918.597 6        37.977 6
> 2019 07 03 12 04 18.0000000  0  9       0.000000000000
G07  25265377.873 9 132770411.453 9      2107.504 9        54.160 9  25265378.500 6         0.000 6      1642.212 6        37.977 6
G10  23677255.722 9 124424766.009 9      3491.269 9        54.718 9  23677259.321 6         0.000 6      2720.472 6        37.977 6
G21  21219904.570 9 111511330.336 9     -1332.260 9        55.689 9  21219903.865 6         0.000 6     -1038.125 6        37.977 6
G29  24419249.424 9 128323963.374 9     -3165.383 9        54.432 9  24419251.126 6         0.000 6     -2466.535 6        37.977 6
G27  21910141.967 9 115138546.699 9      2472.410 9        55.412 9  21910143.867 6         0.000 6      1926.554 6        37.977 6
G16  20478040.381 9 107612808.217 9       443.369 9        55.985 9  20478039.553 6         0.000 6       345.482 6        37.977 6
G26  20712701.904 9 108845960.513 9     -1594.368 9        55.849 9  20712704.742 6         0.000 6     -1242.365 6        37.977 6
G20  21849447.617 9 114819589.967 9      2461.736 9        55.353 9  21849447.885 6         0.000 6      1918.237 6        37.977 6
G08  25189445.248 9 132371380.567 9      3230.061 9        54.195 9  25189449.174 6         0.000 6      2516.930 6        37.977 6
> 2019 07 03 12 04 19.0000000  0  9       0.000000000000
G07  25264976.874 9 132768304.188 9      2107.034 9        54.160 9  25264977.500 6         0.000 6      1641.845 6        37.977 6
G10  23676591.370 9 124421274.830 9      3491.110 9        54.718 9  23676594.969 6         0.000 6      2720.348 6        37.977 6
G21  21220158.124 9 111512662.773 9     -1332.615 9        55.689 9  21220157.419 6         0.000 6     -1038.401 6        37.977 6
G29  24419851.784 9 128327128.787 9     -3165.465 9        54.432 9  24419853.487 6         0.000 6     -2466.599 6        37.977 6
G27  21909671.507 9 115136074.417 9      2472.160 9        55.412 9  21909673.407 6         0.000 6      1926.359 6        37.977 6
G16  20477956.070 9 107612365.161 9       442.742 9        55.985 9  20477955.243 6         0.000 6       344.994 6        37.977 6
G26  20713005.356 9 108847555.163 9     -1594.937 9        55.849 9  20713008.195 6         0.000 6     -1242.809 6        37.977 6
G20  21848979.208 9 114817128.467 9      2461.273 9        55.353 9  21848979.476 6         0.000 6      1917.876 6        37.977 6
G08  25188830.566 9 132368150.394 9      3230.170 9        54.196 9  25188834.491 6         0.000 6      2517.017 6        37.977 6
> 2019 07 03 12 04 20.0000000  0  9       0.000000000000
G07  25264575.963 9 132766197.392 9      2106.564 9        54.160 9  25264576.590 6         0.000 6      1641.479 6        37.977 6
G10  23675927.050 9 124417783.811 9      3490.950 9        54.718 9  23675930.648 6         0.000 6      2720.223 6        37.977 6
G21  21220411.746 9 111513995.564 9     -1332.969 9        55.689 9  21220411.041 6         0.000 6     -1038.678 6        37.977 6
G29  24420454.160 9 128330294.282 9     -3165.547 9        54.432 9  24420455.863 6         0.000 6     -2466.662 6        37.977 6
G27  21909201.094 9 115133602.384 9      2471.910 9        55.412 9  21909202.994 6         0.000 6      1926.164 6        37.977 6
G16  20477871.878 9 107611922.732 9       442.116 9        55.985 9  20477871.051 6         0.000 6       344.506 6        37.977 6
G26  20713308.916 9 108849150.383 9     -1595.507 9        55.848 9  20713311.755 6         0.000 6     -1243.252 6        37.977 6
G20  21848510.888 9 114814667.429 9      2460.810 9        55.353 9  21848511.155 6         0.000 6      1917.515 6        37.977 6
G08  25188215.886 9 132364920.239 9      3230.152 9        54.196 9  25188219.812 6         0.000 6      2517.003 6        37.977 6
> 2019 07 03 12 04 21.0000000  0  9       0.000000000000
G07  25264175.142 9 132764091.067 9      2106.094 9        54.160 9  25264175.768 6         0.000 6      1641.113 6        37.977 6
G10  23675262.759 9 124414292.950 9      3490.791 9        54.718 9  23675266.357 6         0.000 6      2720.099 6        37.977 6
G21  21220665.436 9 111515328.710 9     -1333.324 9        55.689 9  21220664.730 6         0.000 6     -1038.954 6        37.977 6
G29  24421056.551 9 128333459.859 9     -3165.629 9        54.432 9  24421058.255 6         0.000 6     -2466.726 6        37.977 6
G27  21908730.729 9 115131130.602 9      2471.660 9        55.412 9  21908732.629 6         0.000 6      1925.970 6        37.977 6
G16  20477787.806 9 107611480.930 9       441.489 9        55.985 9  20477786.979 6         0.000 6       344.017 6        37.977 6
G26  20713612.585 9 108850746.173 9     -1596.076 9        55.848 9  20713615.424 6         0.000 6     -1243.696 6        37.977 6
G20  21848042.655 9 114812206.855 9      2460.347 9        55.353 9  21848042.922 6         0.000 6      1917.155 6        37.977 6
G08  25187601.210 9 132361690.102 9      3230.134 9        54.196 9  25187605.136 6         0.000 6      2516.989 6        37.977 6
> 2019 07 03 12 04 22.0000000  0  9       0.000000000000
G07  25263774.410 9 132761985.211 9      2105.624 9        54.160 9  25263775.036 6         0.000 6      1640.747 6        37.977 6
G10  23674598.499 9 124410802.250 9      3490.631 9        54.719 9  23674602.096 6         0.000 6      2719.975 6        37.977 6
G21  21220919.193 9 111516662.210 9     -1333.678 9        55.689 9  21220918.487 6         0.000 6     -1039.230 6        37.977 6
G29  24421658.958 9 128336625.517 9     -3165.710 9        54.432 9  24421660.662 6         0.000 6     -2466.790 6        37.977 6
G27  21908260.412 9 115128659.069 9      2471.411 9        55.412 9  21908262.311 6         0.000 6      1925.775 6        37.977 6
G16  20477703.853 9 107611039.754 9       440.862 9        55.985 9  20477703.026 6         0.000 6       343.529 6        37.977 6
G26  20713916.363 9 108852342.532 9     -1596.646 9        55.848 9  20713919.202 6         0.000 6     -1244.140 6        37.977 6
G20  21847574.511 9 114809746.743 9      2459.884 9        55.354 9  21847574.777 6         0.000 6      1916.794 6        37.977 6
G08  25186986.538 9 132358459.983 9      3230.116 9        54.196 9  25186990.463 6         0.000 6      2516.975 6        37.977 6
> 2019 07 03 12 04 23.0000000  0  9       0.000000000000
G07  25263373.768 9 132759879.826 9      2105.154 9        54.160 9  25263374.394 6         0.000 6      1640.380 6        37.977 6
G10  23673934.269 9 124407311.709 9      3490.471 9        54.719 9  23673937.865 6         0.000 6      2719.850 6        37.977 6
G21  21221173.017 9 111517996.065 9     -1334.032 9        55.689 9  21221172.312 6         0.000 6     -1039.506 6        37.977 6
G29  24422261.380 9 128339791.258 9     -3165.792 9        54.431 9  24422263.086 6         0.000 6     -2466.854 6        37.977 6
G27  21907790.142 9 115126187.786 9      2471.161 9        55.413 9  21907792.041 6         0.000 6      1925.580 6        37.977 6
G16  20477620.020 9 107610599.205 9       440.236 9        55.985 9  20477619.193 6         0.000 6       343.041 6        37.977 6
G26  20714220.249 9 108853939.460 9     -1597.215 9        55.848 9  20714223.088 6         0.000 6     -1244.584 6        37.977 6
G20  21847106.454 9 114807287.095 9      2459.421 9        55.354 9  21847106.721 6         0.000 6      1916.433 6        37.977 6
G08  25186371.869 9 132355229.881 9      3230.098 9        54.196 9  25186375.793 6         0.000 6      2516.961 6        37.977 6
> 2019 07 03 12 04 24.0000000  0  9       0.000000000000
G07  25262973.215 9 132757774.911 9      2104.683 9        54.160 9  25262973.841 6         0.000 6      1640.014 6        37.977 6
G10  23673270.070 9 124403821.328 9      3490.311 9        54.719 9  23673273.665 6         0.000 6      2719.726 6        37.977 6
G21  21221426.908 9 111519330.274 9     -1334.387 9        55.688 9  21221426.203 6         0.000 6     -1039.782 6        37.977 6
G29  24422863.818 9 128342957.081 9     -3165.874 9        54.431 9  24422865.524 6         0.000 6     -2466.918 6        37.977 6
G27  21907319.919 9 115123716.753 9      2470.911 9        55.413 9  21907321.818 6         0.000 6      1925.386 6        37.977 6
G16  20477536.305 9 107610159.283 9       439.609 9        55.985 9  20477535.478 6         0.000 6       342.553 6        37.977 6
G26  20714524.243 9 108855536.958 9     -1597.784 9        55.848 9  20714527.082 6         0.000 6     -1245.027 6        37.977 6
G20  21846638.486 9 114804827.910 9      2458.958 9        55.354 9  21846638.752 6         0.000 6      1916.072 6        37.977 6
G08  25185757.204 9 132351999.798 9      3230.080 9        54.197 9  25185761.128 6         0.000 6      2516.947 6        37.977 6
> 2019 07 03 12 04 25.0000000  0  9       0.000000000000
G07  25262572.752 9 132755670.466 9      2104.213 9        54.161 9  25262573.378 6         0.000 6      1639.648 6        37.977 6
G10  23672605.901 9 124400331.107 9      3490.151 9        54.719 9  23672609.496 6         0.000 6      2719.601 6        37.977 6
G21  21221680.867 9 111520664.837 9     -1334.741 9        55.688 9  21221680.162 6         0.000 6     -1040.058 6        37.977 6
G29  24423466.272 9 128346122.985 9     -3165.956 9        54.431 9  24423467.979 6         0.000 6     -2466.981 6        37.977 6
G27  21906849.744 9 115121245.970 9      2470.661 9        55.413 9  21906851.643 6         0.000 6      1925.191 6        37.977 6
G16  20477452.710 9 107609719.987 9       438.982 9        55.985 9  20477451.883 6         0.000 6       342.064 6        37.977 6
G26  20714828.345 9 108857135.025 9     -1598.354 9        55.848 9  20714831.185 6         0.000 6     -1245.471 6        37.977 6
G20  21846170.606 9 114802369.187 9      2458.495 9        55.354 9  21846170.872 6         0.000 6      1915.711 6        37.977 6
G08  25185142.541 9 132348769.733 9      3230.062 9        54.197 9  25185146.465 6         0.000 6      2516.933 6        37.977 6
> 2019 07 03 12 04 26.0000000  0  9       0.000000000000
G07  25262172.379 9 132753566.491 9      2103.743 9        54.161 9  25262173.004 6         0.000 6      1639.281 6        37.977 6
G10  23671941.762 9 124396841.046 9      3489.991 9        54.720 9  23671945.357 6         0.000 6      2719.476 6        37.977 6
G21  21221934.894 9 111521999.754 9     -1335.095 9        55.688 9  21221934.189 6         0.000 6     -1040.334 6        37.977 6
G29  24424068.741 9 128349288.971 9     -3166.038 9        54.431 9  24424070.448 6         0.000 6     -2467.045 6        37.977 6
G27  21906379.617 9 115118775.437 9      2470.411 9        55.413 9  21906381.516 6         0.000 6      1924.996 6        37.977 6
G16  20477369.234 9 107609281.318 9       438.356 9        55.985 9  20477368.407 6         0.000 6       341.576 6        37.977 6
G26  20715132.556 9 108858733.662 9     -1598.923 9        55.848 9  20715135.395 6         0.000 6     -1245.915 6        37.977 6
G20  21845702.814 9 114799910.929 9      2458.031 9        55.354 9  21845703.080 6         0.000 6      1915.350 6        37.977 6
G08  25184527.883 9 132345539.686 9      3230.044 9        54.197 9  25184531.806 6         0.000 6      2516.919 6        37.977 6
