     3.00           OBSERVATION DATA    G: GPS              RINEX VERSION / TYPE
RTKCONV 2.4.3 b32                       20200214 163348 UTC PGM / RUN BY / DATE 
log: C:\Users\lis4hi\Desktop\bosch\MatlabCode\KF&WLS\Data\  COMMENT             
format: u-blox                                              COMMENT             
                                                            MARKER NAME         
                                                            MARKER NUMBER       
                                                            MARKER TYPE         
                                                            OBSERVER / AGENCY   
                                                            REC # / TYPE / VERS 
                                                            ANT # / TYPE        
  3866792.6345   674227.6514  5010770.3987                  APPROX POSITION XYZ 
        0.0000        0.0000        0.0000                  ANTENNA: DELTA H/E/N
G    8 C1C L1C D1C S1C C2L L2L D2L S2L                      SYS / # / OBS TYPES 
  2019     5    23     8    24   54.0040000     GPS         TIME OF FIRST OBS   
  2019     5    23     9    16   30.0060000     GPS         TIME OF LAST OBS    
                                                            END OF HEADER       
> 2019  5 23  8 24 54.0040000  0 10                     
G12  21544739.126   113218362.253         596.273          47.000    21544737.081    88222090.232         464.678          45.000  
G15  25728376.207   135203525.988       -4544.078          45.000    25728376.274   105353426.542       -3540.994          38.000  
G25  24267601.066   127527102.907        2431.640          47.000    24267603.908    99371787.187        1894.850          43.000  
G14  26189765.369   137628147.482        2431.130          37.000                                                                  
G 6  25510910.790   134060740.773        1804.701          43.000    25510913.293   104462984.766        1406.099          39.000  
G17  24671978.512   129652117.799       -3338.027          45.000    24671976.660   101027617.893       -2600.805          42.000  
G19  22935139.395   120524967.484       -2218.783          43.000                                                                  
G24  21633003.806   113682203.423       -1892.593          48.000    21633004.660    88583541.356       -1474.709          46.000  
G32  24576741.738   129151641.702        1733.391          42.000    24576743.519   100637657.028        1351.052          41.000  
G 2  26610308.986   139838085.530        2133.770          36.000                                                                  
> 2019  5 23  8 24 55.0040000  0 10                     
G12  21544625.616   113217765.972         595.896          47.000    21544623.613    88221625.592         464.360          45.000  
G15  25729240.910   135208069.833       -4544.055          45.000    25729240.912   105356967.194       -3540.967          38.000  
G25  24267138.491   127524671.123        2431.595          47.000    24267141.048    99369892.300        1894.762          43.000  
G14  26189302.715   137625716.644        2430.498          37.000                                                                  
G 6  25510567.379   134058935.949        1804.493          43.000    25510569.913   104461578.394        1406.318          39.000  
G17  24672613.719   129655455.739       -3338.203          45.000    24672611.860   101030218.892       -2601.129          42.000  
G19  22935561.674   120527186.439       -2219.453          43.000                                                                  
G24  21633363.931   113684096.000       -1892.946          48.000    21633364.904    88585016.090       -1475.013          46.000  
G32  24576411.798   129149908.103        1733.125          42.000    24576413.659   100636306.170        1350.671          41.000  
G 2  26609902.993   139835951.833        2133.321          36.000                                                                  
> 2019  5 23  8 24 56.0040000  0 10                     
G12  21544512.267   113217170.396         595.170          47.000    21544510.183    88221161.508         463.755          45.000  
G15  25730105.634   135212613.918       -4544.175          45.000    25730105.734   105360508.046       -3541.243          38.000  
G25  24266675.866   127522239.805        2431.035          47.000    24266678.365    99367997.762        1894.450          43.000  
G14  26188840.271   137623286.242        2430.352          37.000                                                                  
G 6  25510223.988   134057131.663        1804.081          43.000    25510226.588   104460172.484        1405.608          40.000  
G17  24673249.051   129658794.296       -3338.996          45.000    24673247.199   101032820.356       -2601.716          42.000  
G19  22935984.061   120529406.305       -2220.544          44.000                                                                  
G24  21633724.191   113685989.307       -1893.678          48.000    21633725.353    88586491.400       -1475.586          46.000  
G32  24576081.982   129148175.173        1732.410          42.000    24576084.021   100634955.846        1349.948          41.000  
G 2  26609496.854   139833818.315        2132.950          36.000                                                                  
> 2019  5 23  8 24 57.0040000  0 10                     
G12  21544399.029   113216575.429         594.440          47.000    21544396.920    88220697.900         463.135          45.000  
G15  25730970.316   135217158.180       -4544.514          45.000    25730970.365   105364048.999       -3541.048          38.000  
G25  24266213.216   127519808.816        2430.680          47.000    24266215.837    99366103.487        1894.136          43.000  
G14  26188377.737   137620856.178        2430.258          37.000                                                                  
G 6  25509880.754   134055327.822        1803.584          43.000    25509883.328   104458766.893        1405.287          40.000  
G17  24673884.540   129662133.323       -3339.436          45.000    24673882.634   101035422.216       -2602.186          42.000  
G19  22936406.454   120531626.944       -2221.204          44.000                                                                  
G24  21634084.575   113687883.201       -1894.233          48.000    21634085.700    88587967.155       -1475.915          46.000  
G32  24575752.331   129146442.815        1731.924          42.000    24575754.420   100633605.967        1349.316          41.000  
G 2  26609090.783   139831684.894        2134.016          36.000                                                                  
> 2019  5 23  8 24 58.0040000  0 10                     
G12  21544285.958   113215980.958         594.273          47.000    21544283.835    88220234.681         463.011          45.000  
G15  25731835.034   135221702.465       -4544.188          45.000    25731835.131   105367590.022       -3541.293          38.000  
G25  24265750.614   127517378.069        2430.713          47.000    24265753.306    99364209.407        1894.017          43.000  
G14  26187915.405   137618426.335        2430.172          37.000                                                                  
G 6  25509537.564   134053524.336        1803.049          43.000    25509540.111   104457361.566        1405.206          40.000  
G17  24674519.879   129665472.750       -3339.557          45.000    24674518.099   101038024.350       -2602.118          42.000  
G19  22936829.155   120533848.277       -2221.694          44.000                                                                  
G24  21634445.039   113689777.585       -1894.507          48.000    21634446.155    88589443.305       -1476.282          46.000  
G32  24575422.746   129144710.914        1731.785          42.000    24575424.886   100632256.426        1349.506          41.000  
G 2  26608684.748   139829551.528        2133.974          36.000                                                                  
> 2019  5 23  8 24 59.0040000  0 10                     
G12  21544172.870   113215387.000         593.494          47.000    21544170.701    88219771.849         462.565          45.000  
G15  25732699.733   135226246.821       -4544.596          45.000    25732699.922   105371131.070       -3541.498          38.000  
G25  24265288.116   127514947.579        2430.156          47.000    24265290.754    99362315.505        1893.848          43.000  
G14  26187452.988   137615996.764        2429.219          37.000                                                                  
G 6  25509194.385   134051721.177        1802.825          43.000    25509196.972   104455956.508        1404.896          40.000  
G17  24675155.499   129668812.579       -3340.126          45.000    24675153.604   101040626.817       -2602.656          42.000  
G19  22937251.848   120536070.298       -2222.580          44.000                                                                  
G24  21634805.658   113691672.483       -1895.334          48.000    21634806.725    88590919.842       -1476.827          46.000  
G32  24575093.225   129142979.480        1731.256          42.000    24575095.489   100630907.266        1348.899          41.000  
G 2  26608278.732   139827418.184        2133.492          36.000                                                                  
> 2019  5 23  8 25  0.0040000  0 10                     
G12  21544059.844   113214793.329         593.269          47.000    21544057.689    88219309.249         462.283          45.000  
G15  25733564.404   135230791.008       -4544.374          45.000    25733564.652   105374671.978       -3540.711          38.000  
G25  24264825.566   127512517.117        2430.306          47.000    24264828.155    99360421.657        1893.704          43.000  
G14  26186990.735   137613567.208        2429.335          37.000                                                                  
G 6  25508851.199   134049918.147        1802.855          42.000    25508853.809   104454551.571        1404.832          39.000  
G17  24675791.063   129672152.582       -3340.309          45.000    24675789.256   101043229.427       -2602.993          42.000  
G19  22937674.708   120538292.788       -2222.943          44.000                                                                  
G24  21635166.202   113693567.642       -1895.479          48.000    21635167.494    88592396.593       -1477.022          46.000  
G32  24574763.811   129141248.317        1731.000          42.000    24574765.964   100629558.309        1348.596          41.000  
G 2  26607872.716   139825284.660        2133.230          36.000                                                                  
> 2019  5 23  8 25  1.0040000  0 10                     
G12  21543947.001   113214200.156         592.951          47.000    21543944.784    88218847.031         462.156          45.000  
G15  25734429.134   135235335.232       -4544.113          45.000    25734429.571   105378212.950       -3540.939          38.000  
G25  24264363.084   127510086.901        2430.145          47.000    24264365.674    99358527.974        1893.628          43.000  
G14  26186528.440   137611137.861        2429.469          37.000                                                                  
G 6  25508508.199   134048115.451        1802.816          43.000    25508510.808   104453146.873        1404.530          39.000  
G17  24676426.707   129675492.969       -3340.432          45.000    24676424.853   101045832.315       -2602.907          42.000  
G19  22938097.816   120540515.941       -2223.258          44.000                                                                  
G24  21635526.908   113695463.280       -1895.779          48.000    21635528.157    88593873.715       -1477.365          46.000  
G32  24574434.662   129139517.594        1730.476          42.000    24574436.634   100628209.695        1348.327          41.000  
G 2  26607466.640   139823151.133        2133.259          36.000                                                                  
> 2019  5 23  8 25  2.0040000  0 10                     
G12  21543834.232   113213607.471         592.436          48.000    21543831.925    88218385.207         461.644          45.000  
G15  25735293.908   135239879.511       -4544.422          45.000    25735294.288   105381753.937       -3541.182          38.000  
G25  24263900.746   127507656.920        2429.692          47.000    24263903.210    99356634.485        1893.393          43.000  
G14  26186066.220   137608708.781        2428.519          37.000                                                                  
G 6  25508165.195   134046313.124        1801.870          43.000    25508167.792   104451742.470        1403.810          39.000  
G17  24677062.441   129678833.761       -3341.004          45.000    24677060.617   101048435.532       -2603.401          42.000  
G19  22938520.891   120542739.806       -2224.311          44.000                                                                  
G24  21635887.718   113697359.439       -1896.400          48.000    21635889.008    88595351.243       -1477.859          46.000  
G32  24574105.451   129137787.340        1729.865          42.000    24574107.359   100626861.449        1347.750          41.000  
G 2  26607060.642   139821017.614        2133.469          35.000                                                                  
> 2019  5 23  8 25  3.0040000  0 10                     
G12  21543721.593   113213015.300         591.851          48.000    21543719.249    88217923.770         461.124          45.000  
G15  25736158.590   135244423.823       -4544.507          45.000    25736159.098   105385294.944       -3540.957          38.000  
G25  24263438.367   127505227.185        2429.510          47.000    24263440.819    99354741.183        1893.104          43.000  
G14  26185604.093   137606279.879        2428.928          37.000                                                                  
G 6  25507822.274   134044511.099        1801.754          43.000    25507824.875   104450338.275        1404.224          39.000  
G17  24677698.265   129682174.921       -3341.320          45.000    24677696.510   101051039.044       -2603.791          41.000  
G19  22938944.133   120544964.337       -2224.937          44.000                                                                  
G24  21636248.686   113699256.116       -1897.034          48.000    21636250.020    88596829.167       -1478.143          46.000  
G32  24573776.262   129136057.539        1729.479          42.000    24573778.186   100625513.559        1347.364          41.000  
G 2  26606654.512   139818884.121        2133.369          35.000                                                                  
> 2019  5 23  8 25  4.0040000  0 10                     
G12  21543609.070   113212423.619         591.457          48.000    21543606.712    88217462.723         460.834          45.000  
G15  25737023.423   135248968.183       -4544.580          45.000    25737023.851   105388836.026       -3541.373          38.000  
G25  24262976.053   127502797.697        2429.302          47.000    24262978.550    99352848.086        1892.920          43.000  
G14  26185141.934   137603851.240        2428.526          37.000                                                                  
G 6  25507479.414   134042709.426        1801.311          43.000    25507482.074   104448934.397        1403.555          39.000  
G17  24678334.104   129685516.483       -3341.883          45.000    24678332.362   101053642.839       -2603.900          41.000  
G19  22939367.433   120547189.548       -2225.700          44.000                                                                  
G24  21636609.670   113701153.278       -1897.418          48.000    21636611.104    88598307.478       -1478.633          46.000  
G32  24573447.190   129134328.190        1729.358          42.000    24573449.115   100624166.020        1347.277          41.000  
G 2  26606248.413   139816750.621        2133.771          35.000                                                                  
> 2019  5 23  8 25  5.0040000  0 10                     
G12  21543496.590   113211832.570         590.753          48.000    21543494.268    88217002.164         460.317          45.000  
G15  25737888.196   135253512.721       -4544.690          45.000    25737888.592   105392377.221       -3541.613          38.000  
G25  24262513.766   127500368.579        2428.922          47.000    24262516.338    99350955.257        1892.725          43.000  
G14  26184679.850   137601422.966        2428.532          37.000                                                                  
G 6  25507136.595   134040908.203        1800.991          43.000    25507139.433   104447530.844        1403.320          39.000  
G17  24678970.036   129688858.553       -3342.232          45.000    24678968.309   101056247.046       -2604.150          42.000  
G19  22939791.054   120549415.578       -2226.419          44.000                                                                  
G24  21636970.847   113703051.063       -1898.112          48.000    21636972.139    88599786.266       -1479.012          46.000  
G32  24573118.225   129132599.460        1728.472          42.000    24573120.161   100622818.946        1346.796          41.000  
G 2  26605842.314   139814617.289        2133.058          35.000                                                                  
> 2019  5 23  8 25  6.0040000  0 10                     
G12  21543384.123   113211241.699         590.476          48.000    21543381.920    88216541.747         460.094          45.000  
G15  25738752.879   135258056.980       -4544.468          45.000    25738753.357   105395918.197       -3541.248          38.000  
G25  24262051.532   127497939.385        2428.903          47.000    24262054.157    99349062.369        1892.894          43.000  
G14  26184217.801   137598994.612        2428.099          37.000                                                                  
G 6  25506793.865   134039107.026        1800.847          43.000    25506796.723   104446127.336        1402.968          39.000  
G17  24679606.063   129692200.700       -3342.507          45.000    24679604.268   101058851.341       -2604.683          41.000  
G19  22940214.604   120551641.974       -2226.955          44.000                                                                  
G24  21637331.966   113704949.011       -1898.354          48.000    21637333.326    88601265.190       -1479.175          46.000  
G32  24572789.245   129130870.870        1728.229          42.000    24572791.185   100621471.985        1346.654          41.000  
G 2  26605436.307   139812483.641        2133.402          36.000                                                                  
> 2019  5 23  8 25  7.0040000  0 10                     
G12  21543271.726   113210651.273         589.956          48.000    21543269.568    88216081.671         459.739          45.000  
G15  25739617.621   135262601.237       -4544.452          45.000    25739618.180   105399459.170       -3541.259          38.000  
G25  24261589.324   127495510.380        2428.646          47.000    24261591.879    99347169.650        1892.384          43.000  
G14  26183755.721   137596566.409        2427.604          37.000                                                                  
G 6  25506451.153   134037306.108        1800.580          43.000    25506453.858   104444724.017        1403.048          39.000  
G17  24680242.078   129695543.186       -3343.076          45.000    24680240.347   101061455.861       -2604.964          41.000  
G19  22940638.475   120553868.991       -2227.781          44.000                                                                  
G24  21637693.196   113706847.404       -1898.879          48.000    21637694.520    88602744.460       -1479.714          46.000  
G32  24572460.332   129129142.671        1727.681          42.000    24572462.309   100620125.335        1346.416          41.000  
G 2  26605030.369   139810349.957        2133.352          35.000                                                                  
> 2019  5 23  8 25  8.0040000  0 10                     
G12  21543159.525   113210061.584         589.458          48.000    21543157.467    88215622.177         459.180          45.000  
G15  25740482.370   135267145.785       -4544.653          45.000    25740482.956   105403000.364       -3541.077          38.000  
G25  24261127.224   127493081.858        2428.347          47.000    24261129.752    99345277.304        1892.072          43.000  
G14  26183293.713   137594138.671        2428.011          37.000                                                                  
G 6  25506108.480   134035505.795        1800.078          43.000    25506111.315   104443321.182        1402.853          39.000  
G17  24680878.271   129698886.301       -3343.466          45.000    24680876.480   101064060.885       -2605.095          41.000  
G19  22941062.339   120556096.923       -2228.055          44.000                                                                  
G24  21638054.691   113708746.557       -1899.421          48.000    21638055.889    88604224.311       -1479.999          46.000  
G32  24572131.628   129127415.187        1727.299          42.000    24572133.631   100618779.247        1346.027          41.000  
G 2  26604624.277   139808216.521        2133.379          35.000                                                                  
> 2019  5 23  8 25  9.0040000  0 10                     
G12  21543047.474   113209472.379         589.000          48.000    21543045.419    88215163.052         459.072          45.000  
G15  25741347.198   135271690.352       -4544.704          45.000    25741347.767   105406541.600       -3541.410          38.000  
G25  24260665.168   127490653.569        2428.116          47.000    24260667.578    99343385.115        1892.118          43.000  
G14  26182831.776   137591711.190        2427.171          37.000                                                                  
G 6  25505765.943   134033705.788        1799.967          43.000    25505768.867   104441918.579        1402.567          39.000  
G17  24681514.511   129702229.777       -3343.677          45.000    24681512.750   101066666.194       -2605.543          41.000  
G19  22941486.424   120558325.552       -2229.243          44.000                                                                  
G24  21638416.199   113710646.199       -1899.890          48.000    21638417.422    88605704.548       -1480.241          46.000  
G32  24571802.901   129125688.152        1726.730          42.000    24571804.970   100617433.493        1345.790          41.000  
G 2  26604218.387   139806083.096        2133.562          35.000                                                                  
> 2019  5 23  8 25 10.0040000  0 10                     
G12  21542935.444   113208883.783         588.467          48.000    21542933.450    88214704.405         458.646          45.000  
G15  25742211.949   135276235.085       -4544.674          45.000    25742212.616   105410082.947       -3541.345          39.000  
G25  24260203.195   127488225.631        2427.821          47.000    24260205.630    99341493.219        1891.828          43.000  
G14  26182369.881   137589284.042        2426.991          37.000                                                                  
G 6  25505423.539   134031906.229        1799.565          43.000    25505426.488   104440516.335        1401.979          39.000  
G17  24682150.836   129705573.765       -3344.128          45.000    24682149.082   101069271.897       -2605.859          41.000  
G19  22941910.662   120560554.946       -2229.644          44.000                                                                  
G24  21638777.887   113712546.451       -1900.372          48.000    21638778.938    88607185.276       -1480.847          46.000  
G32  24571474.293   129123961.680        1726.301          42.000    24571476.485   100616088.222        1345.102          41.000  
G 2  26603812.480   139803949.776        2133.738          35.000                                                                  
> 2019  5 23  8 25 11.0040000  0 10                     
G12  21542823.550   113208295.579         588.064          48.000    21542821.534    88214246.068         458.217          45.000  
G15  25743076.764   135280779.753       -4544.651          45.000    25743077.448   105413624.246       -3541.497          38.000  
G25  24259741.275   127485797.815        2427.769          47.000    24259743.613    99339601.420        1891.687          43.000  
G14  26181908.152   137586857.005        2426.741          37.000                                                                  
G 6  25505081.082   134030106.909        1799.298          43.000    25505084.041   104439114.248        1402.267          39.000  
G17  24682787.212   129708918.035       -3344.273          45.000    24682785.475   101071877.820       -2606.140          41.000  
G19  22942335.001   120562784.923       -2230.090          44.000                                                                  
G24  21639139.553   113714447.102       -1900.867          48.000    21639140.687    88608666.299       -1481.208          46.000  
G32  24571145.845   129122235.558        1726.071          42.000    24571148.127   100614743.167        1345.025          41.000  
G 2  26603406.434   139801816.371        2133.150          35.000                                                                  
> 2019  5 23  8 25 12.0040000  0 10                     
G12  21542711.674   113207707.968         587.308          47.000    21542709.648    88213788.191         457.570          45.000  
G15  25743941.677   135285324.552       -4545.011          45.000    25743942.301   105417165.645       -3541.810          39.000  
G25  24259279.251   127483370.317        2427.260          47.000    24259281.694    99337709.865        1891.327          43.000  
G14  26181446.289   137584430.269        2426.812          37.000                                                                  
G 6  25504738.682   134028308.001        1798.661          43.000    25504741.742   104437712.518        1401.534          39.000  
G17  24683423.691   129712262.781       -3344.941          45.000    24683421.928   101074484.102       -2606.175          41.000  
G19  22942759.471   120565015.662       -2231.218          44.000                                                                  
G24  21639501.294   113716348.317       -1901.527          48.000    21639502.529    88610147.764       -1481.616          46.000  
G32  24570817.439   129120509.980        1725.301          42.000    24570819.719   100613398.574        1344.339          41.000  
G 2  26603000.459   139799683.048        2133.230          35.000                                                                  
> 2019  5 23  8 25 13.0040000  0 10                     
G12  21542599.921   113207121.117         586.341          47.000    21542598.018    88213330.910         456.836          45.000  
G15  25744806.510   135289869.640       -4545.103          45.000    25744807.242   105420707.280       -3541.966          39.000  
G25  24258817.456   127480943.325        2426.705          47.000    24258820.009    99335818.707        1890.836          43.000  
G14  26180984.501   137582004.023        2426.311          37.000                                                                  
G 6  25504396.485   134026509.696        1797.939          43.000    25504399.447   104436311.223        1401.267          39.000  
G17  24684060.297   129715608.176       -3345.761          45.000    24684058.590   101077090.909       -2607.039          41.000  
G19  22943184.066   120567247.332       -2232.231          44.000                                                                  
G24  21639863.299   113718250.293       -1902.425          48.000    21639864.520    88611629.817       -1482.215          46.000  
G32  24570489.283   129118785.129        1724.586          42.000    24570491.533   100612054.527        1343.903          41.000  
G 2  26602594.481   139797550.041        2132.812          35.000                                                                  
> 2019  5 23  8 25 14.0040000  0 10                     
G12  21542488.358   113206534.796         586.219          48.000    21542486.418    88212874.026         457.017          45.000  
G15  25745671.482   135294414.824       -4545.015          45.000    25745672.104   105424248.966       -3541.588          39.000  
G25  24258355.567   127478516.601        2426.958          47.000    24258358.246    99333927.758        1891.129          43.000  
G14  26180522.704   137579578.084        2426.029          37.000                                                                  
G 6  25504054.277   134024711.756        1797.870          43.000    25504057.309   104434910.243        1400.862          39.000  
G17  24684696.918   129718953.989       -3345.701          45.000    24684695.224   101079698.043       -2607.228          41.000  
G19  22943608.835   120569479.721       -2232.521          44.000                                                                  
G24  21640225.339   113720152.800       -1902.538          48.000    21640226.538    88613112.291       -1482.372          46.000  
G32  24570161.129   129117060.765        1724.453          42.000    24570163.511   100610710.882        1343.522          41.000  
G 2  26602188.608   139795417.049        2133.142          36.000                                                                  
> 2019  5 23  8 25 15.0040000  0 10                     
G12  21542376.874   113205949.109         585.214          48.000    21542374.927    88212417.660         455.911          45.000  
G15  25746536.466   135298960.181       -4545.340          45.000    25746537.094   105427790.824       -3542.422          39.000  
G25  24257893.856   127476090.288        2425.866          47.000    24257896.539    99332037.121        1890.301          43.000  
G14  26180061.178   137577152.489        2425.343          37.000                                                                  
G 6  25503712.294   134022914.300        1796.925          43.000    25503715.234   104433509.630        1400.134          39.000  
G17  24685333.723   129722300.334       -3346.705          45.000    24685331.978   101082305.585       -2608.073          41.000  
G19  22944033.826   120571712.948       -2233.876          44.000                                                                  
G24  21640587.492   113722055.969       -1903.565          48.000    21640588.676    88614595.291       -1483.307          46.000  
G32  24569833.077   129115337.018        1723.506          42.000    24569835.527   100609367.695        1342.838          41.000  
G 2  26601782.769   139793284.194        2132.775          36.000                                                                  
> 2019  5 23  8 25 16.0040000  0 10                     
G12  21542265.584   113205363.845         585.401          48.000    21542263.389    88211961.608         456.071          45.000  
G15  25747401.400   135303505.536       -4545.281          45.000    25747402.027   105431332.629       -3541.644          39.000  
G25  24257432.028   127473664.118        2426.324          47.000    24257434.839    99330146.599        1890.673          43.000  
G14  26179599.661   137574727.040        2425.816          37.000                                                                  
G 6  25503370.325   134021117.101        1797.388          43.000    25503373.257   104432109.208        1400.797          39.000  
G17  24685970.561   129725646.989       -3346.719          45.000    24685968.921   101084913.368       -2607.832          41.000  
G19  22944458.926   120573946.759       -2233.849          44.000                                                                  
G24  21640949.689   113723959.590       -1903.732          48.000    21640950.959    88616078.622       -1483.313          46.000  
G32  24569505.104   129113613.663        1723.230          42.000    24569507.572   100608024.820        1342.769          41.000  
G 2  26601377.037   139791151.321        2133.146          36.000                                                                  
> 2019  5 23  8 25 17.0040000  0 10                     
G12  21542154.332   113204779.023         584.581          48.000    21542152.179    88211505.897         455.547          45.000  
G15  25748266.289   135308050.856       -4545.522          45.000    25748266.960   105434874.431       -3541.966          39.000  
G25  24256970.360   127471238.137        2425.878          47.000    24256973.109    99328256.231        1890.187          43.000  
G14  26179138.041   137572301.806        2425.221          37.000                                                                  
G 6  25503028.225   134019320.189        1796.720          43.000    25503031.323   104430709.018        1399.973          39.000  
G17  24686607.512   129728993.956       -3347.219          45.000    24686605.803   101087521.377       -2608.056          41.000  
G19  22944884.067   120576181.189       -2234.643          44.000                                                                  
G24  21641311.981   113725863.620       -1904.348          48.000    21641313.277    88617562.288       -1483.950          46.000  
G32  24569177.113   129111890.691        1722.546          42.000    24569179.713   100606682.236        1342.316          41.000  
G 2  26600971.311   139789018.385        2132.822          36.000                                                                  
> 2019  5 23  8 25 18.0040000  0 10                     
G12  21542043.233   113204194.648         584.077          48.000    21542041.030    88211050.537         455.226          45.000  
G15  25749131.322   135312596.156       -4545.415          45.000    25749131.984   105438416.241       -3542.041          39.000  
G25  24256508.665   127468812.354        2425.646          47.000    24256511.557    99326366.009        1890.114          43.000  
G14  26178676.561   137569876.746        2424.778          37.000                                                                  
G 6  25502686.295   134017523.553        1796.604          43.000    25502689.504   104429309.045        1399.944          39.000  
G17  24687244.514   129732341.271       -3347.614          45.000    24687242.811   101090129.683       -2608.582          41.000  
G19  22945309.386   120578416.275       -2235.568          44.000                                                                  
G24  21641674.404   113727768.113       -1904.760          48.000    21641675.729    88619046.306       -1484.228          46.000  
G32  24568849.261   129110168.136        1722.248          42.000    24568851.936   100605339.998        1341.974          41.000  
G 2  26600565.468   139786885.426        2132.790          36.000                                                                  
> 2019  5 23  8 25 19.0040000  0 10                     
G12  21541932.022   113203610.556         584.025          48.000    21541929.761    88210595.403         455.112          45.000  
G15  25749996.175   135317141.324       -4545.130          45.000    25749996.947   105441957.898       -3541.397          39.000  
G25  24256047.062   127466386.607        2425.696          47.000    24256049.904    99324475.820        1890.080          43.000  
G14  26178215.065   137567451.697        2425.037          37.000                                                                  
G 6  25502344.512   134015727.080        1796.393          43.000    25502347.487   104427909.200        1399.835          39.000  
G17  24687881.453   129735688.770       -3347.690          45.000    24687879.759   101092738.108       -2608.505          41.000  
G19  22945734.766   120580651.821       -2235.886          44.000                                                                  
G24  21642036.788   113729672.900       -1904.958          48.000    21642038.243    88620530.551       -1484.284          46.000  
G32  24568521.487   129108445.841        1722.089          42.000    24568524.261   100603997.940        1342.114          41.000  
G 2  26600159.488   139784752.259        2133.470          37.000                                                                  
> 2019  5 23  8 25 20.0040000  0 10                     
G12  21541820.934   113203026.914         583.396          47.000    21541818.682    88210140.625         454.689          45.000  
G15  25750861.055   135321686.467       -4545.164          45.000    25750861.897   105445499.589       -3541.809          39.000  
G25  24255585.481   127463961.050        2425.571          47.000    24255588.344    99322585.780        1889.818          43.000  
G14  26177753.565   137565026.821        2424.985          37.000                                                                  
G 6  25502002.735   134013930.888        1795.703          43.000    25502005.621   104426509.559        1399.718          39.000  
G17  24688518.576   129739036.601       -3348.147          45.000    24688516.937   101095346.833       -2609.103          41.000  
G19  22946160.310   120582887.995       -2236.454          44.000                                                                  
G24  21642399.391   113731578.129       -1905.501          48.000    21642400.805    88622015.146       -1484.692          46.000  
G32  24568193.861   129106723.959        1721.729          42.000    24568196.567   100602656.226        1341.657          41.000  
G 2  26599753.609   139782619.085        2133.184          37.000                                                                  
> 2019  5 23  8 25 21.0040000  0 10                     
G12  21541709.860   113202443.640         583.048          47.000    21541707.687    88209686.132         454.245          45.000  
G15  25751725.964   135326231.535       -4544.972          45.000    25751726.822   105449041.195       -3541.735          39.000  
G25  24255123.927   127461535.620        2425.273          47.000    24255126.678    99320695.827        1889.806          43.000  
G14  26177292.036   137562602.092        2424.400          37.000                                                                  
G 6  25501660.935   134012134.887        1795.897          43.000    25501663.963   104425110.092        1399.460          39.000  
G17  24689155.715   129742384.718       -3348.341          45.000    24689154.057   101097955.730       -2609.047          41.000  
G19  22946585.892   120585124.738       -2237.218          44.000                                                                  
G24  21642761.968   113733483.724       -1905.922          48.000    21642763.413    88623500.018       -1484.955          46.000  
G32  24567866.226   129105002.417        1721.442          42.000    24567868.970   100601314.765        1341.355          41.000  
G 2  26599347.630   139780485.786        2133.198          37.000                                                                  
> 2019  5 23  8 25 22.0040000  0 10                     
G12  21541598.909   113201860.877         582.548          47.000    21541596.898    88209232.025         453.992          45.000  
G15  25752590.766   135330776.650       -4544.949          45.000    25752591.710   105452582.836       -3541.510          39.000  
G25  24254662.435   127459110.428        2425.248          47.000    24254665.174    99318806.069        1889.929          43.000  
G14  26176830.684   137560177.587        2424.581          37.000                                                                  
G 6  25501319.186   134010339.245        1795.746          43.000    25501322.293   104423710.907        1398.928          39.000  
G17  24689792.917   129745733.223       -3348.701          45.000    24689791.344   101100564.963       -2609.282          41.000  
G19  22947011.681   120587362.146       -2237.607          44.000                                                                  
G24  21643124.697   113735389.840       -1906.195          48.000    21643126.012    88624985.310       -1485.370          46.000  
G32  24567538.694   129103281.349        1720.911          42.000    24567541.425   100599973.659        1341.119          41.000  
G 2  26598941.631   139778352.538        2132.992          37.000                                                                  
> 2019  5 23  8 25 23.0040000  0 10                     
G12  21541488.047   113201278.998         581.497          48.000    21541486.246    88208778.617         453.048          45.000  
G15  25753455.772   135335322.207       -4545.732          44.000    25753456.729   105456124.838       -3542.227          39.000  
G25  24254201.099   127456685.880        2424.281          47.000    24254203.789    99316916.800        1889.234          43.000  
G14  26176369.522   137557753.688        2423.765          37.000                                                                  
G 6  25500977.735   134008544.345        1794.585          43.000    25500980.605   104422312.272        1398.447          39.000  
G17  24690430.328   129749082.491       -3349.457          45.000    24690428.697   101103174.778       -2609.967          41.000  
G19  22947437.733   120589600.650       -2239.044          44.000                                                                  
G24  21643487.701   113737296.861       -1907.400          48.000    21643488.977    88626471.308       -1486.503          46.000  
G32  24567211.367   129101561.123        1720.095          42.000    24567214.134   100598633.241        1340.013          41.000  
G 2  26598535.835   139776219.653        2132.582          37.000                                                                  
> 2019  5 23  8 25 24.0040000  0 10                     
G12  21541377.359   113200697.783         580.944          48.000    21541375.706    88208325.717         452.690          45.000  
G15  25754320.829   135339867.975       -4545.754          44.000    25754321.716   105459666.994       -3542.258          39.000  
G25  24253739.902   127454261.738        2423.975          47.000    24253742.489    99315027.860        1888.980          43.000  
G14  26175908.394   137555330.194        2423.385          37.000                                                                  
G 6  25500636.276   134006749.936        1794.137          43.000    25500639.166   104420914.036        1397.975          39.000  
G17  24691067.693   129752432.324       -3350.062          45.000    24691066.048   101105785.042       -2610.400          41.000  
G19  22947863.848   120591839.964       -2239.560          43.000                                                                  
G24  21643850.678   113739204.527       -1907.978          48.000    21643851.933    88627957.795       -1486.763          46.000  
G32  24566884.106   129099841.539        1719.009          42.000    24566886.873   100597293.296        1339.821          41.000  
G 2  26598130.133   139774086.975        2132.244          37.000                                                                  
> 2019  5 23  8 25 25.0040000  0 10                     
G12  21541266.752   113200117.074         580.385          48.000    21541265.147    88207873.218         452.262          45.000  
G15  25755185.844   135344413.786       -4545.768          45.000    25755186.823   105463209.166       -3542.115          39.000  
G25  24253278.661   127451837.828        2423.763          47.000    24253281.259    99313139.118        1888.456          43.000  
G14  26175447.299   137552906.938        2423.079          37.000                                                                  
G 6  25500294.773   134004955.884        1793.802          43.000    25500297.797   104419516.062        1397.891          39.000  
G17  24691705.263   129755782.542       -3350.410          45.000    24691703.553   101108395.600       -2610.669          41.000  
G19  22948290.175   120594079.985       -2240.402          43.000                                                                  
G24  21644213.853   113741112.680       -1908.510          48.000    21644215.047    88629444.664       -1487.024          46.000  
G32  24566556.926   129098122.413        1718.802          42.000    24566559.697   100595953.727        1339.354          41.000  
G 2  26597724.338   139771954.292        2132.576          37.000                                                                  
> 2019  5 23  8 25 26.0040000  0 10                     
G12  21541156.209   113199536.734         579.710          48.000    21541154.683    88207421.007         451.577          45.000  
G15  25756050.881   135348959.521       -4546.211          45.000    25756051.837   105466751.287       -3542.036          39.000  
G25  24252817.355   127449414.054        2423.351          47.000    24252820.083    99311250.453        1888.300          43.000  
G14  26174986.203   137550483.789        2422.917          37.000                                                                  
G 6  25499953.391   134003162.034        1793.231          43.000    25499956.338   104418118.275        1397.169          39.000  
G17  24692342.831   129759133.019       -3350.978          45.000    24692341.085   101111006.354       -2611.068          41.000  
G19  22948716.566   120596320.548       -2241.190          43.000                                                                  
G24  21644577.040   113743021.207       -1909.116          48.000    21644578.167    88630931.836       -1487.822          46.000  
G32  24566229.903   129096403.632        1717.863          42.000    24566232.607   100594614.416        1338.738          41.000  
G 2  26597318.502   139769821.518        2132.368          37.000                                                                  
> 2019  5 23  8 25 27.0040000  0 10                     
G12  21541045.877   113198956.950         579.540          48.000    21541044.300    88206969.220         451.685          45.000  
G15  25756915.880   135353505.346       -4545.880          45.000    25756916.877   105470293.510       -3542.474          39.000  
G25  24252356.240   127446990.572        2423.312          47.000    24252358.817    99309362.023        1888.364          43.000  
G14  26174525.169   137548060.927        2422.985          37.000                                                                  
G 6  25499612.110   134001368.578        1793.247          43.000    25499615.002   104416720.778        1397.289          39.000  
G17  24692980.340   129762483.939       -3351.080          45.000    24692978.768   101113617.469       -2611.218          41.000  
G19  22949143.066   120598561.864       -2241.683          43.000                                                                  
G24  21644940.340   113744930.292       -1909.339          48.000    21644941.415    88632419.433       -1487.837          46.000  
G32  24565902.987   129094685.350        1718.016          42.000    24565905.728   100593275.491        1338.725          41.000  
G 2  26596912.720   139767688.811        2132.740          37.000                                                                  
> 2019  5 23  8 25 28.0040000  0 10                     
G12  21540935.531   113198377.608         578.995          48.000    21540934.091    88206517.793         451.189          45.000  
G15  25757780.959   135358051.163       -4545.797          45.000    25757781.925   105473835.695       -3542.305          39.000  
G25  24251895.128   127444567.278        2423.060          47.000    24251897.620    99307473.751        1888.038          43.000  
G14  26174064.120   137545638.274        2422.389          37.000                                                                  
G 6  25499270.842   133999575.409        1792.961          43.000    25499273.799   104415323.505        1397.053          39.000  
G17  24693618.062   129765835.197       -3351.496          45.000    24693616.504   101116228.833       -2611.653          41.000  
G19  22949569.614   120600803.796       -2242.266          44.000                                                                  
G24  21645303.637   113746839.815       -1909.890          48.000    21645304.775    88633907.368       -1488.259          46.000  
G32  24565576.202   129092967.497        1717.583          42.000    24565578.885   100591936.922        1338.223          41.000  
G 2  26596506.880   139765556.088        2132.441          37.000                                                                  
> 2019  5 23  8 25 29.0040000  0 10                     
G12  21540825.342   113197798.748         578.662          48.000    21540823.921    88206066.733         450.984          45.000  
G15  25758645.953   135362597.013       -4545.771          45.000    25758646.984   105477377.909       -3541.815          39.000  
G25  24251434.057   127442144.213        2423.057          47.000    24251436.490    99305585.643        1888.163          43.000  
G14  26173603.268   137543215.829        2422.277          37.000                                                                  
G 6  25498929.710   133997782.582        1792.612          43.000    25498932.594   104413926.481        1397.106          39.000  
G17  24694255.788   129769186.814       -3351.690          45.000    24694254.252   101118840.479       -2611.707          41.000  
G19  22949996.370   120603046.405       -2242.956          44.000                                                                  
G24  21645667.066   113748749.822       -1910.156          48.000    21645668.186    88635395.681       -1488.396          46.000  
G32  24565249.365   129091250.085        1717.230          42.000    24565252.158   100590598.673        1338.192          41.000  
G 2  26596100.872   139763423.324        2133.214          37.000                                                                  
> 2019  5 23  8 25 30.0040000  0 10                     
G12  21540715.230   113197220.450         577.804          48.000    21540713.952    88205616.103         450.339          45.000  
G15  25759510.994   135367142.974       -4546.272          45.000    25759512.133   105480920.218       -3542.576          39.000  
G25  24250972.956   127439721.454        2422.339          47.000    24250975.495    99303697.779        1887.624          43.000  
G14  26173142.288   137540793.656        2421.903          37.000                                                                  
G 6  25498588.556   133995990.137        1792.237          43.000    25498591.505   104412529.806        1396.338          39.000  
G17  24694893.613   129772538.868       -3352.313          45.000    24694892.208   101121452.479       -2612.375          41.000  
G19  22950423.303   120605289.734       -2244.062          44.000                                                                  
G24  21646030.736   113750660.384       -1911.061          48.000    21646031.771    88636884.430       -1489.038          46.000  
G32  24564922.670   129089533.209        1716.271          42.000    24564925.509   100589260.836        1337.549          41.000  
G 2  26595695.183   139761290.686        2132.216          37.000                                                                  
> 2019  5 23  8 25 31.0040000  0 10                     
G12  21540605.274   113196642.654         577.533          47.000    21540603.989    88205165.884         450.008          45.000  
G15  25760376.077   135371688.958       -4545.868          45.000    25760377.259   105484462.561       -3542.463          39.000  
G25  24250511.969   127437298.926        2422.359          47.000    24250514.433    99301810.101        1887.608          43.000  
G14  26172681.442   137538371.732        2421.900          38.000                                                                  
G 6  25498247.495   133994198.050        1791.895          43.000    25498250.473   104411133.347        1396.368          39.000  
G17  24695531.545   129775891.315       -3352.575          45.000    24695530.118   101124064.772       -2612.469          41.000  
G19  22950850.269   120607533.738       -2244.209          44.000                                                                  
G24  21646394.424   113752571.445       -1911.421          48.000    21646395.428    88638373.570       -1489.387          46.000  
G32  24564596.050   129087816.781        1716.023          42.000    24564598.933   100587923.373        1337.381          41.000  
G 2  26595289.325   139759158.060        2132.096          37.000                                                                  
> 2019  5 23  8 25 32.0040000  0 10                     
G12  21540495.400   113196065.395         576.863          47.000    21540494.140    88204716.065         449.527          45.000  
G15  25761241.108   135376235.042       -4546.335          45.000    25761242.383   105488004.962       -3542.750          38.000  
G25  24250051.129   127434876.696        2422.144          47.000    24250053.515    99299922.652        1887.363          43.000  
G14  26172220.620   137535950.098        2421.228          37.000                                                                  
G 6  25497906.561   133992406.347        1791.265          43.000    25497909.584   104409737.221        1395.708          39.000  
G17  24696169.580   129779244.191       -3353.275          45.000    24696168.098   101126677.387       -2612.652          41.000  
G19  22951277.550   120609778.490       -2245.199          44.000                                                                  
G24  21646758.193   113754483.068       -1911.952          48.000    21646759.187    88639863.147       -1489.833          46.000  
G32  24564269.543   129086100.871        1715.542          42.000    24564272.400   100586586.296        1336.594          41.000  
G 2  26594883.462   139757025.464        2132.655          37.000                                                                  
> 2019  5 23  8 25 33.0040000  0 10                     
G12  21540385.612   113195488.299         576.731          47.000    21540384.305    88204266.377         449.582          45.000  
G15  25762106.094   135380780.837       -4545.913          45.000    25762107.388   105491547.105       -3541.996          39.000  
G25  24249590.089   127432454.384        2422.047          47.000    24249592.475    99298035.142        1887.294          43.000  
G14  26171759.715   137533528.339        2421.996          37.000                                                                  
G 6  25497565.600   133990614.643        1791.304          43.000    25497568.733   104408341.085        1396.173          39.000  
G17  24696807.688   129782597.123       -3353.311          45.000    24696806.296   101129290.061       -2612.905          41.000  
G19  22951704.788   120612023.594       -2245.663          44.000                                                                  
G24  21647122.003   113756394.863       -1912.104          48.000    21647123.153    88641352.863       -1489.960          46.000  
G32  24563943.083   129084385.089        1715.615          42.000    24563945.948   100585249.335        1336.613          41.000  
G 2  26594477.574   139754892.583        2132.745          37.000                                                                  
> 2019  5 23  8 25 34.0040000  0 10                     
G12  21540275.835   113194911.610         576.316          47.000    21540274.465    88203817.012         449.163          45.000  
G15  25762971.107   135385326.576       -4545.889          45.000    25762972.467   105495089.255       -3542.159          39.000  
G25  24249129.185   127430032.213        2421.927          47.000    24249131.614    99296147.736        1887.237          43.000  
G14  26171298.953   137531106.752        2421.109          37.000                                                                  
G 6  25497224.678   133988823.183        1791.412          43.000    25497227.753   104406945.166        1395.709          39.000  
G17  24697445.688   129785950.334       -3353.516          45.000    24697444.460   101131902.956       -2613.099          41.000  
G19  22952132.150   120614269.258       -2245.937          44.000                                                                  
G24  21647485.941   113758307.050       -1912.581          48.000    21647487.046    88642842.874       -1490.241          46.000  
G32  24563616.751   129082669.692        1715.163          42.000    24563619.432   100583912.655        1336.419          41.000  
G 2  26594071.551   139752759.628        2132.456          37.000                                                                  
> 2019  5 23  8 25 35.0040000  0 10                     
G12  21540166.190   113194335.601         575.606          47.000    21540164.808    88203368.176         448.615          45.000  
G15  25763836.240   135389872.541       -4546.164          45.000    25763837.596   105498631.574       -3542.482          39.000  
G25  24248668.225   127427610.472        2421.417          47.000    24248670.819    99294260.658        1886.932          43.000  
G14  26170838.205   137528685.568        2421.040          37.000                                                                  
G 6  25496883.821   133987032.262        1790.815          43.000    25496886.983   104405549.640        1395.364          39.000  
G17  24698083.897   129789304.116       -3353.992          45.000    24698082.677   101134516.292       -2613.347          41.000  
G19  22952559.715   120616515.796       -2246.918          44.000                                                                  
G24  21647849.863   113760219.926       -1913.086          48.000    21647851.012    88644333.425       -1490.766          46.000  
G32  24563290.507   129080954.914        1714.600          42.000    24563293.203   100582576.470        1335.848          41.000  
G 2  26593665.649   139750626.822        2132.990          37.000                                                                  
> 2019  5 23  8 25 36.0040000  0 10                     
G12  21540056.701   113193760.270         575.151          47.000    21540055.403    88202919.866         448.149          45.000  
G15  25764701.354   135394418.739       -4546.243          45.000    25764702.762   105502174.066       -3542.557          39.000  
G25  24248207.457   127425189.144        2421.148          47.000    24248210.019    99292373.922        1886.592          43.000  
G14  26170377.578   137526264.779        2420.715          37.000                                                                  
G 6  25496543.158   133985241.860        1790.117          42.000    25496546.268   104404154.501        1395.336          39.000  
G17  24698722.229   129792658.477       -3354.456          45.000    24698720.979   101137130.081       -2613.769          41.000  
G19  22952987.333   120618763.201       -2247.562          44.000                                                                  
G24  21648213.949   113762133.508       -1913.789          48.000    21648215.080    88645824.526       -1491.149          46.000  
G32  24562964.262   129079240.795        1714.093          42.000    24562966.972   100581240.793        1335.433          41.000  
G 2  26593259.795   139748494.256        2132.385          37.000                                                                  
> 2019  5 23  8 25 37.0040000  0 10                     
G12  21539947.331   113193185.518         574.510          47.000    21539946.000    88202472.005         447.617          45.000  
G15  25765566.457   135398965.052       -4546.256          45.000    25765567.877   105505716.634       -3542.510          39.000  
G25  24247746.782   127422768.143        2420.835          47.000    24247749.330    99290487.431        1886.358          43.000  
G14  26169917.063   137523844.318        2420.432          37.000                                                                  
G 6  25496202.543   133983451.865        1789.857          42.000    25496205.587   104402759.711        1394.868          39.000  
G17  24699360.683   129796013.293       -3355.056          45.000    24699359.427   101139744.233       -2614.382          41.000  
G19  22953415.176   120621011.346       -2248.644          44.000                                                                  
G24  21648578.203   113764047.650       -1914.393          48.000    21648579.341    88647316.075       -1491.878          46.000  
G32  24562638.223   129077527.226        1713.528          42.000    24562640.960   100579905.540        1335.103          41.000  
G 2  26592853.928   139746361.774        2132.774          37.000                                                                  
> 2019  5 23  8 25 38.0040000  0 10                     
G12  21539838.010   113192611.246         574.071          47.000    21539836.770    88202024.518         447.350          45.000  
G15  25766431.686   135403511.386       -4546.249          45.000    25766433.118   105509259.227       -3542.584          39.000  
G25  24247286.121   127420347.371        2420.712          47.000    24247288.701    99288601.109        1886.289          43.000  
G14  26169456.489   137521424.084        2420.216          37.000                                                                  
G 6  25495861.972   133981662.210        1789.308          42.000    25495865.054   104401365.182        1394.358          39.000  
G17  24699999.148   129799368.482       -3355.391          45.000    24699997.884   101142358.655       -2614.714          41.000  
G19  22953843.193   120623260.162       -2249.043          44.000                                                                  
G24  21648942.535   113765962.294       -1914.987          48.000    21648943.742    88648807.992       -1492.054          46.000  
G32  24562312.162   129075814.102        1713.005          42.000    24562314.919   100578570.640        1334.683          41.000  
G 2  26592448.228   139744229.296        2132.705          37.000                                                                  
> 2019  5 23  8 25 39.0040000  0 10                     
G12  21539728.823   113192037.463         573.451          47.000    21539727.532    88201577.417         446.791          45.000  
G15  25767296.866   135408057.757       -4546.387          45.000    25767298.236   105512801.856       -3542.769          39.000  
G25  24246825.497   127417926.836        2420.287          47.000    24246828.176    99286714.975        1886.089          43.000  
G14  26168995.872   137519004.072        2419.583          37.000                                                                  
G 6  25495521.580   133979872.860        1789.093          42.000    25495524.588   104399970.904        1393.693          39.000  
G17  24700637.722   129802724.036       -3355.732          45.000    24700636.313   101144973.382       -2614.993          41.000  
G19  22954271.182   120625509.674       -2250.025          44.000                                                                  
G24  21649306.924   113767877.408       -1915.456          48.000    21649308.242    88650300.290       -1492.562          46.000  
G32  24561986.259   129074101.433        1712.513          42.000    24561989.100   100577236.084        1334.280          41.000  
G 2  26592042.332   139742096.841        2132.268          37.000                                                                  
> 2019  5 23  8 25 40.0040000  0 10                     
G12  21539619.664   113191464.390         572.888          47.000    21539618.451    88201130.872         446.330          45.000  
G15  25768162.125   135412604.373       -4546.649          45.000    25768163.313   105516344.680       -3542.899          39.000  
G25  24246364.986   127415506.748        2420.009          47.000    24246367.684    99284829.204        1885.656          43.000  
G14  26168535.260   137516584.478        2419.534          37.000                                                                  
G 6  25495181.204   133978084.082        1788.643          42.000    25495184.211   104398577.050        1393.492          39.000  
G17  24701276.368   129806080.201       -3356.447          45.000    24701275.080   101147588.564       -2615.246          41.000  
G19  22954699.481   120627760.065       -2250.823          44.000                                                                  
G24  21649671.482   113769793.221       -1916.028          48.000    21649672.914    88651793.131       -1493.006          46.000  
G32  24561660.531   129072389.423        1711.809          42.000    24561663.259   100575902.051        1333.799          41.000  
G 2  26591636.605   139739964.586        2132.108          37.000                                                                  
> 2019  5 23  8 25 41.0040000  0 10                     
G12  21539510.712   113190891.938         572.587          47.000    21539509.568    88200684.804         446.164          45.000  
G15  25769027.385   135417151.150       -4546.459          45.000    25769028.517   105519887.611       -3542.693          39.000  
G25  24245904.486   127413087.032        2419.840          47.000    24245907.231    99282943.708        1885.616          43.000  
G14  26168074.980   137514165.278        2419.325          37.000                                                                  
G 6  25494840.887   133976295.748        1788.684          42.000    25494844.000   104397183.530        1393.795          39.000  
G17  24701915.085   129809436.857       -3356.517          45.000    24701913.881   101150204.152       -2615.687          41.000  
G19  22955127.832   120630011.247       -2251.218          44.000                                                                  
G24  21650036.078   113771709.625       -1916.319          48.000    21650037.569    88653286.437       -1493.286          46.000  
G32  24561334.923   129070677.996        1711.669          42.000    24561337.622   100574568.487        1333.538          41.000  
G 2  26591230.942   139737832.484        2132.366          36.000                                                                  
> 2019  5 23  8 25 42.0040000  0 10                     
G12  21539401.945   113190320.035         571.454          47.000    21539400.778    88200239.155         445.390          45.000  
G15  25769892.658   135421698.009       -4546.938          45.000    25769893.707   105523430.618       -3542.969          39.000  
G25  24245444.054   127410667.593        2419.104          47.000    24245446.910    99281058.434        1884.948          43.000  
G14  26167614.633   137511746.338        2418.630          37.000                                                                  
G 6  25494500.678   133974507.820        1787.621          42.000    25494503.799   104395790.350        1393.054          39.000  
G17  24702553.823   129812793.934       -3357.357          45.000    24702552.694   101152820.053       -2615.997          41.000  
G19  22955556.325   120632263.140       -2252.223          43.000                                                                  
G24  21650400.875   113773626.580       -1917.269          48.000    21650402.301    88654780.165       -1493.989          46.000  
G32  24561009.341   129068967.095        1710.675          42.000    24561012.059   100573235.303        1333.063          41.000  
G 2  26590825.100   139735700.429        2131.955          36.000                                                                  
> 2019  5 23  8 25 43.0040000  0 10                     
G12  21539293.120   113189748.636         571.545          47.000    21539292.074    88199793.908         445.333          45.000  
G15  25770757.980   135426244.938       -4546.462          46.000    25770759.030   105526973.681       -3543.174          39.000  
G25  24244983.654   127408248.422        2419.437          47.000    24244986.547    99279173.372        1885.198          43.000  
G14  26167154.389   137509327.635        2418.938          37.000                                                                  
G 6  25494160.426   133972720.223        1788.024          42.000    25494163.582   104394397.427        1393.093          39.000  
G17  24703192.673   129816151.428       -3357.291          45.000    24703191.544   101155436.282       -2616.248          41.000  
G19  22955985.016   120634515.739       -2252.652          43.000                                                                  
G24  21650765.819   113775544.064       -1917.374          48.000    21650767.263    88656274.319       -1494.232          46.000  
G32  24560683.789   129067256.664        1710.557          42.000    24560686.582   100571902.516        1332.696          41.000  
G 2  26590419.345   139733568.411        2132.189          36.000                                                                  
> 2019  5 23  8 25 44.0040000  0 10                     
G12  21539184.442   113189177.652         570.572          47.000    21539183.446    88199348.987         444.556          45.000  
G15  25771623.228   135430791.802       -4546.969          46.000    25771624.336   105530516.683       -3542.938          39.000  
G25  24244523.336   127405829.403        2418.677          47.000    24244526.201    99277288.407        1884.634          43.000  
G14  26166694.231   137506909.078        2418.451          37.000                                                                  
G 6  25493820.320   133970932.920        1786.606          42.000    25493823.523   104393004.699        1392.521          39.000  
G17  24703831.638   129819509.197       -3358.213          45.000    24703830.499   101158052.719       -2616.799          41.000  
G19  22956413.672   120636768.916       -2253.640          43.000                                                                  
G24  21651130.792   113777461.958       -1918.418          48.000    21651132.190    88657768.766       -1494.802          46.000  
G32  24560358.453   129065546.610        1709.665          42.000    24560361.173   100570569.999        1332.088          41.000  
G 2  26590013.521   139731436.300        2132.094          36.000                                                                  
> 2019  5 23  8 25 45.0040000  0 10                     
G12  21539076.008   113188607.543         569.405          47.000    21539074.842    88198904.741         443.764          45.000  
G15  25772488.587   135435339.097       -4547.644          46.000    25772489.684   105534060.046       -3543.745          39.000  
G25  24244063.188   127403410.999        2417.865          47.000    24244066.050    99275403.946        1884.052          43.000  
G14  26166234.160   137504491.165        2417.160          37.000                                                                  
G 6  25493480.270   133969146.294        1786.097          42.000    25493483.607   104391612.548        1391.627          39.000  
G17  24704470.761   129822867.728       -3359.059          45.000    24704469.571   101160669.765       -2617.593          41.000  
G19  22956842.655   120639023.162       -2255.113          43.000                                                                  
G24  21651495.866   113779380.744       -1919.417          48.000    21651497.399    88659263.930       -1495.767          46.000  
G32  24560033.088   129063837.398        1708.591          42.000    24560035.863   100569238.151        1331.081          42.000  
G 2  26589607.812   139729304.578        2131.607          36.000                                                                  
> 2019  5 23  8 25 46.0040000  0 10                     
G12  21538967.661   113188038.086         569.407          47.000    21538966.507    88198461.017         443.686          45.000  
G15  25773354.003   135439886.612       -4547.336          46.000    25773355.006   105537603.550       -3543.635          39.000  
G25  24243603.025   127400993.000        2418.067          47.000    24243605.848    99273519.778        1884.271          43.000  
G14  26165774.142   137502073.617        2417.487          37.000                                                                  
G 6  25493140.408   133967360.212        1785.792          42.000    25493143.718   104390220.777        1391.803          39.000  
G17  24705110.039   129826226.815       -3359.024          45.000    24705108.763   101163287.238       -2617.875          41.000  
G19  22957271.817   120641278.228       -2255.041          43.000                                                                  
G24  21651861.182   113781300.202       -1919.585          48.000    21651862.585    88660759.602       -1495.689          46.000  
G32  24559708.016   129062128.810        1708.548          42.000    24559710.712   100567906.764        1331.480          42.000  
G 2  26589202.225   139727173.074        2131.791          36.000                                                                  
> 2019  5 23  8 25 47.0040000  0 10                     
G12  21538859.458   113187469.039         568.825          46.000    21538858.239    88198017.606         443.177          45.000  
G15  25774219.467   135444434.063       -4547.537          46.000    25774220.312   105541147.006       -3543.475          39.000  
G25  24243142.888   127398575.155        2417.628          47.000    24243145.759    99271635.748        1883.753          43.000  
G14  26165314.059   137499656.251        2417.127          37.000                                                                  
G 6  25492800.446   133965574.335        1785.845          42.000    25492803.899   104388829.208        1391.508          39.000  
G17  24705749.196   129829586.185       -3359.743          45.000    24705748.006   101165904.901       -2617.705          41.000  
G19  22957701.126   120643533.899       -2256.166          43.000                                                                  
G24  21652226.529   113783220.033       -1920.142          48.000    21652227.954    88662255.581       -1496.266          46.000  
G32  24559383.021   129060420.585        1708.102          42.000    24559385.665   100566575.695        1330.890          42.000  
G 2  26588796.528   139725041.477        2131.863          36.000                                                                  
> 2019  5 23  8 25 48.0040000  0 10                     
G12  21538751.310   113186900.450         568.511          46.000    21538750.097    88197574.540         443.028          45.000  
G15  25775084.825   135448981.508       -4547.288          46.000    25775085.699   105544690.464       -3543.000          39.000  
G25  24242682.733   127396157.500        2417.832          47.000    24242685.744    99269751.863        1883.790          43.000  
G14  26164854.035   137497239.042        2416.851          37.000                                                                  
G 6  25492460.708   133963788.780        1785.765          42.000    25492464.070   104387437.860        1391.389          39.000  
G17  24706388.547   129832945.894       -3359.747          45.000    24706387.438   101168522.876       -2618.104          41.000  
G19  22958130.433   120645790.190       -2256.502          43.000                                                                  
G24  21652591.930   113785140.330       -1920.312          48.000    21652593.380    88663751.913       -1496.436          46.000  
G32  24559058.031   129058712.805        1707.677          42.000    24559060.805   100565244.949        1330.852          42.000  
G 2  26588390.791   139722909.857        2131.708          36.000                                                                  
> 2019  5 23  8 25 49.0040000  0 10                     
G12  21538643.147   113186332.320         567.902          46.000    21538642.064    88197131.842         442.534          45.000  
G15  25775950.192   135453528.959       -4547.221          46.000    25775951.038   105548233.938       -3543.257          39.000  
G25  24242222.788   127393740.072        2417.360          47.000    24242225.696    99267868.150        1883.607          43.000  
G14  26164393.984   137494822.059        2416.756          37.000                                                                  
G 6  25492120.922   133962003.544        1785.176          42.000    25492124.277   104386046.769        1391.074          39.000  
G17  24707027.942   129836305.964       -3360.285          45.000    24707026.851   101171141.106       -2618.347          41.000  
G19  22958559.878   120648047.127       -2257.267          43.000                                                                  
G24  21652957.423   113787061.094       -1920.786          47.000    21652958.827    88665248.613       -1496.813          46.000  
G32  24558733.225   129057005.443        1707.260          42.000    24558735.853   100563914.541        1330.135          42.000  
G 2  26587985.091   139720778.251        2131.386          36.000                                                                  
> 2019  5 23  8 25 50.0040000  0 10                     
G12  21538535.104   113185764.579         567.448          46.000    21538533.900    88196689.451         442.217          45.000  
G15  25776815.452   135458076.357       -4547.480          46.000    25776816.379   105551777.367       -3543.616          38.000  
G25  24241762.830   127391322.779        2417.249          47.000    24241765.605    99265984.534        1883.523          43.000  
G14  26163933.982   137492405.170        2416.997          37.000                                                                  
G 6  25491781.194   133960218.534        1784.913          42.000    25491784.653   104384655.846        1390.878          39.000  
G17  24707667.420   129839666.306       -3360.585          45.000    24707666.326   101173759.538       -2618.314          41.000  
G19  22958989.498   120650304.634       -2257.996          43.000                                                                  
G24  21653322.966   113788982.261       -1921.510          47.000    21653324.435    88666745.613       -1497.156          46.000  
G32  24558408.393   129055298.444        1706.747          42.000    24558411.062   100562584.406        1330.036          42.000  
G 2  26587579.438   139718646.513        2131.702          36.000                                                                  
> 2019  5 23  8 25 51.0040000  0 10                     
G12  21538427.171   113185197.256         567.238          46.000    21538426.122    88196247.379         442.000          45.000  
G15  25777680.797   135462623.698       -4547.169          46.000    25777681.696   105555320.752       -3543.174          39.000  
G25  24241303.004   127388905.649        2417.130          47.000    24241305.672    99264101.057        1883.573          43.000  
G14  26163474.025   137489988.465        2416.615          37.000                                                                  
G 6  25491441.593   133958433.783        1784.779          42.000    25491444.981   104383265.144        1390.814          39.000  
G17  24708306.919   129843026.955       -3360.772          45.000    24708305.786   101176378.231       -2618.441          41.000  
G19  22959419.187   120652562.729       -2258.290          43.000                                                                  
G24  21653688.638   113790903.849       -1921.697          47.000    21653690.077    88668242.966       -1497.461          46.000  
G32  24558083.691   129053591.833        1706.501          43.000    24558086.323   100561254.588        1329.601          42.000  
G 2  26587173.777   139716514.734        2132.004          36.000                                                                  
> 2019  5 23  8 25 52.0040000  0 10                     
G12  21538319.269   113184630.310         566.659          46.000    21538318.242    88195805.591         441.693          45.000  
G15  25778546.067   135467170.960       -4547.388          46.000    25778547.042   105558864.061       -3543.101          38.000  
G25  24240843.187   127386488.628        2416.873          47.000    24240845.785    99262217.674        1883.104          43.000  
G14  26163014.069   137487571.878        2416.316          37.000                                                                  
G 6  25491101.999   133956649.240        1784.508          42.000    25491105.452   104381874.608        1390.474          39.000  
G17  24708946.480   129846387.857       -3361.158          45.000    24708945.326   101178997.111       -2618.915          41.000  
G19  22959849.011   120654821.380       -2258.955          43.000                                                                  
G24  21654054.456   113792825.841       -1922.236          47.000    21654055.888    88669740.617       -1497.884          46.000  
G32  24557759.069   129051885.552        1706.048          43.000    24557761.611   100559925.021        1329.229          42.000  
G 2  26586767.959   139714382.834        2132.149          36.000                                                                  
> 2019  5 23  8 25 53.0040000  0 10                     
G12  21538211.516   113184063.810         566.047          46.000    21538210.400    88195364.160         441.197          45.000  
G15  25779411.392   135471718.208       -4547.472          46.000    25779412.394   105562407.399       -3543.706          38.000  
G25  24240383.278   127384071.796        2416.598          47.000    24240385.959    99260334.423        1883.210          43.000  
G14  26162554.238   137485155.449        2416.115          37.000                                                                  
G 6  25490762.401   133954865.005        1784.050          41.000    25490765.871   104380484.276        1390.197          39.000  
G17  24709586.077   129849749.082       -3361.531          45.000    24709584.964   101181616.260       -2619.615          41.000  
G19  22960278.879   120657080.644       -2259.736          43.000                                                                  
G24  21654420.327   113794748.259       -1922.854          47.000    21654421.730    88671238.608       -1498.410          46.000  
G32  24557434.571   129050179.672        1705.557          43.000    24557436.982   100558595.765        1328.903          42.000  
G 2  26586362.308   139712250.902        2131.675          36.000                                                                  
> 2019  5 23  8 25 54.0040000  0 10                     
G12  21538103.852   113183498.043         565.270          46.000    21538102.818    88194923.315         440.302          45.000  
G15  25780276.844   135476265.740       -4547.821          46.000    25780277.758   105565950.905       -3543.864          38.000  
G25  24239923.516   127381655.460        2415.820          47.000    24239926.258    99258451.570        1882.460          43.000  
G14  26162094.515   137482739.482        2415.883          37.000                                                                  
G 6  25490423.028   133953081.347        1783.275          41.000    25490426.489   104379094.430        1389.364          39.000  
G17  24710225.795   129853110.937       -3362.263          45.000    24710224.598   101184235.875       -2620.004          41.000  
G19  22960708.982   120659340.835       -2260.923          43.000                                                                  
G24  21654786.335   113796671.410       -1923.677          47.000    21654787.731    88672737.158       -1498.920          46.000  
G32  24557110.049   129048474.508        1704.761          43.000    24557112.441   100557267.054        1328.273          42.000  
G 2  26585956.543   139710119.252        2131.261          36.000                                                                  
> 2019  5 23  8 25 55.0040000  0 10                     
G12  21537996.321   113182932.768         565.217          46.000    21537995.096    88194482.838         440.435          45.000  
G15  25781142.302   135480813.315       -4547.350          46.000    25781143.154   105569494.466       -3543.375          38.000  
G25  24239463.774   127379239.349        2416.183          47.000    24239466.490    99256568.887        1882.817          43.000  
G14  26161634.704   137480323.761        2415.955          37.000                                                                  
G 6  25490083.778   133951298.032        1783.269          41.000    25490087.183   104377704.803        1389.910          39.000  
G17  24710865.701   129856473.182       -3362.274          45.000    24710864.389   101186855.806       -2619.873          41.000  
G19  22961139.136   120661601.678       -2260.735          43.000                                                                  
G24  21655152.438   113798595.068       -1923.742          47.000    21655153.903    88674236.118       -1499.061          46.000  
G32  24556785.694   129046769.808        1704.689          43.000    24556788.027   100555938.708        1328.506          41.000  
G 2  26585550.794   139707987.611        2131.385          35.000                                                                  
> 2019  5 23  8 25 56.0040000  0 10                     
G12  21537888.806   113182367.907         564.716          46.000    21537887.630    88194042.684         440.169          45.000  
G15  25782007.567   135485360.834       -4547.188          46.000    25782008.401   105573038.006       -3543.468          38.000  
G25  24239004.065   127376823.402        2416.062          47.000    24239006.819    99254686.341        1882.658          43.000  
G14  26161175.076   137477908.211        2415.261          37.000                                                                  
G 6  25489744.475   133949514.964        1783.088          41.000    25489747.944   104376315.417        1389.294          39.000  
G17  24711505.564   129859835.714       -3362.554          45.000    24711504.307   101189475.974       -2620.548          41.000  
G19  22961569.433   120663863.150       -2261.746          43.000                                                                  
G24  21655518.580   113800519.128       -1924.207          47.000    21655519.978    88675735.379       -1499.421          46.000  
G32  24556461.399   129045065.491        1704.410          43.000    24556463.830   100554610.700        1327.688          41.000  
G 2  26585145.114   139705855.883        2132.319          36.000                                                                  
> 2019  5 23  8 25 57.0040000  0 10                     
G12  21537781.447   113181803.647         563.456          46.000    21537780.202    88193602.998         439.305          45.000  
G15  25782872.989   135489908.506       -4548.023          46.000    25782873.817   105576581.628       -3543.849          38.000  
G25  24238544.390   127374407.797        2415.143          47.000    24238547.083    99252804.044        1881.868          43.000  
G14  26160715.457   137475492.964        2415.098          37.000                                                                  
G 6  25489405.215   133947732.351        1781.925          41.000    25489408.610   104374926.368        1388.359          38.000  
G17  24712145.533   129863198.728       -3363.478          45.000    24712144.153   101192096.492       -2621.109          41.000  
G19  22961999.942   120666125.373       -2262.965          44.000                                                                  
G24  21655884.758   113802443.759       -1925.240          47.000    21655886.205    88677235.089       -1500.167          46.000  
G32  24556137.157   129043361.743        1703.050          42.000    24556139.680   100553283.089        1327.084          41.000  
G 2  26584739.569   139703724.290        2131.293          36.000                                                                  
> 2019  5 23  8 25 58.0040000  0 10                     
G12  21537674.174   113181239.951         563.418          47.000    21537672.984    88193163.751         439.134          45.000  
G15  25783738.437   135494456.284       -4547.811          46.000    25783739.190   105580125.351       -3543.584          38.000  
G25  24238084.783   127371992.503        2415.099          47.000    24238087.472    99250921.998        1882.117          43.000  
G14  26160255.880   137473078.027        2414.792          36.000                                                                  
G 6  25489066.000   133945950.100        1782.471          41.000    25489069.466   104373537.615        1388.896          38.000  
G17  24712785.483   129866562.186       -3363.544          45.000    24712784.175   101194717.369       -2620.953          41.000  
G19  22962430.492   120668388.343       -2263.282          43.000                                                                  
G24  21656251.136   113804368.954       -1925.404          47.000    21656252.603    88678735.239       -1500.115          46.000  
G32  24555813.105   129041658.517        1702.813          42.000    24555815.593   100551955.893        1327.117          41.000  
G 2  26584333.898   139701592.779        2131.655          36.000                                                                  
> 2019  5 23  8 25 59.0040000  0 10                     
G12  21537567.006   113180676.823         563.081          47.000    21537565.899    88192724.966         438.729          45.000  
G15  25784603.878   135499004.177       -4547.836          46.000    25784604.572   105583669.159       -3543.500          38.000  
G25  24237625.162   127369577.527        2414.916          47.000    24237627.893    99249040.218        1881.586          43.000  
G14  26159796.327   137470663.384        2414.571          37.000                                                                  
G 6  25488726.961   133944168.328        1781.564          41.000    25488730.316   104372149.219        1388.273          38.000  
G17  24713425.608   129869926.112       -3364.088          45.000    24713424.376   101197338.606       -2621.296          41.000  
G19  22962861.245   120670652.074       -2264.034          43.000                                                                  
G24  21656617.660   113806294.740       -1925.953          47.000    21656619.056    88680235.855       -1500.740          46.000  
G32  24555489.145   129039955.827        1702.569          42.000    24555491.530   100550629.142        1326.361          41.000  
G 2  26583928.387   139699461.352        2131.555          36.000                                                                  
> 2019  5 23  8 26  0.0040000  0 10                     
G12  21537459.907   113180114.180         562.452          46.000    21537458.769    88192286.540         438.234          45.000  
G15  25785469.291   135503552.101       -4547.951          46.000    25785470.007   105587212.995       -3543.837          38.000  
G25  24237165.651   127367162.786        2414.647          47.000    24237168.504    99247158.595        1881.486          43.000  
G14  26159336.913   137468249.007        2414.354          36.000                                                                  
G 6  25488388.002   133942386.846        1781.578          42.000    25488391.337   104370761.062        1387.941          38.000  
G17  24714065.810   129873290.402       -3364.500          45.000    24714064.601   101199960.135       -2621.750          41.000  
G19  22963292.236   120672916.455       -2264.735          43.000                                                                  
G24  21656984.263   113808220.988       -1926.487          47.000    21656985.640    88681736.827       -1501.101          46.000  
G32  24555165.257   129038253.599        1701.938          42.000    24555167.696   100549302.713        1326.127          41.000  
G 2  26583522.734   139697329.945        2131.474          36.000                                                                  
> 2019  5 23  8 26  1.0040000  0 10                     
G12  21537352.964   113179552.218         561.973          46.000    21537351.879    88191848.648         437.882          45.000  
G15  25786334.844   135508100.232       -4547.921          46.000    25786335.374   105590757.001       -3543.774          38.000  
G25  24236706.239   127364748.450        2414.470          47.000    24236709.004    99245277.287        1881.531          43.000  
G14  26158877.529   137465835.015        2414.246          36.000                                                                  
G 6  25488049.061   133940605.899        1781.101          42.000    25488052.433   104369373.313        1387.651          38.000  
G17  24714706.119   129876655.240       -3364.833          45.000    24714704.977   101202582.094       -2621.992          41.000  
G19  22963723.250   120675181.683       -2265.208          43.000                                                                  
G24  21657350.925   113810147.918       -1926.986          47.000    21657352.253    88683238.336       -1501.546          46.000  
G32  24554841.488   129036552.012        1701.423          43.000    24554843.960   100547976.797        1325.988          41.000  
G 2  26583117.181   139695198.707        2131.781          36.000                                                                  
> 2019  5 23  8 26  2.0040000  0 10                     
G12  21537246.107   113178990.545         561.504          47.000    21537244.920    88191410.989         437.318          45.000  
G15  25787200.278   135512648.191       -4547.966          46.000    25787200.829   105594300.872       -3543.818          38.000  
G25  24236246.774   127362334.160        2414.407          47.000    24236249.431    99243396.035        1881.223          43.000  
G14  26158418.137   137463421.057        2413.757          36.000                                                                  
G 6  25487710.130   133938825.075        1780.927          42.000    25487713.453   104367985.649        1387.738          38.000  
G17  24715346.506   129880020.264       -3365.138          44.000    24715345.353   101205204.179       -2622.279          41.000  
G19  22964154.372   120677447.387       -2265.905          43.000                                                                  
G24  21657717.701   113812075.133       -1927.486          48.000    21657718.995    88684740.061       -1502.029          46.000  
G32  24554517.780   129034850.665        1701.237          43.000    24554520.191   100546651.079        1325.929          41.000  
G 2  26582711.459   139693067.327        2131.364          36.000                                                                  
> 2019  5 23  8 26  3.0040000  0 10                     
G12  21537139.289   113178429.244         560.935          47.000    21537138.095    88190973.601         437.063          45.000  
G15  25788065.650   135517196.068       -4548.157          46.000    25788066.327   105597844.687       -3544.249          38.000  
G25  24235787.268   127359919.998        2413.736          47.000    24235790.088    99241514.865        1880.854          43.000  
G14  26157958.720   137461007.216        2413.506          36.000                                                                  
G 6  25487371.282   133937044.482        1780.302          42.000    25487374.556   104366598.175        1387.051          38.000  
G17  24715986.950   129883385.539       -3365.763          45.000    24715985.790   101207826.469       -2622.549          41.000  
G19  22964585.594   120679713.639       -2266.673          43.000                                                                  
G24  21658084.566   113814002.703       -1928.085          48.000    21658085.929    88686242.064       -1502.345          46.000  
G32  24554194.095   129033149.675        1700.581          43.000    24554196.507   100545325.634        1325.312          42.000  
G 2  26582305.814   139690935.827        2131.332          36.000                                                                  
> 2019  5 23  8 26  4.0040000  0 10                     
G12  21537032.625   113177868.592         560.207          47.000    21537031.420    88190536.724         436.575          45.000  
G15  25788931.034   135521744.129       -4548.398          46.000    25788931.889   105601388.597       -3544.028          38.000  
G25  24235327.976   127357506.210        2413.521          47.000    24235330.704    99239633.991        1880.642          43.000  
G14  26157499.468   137458593.755        2413.276          36.000                                                                  
G 6  25487032.550   133935264.384        1779.727          42.000    25487035.837   104365211.088        1386.782          38.000  
G17  24716627.475   129886751.347       -3366.250          44.000    24716626.274   101210449.179       -2623.253          41.000  
G19  22965016.957   120681980.728       -2267.776          43.000                                                                  
G24  21658451.495   113815930.943       -1928.731          48.000    21658452.839    88687744.583       -1502.821          46.000  
G32  24553870.518   129031449.289        1700.059          43.000    24553872.879   100544000.659        1324.736          42.000  
G 2  26581900.253   139688804.490        2130.981          36.000                                                                  
> 2019  5 23  8 26  5.0040000  0 10                     
G12  21536926.067   113177308.612         559.899          47.000    21536924.847    88190100.390         436.049          45.000  
G15  25789796.537   135526292.408       -4548.109          46.000    25789797.367   105604932.744       -3544.307          38.000  
G25  24234868.654   127355092.855        2413.277          47.000    24234871.398    99237753.446        1880.729          43.000  
G14  26157040.287   137456180.700        2413.229          36.000                                                                  
G 6  25486693.913   133933484.804        1779.603          42.000    25486697.191   104363824.403        1386.599          38.000  
G17  24717268.060   129890117.715       -3366.394          44.000    24717266.886   101213072.324       -2623.225          41.000  
G19  22965448.481   120684248.675       -2268.378          43.000                                                                  
G24  21658818.524   113817859.859       -1929.183          48.000    21658819.951    88689247.638       -1503.175          46.000  
G32  24553547.108   129029749.570        1699.433          43.000    24553549.316   100542676.202        1324.434          41.000  
G 2  26581494.679   139686673.353        2131.032          36.000                                                                  
> 2019  5 23  8 26  6.0040000  0 10                     
G12  21536819.682   113176749.166         559.199          47.000    21536818.384    88189664.442         435.817          45.000  
G15  25790662.065   135530840.765       -4548.297          46.000    25790662.827   105608476.906       -3544.207          38.000  
G25  24234409.500   127352679.769        2413.196          47.000    24234412.165    99235873.130        1880.264          43.000  
G14  26156581.249   137453767.954        2412.582          36.000                                                                  
G 6  25486355.391   133931705.600        1779.045          42.000    25486358.664   104362438.012        1386.351          39.000  
G17  24717908.804   129893484.504       -3367.075          44.000    24717907.550   101215695.786       -2623.296          41.000  
G19  22965880.345   120686517.316       -2268.783          43.000                                                                  
G24  21659185.644   113819789.280       -1929.641          48.000    21659187.159    88690751.084       -1503.603          46.000  
G32  24553223.760   129028050.324        1698.968          43.000    24553225.925   100541352.117        1323.916          42.000  
G 2  26581089.091   139684542.266        2131.245          36.000                                                                  
> 2019  5 23  8 26  7.0040000  0 10                     
G12  21536713.418   113176190.303         558.580          47.000    21536712.027    88189228.975         435.002          45.000  
G15  25791527.651   135535389.254       -4548.674          46.000    25791528.408   105612021.160       -3543.956          38.000  
G25  24233950.471   127350267.027        2412.418          47.000    24233952.993    99233993.065        1879.809          43.000  
G14  26156122.174   137451355.512        2412.176          37.000                                                                  
G 6  25486016.893   133929926.830        1778.446          42.000    25486020.106   104361051.952        1385.830          38.000  
G17  24718549.591   129896851.738       -3367.490          44.000    24718548.306   101218319.630       -2624.277          41.000  
G19  22966312.232   120688786.720       -2269.671          44.000                                                                  
G24  21659552.979   113821719.281       -1930.515          48.000    21659554.334    88692254.974       -1504.170          46.000  
G32  24552900.450   129026351.644        1698.149          43.000    24552902.743   100540028.459        1323.316          42.000  
G 2  26580683.517   139682411.277        2130.818          36.000                                                                  
> 2019  5 23  8 26  8.0040000  0 10                     
G12  21536607.150   113175631.870         558.531          47.000    21536605.741    88188793.828         435.131          45.000  
G15  25792393.153   135539937.710       -4548.155          46.000    25792394.041   105615565.453       -3544.500          38.000  
G25  24233491.349   127347854.450        2412.887          48.000    24233493.971    99232113.138        1880.138          43.000  
G14  26155663.234   137448943.211        2412.712          37.000                                                                  
G 6  25485678.549   133928148.334        1778.551          42.000    25485681.702   104359666.119        1385.922          38.000  
G17  24719190.416   129900219.314       -3367.127          44.000    24719189.098   101220943.719       -2624.183          41.000  
G19  22966744.201   120691056.753       -2270.037          44.000                                                                  
G24  21659920.333   113823649.727       -1930.295          48.000    21659921.657    88693759.224       -1504.260          46.000  
G32  24552577.180   129024653.353        1698.417          43.000    24552579.543   100538705.122        1323.529          42.000  
G 2  26580277.956   139680280.251        2131.533          36.000                                                                  
> 2019  5 23  8 26  9.0040000  0 10                     
G12  21536501.047   113175073.978         557.746          47.000    21536499.558    88188359.116         434.395          45.000  
G15  25793258.663   135544486.253       -4548.633          46.000    25793259.583   105619109.739       -3544.563          38.000  
G25  24233032.337   127345442.171        2412.151          48.000    24233034.999    99230233.434        1879.752          43.000  
G14  26155204.236   137446531.211        2412.106          37.000                                                                  
G 6  25485340.139   133926370.230        1777.992          43.000    25485343.327   104358280.597        1385.131          38.000  
G17  24719831.260   129903587.326       -3368.264          44.000    24719829.973   101223568.125       -2624.624          41.000  
G19  22967176.382   120693327.489       -2270.902          44.000                                                                  
G24  21660287.844   113825580.736       -1931.281          48.000    21660289.071    88695263.901       -1504.877          46.000  
G32  24552254.091   129022955.584        1697.388          43.000    24552256.412   100537382.198        1322.655          42.000  
G 2  26579872.292   139678149.306        2130.791          36.000                                                                  
> 2019  5 23  8 26 10.0040000  0 10                     
G12  21536394.882   113174516.230         557.792          47.000    21536393.414    88187924.498         434.658          45.000  
G15  25794124.227   135549034.473       -4548.116          46.000    25794125.040   105622653.796       -3543.541          38.000  
G25  24232573.348   127343029.771        2412.579          48.000    24232575.937    99228353.651        1879.879          43.000  
G14  26154745.179   137444119.104        2411.941          37.000                                                                  
G 6  25485001.754   133924592.118        1778.135          43.000    25485004.889   104356895.036        1385.500          38.000  
G17  24720472.120   129906955.340       -3367.906          44.000    24720470.874   101226192.560       -2624.573          41.000  
G19  22967608.555   120695598.556       -2271.246          44.000                                                                  
G24  21660655.211   113827511.887       -1931.132          48.000    21660656.481    88696768.693       -1504.729          46.000  
G32  24551931.112   129021257.912        1697.634          43.000    24551933.287   100536059.324        1323.015          42.000  
G 2  26579466.665   139676018.002        2131.395          35.000                                                                  
> 2019  5 23  8 26 11.0040000  0 10                     
G12  21536288.804   113173959.097         557.024          47.000    21536287.413    88187490.382         434.027          45.000  
G15  25794989.743   135553582.852       -4548.371          46.000    25794990.609   105626198.003       -3544.057          38.000  
G25  24232114.372   127340617.745        2411.955          48.000    24232117.008    99226474.148        1879.503          43.000  
G14  26154286.236   137441707.330        2411.732          37.000                                                                  
G 6  25484663.471   133922814.471        1777.545          43.000    25484666.593   104355509.832        1385.464          38.000  
G17  24721113.105   129910323.865       -3368.592          44.000    24721111.871   101228817.375       -2624.909          41.000  
G19  22968040.830   120697870.408       -2272.046          44.000                                                                  
G24  21661022.756   113829443.657       -1931.891          48.000    21661024.124    88698273.974       -1505.514          46.000  
G32  24551608.145   129019560.829        1696.996          43.000    24551610.372   100534736.936        1322.151          42.000  
G 2  26579061.084   139673886.824        2131.802          36.000                                                                  
> 2019  5 23  8 26 12.0040000  0 10                     
G12  21536182.921   113173402.586         556.597          47.000    21536181.540    88187056.740         433.616          45.000  
G15  25795855.210   135558131.395       -4548.398          46.000    25795856.154   105629742.327       -3544.512          38.000  
G25  24231655.451   127338206.073        2411.846          48.000    24231658.141    99224594.931        1879.224          43.000  
G14  26153827.511   137439295.914        2411.638          37.000                                                                  
G 6  25484325.380   133921037.264        1777.449          43.000    25484328.437   104354125.036        1384.535          38.000  
G17  24721754.318   129913692.907       -3369.168          44.000    24721752.931   101231442.608       -2625.535          41.000  
G19  22968473.221   120700143.067       -2272.826          44.000                                                                  
G24  21661390.534   113831376.045       -1932.387          48.000    21661391.895    88699779.731       -1505.874          46.000  
G32  24551285.299   129017864.334        1696.580          43.000    24551287.555   100533414.987        1322.094          41.000  
G 2  26578655.569   139671755.820        2131.305          36.000                                                                  
> 2019  5 23  8 26 13.0040000  0 10                     
G12  21536077.078   113172846.471         555.480          47.000    21536075.579    88186623.394         432.925          45.000  
G15  25796720.812   135562679.860       -4549.010          46.000    25796721.662   105633286.593       -3544.911          38.000  
G25  24231196.522   127335794.546        2411.129          47.000    24231199.368    99222715.821        1878.770          43.000  
G14  26153368.670   137436884.657        2410.615          37.000                                                                  
G 6  25483987.228   133919260.333        1776.279          43.000    25483990.267   104352740.380        1384.736          38.000  
G17  24722395.384   129917062.204       -3369.999          44.000    24722394.100   101234068.025       -2625.912          41.000  
G19  22968905.822   120702416.280       -2274.112          44.000                                                                  
G24  21661758.357   113833308.818       -1933.401          48.000    21661759.621    88701285.781       -1506.434          46.000  
G32  24550962.513   129016168.221        1695.434          43.000    24550964.816   100532093.345        1321.058          42.000  
G 2  26578250.069   139669624.714        2130.592          36.000                                                                  
> 2019  5 23  8 26 14.0040000  0 10                     
G12  21535971.457   113172291.115         555.081          47.000    21535969.861    88186190.653         432.542          45.000  
G15  25797586.450   135567228.624       -4549.038          45.000    25797587.336   105636831.079       -3544.821          38.000  
G25  24230737.696   127333383.524        2410.867          48.000    24230740.594    99220837.103        1878.653          43.000  
G14  26152909.933   137434473.861        2410.510          37.000                                                                  
G 6  25483649.173   133917483.982        1776.025          43.000    25483652.239   104351356.228        1383.804          38.000  
G17  24723036.634   129920432.137       -3370.241          44.000    24723035.355   101236693.943       -2626.007          41.000  
G19  22969338.674   120704690.432       -2274.603          44.000                                                                  
G24  21662126.340   113835242.331       -1933.883          48.000    21662127.518    88702792.418       -1506.880          46.000  
G32  24550639.884   129014472.816        1695.114          43.000    24550642.183   100530772.257        1320.668          41.000  
G 2  26577844.578   139667493.882        2130.714          36.000                                                                  
> 2019  5 23  8 26 15.0040000  0 10                     
G12  21535865.914   113171736.412         554.402          47.000    21535864.330    88185758.413         431.960          45.000  
G15  25798452.085   135571777.574       -4548.922          45.000    25798452.937   105640375.727       -3544.916          38.000  
G25  24230278.993   127330972.896        2410.586          47.000    24230281.862    99218958.697        1878.237          43.000  
G14  26152451.173   137432063.444        2410.418          37.000                                                                  
G 6  25483311.280   133915708.125        1775.574          43.000    25483314.336   104349972.457        1383.270          38.000  
G17  24723678.094   129923802.613       -3370.693          44.000    24723676.741   101239320.302       -2626.774          41.000  
G19  22969771.640   120706965.415       -2275.449          44.000                                                                  
G24  21662494.395   113837176.494       -1934.493          48.000    21662495.641    88704299.559       -1507.244          46.000  
G32  24550317.438   129012778.037        1694.540          43.000    24550319.624   100529451.630        1320.601          41.000  
G 2  26577439.122   139665363.217        2130.636          36.000                                                                  
> 2019  5 23  8 26 16.0040000  0 10                     
G12  21535760.432   113171182.170         553.824          47.000    21535758.806    88185326.539         431.565          45.000  
G15  25799317.693   135576326.544       -4549.198          45.000    25799318.534   105643920.348       -3544.520          38.000  
G25  24229820.264   127328562.486        2410.234          47.000    24229823.157    99217080.443        1878.269          43.000  
G14  26151992.507   137429653.257        2410.357          37.000                                                                  
G 6  25482973.509   133913932.589        1775.288          43.000    25482976.432   104348588.911        1383.118          38.000  
G17  24724319.470   129927173.442       -3371.255          44.000    24724318.150   101241946.910       -2626.764          41.000  
G19  22970204.783   120709241.037       -2276.222          44.000                                                                  
G24  21662862.587   113839111.121       -1934.857          48.000    21662863.758    88705807.061       -1507.814          46.000  
G32  24549994.968   129011083.690        1693.954          43.000    24549997.178   100528131.374        1319.819          41.000  
G 2  26577033.670   139663232.586        2130.251          36.000                                                                  
> 2019  5 23  8 26 17.0040000  0 10                     
G12  21535654.981   113170628.330         553.556          47.000    21535653.366    88184894.979         431.198          45.000  
G15  25800183.377   135580875.440       -4549.002          45.000    25800184.148   105647464.966       -3544.784          38.000  
G25  24229361.664   127326152.214        2410.105          47.000    24229364.427    99215202.318        1877.996          43.000  
G14  26151533.800   137427243.245        2409.911          37.000                                                                  
G 6  25482635.730   133912157.298        1774.939          43.000    25482638.524   104347205.572        1383.169          38.000  
G17  24724960.968   129930544.545       -3371.419          44.000    24724959.665   101244573.757       -2627.354          41.000  
G19  22970637.873   120711517.241       -2276.573          44.000                                                                  
G24  21663230.786   113841046.145       -1935.433          48.000    21663231.972    88707314.866       -1508.082          46.000  
G32  24549672.543   129009389.725        1693.582          43.000    24549674.807   100526811.384        1319.704          41.000  
G 2  26576628.088   139661101.829        2130.580          35.000                                                                  
> 2019  5 23  8 26 18.0040000  0 10                     
G12  21535549.639   113170074.898         553.158          47.000    21535548.087    88184463.737         430.859          45.000  
G15  25801048.933   135585424.304       -4548.995          45.000    25801049.771   105651009.505       -3544.286          38.000  
G25  24228903.105   127323742.110        2410.001          47.000    24228905.793    99213324.320        1877.769          43.000  
G14  26151075.194   137424833.344        2409.847          37.000                                                                  
G 6  25482297.997   133910382.269        1774.836          43.000    25482300.660   104345822.423        1382.873          38.000  
G17  24725602.602   129933915.954       -3371.621          44.000    24725601.150   101247200.824       -2627.440          41.000  
G19  22971071.148   120713794.034       -2277.229          44.000                                                                  
G24  21663599.083   113842981.594       -1935.708          48.000    21663600.341    88708823.015       -1508.456          46.000  
G32  24549350.200   129007696.115        1693.324          43.000    24549352.584   100525491.697        1319.661          41.000  
G 2  26576222.688   139658971.038        2130.668          35.000                                                                  
> 2019  5 23  8 26 19.0040000  0 10                     
G12  21535444.297   113169522.070         552.382          47.000    21535442.869    88184032.955         430.503          45.000  
G15  25801914.609   135589973.312       -4549.230          45.000    25801915.509   105654554.217       -3545.318          38.000  
G25  24228444.605   127321332.368        2409.193          48.000    24228447.251    99211446.593        1877.489          43.000  
G14  26150616.706   137422423.839        2408.694          37.000                                                                  
G 6  25481960.321   133908607.699        1773.997          43.000    25481962.961   104344439.637        1382.435          38.000  
G17  24726244.245   129937287.866       -3372.421          45.000    24726242.807   101249828.279       -2627.909          41.000  
G19  22971504.641   120716071.624       -2278.329          44.000                                                                  
G24  21663967.475   113844917.669       -1936.562          48.000    21663968.783    88710331.636       -1508.980          46.000  
G32  24549028.043   129006003.098        1692.443          43.000    24549030.361   100524172.474        1318.607          41.000  
G 2  26575817.274   139656840.363        2130.574          35.000                                                                  
> 2019  5 23  8 26 20.0040000  0 10                     
G12  21535339.034   113168969.722         552.024          47.000    21535337.782    88183602.550         430.142          45.000  
G15  25802780.271   135594522.325       -4549.090          45.000    25802781.235   105658098.880       -3544.676          38.000  
G25  24227986.102   127318922.821        2409.557          48.000    24227988.777    99209569.024        1877.441          43.000  
G14  26150158.247   137420014.503        2409.104          37.000                                                                  
G 6  25481622.616   133906833.431        1774.119          42.000    25481625.312   104343057.076        1382.993          38.000  
G17  24726885.860   129940660.123       -3372.541          44.000    24726884.556   101252456.002       -2627.795          41.000  
G19  22971938.181   120718349.852       -2278.754          44.000                                                                  
G24  21664335.990   113846854.206       -1936.854          48.000    21664337.303    88711840.628       -1509.310          46.000  
G32  24548706.002   129004310.519        1692.090          43.000    24548708.262   100522853.570        1318.750          41.000  
G 2  26575411.892   139654709.712        2130.141          35.000                                                                  
> 2019  5 23  8 26 21.0040000  0 10                     
G12  21535233.955   113168417.813         551.558          47.000    21535232.720    88183172.498         429.839          45.000  
G15  25803645.895   135599071.315       -4548.844          45.000    25803646.938   105661643.554       -3544.682          38.000  
G25  24227527.580   127316513.481        2409.246          48.000    24227530.297    99207691.622        1877.125          43.000  
G14  26149699.725   137417605.352        2408.620          37.000                                                                  
G 6  25481285.106   133905059.481        1773.740          43.000    25481287.803   104341674.794        1382.108          39.000  
G17  24727527.655   129944032.710       -3372.896          44.000    24727526.367   101255083.984       -2627.836          41.000  
G19  22972371.864   120720628.704       -2279.164          44.000                                                                  
G24  21664704.642   113848791.209       -1937.257          48.000    21664705.794    88713349.987       -1509.620          46.000  
G32  24548383.939   129002618.346        1691.761          43.000    24548386.194   100521535.007        1318.453          41.000  
G 2  26575006.403   139652578.982        2130.691          36.000                                                                  
> 2019  5 23  8 26 22.0040000  0 10                     
G12  21535128.972   113167866.490         550.926          47.000    21535127.832    88182742.889         429.301          45.000  
G15  25804511.501   135603620.445       -4549.445          45.000    25804512.644   105665188.332       -3545.128          38.000  
G25  24227069.229   127314104.476        2408.619          48.000    24227071.814    99205814.462        1876.888          43.000  
G14  26149241.329   137415196.546        2408.191          37.000                                                                  
G 6  25480947.745   133903285.939        1773.256          42.000    25480950.347   104340292.816        1381.791          39.000  
G17  24728169.466   129947405.770       -3373.599          44.000    24728168.207   101257712.351       -2628.707          41.000  
G19  22972805.635   120722908.327       -2280.062          43.000                                                                  
G24  21665073.300   113850728.801       -1938.143          48.000    21665074.558    88714859.798       -1510.323          46.000  
G32  24548061.995   129000926.732        1691.302          43.000    24548064.353   100520216.876        1317.897          41.000  
G 2  26574601.017   139650448.381        2130.434          36.000                                                                  
> 2019  5 23  8 26 23.0040000  0 10                     
G12  21535024.203   113167315.803         550.870          47.000    21535023.013    88182313.788         429.043          45.000  
G15  25805377.137   135608169.745       -4548.914          45.000    25805378.286   105668733.223       -3544.551          38.000  
G25  24226610.937   127311695.844        2408.865          48.000    24226613.526    99203937.609        1876.881          43.000  
G14  26148783.013   137412788.082        2408.702          37.000                                                                  
G 6  25480610.388   133901512.879        1773.508          42.000    25480612.909   104338911.230        1381.860          39.000  
G17  24728811.416   129950779.338       -3373.462          44.000    24728810.268   101260341.124       -2628.748          41.000  
G19  22973239.616   120725188.756       -2280.331          43.000                                                                  
G24  21665442.250   113852667.010       -1938.104          48.000    21665443.381    88716370.084       -1510.236          46.000  
G32  24547740.210   128999235.733        1691.138          42.000    24547742.522   100518899.215        1317.630          41.000  
G 2  26574195.657   139648317.932        2131.149          36.000                                                                  
> 2019  5 23  8 26 24.0040000  0 10                     
G12  21534919.585   113166765.719         549.650          46.000    21534918.350    88181885.145         428.375          45.000  
G15  25806242.874   135612719.183       -4549.589          45.000    25806244.012   105672278.250       -3544.988          38.000  
G25  24226152.641   127309287.559        2407.932          48.000    24226155.097    99202061.020        1876.396          43.000  
G14  26148324.921   137410379.974        2407.837          38.000                                                                  
G 6  25480273.102   133899740.293        1772.341          43.000    25480275.522   104337529.998        1381.142          39.000  
G17  24729453.608   129954153.406       -3374.390          44.000    24729452.323   101262970.253       -2629.420          41.000  
G19  22973673.709   120727469.965       -2281.607          43.000                                                                  
G24  21665811.140   113854605.831       -1939.092          48.000    21665812.305    88717880.854       -1510.973          46.000  
G32  24547418.573   128997545.305        1689.932          42.000    24547420.818   100517581.983        1317.029          41.000  
G 2  26573790.303   139646187.630        2130.186          36.000                                                                  
> 2019  5 23  8 26 25.0040000  0 10                     
G12  21534814.947   113166216.290         549.302          46.000    21534813.805    88181457.020         428.082          45.000  
G15  25807108.670   135617268.836       -4549.736          45.000    25807109.761   105675823.447       -3545.481          38.000  
G25  24225694.562   127306879.688        2407.745          48.000    24225696.921    99200184.764        1876.168          43.000  
G14  26147866.962   137407972.257        2407.961          38.000                                                                  
G 6  25479935.945   133897968.195        1772.017          43.000    25479938.307   104336149.136        1380.746          39.000  
G17  24730095.772   129957528.020       -3374.851          45.000    24730094.366   101265599.832       -2629.942          41.000  
G19  22974107.973   120729752.011       -2282.422          44.000                                                                  
G24  21666180.201   113856545.319       -1939.780          48.000    21666181.355    88719392.144       -1511.581          46.000  
G32  24547096.921   128995855.508        1689.429          42.000    24547099.156   100516265.265        1316.630          41.000  
G 2  26573384.982   139644057.492        2130.128          36.000                                                                  
> 2019  5 23  8 26 26.0040000  0 10                     
G12  21534710.448   113165667.462         548.483          46.000    21534709.369    88181029.362         427.471          45.000  
G15  25807974.512   135621818.604       -4549.851          45.000    25807975.570   105679368.712       -3545.535          38.000  
G25  24225236.411   127304472.149        2407.376          48.000    24225238.721    99198308.760        1875.748          43.000  
G14  26147409.062   137405564.902        2407.245          38.000                                                                  
G 6  25479598.849   133896196.559        1771.472          43.000    25479601.266   104334768.634        1380.515          38.000  
G17  24730738.019   129960903.100       -3375.411          45.000    24730736.611   101268229.756       -2630.147          41.000  
G19  22974542.370   120732034.826       -2283.348          44.000                                                                  
G24  21666549.364   113858485.388       -1940.505          48.000    21666550.416    88720903.881       -1512.087          46.000  
G32  24546775.512   128994166.258        1688.888          42.000    24546777.736   100514948.983        1315.983          41.000  
G 2  26572979.696   139641927.460        2129.998          36.000                                                                  
> 2019  5 23  8 26 27.0040000  0 10                     
G12  21534606.165   113165119.364         547.941          46.000    21534604.994    88180602.283         426.808          45.000  
G15  25808840.442   135626368.668       -4549.997          45.000    25808841.422   105682914.230       -3545.934          38.000  
G25  24224778.294   127302065.103        2406.881          48.000    24224780.671    99196433.138        1875.539          43.000  
G14  26146951.123   137403158.008        2406.740          38.000                                                                  
G 6  25479261.804   133894425.495        1770.915          43.000    25479264.185   104333388.597        1379.578          38.000  
G17  24731380.321   129964278.807       -3375.917          45.000    24731379.010   101270860.166       -2630.451          41.000  
G19  22974977.032   120734318.545       -2283.946          44.000                                                                  
G24  21666918.750   113860426.197       -1940.992          48.000    21666919.724    88722416.205       -1512.538          46.000  
G32  24546454.205   128992477.722        1688.415          42.000    24546456.379   100513633.240        1315.388          41.000  
G 2  26572574.440   139639797.720        2129.918          36.000                                                                  
> 2019  5 23  8 26 28.0040000  0 10                     
G12  21534501.977   113164571.727         547.398          46.000    21534500.798    88180175.538         426.673          45.000  
G15  25809706.232   135630918.715       -4550.037          45.000    25809707.234   105686459.697       -3545.303          38.000  
G25  24224320.260   127299658.249        2406.742          48.000    24224322.733    99194557.679        1875.344          43.000  
G14  26146493.116   137400751.299        2406.534          38.000                                                                  
G 6  25478924.763   133892654.734        1770.747          42.000    25478927.238   104332008.796        1379.329          38.000  
G17  24732022.764   129967654.844       -3376.265          45.000    24732021.385   101273490.848       -2630.967          41.000  
G19  22975411.666   120736602.906       -2284.748          44.000                                                                  
G24  21667288.197   113862367.436       -1941.265          48.000    21667289.171    88723928.865       -1512.923          46.000  
G32  24546132.969   128990789.608        1688.049          42.000    24546135.116   100512317.823        1315.253          42.000  
G 2  26572169.149   139637667.925        2130.202          36.000                                                                  
> 2019  5 23  8 26 29.0040000  0 10                     
G12  21534397.891   113164024.525         546.895          46.000    21534396.818    88179749.149         426.226          45.000  
G15  25810572.048   135635468.745       -4550.015          45.000    25810573.021   105690005.168       -3545.541          38.000  
G25  24223862.234   127297251.570        2406.634          48.000    24223864.653    99192682.347        1875.241          43.000  
G14  26146035.350   137398344.782        2406.459          38.000                                                                  
G 6  25478587.783   133890884.273        1770.126          43.000    25478590.385   104330629.198        1379.447          38.000  
G17  24732665.262   129971031.190       -3376.404          44.000    24732663.904   101276121.769       -2630.975          41.000  
G19  22975846.471   120738887.884       -2285.331          44.000                                                                  
G24  21667657.611   113864309.119       -1941.939          48.000    21667658.715    88725441.852       -1513.209          46.000  
G32  24545811.647   128989101.916        1687.565          42.000    24545813.968   100511002.724        1315.014          41.000  
G 2  26571763.790   139635538.129        2129.917          36.000                                                                  
> 2019  5 23  8 26 30.0040000  0 10                     
G12  21534293.936   113163477.852         546.402          46.000    21534292.760    88179323.178         425.717          45.000  
G15  25811438.003   135640018.837       -4549.895          44.000    25811438.834   105693550.707       -3545.462          38.000  
G25  24223404.283   127294845.189        2406.378          48.000    24223406.727    99190807.250        1874.973          43.000  
G14  26145577.550   137395938.561        2405.845          38.000                                                                  
G 6  25478251.003   133889114.170        1769.950          43.000    25478253.566   104329249.884        1379.329          38.000  
G17  24733307.791   129974407.961       -3376.949          44.000    24733306.594   101278753.016       -2631.454          41.000  
G19  22976281.395   120741173.558       -2286.039          44.000                                                                  
G24  21668027.301   113866251.342       -1942.378          48.000    21668028.255    88726955.274       -1513.582          46.000  
G32  24545490.553   128987414.724        1686.789          42.000    24545492.867   100509688.028        1314.612          41.000  
G 2  26571358.606   139633408.364        2129.744          36.000                                                                  
> 2019  5 23  8 26 31.0040000  0 10                     
G12  21534189.994   113162931.754         545.360          46.000    21534188.845    88178897.642         425.014          45.000  
G15  25812303.800   135644569.044       -4550.371          44.000    25812304.797   105697096.316       -3545.904          38.000  
G25  24222946.463   127292439.123        2405.521          48.000    24222948.811    99188932.386        1874.552          43.000  
G14  26145119.806   137393532.610        2405.630          38.000                                                                  
G 6  25477914.236   133887344.492        1769.136          43.000    25477916.829   104327870.911        1378.612          38.000  
G17  24733950.411   129977785.173       -3377.804          44.000    24733949.217   101281384.611       -2632.183          41.000  
G19  22976716.469   120743459.969       -2287.079          44.000                                                                  
G24  21668396.941   113868194.147       -1943.429          48.000    21668397.857    88728469.148       -1514.413          46.000  
G32  24545169.533   128985728.070        1685.926          42.000    24545171.920   100508373.748        1313.952          41.000  
G 2  26570953.368   139631278.708        2129.417          36.000                                                                  
> 2019  5 23  8 26 32.0040000  0 10                     
G12  21534086.297   113162386.286         545.644          46.000    21534084.973    88178472.607         425.123          45.000  
G15  25813169.717   135649119.451       -4550.110          45.000    25813170.529   105700642.082       -3545.574          38.000  
G25  24222488.739   127290033.450        2405.896          48.000    24222490.961    99187057.837        1874.632          43.000  
G14  26144662.137   137391127.071        2405.938          38.000                                                                  
G 6  25477577.575   133885575.307        1769.496          43.000    25477580.199   104326492.361        1378.494          38.000  
G17  24734593.190   129981162.924       -3377.724          44.000    24734591.976   101284016.615       -2631.818          41.000  
G19  22977151.729   120745747.213       -2287.123          44.000                                                                  
G24  21668766.795   113870137.594       -1943.230          48.000    21668767.695    88729983.527       -1514.301          46.000  
G32  24544848.655   128984042.016        1686.376          42.000    24544850.991   100507059.959        1313.867          41.000  
G 2  26570548.093   139629149.223        2129.672          36.000                                                                  
> 2019  5 23  8 26 33.0040000  0 10                     
G12  21533982.574   113161841.157         544.660          46.000    21533981.287    88178047.833         424.385          45.000  
G15  25814035.680   135653669.702       -4550.581          45.000    25814036.444   105704187.732       -3545.717          38.000  
G25  24222031.010   127287627.855        2405.177          48.000    24222033.113    99185183.336        1874.313          43.000  
G14  26144204.555   137388721.609        2404.856          38.000                                                                  
G 6  25477240.978   133883806.301        1768.494          43.000    25477243.533   104325113.903        1378.020          38.000  
G17  24735235.913   129984540.864       -3378.323          44.000    24735234.718   101286648.787       -2632.534          41.000  
G19  22977587.182   120748034.964       -2288.336          43.000                                                                  
G24  21669136.663   113872081.329       -1944.242          48.000    21669137.598    88731498.117       -1514.937          46.000  
G32  24544527.913   128982356.273        1685.140          42.000    24544530.188   100505746.381        1313.196          41.000  
G 2  26570142.725   139627019.566        2129.520          36.000                                                                  
> 2019  5 23  8 26 34.0040000  0 10                     
G12  21533878.887   113161296.556         544.357          46.000    21533877.703    88177623.460         424.124          45.000  
G15  25814901.602   135658220.022       -4550.332          45.000    25814902.380   105707733.426       -3545.432          38.000  
G25  24221573.234   127285222.520        2405.240          48.000    24221575.364    99183309.066        1874.002          43.000  
G14  26143746.911   137386316.393        2404.986          38.000                                                                  
G 6  25476904.384   133882037.661        1768.485          43.000    25476906.930   104323735.731        1377.714          37.000  
G17  24735878.723   129987919.222       -3378.542          45.000    24735877.619   101289281.279       -2632.916          41.000  
G19  22978022.588   120750323.422       -2288.857          43.000                                                                  
G24  21669506.603   113874025.595       -1944.595          48.000    21669507.565    88733013.141       -1515.298          46.000  
G32  24544207.121   128980671.024        1684.919          42.000    24544209.423   100504433.209        1312.917          41.000  
G 2  26569737.538   139624889.994        2129.270          36.000                                                                  
> 2019  5 23  8 26 35.0040000  0 10                     
G12  21533775.333   113160752.510         543.463          46.000    21533774.262    88177199.531         423.412          45.000  
G15  25815767.526   135662770.448       -4550.794          45.000    25815768.313   105711279.202       -3545.888          38.000  
G25  24221115.638   127282817.512        2404.543          48.000    24221117.601    99181435.026        1873.606          43.000  
G14  26143289.368   137383911.492        2404.610          38.000                                                                  
G 6  25476567.984   133880269.447        1767.696          43.000    25476570.395   104322357.898        1377.233          37.000  
G17  24736521.704   129991298.037       -3379.257          45.000    24736520.648   101291914.104       -2633.145          41.000  
G19  22978458.125   120752612.602       -2289.886          43.000                                                                  
G24  21669876.630   113875970.442       -1945.383          48.000    21669877.746    88734528.601       -1515.915          46.000  
G32  24543886.472   128978986.304        1684.212          42.000    24543888.770   100503120.433        1312.397          41.000  
G 2  26569332.241   139622760.475        2129.056          36.000                                                                  
> 2019  5 23  8 26 36.0040000  0 10                     
G12  21533671.887   113160208.965         543.208          46.000    21533670.844    88176775.981         423.295          45.000  
G15  25816633.627   135667320.899       -4550.548          45.000    25816634.261   105714825.024       -3546.038          38.000  
G25  24220658.057   127280412.730        2404.567          48.000    24220660.008    99179561.160        1873.822          43.000  
G14  26142831.819   137381506.811        2404.566          38.000                                                                  
G 6  25476231.646   133878501.561        1767.855          42.000    25476233.780   104320980.303        1377.692          37.000  
G17  24737164.726   129994677.219       -3379.316          45.000    24737163.647   101294547.244       -2633.358          41.000  
G19  22978893.809   120754902.462       -2290.257          43.000                                                                  
G24  21670246.827   113877915.771       -1945.557          48.000    21670247.975    88736044.440       -1516.004          46.000  
G32  24543565.969   128977302.043        1683.912          42.000    24543568.362   100501808.029        1312.048          41.000  
G 2  26568926.899   139620630.983        2129.329          36.000                                                                  
> 2019  5 23  8 26 37.0040000  0 10                     
G12  21533568.595   113159666.014         542.500          46.000    21533567.586    88176352.896         422.781          45.000  
G15  25817499.564   135671871.487       -4550.846          45.000    25817500.217   105718370.905       -3545.731          38.000  
G25  24220200.523   127278008.279        2404.271          48.000    24220202.322    99177687.566        1873.461          43.000  
G14  26142374.355   137379102.476        2404.061          38.000                                                                  
G 6  25475895.277   133876734.116        1766.962          42.000    25475897.385   104319603.088        1376.631          37.000  
G17  24737807.998   129998056.883       -3380.223          45.000    24737806.790   101297180.731       -2633.630          41.000  
G19  22979329.761   120757193.070       -2291.178          44.000                                                                  
G24  21670617.236   113879861.690       -1946.371          48.000    21670618.327    88737560.744       -1516.849          46.000  
G32  24543245.460   128975618.351        1683.005          42.000    24543248.021   100500496.056        1311.443          41.000  
G 2  26568521.686   139618501.596        2128.985          36.000                                                                  
> 2019  5 23  8 26 38.0040000  0 10                     
G12  21533465.419   113159123.732         541.936          46.000    21533464.391    88175930.340         422.289          45.000  
G15  25818365.526   135676422.267       -4550.851          44.000    25818366.211   105721916.971       -3545.993          38.000  
G25  24219743.153   127275604.267        2403.625          48.000    24219744.872    99175814.303        1872.973          43.000  
G14  26141917.010   137376698.544        2403.684          39.000                                                                  
G 6  25475558.960   133874967.185        1766.661          42.000    25475561.067   104318226.260        1376.462          38.000  
G17  24738451.221   130001437.094       -3380.469          45.000    24738449.995   101299814.649       -2633.837          41.000  
G19  22979765.822   120759484.541       -2291.874          44.000                                                                  
G24  21670987.661   113881808.283       -1946.943          48.000    21670988.769    88739077.566       -1517.121          46.000  
G32  24542925.117   128973935.289        1682.745          42.000    24542927.643   100499184.584        1311.282          41.000  
G 2  26568116.533   139616372.412        2129.125          36.000                                                                  
> 2019  5 23  8 26 39.0040000  0 10                     
G12  21533362.341   113158581.895         541.562          46.000    21533361.240    88175508.131         422.032          45.000  
G15  25819231.542   135680973.035       -4550.725          44.000    25819232.224   105725463.025       -3545.946          38.000  
G25  24219285.740   127273200.418        2403.878          48.000    24219287.481    99173941.184        1872.982          43.000  
G14  26141459.495   137374294.803        2403.674          39.000                                                                  
G 6  25475222.787   133873200.565        1766.335          42.000    25475224.747   104316849.652        1376.719          38.000  
G17  24739094.645   130004817.630       -3380.658          45.000    24739093.373   101302448.852       -2634.320          41.000  
G19  22980201.952   120761776.627       -2292.600          44.000                                                                  
G24  21671358.221   113883755.313       -1947.409          48.000    21671359.230    88740594.728       -1517.304          46.000  
G32  24542604.973   128972252.647        1682.505          42.000    24542607.380   100497873.440        1310.940          41.000  
G 2  26567711.407   139614243.240        2128.899          36.000                                                                  
> 2019  5 23  8 26 40.0040000  0 10                     
G12  21533259.409   113158040.401         541.325          46.000    21533258.293    88175086.191         421.581          45.000  
G15  25820097.569   135685523.685       -4550.720          45.000    25820098.189   105729009.002       -3545.948          38.000  
G25  24218828.370   127270796.689        2403.502          48.000    24218830.154    99172068.142        1872.813          43.000  
G14  26141002.088   137371891.139        2403.732          38.000                                                                  
G 6  25474886.633   133871434.121        1766.278          42.000    25474888.646   104315473.228        1376.225          38.000  
G17  24739738.000   130008198.381       -3380.835          45.000    24739736.664   101305083.210       -2634.559          41.000  
G19  22980638.228   120764069.241       -2292.981          44.000                                                                  
G24  21671728.912   113885702.694       -1947.665          48.000    21671729.817    88742112.184       -1517.708          46.000  
G32  24542284.942   128970570.338        1682.094          42.000    24542287.323   100496562.539        1310.578          41.000  
G 2  26567306.124   139612113.876        2129.175          36.000                                                                  
> 2019  5 23  8 26 41.0040000  0 10                     
G12  21533156.514   113157499.421         540.574          45.000    21533155.356    88174664.650         421.250          45.000  
G15  25820963.630   135690074.392       -4550.900          45.000    25820964.113   105732554.993       -3545.828          38.000  
G25  24218370.962   127268393.201        2403.294          48.000    24218372.799    99170195.305        1872.673          43.000  
G14  26140544.559   137369487.748        2403.185          38.000                                                                  
G 6  25474550.613   133869668.054        1765.701          43.000    25474552.500   104314097.079        1375.675          38.000  
G17  24740381.486   130011579.551       -3381.607          45.000    24740380.066   101307717.875       -2634.814          41.000  
G19  22981074.689   120766362.536       -2293.651          44.000                                                                  
G24  21672099.604   113887650.596       -1948.181          48.000    21672100.430    88743630.029       -1518.178          46.000  
G32  24541964.926   128968888.489        1681.690          42.000    24541967.258   100495252.013        1310.294          41.000  
G 2  26566901.024   139609984.607        2128.894          36.000                                                                  
> 2019  5 23  8 26 42.0040000  0 10                     
G12  21533053.656   113156958.775         540.446          45.000    21533052.516    88174243.367         421.190          45.000  
G15  25821829.559   135694624.984       -4550.422          44.000    25821830.035   105736100.912       -3545.760          38.000  
G25  24217913.618   127265989.805        2403.234          48.000    24217915.385    99168322.523        1872.913          43.000  
G14  26140087.173   137367084.455        2403.114          38.000                                                                  
G 6  25474214.673   133867902.177        1765.729          43.000    25474216.421   104312721.090        1375.547          38.000  
G17  24741024.883   130014960.936       -3381.476          45.000    24741023.484   101310352.733       -2635.097          41.000  
G19  22981511.161   120768656.359       -2294.138          44.000                                                                  
G24  21672470.404   113889598.833       -1948.315          48.000    21672471.247    88745148.133       -1518.275          46.000  
G32  24541644.951   128967206.968        1681.496          43.000    24541647.105   100493941.727        1310.390          41.000  
G 2  26566495.905   139607855.158        2129.248          36.000                                                                  
> 2019  5 23  8 26 43.0040000  0 10                     
G12  21532950.808   113156418.741         539.992          45.000    21532949.694    88173822.562         420.754          45.000  
G15  25822695.559   135699175.731       -4550.597          45.000    25822696.053   105739646.952       -3546.010          38.000  
G25  24217456.324   127263586.772        2403.041          48.000    24217458.101    99166450.041        1872.586          43.000  
G14  26139629.934   137364681.466        2402.739          38.000                                                                  
G 6  25473878.782   133866136.746        1765.463          43.000    25473880.419   104311345.423        1375.345          39.000  
G17  24741668.480   130018342.807       -3381.810          45.000    24741667.016   101312987.944       -2635.285          41.000  
G19  22981947.723   120770950.940       -2294.776          44.000                                                                  
G24  21672841.159   113891547.668       -1948.962          48.000    21672842.155    88746666.706       -1518.744          46.000  
G32  24541325.172   128965526.031        1680.861          43.000    24541327.306   100492631.900        1309.955          42.000  
G 2  26566090.677   139605725.831        2129.536          36.000                                                                  
> 2019  5 23  8 26 44.0040000  0 10                     
G12  21532848.185   113155879.230         539.106          45.000    21532847.068    88173402.160         420.150          45.000  
G15  25823561.405   135703726.508       -4550.957          44.000    25823562.048   105743193.015       -3546.291          38.000  
G25  24216999.014   127261184.006        2402.465          48.000    24217000.951    99164577.760        1872.077          43.000  
G14  26139172.701   137362278.769        2402.295          38.000                                                                  
G 6  25473542.989   133864371.706        1764.638          43.000    25473544.556   104309970.057        1375.222          39.000  
G17  24742312.181   130021725.083       -3382.565          44.000    24742310.713   101315623.479       -2635.868          41.000  
G19  22982384.578   120773246.229       -2295.700          44.000                                                                  
G24  21673212.197   113893497.040       -1949.660          48.000    21673213.116    88748185.699       -1519.320          46.000  
G32  24541005.411   128963845.579        1680.105          43.000    24541007.534   100491322.474        1309.174          42.000  
G 2  26565685.530   139603596.590        2129.157          36.000                                                                  
> 2019  5 23  8 26 45.0040000  0 10                     
G12  21532745.582   113155340.180         538.640          45.000    21532744.341    88172982.122         419.682          45.000  
G15  25824427.214   135708277.304       -4551.074          44.000    25824428.087   105746739.076       -3546.171          38.000  
G25  24216541.869   127258781.433        2402.469          48.000    24216543.708    99162705.641        1871.759          43.000  
G14  26138715.490   137359876.270        2402.073          37.000                                                                  
G 6  25473207.122   133862606.957        1764.500          43.000    25473208.660   104308594.935        1374.774          38.000  
G17  24742955.878   130025107.701       -3383.034          44.000    24742954.418   101318259.279       -2636.053          41.000  
G19  22982821.589   120775542.151       -2296.248          44.000                                                                  
G24  21673583.221   113895446.883       -1950.238          48.000    21673584.005    88749705.042       -1519.593          46.000  
G32  24540685.676   128962165.564        1679.632          43.000    24540687.793   100490013.350        1308.957          41.000  
G 2  26565280.434   139601467.334        2128.956          36.000                                                                  
> 2019  5 23  8 26 46.0040000  0 10                     
G12  21532643.087   113154801.819         538.024          45.000    21532641.911    88172562.610         419.329          45.000  
G15  25825293.344   135712828.332       -4551.222          44.000    25825294.185   105750285.318       -3546.315          39.000  
G25  24216084.713   127256379.320        2401.915          48.000    24216086.606    99160833.853        1871.573          43.000  
G14  26138258.317   137357474.185        2401.994          37.000                                                                  
G 6  25472871.381   133860842.765        1763.794          43.000    25472873.026   104307220.247        1374.214          38.000  
G17  24743599.767   130028490.869       -3383.319          44.000    24743598.177   101320895.507       -2636.372          41.000  
G19  22983258.724   120777838.953       -2297.108          44.000                                                                  
G24  21673954.454   113897397.397       -1950.849          48.000    21673955.065    88751224.923       -1520.124          46.000  
G32  24540366.129   128960486.210        1678.991          43.000    24540368.201   100488704.747        1308.683          42.000  
G 2  26564875.295   139599338.299        2128.773          36.000                                                                  
> 2019  5 23  8 26 47.0040000  0 10                     
G12  21532540.730   113154264.106         537.373          45.000    21532539.634    88172143.614         418.882          46.000  
G15  25826159.371   135717379.531       -4551.230          44.000    25826160.150   105753831.717       -3546.355          39.000  
G25  24215627.535   127253977.589        2401.610          48.000    24215629.683    99158962.380        1871.322          43.000  
G14  26137801.187   137355072.529        2401.111          37.000                                                                  
G 6  25472535.749   133859079.056        1763.535          43.000    25472537.401   104305845.918        1374.083          38.000  
G17  24744243.638   130031874.580       -3383.896          44.000    24744241.961   101323532.174       -2636.843          41.000  
G19  22983695.845   120780136.569       -2297.815          44.000                                                                  
G24  21674325.796   113899348.577       -1951.388          48.000    21674326.317    88752745.323       -1520.639          47.000  
G32  24540046.728   128958807.480        1678.176          43.000    24540048.807   100487396.657        1307.926          42.000  
G 2  26564470.134   139597209.414        2129.192          36.000                                                                  
> 2019  5 23  8 26 48.0040000  0 10                     
G12  21532438.491   113153726.870         536.970          45.000    21532437.207    88171724.985         418.472          45.000  
G15  25827025.491   135721930.754       -4551.282          44.000    25827026.169   105757378.126       -3546.715          38.000  
G25  24215170.547   127251576.076        2401.523          47.000    24215172.636    99157091.065        1871.178          43.000  
G14  26137344.150   137352671.082        2401.081          38.000                                                                  
G 6  25472200.118   133857315.690        1763.295          43.000    25472201.753   104304471.864        1373.606          38.000  
G17  24744887.708   130035258.645       -3384.194          44.000    24744885.931   101326169.098       -2636.946          41.000  
G19  22984133.135   120782434.829       -2298.654          44.000                                                                  
G24  21674697.137   113901300.214       -1951.944          48.000    21674697.674    88754266.078       -1520.894          46.000  
G32  24539727.406   128957129.170        1678.096          42.000    24539729.542   100486088.896        1307.774          41.000  
G 2  26564064.998   139595080.545        2128.774          36.000                                                                  
> 2019  5 23  8 26 49.0040000  0 10                     
G12  21532336.417   113153190.323         536.175          45.000    21532335.075    88171306.892         417.866          45.000  
G15  25827891.564   135726482.183       -4551.520          44.000    25827892.223   105760924.689       -3546.887          38.000  
G25  24214713.619   127249174.994        2401.005          47.000    24214715.569    99155220.101        1870.714          43.000  
G14  26136887.333   137350270.023        2400.997          38.000                                                                  
G 6  25471864.635   133855552.848        1762.645          43.000    25471866.216   104303098.208        1373.570          38.000  
G17  24745531.729   130038643.266       -3384.955          45.000    24745530.041   101328806.476       -2637.647          41.000  
G19  22984570.602   120784733.954       -2299.645          44.000                                                                  
G24  21675068.698   113903252.545       -1952.722          48.000    21675069.199    88755787.381       -1521.507          46.000  
G32  24539408.190   128955451.521        1677.350          42.000    24539410.219   100484781.647        1306.926          41.000  
G 2  26563660.060   139592951.886        2128.273          36.000                                                                  
> 2019  5 23  8 26 50.0040000  0 10                     
G12  21532234.573   113152654.351         536.045          45.000    21532233.042    88170889.256         417.693          45.000  
G15  25828757.653   135731033.737       -4551.177          44.000    25828758.415   105764471.348       -3546.411          38.000  
G25  24214256.832   127246774.272        2401.054          47.000    24214258.586    99153349.389        1870.944          42.000  
G14  26136430.656   137347869.330        2400.781          38.000                                                                  
G 6  25471529.287   133853790.433        1762.772          43.000    25471530.903   104301724.906        1373.490          38.000  
G17  24746175.942   130042028.354       -3385.048          44.000    24746174.123   101331444.214       -2637.690          41.000  
G19  22985008.234   120787033.837       -2299.912          44.000                                                                  
G24  21675440.282   113905205.465       -1952.814          49.000    21675440.853    88757309.149       -1521.834          46.000  
G32  24539089.090   128953774.454        1677.315          42.000    24539090.965   100483474.826        1306.945          41.000  
G 2  26563254.983   139590823.307        2129.180          36.000                                                                  
> 2019  5 23  8 26 51.0040000  0 10                     
G12  21532132.620   113152118.609         535.268          45.000    21532131.054    88170471.793         417.118          45.000  
G15  25829623.715   135735585.067       -4551.779          44.000    25829624.575   105768017.821       -3546.694          38.000  
G25  24213800.044   127244373.504        2400.295          47.000    24213801.731    99151478.652        1870.667          42.000  
G14  26135973.910   137345468.599        2400.062          38.000                                                                  
G 6  25471193.972   133852028.105        1761.832          43.000    25471195.570   104300351.661        1372.827          38.000  
G17  24746820.204   130045413.548       -3385.716          44.000    24746818.327   101334082.022       -2638.278          41.000  
G19  22985446.052   120789334.122       -2300.935          44.000                                                                  
G24  21675811.806   113907158.603       -1953.720          49.000    21675812.543    88758831.064       -1522.354          46.000  
G32  24538769.972   128952097.567        1676.444          42.000    24538771.827   100482168.170        1306.315          41.000  
G 2  26562849.739   139588694.519        2128.437          36.000                                                                  
> 2019  5 23  8 26 52.0040000  0 10                     
G12  21532030.717   113151583.444         534.868          45.000    21532029.188    88170054.785         416.852          45.000  
G15  25830489.793   135740136.506       -4551.426          44.000    25830490.683   105771564.408       -3546.368          38.000  
G25  24213343.227   127241973.069        2400.285          47.000    24213344.810    99149608.195        1870.424          42.000  
G14  26135517.231   137343068.180        2400.153          38.000                                                                  
G 6  25470858.692   133850266.189        1762.003          43.000    25470860.301   104298978.757        1372.708          38.000  
G17  24747464.441   130048799.206       -3385.883          44.000    24747462.536   101336720.200       -2638.349          41.000  
G19  22985883.919   120791635.154       -2301.362          44.000                                                                  
G24  21676183.525   113909112.300       -1953.925          49.000    21676184.323    88760353.432       -1522.516          46.000  
G32  24538450.921   128950421.229        1676.234          42.000    24538452.838   100480861.933        1306.159          41.000  
G 2  26562444.630   139586565.826        2128.818          35.000                                                                  
> 2019  5 23  8 26 53.0040000  0 10                     
G12  21531928.943   113151048.637         534.446          45.000    21531927.487    88169638.059         416.430          45.000  
G15  25831355.989   135744687.837       -4551.559          44.000    25831356.726   105775110.914       -3546.819          38.000  
G25  24212886.531   127239572.736        2400.117          48.000    24212888.047    99147737.816        1870.142          43.000  
G14  26135060.559   137340667.855        2400.329          38.000                                                                  
G 6  25470523.495   133848504.518        1761.163          43.000    25470525.060   104297606.009        1372.606          38.000  
G17  24748108.783   130052185.099       -3386.111          44.000    24748106.872   101339358.556       -2638.633          41.000  
G19  22986321.845   120793936.723       -2302.112          44.000                                                                  
G24  21676555.349   113911066.339       -1954.448          48.000    21676556.178    88761876.061       -1522.960          46.000  
G32  24538132.037   128948745.226        1675.757          42.000    24538133.872   100479555.969        1305.729          41.000  
G 2  26562039.509   139584437.002        2128.812          35.000                                                                  
> 2019  5 23  8 26 54.0040000  0 10                     
G12  21531827.189   113150514.205         533.920          45.000    21531825.816    88169221.614         416.093          45.000  
G15  25832222.055   135749239.078       -4551.649          44.000    25832222.783   105778657.311       -3546.321          38.000  
G25  24212429.681   127237172.532        2399.844          48.000    24212431.298    99145867.525        1869.792          43.000  
G14  26134603.838   137338267.666        2399.548          38.000                                                                  
G 6  25470188.406   133846743.043        1760.991          43.000    25470189.904   104296233.436        1372.111          38.000  
G17  24748753.150   130055571.251       -3386.691          44.000    24748751.209   101341997.119       -2639.096          41.000  
G19  22986759.967   120796238.831       -2302.641          44.000                                                                  
G24  21676927.241   113913020.751       -1954.940          48.000    21676928.012    88763398.971       -1523.287          46.000  
G32  24537813.237   128947069.579        1675.099          42.000    24537815.006   100478250.263        1305.313          41.000  
G 2  26561634.282   139582308.091        2128.641          35.000                                                                  
> 2019  5 23  8 26 55.0040000  0 10                     
G12  21531725.540   113149980.355         533.649          45.000    21531724.221    88168805.633         415.895          45.000  
G15  25833088.198   135753790.454       -4551.588          45.000    25833088.879   105782203.844       -3546.468          38.000  
G25  24211972.971   127234772.664        2399.600          48.000    24211974.615    99143997.498        1869.781          43.000  
G14  26134147.222   137335867.791        2399.941          38.000                                                                  
G 6  25469853.291   133844982.016        1760.705          43.000    25469854.802   104294861.187        1372.484          38.000  
G17  24749397.627   130058957.869       -3386.947          44.000    24749395.650   101344636.040       -2639.322          41.000  
G19  22987198.272   120798541.701       -2303.302          44.000                                                                  
G24  21677299.284   113914975.748       -1955.323          48.000    21677300.030    88764922.346       -1523.517          46.000  
G32  24537494.545   128945394.493        1674.442          42.000    24537496.287   100476944.995        1305.060          41.000  
G 2  26561229.233   139580179.288        2128.648          35.000                                                                  
> 2019  5 23  8 26 56.0040000  0 10                     
G12  21531624.092   113149446.881         533.207          45.000    21531622.738    88168389.942         415.351          45.000  
G15  25833954.210   135758341.713       -4551.312          45.000    25833954.943   105785750.281       -3546.526          38.000  
G25  24211516.307   127232372.888        2399.687          48.000    24211518.050    99142127.534        1869.959          43.000  
G14  26133690.426   137333468.057        2399.117          38.000                                                                  
G 6  25469518.142   133843221.204        1760.586          43.000    25469519.816   104293489.138        1372.006          38.000  
G17  24750042.097   130062344.721       -3387.180          44.000    24750040.174   101347275.146       -2639.444          41.000  
G19  22987636.553   120800845.109       -2303.680          44.000                                                                  
G24  21677671.425   113916931.091       -1955.654          48.000    21677672.120    88766445.987       -1523.848          46.000  
G32  24537175.842   128943719.722        1674.346          42.000    24537177.591   100475639.985        1304.648          41.000  
G 2  26560824.084   139578050.380        2128.768          34.000                                                                  
> 2019  5 23  8 26 57.0040000  0 10                     
G12  21531522.552   113148913.795         532.740          45.000    21531521.366    88167974.550         415.012          45.000  
G15  25834820.221   135762892.914       -4551.391          44.000    25834821.068   105789296.658       -3546.185          38.000  
G25  24211059.716   127229973.269        2399.436          47.000    24211061.367    99140257.698        1869.790          43.000  
G14  26133233.836   137331068.406        2399.918          38.000                                                                  
G 6  25469183.198   133841460.625        1760.212          43.000    25469184.786   104292117.255        1372.034          39.000  
G17  24750686.605   130065731.860       -3387.420          44.000    24750684.695   101349914.464       -2639.736          41.000  
G19  22988074.922   120803149.094       -2304.491          44.000                                                                  
G24  21678043.614   113918886.867       -1956.257          49.000    21678044.311    88767969.972       -1524.409          46.000  
G32  24536857.291   128942045.332        1674.013          42.000    24536858.939   100474335.262        1304.598          41.000  
G 2  26560418.847   139575921.391        2128.618          35.000                                                                  
> 2019  5 23  8 26 58.0040000  0 10                     
G12  21531421.240   113148381.400         532.189          45.000    21531420.034    88167559.699         414.608          45.000  
G15  25835686.259   135767444.330       -4551.332          44.000    25835687.203   105792843.218       -3546.313          38.000  
G25  24210603.164   127227574.084        2399.032          47.000    24210605.009    99138388.217        1869.211          43.000  
G14  26132777.094   137328669.212        2399.146          38.000                                                                  
G 6  25468848.323   133839700.603        1759.962          43.000    25468849.894   104290745.820        1371.283          39.000  
G17  24751331.190   130069119.542       -3387.670          44.000    24751329.328   101352554.217       -2639.659          41.000  
G19  22988513.541   120805453.929       -2304.980          44.000                                                                  
G24  21678415.801   113920843.322       -1956.629          49.000    21678416.581    88769494.486       -1524.739          46.000  
G32  24536538.751   128940371.593        1673.632          42.000    24536540.397   100473031.054        1304.049          41.000  
G 2  26560013.832   139573792.612        2128.406          34.000                                                                  
> 2019  5 23  8 26 59.0040000  0 10                     
G12  21531319.990   113147849.433         532.065          46.000    21531318.791    88167145.182         414.414          45.000  
G15  25836552.338   135771995.723       -4551.271          44.000    25836553.285   105796389.764       -3546.449          38.000  
G25  24210146.673   127225175.070        2399.067          47.000    24210148.582    99136518.848        1869.542          43.000  
G14  26132320.717   137326270.213        2399.138          38.000                                                                  
G 6  25468513.421   133837940.854        1759.732          43.000    25468514.996   104289374.592        1371.076          39.000  
G17  24751975.882   130072507.553       -3387.921          44.000    24751974.069   101355194.229       -2640.058          41.000  
G19  22988952.206   120807759.365       -2305.396          44.000                                                                  
G24  21678788.151   113922800.243       -1956.982          48.000    21678788.968    88771019.355       -1524.995          46.000  
G32  24536220.276   128938698.264        1673.171          42.000    24536221.868   100471727.163        1303.737          41.000  
G 2  26559608.772   139571663.770        2128.703          34.000                                                                  
> 2019  5 23  8 27  0.0040000  0 10                     
G12  21531218.792   113147317.968         531.354          46.000    21531217.562    88166731.048         413.993          45.000  
G15  25837418.429   135776547.139       -4551.244          44.000    25837419.316   105799936.309       -3546.410          38.000  
G25  24209690.071   127222776.295        2398.706          47.000    24209692.063    99134649.687        1869.052          43.000  
G14  26131864.281   137323871.429        2398.589          38.000                                                                  
G 6  25468178.630   133836181.435        1759.333          43.000    25468180.181   104288003.619        1370.946          39.000  
G17  24752620.756   130075895.926       -3388.342          44.000    24752618.868   101357834.521       -2640.394          41.000  
G19  22989391.004   120810065.487       -2306.397          44.000                                                                  
G24  21679160.619   113924757.646       -1957.513          48.000    21679161.421    88772544.600       -1525.280          46.000  
G32  24535901.970   128937025.398        1672.711          42.000    24535903.635   100470423.630        1303.538          41.000  
G 2  26559203.694   139569534.939        2129.270          34.000                                                                  
> 2019  5 23  8 27  1.0040000  0 10                     
G12  21531117.742   113146786.941         530.479          46.000    21531116.481    88166317.261         413.333          45.000  
G15  25838284.536   135781098.533       -4551.816          44.000    25838285.500   105803482.847       -3546.537          38.000  
G25  24209233.663   127220377.709        2398.135          47.000    24209235.572    99132780.666        1868.684          43.000  
G14  26131407.991   137321472.812        2398.096          38.000                                                                  
G 6  25467843.904   133834422.308        1758.702          43.000    25467845.470   104286632.882        1370.378          39.000  
G17  24753265.689   130079284.615       -3389.198          44.000    24753263.644   101360475.053       -2640.956          41.000  
G19  22989830.051   120812372.206       -2307.181          44.000                                                                  
G24  21679533.239   113926715.482       -1958.387          48.000    21679534.012    88774070.190       -1525.933          46.000  
G32  24535583.659   128935352.945        1671.959          42.000    24535585.415   100469120.423        1302.767          41.000  
G 2  26558798.462   139567406.086        2128.358          33.000                                                                  
> 2019  5 23  8 27  2.0040000  0 10                     
G12  21531016.846   113146256.612         529.984          46.000    21531015.540    88165904.020         413.029          45.000  
G15  25839150.623   135785650.149       -4551.743          44.000    25839151.583   105807029.563       -3546.701          38.000  
G25  24208777.197   127217979.567        2398.064          47.000    24208779.305    99130911.987        1868.585          43.000  
G14  26130951.712   137319074.652        2397.887          38.000                                                                  
G 6  25467509.357   133832663.738        1758.378          43.000    25467510.943   104285262.576        1370.062          39.000  
G17  24753910.618   130082673.878       -3389.454          44.000    24753908.577   101363116.023       -2640.960          41.000  
G19  22990269.245   120814679.804       -2307.883          44.000                                                                  
G24  21679905.862   113928673.995       -1958.716          49.000    21679906.767    88775596.305       -1526.375          46.000  
G32  24535265.559   128933681.158        1671.626          42.000    24535267.297   100467817.730        1302.526          41.000  
G 2  26558393.404   139565277.465        2128.433          33.000                                                                  
> 2019  5 23  8 27  3.0040000  0 10                     
G12  21530916.017   113145726.862         529.819          46.000    21530914.678    88165491.225         413.013          45.000  
G15  25840016.811   135790201.879       -4551.434          44.000    25840017.752   105810576.371       -3546.664          38.000  
G25  24208320.758   127215581.759        2397.995          48.000    24208323.108    99129043.557        1868.588          43.000  
G14  26130495.394   137316676.794        2398.125          38.000                                                                  
G 6  25467174.847   133830905.601        1758.372          43.000    25467176.396   104283892.588        1370.193          39.000  
G17  24754555.586   130086063.595       -3389.616          44.000    24754553.594   101365757.374       -2641.271          41.000  
G19  22990708.476   120816988.158       -2308.422          44.000                                                                  
G24  21680278.729   113930633.093       -1958.995          49.000    21680279.538    88777122.876       -1526.612          46.000  
G32  24534947.502   128932009.924        1671.234          42.000    24534949.347   100466515.467        1302.477          41.000  
G 2  26557988.269   139563148.949        2128.664          33.000                                                                  
> 2019  5 23  8 27  4.0040000  0 10                     
G12  21530815.251   113145197.469         529.041          46.000    21530814.009    88165078.720         412.200          45.000  
G15  25840882.980   135794753.523       -4551.960          44.000    25840883.921   105814123.087       -3547.008          38.000  
G25  24207864.529   127213184.046        2397.536          48.000    24207866.769    99127175.218        1868.201          43.000  
G14  26130039.054   137314279.048        2397.585          38.000                                                                  
G 6  25466840.341   133829147.664        1757.578          43.000    25466842.033   104282522.785        1369.294          39.000  
G17  24755200.635   130089453.556       -3390.413          44.000    24755198.752   101368398.881       -2641.594          41.000  
G19  22991147.921   120819297.041       -2309.503          44.000                                                                  
G24  21680651.658   113932592.552       -1959.876          49.000    21680652.404    88778649.726       -1527.105          46.000  
G32  24534629.583   128930339.010        1670.599          42.000    24534631.489   100465213.469        1301.551          41.000  
G 2  26557583.080   139561020.319        2128.479          32.000                                                                  
> 2019  5 23  8 27  5.0040000  0 10                     
G12  21530714.545   113144668.582         528.622          46.000    21530713.361    88164666.597         412.100          45.000  
G15  25841749.137   135799305.188       -4551.702          44.000    25841750.163   105817669.844       -3546.797          38.000  
G25  24207408.308   127210786.601        2397.272          48.000    24207410.501    99125307.080        1867.893          43.000  
G14  26129582.922   137311881.568        2397.102          39.000                                                                  
G 6  25466505.849   133827390.088        1757.518          43.000    25466507.649   104281153.231        1369.692          39.000  
G17  24755845.814   130092843.890       -3390.565          44.000    24755844.022   101371040.707       -2641.771          41.000  
G19  22991587.443   120821606.588       -2309.880          44.000                                                                  
G24  21681024.592   113934552.518       -1960.231          48.000    21681025.367    88780176.975       -1527.349          46.000  
G32  24534311.701   128928668.590        1670.026          42.000    24534313.591   100463911.836        1301.447          41.000  
G 2  26557177.876   139558891.715        2128.673          32.000                                                                  
> 2019  5 23  8 27  6.0040000  0 10                     
G12  21530614.016   113144140.158         528.294          46.000    21530612.807    88164254.835         411.862          45.000  
G15  25842615.416   135803856.845       -4551.280          44.000    25842616.414   105821216.600       -3546.778          39.000  
G25  24206952.168   127208389.347        2397.299          48.000    24206954.266    99123439.088        1867.843          43.000  
G14  26129126.750   137309484.261        2397.433          39.000                                                                  
G 6  25466171.472   133825632.812        1757.328          43.000    25466173.187   104279783.935        1369.491          39.000  
G17  24756490.994   130096234.566       -3390.729          44.000    24756489.303   101373682.802       -2642.145          41.000  
G19  22992027.069   120823916.770       -2310.394          44.000                                                                  
G24  21681397.646   113936512.911       -1960.392          48.000    21681398.417    88781704.551       -1527.612          46.000  
G32  24533993.885   128926998.582        1669.952          42.000    24533995.671   100462610.539        1301.138          41.000  
G 2  26556772.608   139556763.112        2128.492          32.000                                                                  
> 2019  5 23  8 27  7.0040000  0 10                     
G12  21530513.426   113143612.193         527.449          46.000    21530512.278    88163843.444         411.057          45.000  
G15  25843481.551   135808408.511       -4551.939          44.000    25843482.713   105824763.332       -3546.955          39.000  
G25  24206496.035   127205992.310        2396.561          48.000    24206498.032    99121571.252        1867.603          43.000  
G14  26128670.518   137307087.163        2396.803          39.000                                                                  
G 6  25465837.228   133823875.868        1756.299          43.000    25465838.892   104278414.885        1368.785          38.000  
G17  24757136.169   130099625.576       -3391.575          44.000    24757134.575   101376325.139       -2642.591          42.000  
G19  22992466.782   120826227.580       -2311.496          44.000                                                                  
G24  21681770.756   113938473.772       -1961.521          48.000    21681771.551    88783232.493       -1528.353          46.000  
G32  24533676.209   128925329.019        1669.056          42.000    24533677.940   100461309.567        1300.706          41.000  
G 2  26556367.536   139554634.483        2128.206          32.000                                                                  
> 2019  5 23  8 27  8.0040000  0 10                     
G12  21530413.034   113143084.777         527.103          46.000    21530411.981    88163432.471         410.771          45.000  
G15  25844347.855   135812960.248       -4551.781          44.000    25844348.998   105828310.152       -3547.182          39.000  
G25  24206039.967   127203595.561        2396.691          48.000    24206041.959    99119703.667        1867.411          43.000  
G14  26128214.538   137304690.362        2396.967          39.000                                                                  
G 6  25465502.997   133822119.308        1756.396          42.000    25465504.586   104277046.134        1368.493          39.000  
G17  24757781.515   130103017.006       -3391.597          44.000    24757779.961   101378967.820       -2642.928          41.000  
G19  22992906.627   120828539.124       -2311.979          44.000                                                                  
G24  21682144.065   113940435.172       -1961.560          48.000    21682144.722    88784760.858       -1528.603          46.000  
G32  24533358.561   128923659.972        1668.909          42.000    24533360.365   100460009.015        1300.400          41.000  
G 2  26555962.342   139552505.905        2128.972          32.000                                                                  
> 2019  5 23  8 27  9.0040000  0 10                     
G12  21530312.774   113142558.156         526.558          46.000    21530311.758    88163022.121         410.204          45.000  
G15  25845214.069   135817512.339       -4552.278          44.000    25845215.196   105831857.213       -3546.947          39.000  
G25  24205583.990   127201199.362        2396.154          48.000    24205585.901    99117836.488        1867.308          43.000  
G14  26127758.726   137302294.123        2396.124          39.000                                                                  
G 6  25465168.941   133820363.401        1755.758          42.000    25465170.494   104275677.902        1368.142          39.000  
G17  24758427.019   130106409.139       -3392.422          44.000    24758425.490   101381611.023       -2643.257          41.000  
G19  22993346.667   120830851.639       -2312.818          44.000                                                                  
G24  21682517.450   113942397.370       -1962.280          48.000    21682518.113    88786289.846       -1529.083          46.000  
G32  24533041.130   128921991.693        1668.322          42.000    24533042.884   100458709.051        1300.014          41.000  
G 2  26555557.315   139550377.684        2128.664          32.000                                                                  
> 2019  5 23  8 27 10.0040000  0 10                     
G12  21530212.572   113142031.976         525.786          46.000    21530211.702    88162612.108         409.666          45.000  
G15  25846080.288   135822064.374       -4552.294          44.000    25846081.349   105835404.267       -3547.051          39.000  
G25  24205128.037   127198803.339        2395.919          48.000    24205129.803    99115969.466        1866.832          43.000  
G14  26127302.827   137299898.021        2396.139          39.000                                                                  
G 6  25464834.810   133818607.776        1755.283          42.000    25464836.329   104274309.878        1367.671          39.000  
G17  24759072.545   130109801.562       -3392.725          44.000    24759071.067   101384254.462       -2643.326          42.000  
G19  22993786.907   120833164.761       -2313.676          44.000                                                                  
G24  21682890.902   113944359.987       -1963.032          49.000    21682891.449    88787819.163       -1529.739          46.000  
G32  24532723.776   128920323.825        1667.655          42.000    24532725.399   100457409.421        1299.321          41.000  
G 2  26555152.267   139548249.440        2128.375          32.000                                                                  
> 2019  5 23  8 27 11.0040000  0 10                     
G12  21530112.591   113141506.512         525.550          46.000    21530111.713    88162202.641         409.807          45.000  
G15  25846946.445   135826616.668       -4551.955          44.000    25846947.632   105838951.509       -3546.944          39.000  
G25  24204672.254   127196407.803        2395.763          47.000    24204673.897    99114102.806        1866.974          43.000  
G14  26126846.948   137297502.413        2395.732          39.000                                                                  
G 6  25464500.818   133816852.735        1755.054          42.000    25464502.364   104272942.319        1367.699          39.000  
G17  24759718.189   130113194.587       -3392.800          44.000    24759716.643   101386898.403       -2643.988          42.000  
G19  22994227.234   120835478.787       -2314.144          44.000                                                                  
G24  21683264.430   113946323.304       -1963.242          49.000    21683265.074    88789349.017       -1529.814          46.000  
G32  24532406.569   128918656.657        1667.298          43.000    24532408.013   100456110.318        1299.355          41.000  
G 2  26554747.192   139546121.400        2128.374          32.000                                                                  
> 2019  5 23  8 27 12.0040000  0 10                     
G12  21530012.675   113140981.444         524.867          46.000    21530011.783    88161793.517         408.989          45.000  
G15  25847812.689   135831168.895       -4551.993          44.000    25847813.999   105842498.706       -3547.369          38.000  
G25  24204216.403   127194012.404        2395.258          47.000    24204217.988    99112236.253        1866.549          43.000  
G14  26126391.048   137295106.952        2395.568          39.000                                                                  
G 6  25464166.879   133815097.941        1754.763          43.000    25464168.472   104271574.961        1367.084          39.000  
G17  24760363.976   130116587.899       -3393.490          44.000    24760362.455   101389542.530       -2644.116          41.000  
G19  22994667.741   120837793.378       -2315.086          44.000                                                                  
G24  21683638.166   113948287.020       -1963.875          48.000    21683638.810    88790879.175       -1530.226          46.000  
G32  24532089.430   128916989.862        1666.547          43.000    24532090.835   100454811.516        1298.722          41.000  
G 2  26554342.195   139543993.303        2128.889          32.000                                                                  
> 2019  5 23  8 27 13.0040000  0 10                     
G12  21529912.786   113140456.692         524.222          46.000    21529911.916    88161384.600         408.787          45.000  
G15  25848678.889   135835720.994       -4552.296          44.000    25848680.269   105846045.777       -3547.217          38.000  
G25  24203760.627   127191617.058        2395.004          47.000    24203762.242    99110369.755        1866.201          43.000  
G14  26125935.180   137292711.523        2395.355          39.000                                                                  
G 6  25463832.955   133813343.295        1754.409          43.000    25463834.588   104270207.677        1367.583          39.000  
G17  24761009.639   130119981.385       -3393.598          44.000    24761008.222   101392186.815       -2644.842          42.000  
G19  22995108.218   120840108.427       -2315.383          44.000                                                                  
G24  21684011.940   113950251.032       -1964.482          48.000    21684012.549    88792409.576       -1530.673          46.000  
G32  24531772.374   128915323.335        1666.137          43.000    24531773.742   100453512.932        1298.365          41.000  
G 2  26553937.308   139541865.060        2128.763          32.000                                                                  
> 2019  5 23  8 27 14.0040000  0 10                     
G12  21529812.990   113139932.364         524.157          46.000    21529812.039    88160976.042         408.459          45.000  
G15  25849545.107   135840273.039       -4551.973          44.000    25849546.533   105849592.823       -3546.786          38.000  
G25  24203304.817   127189221.890        2395.192          47.000    24203306.634    99108503.400        1866.442          43.000  
G14  26125479.377   137290316.283        2395.390          38.000                                                                  
G 6  25463498.996   133811588.958        1754.130          43.000    25463500.717   104268840.684        1366.935          39.000  
G17  24761655.562   130123375.193       -3393.798          44.000    24761654.065   101394831.320       -2644.240          41.000  
G19  22995548.953   120842424.114       -2315.837          44.000                                                                  
G24  21684385.771   113952215.504       -1964.556          48.000    21684386.394    88793940.341       -1530.815          46.000  
G32  24531455.317   128913657.225        1666.311          43.000    24531456.774   100452214.682        1298.039          41.000  
G 2  26553532.325   139539736.745        2129.050          32.000                                                                  
> 2019  5 23  8 27 15.0040000  0 10                     
G12  21529713.295   113139408.348         523.835          46.000    21529712.369    88160567.722         408.048          45.000  
G15  25850411.371   135844824.923       -4551.888          44.000    25850412.681   105853139.742       -3546.870          38.000  
G25  24202849.014   127186826.777        2394.886          48.000    24202850.984    99106637.090        1865.933          43.000  
G14  26125023.457   137287921.099        2395.015          38.000                                                                  
G 6  25463165.154   133809834.759        1753.908          43.000    25463166.982   104267473.767        1366.703          39.000  
G17  24762301.445   130126769.183       -3394.246          44.000    24762299.890   101397475.991       -2645.017          41.000  
G19  22995989.726   120844740.278       -2316.410          44.000                                                                  
G24  21684759.731   113954180.276       -1965.040          48.000    21684760.324    88795471.322       -1531.060          46.000  
G32  24531138.234   128911991.393        1665.373          43.000    24531139.804   100450916.610        1297.898          41.000  
G 2  26553127.390   139537608.284        2128.776          32.000                                                                  
> 2019  5 23  8 27 16.0040000  0 10                     
G12  21529613.580   113138885.105         523.024          46.000    21529612.871    88160159.997         407.543          45.000  
G15  25851277.619   135849377.116       -4552.147          44.000    25851278.926   105856686.920       -3547.206          38.000  
G25  24202393.372   127184432.185        2394.534          48.000    24202395.287    99104771.168        1866.002          43.000  
G14  26124567.798   137285526.405        2394.830          38.000                                                                  
G 6  25462831.467   133808081.178        1753.658          43.000    25462833.311   104266107.366        1366.061          39.000  
G17  24762947.404   130130163.822       -3394.677          44.000    24762945.776   101400121.162       -2645.158          42.000  
G19  22996430.644   120847057.382       -2317.264          44.000                                                                  
G24  21685133.587   113956145.821       -1965.735          48.000    21685134.439    88797002.927       -1531.707          46.000  
G32  24530821.406   128910326.291        1664.883          43.000    24530822.991   100449619.146        1297.335          41.000  
G 2  26552722.487   139535480.142        2128.136          32.000                                                                  
> 2019  5 23  8 27 17.0040000  0 10                     
G12  21529514.144   113138362.348         522.550          46.000    21529513.436    88159752.642         407.531          45.000  
G15  25852143.886   135853929.324       -4552.133          45.000    25852145.245   105860234.089       -3547.147          38.000  
G25  24201937.704   127182037.834        2394.400          48.000    24201939.558    99102905.437        1865.911          43.000  
G14  26124112.050   137283131.969        2394.459          38.000                                                                  
G 6  25462497.758   133806327.962        1753.239          43.000    25462499.672   104264741.203        1366.213          39.000  
G17  24763593.432   130133558.825       -3395.112          45.000    24763591.853   101402766.621       -2645.687          41.000  
G19  22996871.709   120849375.159       -2318.082          44.000                                                                  
G24  21685507.760   113958111.850       -1966.224          48.000    21685508.561    88798534.895       -1532.154          46.000  
G32  24530504.700   128908661.657        1664.628          43.000    24530506.198   100448322.032        1296.972          42.000  
G 2  26552317.450   139533351.998        2128.020          33.000                                                                  
> 2019  5 23  8 27 18.0040000  0 10                     
G12  21529414.750   113137840.059         521.670          46.000    21529414.112    88159345.675         406.730          45.000  
G15  25853010.182   135858481.535       -4552.375          45.000    25853011.354   105863781.267       -3547.460          38.000  
G25  24201482.031   127179643.687        2393.773          48.000    24201484.015    99101039.884        1865.120          43.000  
G14  26123656.458   137280737.727        2393.773          38.000                                                                  
G 6  25462164.192   133804575.050        1752.434          43.000    25462166.105   104263375.307        1365.451          39.000  
G17  24764239.581   130136954.173       -3395.920          45.000    24764237.957   101405412.338       -2645.997          41.000  
G19  22997312.950   120851693.565       -2319.028          44.000                                                                  
G24  21685882.050   113960078.331       -1966.903          48.000    21685882.845    88800067.211       -1532.563          46.000  
G32  24530188.030   128906997.460        1663.651          43.000    24530189.545   100447025.255        1296.464          42.000  
G 2  26551912.535   139531223.825        2127.939          33.000                                                                  
> 2019  5 23  8 27 19.0040000  0 10                     
G12  21529315.404   113137318.105         521.491          46.000    21529314.688    88158938.953         406.416          45.000  
G15  25853876.425   135863033.616       -4552.140          45.000    25853877.595   105867328.332       -3547.102          38.000  
G25  24201026.434   127177249.629        2393.717          48.000    24201028.435    99099174.380        1865.220          43.000  
G14  26123200.806   137278343.568        2394.028          38.000                                                                  
G 6  25461830.599   133802822.325        1752.269          43.000    25461832.672   104262009.555        1365.325          39.000  
G17  24764885.654   130140349.710       -3395.821          44.000    24764884.025   101408058.214       -2646.064          41.000  
G19  22997754.247   120854012.464       -2319.433          44.000                                                                  
G24  21686256.395   113962045.144       -1967.295          48.000    21686257.047    88801599.795       -1532.956          46.000  
G32  24529871.307   128905333.567        1663.569          43.000    24529872.937   100445728.717        1296.260          42.000  
G 2  26551507.534   139529095.556        2127.502          33.000                                                                  
> 2019  5 23  8 27 20.0040000  0 10                     
G12  21529216.214   113136796.561         521.378          46.000    21529215.467    88158532.564         406.130          45.000  
G15  25854742.707   135867585.641       -4552.057          45.000    25854743.750   105870875.375       -3547.262          38.000  
G25  24200570.929   127174855.734        2393.909          48.000    24200572.979    99097309.004        1865.462          43.000  
G14  26122745.302   137275949.577        2393.867          38.000                                                                  
G 6  25461497.056   133801069.866        1752.439          43.000    25461499.250   104260644.007        1365.194          39.000  
G17  24765531.863   130143745.554       -3395.948          45.000    24765530.292   101410704.331       -2646.223          42.000  
G19  22998195.671   120856331.962       -2319.758          44.000                                                                  
G24  21686630.781   113964012.367       -1967.520          48.000    21686631.317    88803132.695       -1533.015          46.000  
G32  24529554.747   128903670.070        1663.398          43.000    24529556.401   100444432.481        1296.123          42.000  
G 2  26551102.576   139526967.173        2128.416          33.000                                                                  
> 2019  5 23  8 27 21.0040000  0 10                     
G12  21529117.139   113136275.628         520.666          46.000    21529116.340    88158126.636         405.648          45.000  
G15  25855608.976   135872137.808       -4552.419          45.000    25855610.001   105874422.517       -3547.450          38.000  
G25  24200115.484   127172462.192        2393.267          48.000    24200117.577    99095443.913        1864.649          43.000  
G14  26122289.723   137273555.926        2393.799          38.000                                                                  
G 6  25461163.704   133799317.869        1751.758          43.000    25461165.778   104259278.806        1365.004          39.000  
G17  24766178.209   130147141.881       -3396.576          44.000    24766176.554   101413350.819       -2646.817          41.000  
G19  22998637.197   120858652.240       -2320.830          44.000                                                                  
G24  21687005.174   113965980.175       -1968.172          48.000    21687005.768    88804666.055       -1533.724          46.000  
G32  24529238.417   128902007.147        1662.552          43.000    24529239.979   100443136.712        1295.257          42.000  
G 2  26550697.651   139524838.914        2128.603          33.000                                                                  
> 2019  5 23  8 27 22.0040000  0 10                     
G12  21529018.229   113135755.268         519.881          45.000    21529017.368    88157721.160         405.161          45.000  
G15  25856475.289   135876690.084       -4552.569          45.000    25856476.282   105877969.727       -3547.470          38.000  
G25  24199660.204   127170068.967        2392.938          48.000    24199662.221    99093579.058        1864.444          43.000  
G14  26121834.307   137271162.590        2393.102          38.000                                                                  
G 6  25460830.443   133797566.302        1751.301          43.000    25460832.443   104257913.959        1364.350          39.000  
G17  24766824.653   130150538.670       -3397.194          44.000    24766822.916   101415997.656       -2647.132          42.000  
G19  22999078.937   120860973.249       -2321.614          44.000                                                                  
G24  21687379.756   113967948.545       -1968.886          48.000    21687380.328    88806199.847       -1534.144          46.000  
G32  24528922.085   128900344.767        1661.941          43.000    24528923.662   100441841.350        1295.026          42.000  
G 2  26550292.839   139522710.853        2127.907          33.000                                                                  
> 2019  5 23  8 27 23.0040000  0 10                     
G12  21528919.349   113135235.683         519.253          45.000    21528918.487    88157316.290         404.574          45.000  
G15  25857341.734   135881242.654       -4552.624          45.000    25857342.562   105881517.185       -3547.331          38.000  
G25  24199204.852   127167676.269        2392.623          48.000    24199206.981    99091714.620        1864.280          43.000  
G14  26121378.927   137268769.785        2392.880          38.000                                                                  
G 6  25460497.196   133795815.349        1750.749          43.000    25460499.216   104256549.588        1364.149          39.000  
G17  24767471.173   130153936.115       -3397.861          44.000    24767469.493   101418645.021       -2647.404          41.000  
G19  22999520.823   120863295.217       -2322.577          44.000                                                                  
G24  21687754.456   113969917.718       -1969.490          48.000    21687754.970    88807734.269       -1534.755          46.000  
G32  24528605.793   128898683.154        1661.132          43.000    24528607.498   100440546.568        1294.787          42.000  
G 2  26549887.951   139520583.036        2127.689          33.000                                                                  
> 2019  5 23  8 27 24.0040000  0 10                     
G12  21528820.616   113134716.348         519.349          45.000    21528819.688    88156911.618         404.588          45.000  
G15  25858208.063   135885795.030       -4552.198          45.000    25858208.868   105885064.493       -3546.920          38.000  
G25  24198749.641   127165283.570        2392.838          48.000    24198751.570    99089850.168        1864.667          43.000  
G14  26120923.616   137266376.995        2392.562          38.000                                                                  
G 6  25460164.021   133794064.508        1751.146          43.000    25460166.063   104255185.280        1364.689          39.000  
G17  24768117.774   130157333.712       -3397.472          44.000    24768115.935   101421292.503       -2647.738          41.000  
G19  22999962.677   120865617.596       -2322.415          44.000                                                                  
G24  21688129.236   113971887.142       -1969.334          48.000    21688129.758    88809268.884       -1534.613          46.000  
G32  24528289.689   128897021.745        1661.503          43.000    24528291.358   100439251.984        1294.575          42.000  
G 2  26549482.954   139518455.034        2127.808          33.000                                                                  
> 2019  5 23  8 27 25.0040000  0 10                     
G12  21528721.833   113134197.503         518.985          45.000    21528720.940    88156507.320         404.452          45.000  
G15  25859074.357   135890347.429       -4552.315          45.000    25859075.146   105888611.810       -3547.159          38.000  
G25  24198294.373   127162891.121        2392.560          48.000    24198296.423    99087985.920        1864.556          43.000  
G14  26120468.245   137263984.421        2392.506          38.000                                                                  
G 6  25459830.909   133792314.031        1750.435          43.000    25459832.867   104253821.267        1364.309          39.000  
G17  24768764.388   130160731.666       -3397.777          44.000    24768762.516   101423940.243       -2647.645          41.000  
G19  23000404.763   120867940.634       -2323.054          44.000                                                                  
G24  21688504.061   113973857.052       -1969.786          48.000    21688504.693    88810803.888       -1535.096          46.000  
G32  24527973.537   128895360.812        1660.930          43.000    24527975.272   100437957.746        1294.275          42.000  
G 2  26549078.069   139516326.990        2128.175          33.000                                                                  
> 2019  5 23  8 27 26.0040000  0 10                     
G12  21528623.182   113133679.060         518.378          45.000    21528622.273    88156103.341         403.844          46.000  
G15  25859940.678   135894899.749       -4552.344          45.000    25859941.297   105892159.083       -3547.077          38.000  
G25  24197839.188   127160498.822        2392.147          48.000    24197841.129    99086121.793        1863.978          43.000  
G14  26120013.025   137261591.986        2392.547          38.000                                                                  
G 6  25459497.971   133790563.791        1750.052          43.000    25459499.851   104252457.482        1363.486          38.000  
G17  24769410.981   130164129.904       -3398.310          44.000    24769409.150   101426588.223       -2647.992          42.000  
G19  23000846.926   120870264.270       -2323.973          44.000                                                                  
G24  21688878.984   113975827.388       -1970.434          49.000    21688879.659    88812339.211       -1535.486          46.000  
G32  24527657.494   128893700.263        1660.537          43.000    24527659.322   100436663.822        1293.680          42.000  
G 2  26548673.113   139514198.922        2128.325          33.000                                                                  
> 2019  5 23  8 27 27.0040000  0 10                     
G12  21528524.656   113133161.121         517.566          45.000    21528523.761    88155699.755         403.185          46.000  
G15  25860806.953   135899452.093       -4552.330          44.000    25860807.667   105895706.371       -3547.359          38.000  
G25  24197384.144   127158106.751        2391.945          48.000    24197385.861    99084257.836        1864.040          42.000  
G14  26119557.840   137259199.801        2391.618          39.000                                                                  
G 6  25459165.000   133788813.902        1749.619          43.000    25459166.839   104251093.923        1363.315          38.000  
G17  24770057.785   130167528.511       -3398.960          44.000    24770055.900   101429236.487       -2648.532          41.000  
G19  23001289.144   120872588.548       -2324.664          44.000                                                                  
G24  21689254.085   113977798.213       -1971.219          49.000    21689254.659    88813874.915       -1536.044          46.000  
G32  24527341.585   128892040.187        1659.661          43.000    24527343.370   100435370.243        1293.318          41.000  
G 2  26548268.277   139512070.850        2128.587          33.000                                                                  
> 2019  5 23  8 27 28.0040000  0 10                     
G12  21528426.303   113132643.683         517.008          45.000    21528425.309    88155296.552         402.848          46.000  
G15  25861673.227   135904004.498       -4552.381          44.000    25861673.941   105899253.719       -3547.981          38.000  
G25  24196928.948   127155714.951        2391.483          48.000    24196930.707    99082394.103        1863.423          42.000  
G14  26119102.650   137256807.846        2391.641          39.000                                                                  
G 6  25458832.102   133787064.383        1749.103          43.000    25458833.899   104249730.674        1362.488          38.000  
G17  24770704.614   130170927.495       -3399.280          45.000    24770702.687   101431885.034       -2648.706          42.000  
G19  23001731.533   120874913.521       -2325.374          44.000                                                                  
G24  21689629.206   113979769.507       -1971.675          49.000    21689629.778    88815410.992       -1536.482          46.000  
G32  24527025.753   128890380.582        1659.071          43.000    24527027.652   100434077.041        1292.925          41.000  
G 2  26547863.314   139509942.817        2128.198          33.000                                                                  
> 2019  5 23  8 27 29.0040000  0 10                     
G12  21528327.855   113132126.846         516.774          45.000    21528326.885    88154893.823         402.656          46.000  
G15  25862539.509   135908557.034       -4552.443          44.000    25862540.262   105902801.108       -3547.280          38.000  
G25  24196473.821   127153323.501        2391.401          48.000    24196475.544    99080530.619        1863.634          43.000  
G14  26118647.467   137254416.267        2391.508          39.000                                                                  
G 6  25458499.139   133785315.316        1748.948          43.000    25458501.138   104248367.732        1363.012          38.000  
G17  24771351.589   130174326.951       -3399.407          45.000    24771349.671   101434533.972       -2648.949          42.000  
G19  23002174.186   120877239.263       -2325.999          44.000                                                                  
G24  21690004.490   113981741.426       -1972.145          49.000    21690004.983    88816947.542       -1536.751          46.000  
G32  24526710.073   128888721.554        1658.843          43.000    24526711.876   100432784.290        1292.650          41.000  
G 2  26547458.494   139507814.938        2128.586          33.000                                                                  
> 2019  5 23  8 27 30.0040000  0 10                     
G12  21528229.600   113131610.482         516.196          45.000    21528228.648    88154491.464         402.189          45.000  
G15  25863405.794   135913109.573       -4552.440          44.000    25863406.544   105906348.545       -3547.419          38.000  
G25  24196018.782   127150932.265        2391.115          48.000    24196020.410    99078667.322        1863.475          43.000  
G14  26118192.323   137252024.883        2391.248          39.000                                                                  
G 6  25458166.433   133783566.571        1748.666          43.000    25458168.403   104247005.087        1362.694          38.000  
G17  24771998.588   130177726.768       -3399.873          45.000    24771996.677   101437183.174       -2649.392          42.000  
G19  23002616.903   120879565.651       -2326.606          44.000                                                                  
G24  21690379.785   113983713.810       -1972.566          49.000    21690380.270    88818484.466       -1537.025          46.000  
G32  24526394.449   128887062.983        1658.295          43.000    24526396.227   100431491.905        1292.183          42.000  
G 2  26547053.402   139505687.056        2128.438          32.000                                                                  
> 2019  5 23  8 27 31.0040000  0 10                     
G12  21528131.493   113131094.718         515.370          45.000    21528130.533    88154089.567         401.564          45.000  
G15  25864272.120   135917662.252       -4553.111          44.000    25864272.858   105909896.067       -3547.656          38.000  
G25  24195563.799   127148541.372        2390.537          48.000    24195565.444    99076804.302        1862.701          43.000  
G14  26117737.311   137249633.840        2390.873          39.000                                                                  
G 6  25457833.741   133781818.282        1747.875          44.000    25457835.673   104245642.781        1361.973          38.000  
G17  24772645.651   130181127.061       -3400.792          45.000    24772643.691   101439832.744       -2649.825          42.000  
G19  23003059.803   120881892.796       -2327.635          44.000                                                                  
G24  21690755.283   113985686.780       -1973.398          49.000    21690755.845    88820021.844       -1537.716          46.000  
G32  24526079.017   128885404.979        1657.445          43.000    24526080.664   100430199.947        1291.629          42.000  
G 2  26546648.649   139503559.297        2127.267          32.000                                                                  
> 2019  5 23  8 27 32.0040000  0 10                     
G12  21528033.502   113130579.365         515.032          45.000    21528032.486    88153687.992         401.456          45.000  
G15  25865138.491   135922214.852       -4552.583          44.000    25865139.173   105913443.563       -3547.573          38.000  
G25  24195108.763   127146150.646        2390.705          48.000    24195110.583    99074941.393        1862.779          43.000  
G14  26117282.356   137247242.965        2390.937          39.000                                                                  
G 6  25457501.017   133780070.261        1747.887          44.000    25457503.096   104244280.691        1361.937          38.000  
G17  24773292.717   130184527.627       -3400.976          45.000    24773290.901   101442482.551       -2650.212          42.000  
G19  23003502.733   120884220.533       -2328.014          44.000                                                                  
G24  21691130.803   113987660.158       -1973.666          49.000    21691131.199    88821559.544       -1537.929          46.000  
G32  24525763.561   128883747.356        1657.350          43.000    24525765.130   100428908.294        1291.494          42.000  
G 2  26546243.826   139501431.512        2127.334          32.000                                                                  
> 2019  5 23  8 27 33.0040000  0 10                     
G12  21527935.504   113130064.436         514.586          45.000    21527934.487    88153286.757         400.945          46.000  
G15  25866004.862   135926767.434       -4552.855          44.000    25866005.580   105916991.023       -3547.639          38.000  
G25  24194653.863   127143760.091        2390.344          48.000    24194655.612    99073078.624        1862.635          43.000  
G14  26116827.311   137244852.275        2390.257          39.000                                                                  
G 6  25457168.496   133778322.518        1747.529          43.000    25457170.509   104242918.827        1361.475          38.000  
G17  24773939.998   130187928.504       -3401.283          45.000    24773938.066   101445132.571       -2650.386          42.000  
G19  23003945.771   120886548.870       -2328.832          44.000                                                                  
G24  21691506.394   113989633.981       -1974.226          49.000    21691506.882    88823097.584       -1538.467          46.000  
G32  24525448.246   128882090.134        1656.884          43.000    24525449.768   100427616.950        1291.200          41.000  
G 2  26545838.880   139499303.594        2127.726          32.000                                                                  
> 2019  5 23  8 27 34.0040000  0 10                     
G12  21527837.688   113129550.060         514.230          45.000    21527836.694    88152885.940         400.566          46.000  
G15  25866871.187   135931320.064       -4552.525          44.000    25866871.938   105920538.545       -3547.475          38.000  
G25  24194198.994   127141369.835        2390.149          48.000    24194200.747    99071216.094        1862.390          43.000  
G14  26116372.405   137242461.874        2390.281          39.000                                                                  
G 6  25456836.009   133776575.182        1747.165          43.000    25456837.959   104241557.256        1361.471          38.000  
G17  24774587.257   130191329.783       -3401.416          45.000    24774585.344   101447782.922       -2650.426          42.000  
G19  23004388.903   120888877.903       -2329.281          44.000                                                                  
G24  21691882.122   113991608.337       -1974.615          49.000    21691882.784    88824636.047       -1538.796          46.000  
G32  24525133.066   128880433.440        1656.476          43.000    24525134.528   100426326.023        1290.733          41.000  
G 2  26545434.018   139497175.821        2127.469          32.000                                                                  
> 2019  5 23  8 27 35.0040000  0 10                     
G12  21527739.923   113129036.340         513.227          45.000    21527738.952    88152485.638         400.042          45.000  
G15  25867737.550   135935872.903       -4552.976          44.000    25867738.278   105924086.224       -3548.041          38.000  
G25  24193744.230   127138979.992        2389.408          48.000    24193745.982    99069353.868        1862.083          43.000  
G14  26115917.657   137240071.843        2389.889          39.000                                                                  
G 6  25456503.532   133774828.356        1746.367          44.000    25456505.473   104240196.100        1360.582          38.000  
G17  24775234.661   130194731.606       -3402.113          45.000    24775232.695   101450433.699       -2651.156          42.000  
G19  23004832.277   120891207.784       -2330.558          44.000                                                                  
G24  21692257.946   113993583.338       -1975.429          49.000    21692258.667    88826175.011       -1539.271          46.000  
G32  24524817.916   128878777.388        1655.626          43.000    24524819.330   100425035.602        1289.935          41.000  
G 2  26545029.193   139495048.210        2127.318          32.000                                                                  
> 2019  5 23  8 27 36.0040000  0 10                     
G12  21527642.232   113128523.122         512.996          45.000    21527641.328    88152085.727         399.757          46.000  
G15  25868603.993   135940425.781       -4552.862          44.000    25868604.745   105927633.892       -3547.577          38.000  
G25  24193289.416   127136590.383        2389.579          48.000    24193291.307    99067491.842        1862.276          43.000  
G14  26115462.790   137237682.091        2390.036          38.000                                                                  
G 6  25456171.219   133773081.874        1746.444          44.000    25456173.036   104238835.195        1360.937          38.000  
G17  24775882.120   130198133.803       -3402.170          45.000    24775880.129   101453084.746       -2650.981          42.000  
G19  23005275.653   120893538.323       -2330.781          44.000                                                                  
G24  21692633.887   113995558.826       -1975.547          49.000    21692634.552    88827714.354       -1539.545          46.000  
G32  24524502.914   128877121.788        1655.630          43.000    24524504.284   100423745.517        1290.079          41.000  
G 2  26544624.310   139492920.618        2127.318          31.000                                                                  
> 2019  5 23  8 27 37.0040000  0 10                     
G12  21527544.689   113128010.295         512.436          46.000    21527543.702    88151686.110         399.425          45.000  
G15  25869470.361   135944978.564       -4552.752          44.000    25869471.123   105931181.502       -3547.282          38.000  
G25  24192834.720   127134200.925        2389.275          48.000    24192836.634    99065629.935        1861.792          43.000  
G14  26115008.013   137235292.470        2389.532          39.000                                                                  
G 6  25455838.896   133771335.642        1746.057          44.000    25455840.713   104237474.481        1360.919          38.000  
G17  24776529.614   130201536.258       -3402.551          45.000    24776527.580   101455736.020       -2651.472          42.000  
G19  23005719.297   120895869.409       -2331.188          44.000                                                                  
G24  21693009.873   113997534.732       -1976.258          49.000    21693010.527    88829254.016       -1539.806          46.000  
G32  24524187.963   128875466.563        1654.856          43.000    24524189.361   100422455.733        1289.586          41.000  
G 2  26544219.422   139490792.925        2128.240          32.000                                                                  
> 2019  5 23  8 27 38.0040000  0 10                     
G12  21527447.320   113127498.197         511.788          46.000    21527446.307    88151287.074         399.000          45.000  
G15  25870336.699   135949531.629       -4553.206          44.000    25870337.541   105934729.356       -3547.890          37.000  
G25  24192380.074   127131811.943        2388.858          48.000    24192381.977    99063768.388        1861.582          43.000  
G14  26114553.404   137232903.342        2388.850          38.000                                                                  
G 6  25455506.665   133769590.010        1745.628          44.000    25455508.600   104236114.251        1360.493          38.000  
G17  24777177.253   130204939.341       -3403.192          45.000    24777175.157   101458387.773       -2651.893          42.000  
G19  23006162.987   120898201.432       -2332.267          44.000                                                                  
G24  21693385.985   113999511.392       -1976.875          49.000    21693386.618    88830794.268       -1540.400          46.000  
G32  24523873.058   128873812.048        1654.163          43.000    24523874.476   100421166.516        1288.770          41.000  
G 2  26543814.608   139488665.559        2127.805          32.000                                                                  
> 2019  5 23  8 27 39.0040000  0 10                     
G12  21527350.016   113126986.669         511.268          46.000    21527348.953    88150888.484         398.433          46.000  
G15  25871203.135   135954084.777       -4553.212          44.000    25871204.017   105938277.273       -3548.080          38.000  
G25  24191925.544   127129423.277        2388.552          48.000    24191927.396    99061907.090        1861.258          43.000  
G14  26114098.756   137230514.494        2389.028          38.000                                                                  
G 6  25455174.631   133767844.787        1745.194          44.000    25455176.461   104234754.350        1359.508          38.000  
G17  24777824.936   130208342.852       -3403.679          45.000    24777822.791   101461039.857       -2652.263          42.000  
G19  23006606.906   120900534.184       -2332.994          44.000                                                                  
G24  21693762.340   114001488.623       -1977.440          49.000    21693762.861    88832334.962       -1540.788          46.000  
G32  24523558.326   128872158.073        1653.685          43.000    24523559.590   100419877.684        1288.674          41.000  
G 2  26543409.547   139486538.232        2127.729          32.000                                                                  
> 2019  5 23  8 27 40.0040000  0 10                     
G12  21527252.819   113126475.715         510.817          46.000    21527251.681    88150490.348         397.849          46.000  
G15  25872069.570   135958638.039       -4553.041          44.000    25872070.405   105941825.247       -3547.675          37.000  
G25  24191471.003   127127034.951        2388.145          48.000    24191472.889    99060046.061        1861.058          43.000  
G14  26113644.234   137228125.996        2388.662          38.000                                                                  
G 6  25454842.618   133766100.009        1744.644          44.000    25454844.313   104233394.783        1359.159          38.000  
G17  24778472.678   130211746.823       -3404.058          45.000    24778470.576   101463692.303       -2652.748          42.000  
G19  23007050.993   120902867.690       -2333.669          44.000                                                                  
G24  21694138.749   114003466.416       -1977.997          49.000    21694139.295    88833876.105       -1541.284          46.000  
G32  24523243.757   128870504.661        1653.167          43.000    24523244.898   100418589.312        1288.375          42.000  
G 2  26543004.840   139484411.065        2126.778          32.000                                                                  
> 2019  5 23  8 27 41.0040000  0 10                     
G12  21527155.620   113125965.320         510.369          46.000    21527154.552    88150092.636         397.624          46.000  
G15  25872936.023   135963191.396       -4553.194          44.000    25872936.899   105945373.333       -3548.018          37.000  
G25  24191016.610   127124646.914        2388.139          48.000    24191018.436    99058185.264        1860.737          43.000  
G14  26113189.807   137225737.814        2387.761          38.000                                                                  
G 6  25454510.688   133764355.631        1744.462          44.000    25454512.312   104232035.534        1359.008          38.000  
G17  24779120.492   130215151.223       -3404.476          45.000    24779118.409   101466345.071       -2652.896          42.000  
G19  23007495.121   120905201.909       -2334.339          44.000                                                                  
G24  21694515.142   114005444.759       -1978.401          49.000    21694515.654    88835417.672       -1541.577          46.000  
G32  24522929.168   128868851.774        1652.838          43.000    24522930.316   100417301.358        1287.826          42.000  
G 2  26542600.093   139482283.986        2126.662          32.000                                                                  
> 2019  5 23  8 27 42.0040000  0 10                     
G12  21527058.649   113125455.360         509.574          46.000    21527057.495    88149695.248         397.230          46.000  
G15  25873802.404   135967744.713       -4553.248          44.000    25873803.406   105948921.373       -3548.101          37.000  
G25  24190562.141   127122259.067        2387.740          48.000    24190563.893    99056324.594        1860.427          43.000  
G14  26112735.277   137223349.764        2387.950          38.000                                                                  
G 6  25454178.821   133762611.545        1744.055          44.000    25454180.348   104230676.485        1359.047          38.000  
G17  24779768.379   130218555.920       -3405.000          45.000    24779766.281   101468998.080       -2653.174          42.000  
G19  23007939.411   120907536.728       -2335.107          44.000                                                                  
G24  21694891.786   114007423.546       -1978.923          49.000    21694892.234    88836959.589       -1542.059          46.000  
G32  24522614.730   128867199.277        1652.485          43.000    24522615.867   100416013.697        1287.421          41.000  
G 2  26542195.342   139480156.830        2127.087          33.000                                                                  
> 2019  5 23  8 27 43.0040000  0 10                     
G12  21526961.562   113124945.741         509.478          46.000    21526960.545    88149298.144         397.139          46.000  
G15  25874668.791   135972297.926       -4553.219          44.000    25874669.795   105952469.311       -3547.518          37.000  
G25  24190107.801   127119871.312        2387.707          48.000    24190109.563    99054464.011        1860.501          43.000  
G14  26112280.869   137220961.818        2387.885          38.000                                                                  
G 6  25453847.089   133760867.683        1743.557          44.000    25453848.451   104229317.622        1358.809          38.000  
G17  24780416.448   130221960.840       -3405.055          45.000    24780414.177   101471651.262       -2653.161          42.000  
G19  23008383.859   120909872.072       -2335.597          44.000                                                                  
G24  21695268.356   114009402.683       -1979.365          49.000    21695268.890    88838501.772       -1542.384          46.000  
G32  24522300.349   128865547.128        1652.021          43.000    24522301.425   100414726.303        1287.129          41.000  
G 2  26541790.570   139478029.568        2126.822          33.000                                                                  
> 2019  5 23  8 27 44.0040000  0 10                     
G12  21526864.625   113124436.489         508.796          46.000    21526863.669    88148901.331         396.482          46.000  
G15  25875535.194   135976851.019       -4553.323          44.000    25875536.232   105956017.190       -3547.906          37.000  
G25  24189653.366   127117483.673        2387.444          48.000    24189655.168    99052603.507        1860.465          43.000  
G14  26111826.446   137218574.005        2387.471          38.000                                                                  
G 6  25453515.241   133759124.004        1743.307          44.000    25453516.586   104227958.933        1358.267          38.000  
G17  24781064.411   130225365.994       -3405.260          45.000    24781062.297   101474304.637       -2653.409          42.000  
G19  23008828.360   120912207.953       -2336.317          44.000                                                                  
G24  21695645.051   114011382.165       -1979.854          49.000    21695645.555    88840044.222       -1542.682          46.000  
G32  24521985.982   128863895.301        1651.495          43.000    24521987.152   100413439.177        1286.741          41.000  
G 2  26541385.647   139475902.181        2127.514          33.000                                                                  
> 2019  5 23  8 27 45.0040000  0 10                     
G12  21526767.736   113123927.677         508.771          46.000    21526766.889    88148504.855         396.354          46.000  
G15  25876401.634   135981404.089       -4552.926          44.000    25876402.562   105959565.030       -3547.801          37.000  
G25  24189198.996   127115096.226        2387.470          48.000    24189200.811    99050743.165        1860.124          43.000  
G14  26111372.095   137216186.359        2387.808          38.000                                                                  
G 6  25453183.502   133757380.639        1743.303          44.000    25453184.798   104226600.466        1358.280          39.000  
G17  24781712.418   130228771.483       -3405.678          45.000    24781710.335   101476958.261       -2653.754          42.000  
G19  23009272.952   120914544.447       -2336.704          44.000                                                                  
G24  21696021.837   114013362.094       -1979.999          49.000    21696022.408    88841587.025       -1542.952          46.000  
G32  24521671.666   128862243.893        1651.418          43.000    24521672.899   100412152.375        1286.463          41.000  
G 2  26540980.834   139473774.789        2127.556          32.000                                                                  
> 2019  5 23  8 27 46.0040000  0 10                     
G12  21526671.037   113123419.482         507.939          46.000    21526670.169    88148108.853         395.786          46.000  
G15  25877268.054   135985957.318       -4553.284          44.000    25877269.052   105963113.008       -3548.135          37.000  
G25  24188744.681   127112709.143        2386.890          48.000    24188746.502    99048883.095        1859.911          43.000  
G14  26110917.684   137213799.071        2387.376          38.000                                                                  
G 6  25452851.936   133755637.735        1742.733          44.000    25452853.204   104225242.357        1358.043          39.000  
G17  24782360.568   130232177.435       -3406.079          45.000    24782358.463   101479612.230       -2654.041          42.000  
G19  23009717.700   120916881.716       -2337.659          44.000                                                                  
G24  21696398.702   114015342.622       -1980.849          49.000    21696399.225    88843130.288       -1543.452          46.000  
G32  24521357.469   128860593.089        1650.511          43.000    24521358.730   100410866.009        1286.154          42.000  
G 2  26540575.959   139471647.534        2127.487          32.000                                                                  
> 2019  5 23  8 27 47.0040000  0 10                     
G12  21526574.488   113122911.903         507.392          46.000    21526573.640    88147713.338         395.380          46.000  
G15  25878134.591   135990510.682       -4553.246          45.000    25878135.551   105966661.077       -3548.008          37.000  
G25  24188290.511   127110322.420        2386.599          49.000    24188292.394    99047023.309        1859.607          43.000  
G14  26110463.530   137211412.171        2386.998          38.000                                                                  
G 6  25452520.388   133753895.319        1742.151          44.000    25452521.554   104223884.622        1357.753          39.000  
G17  24783008.736   130235583.885       -3406.475          45.000    24783006.677   101482266.615       -2654.462          42.000  
G19  23010162.638   120919219.779       -2338.446          44.000                                                                  
G24  21696775.662   114017323.734       -1981.355          49.000    21696776.066    88844674.012       -1543.861          46.000  
G32  24521043.415   128858942.858        1650.086          43.000    24521044.762   100409580.118        1285.790          42.000  
G 2  26540171.289   139469520.442        2126.629          32.000                                                                  
> 2019  5 23  8 27 48.0040000  0 10                     
G12  21526477.911   113122404.920         506.774          46.000    21526477.109    88147318.291         394.849          46.000  
G15  25879001.176   135995064.180       -4553.551          44.000    25879002.073   105970209.248       -3548.140          37.000  
G25  24187836.389   127107936.051        2386.362          49.000    24187838.305    99045163.793        1859.377          43.000  
G14  26110009.244   137209025.617        2386.515          38.000                                                                  
G 6  25452188.842   133752153.337        1741.843          44.000    25452190.059   104222527.243        1357.245          39.000  
G17  24783657.080   130238990.809       -3407.080          45.000    24783654.980   101484921.369       -2655.026          42.000  
G19  23010607.646   120921558.604       -2339.102          44.000                                                                  
G24  21697152.769   114019305.453       -1981.983          49.000    21697153.264    88846218.212       -1544.317          46.000  
G32  24520729.516   128857293.137        1648.811          43.000    24520730.861   100408294.633        1284.866          42.000  
G 2  26539766.718   139467393.465        2127.016          32.000                                                                  
> 2019  5 23  8 27 49.0040000  0 10                     
G12  21526381.592   113121898.508         506.049          46.000    21526380.864    88146923.686         394.208          46.000  
G15  25879867.674   135999617.776       -4553.599          44.000    25879868.721   105973757.513       -3548.303          37.000  
G25  24187382.397   127105550.012        2385.852          49.000    24187384.234    99043304.541        1859.235          43.000  
G14  26109555.169   137206639.371        2385.942          38.000                                                                  
G 6  25451857.471   133750411.803        1741.253          44.000    25451858.747   104221170.214        1356.616          39.000  
G17  24784305.519   130242398.187       -3407.675          45.000    24784303.459   101487576.463       -2655.398          42.000  
G19  23011052.858   120923898.175       -2340.027          44.000                                                                  
G24  21697529.944   114021287.773       -1982.631          49.000    21697530.494    88847762.877       -1544.911          46.000  
G32  24520415.748   128855644.039        1648.851          43.000    24520416.934   100407009.613        1284.768          42.000  
G 2  26539362.034   139465266.602        2126.570          32.000                                                                  
> 2019  5 23  8 27 50.0040000  0 10                     
G12  21526285.303   113121392.394         506.041          46.000    21526284.643    88146529.303         394.220          46.000  
G15  25880734.160   136004171.210       -4553.447          44.000    25880735.144   105977305.663       -3548.586          37.000  
G25  24186928.349   127103164.022        2385.947          49.000    24186930.276    99041445.330        1859.169          44.000  
G14  26109101.075   137204253.193        2386.076          38.000                                                                  
G 6  25451526.151   133748670.418        1741.174          43.000    25451527.379   104219813.296        1356.509          39.000  
G17  24784953.824   130245805.739       -3407.671          45.000    24784951.988   101490231.697       -2655.605          42.000  
G19  23011498.194   120926238.215       -2340.309          44.000                                                                  
G24  21697907.222   114023270.387       -1982.928          49.000    21697907.783    88849307.760       -1545.019          46.000  
G32  24520102.050   128853995.230        1648.492          43.000    24520103.156   100405724.824        1284.693          42.000  
G 2  26538957.183   139463139.554        2127.196          32.000                                                                  
> 2019  5 23  8 27 51.0040000  0 10                     
G12  21526189.139   113120886.830         505.405          46.000    21526188.409    88146135.353         393.920          46.000  
G15  25881600.722   136008724.717       -4553.277          44.000    25881601.601   105980853.831       -3548.022          37.000  
G25  24186474.391   127100778.317        2385.854          48.000    24186476.340    99039586.349        1859.029          43.000  
G14  26108647.044   137201867.271        2386.151          38.000                                                                  
G 6  25451194.930   133746929.430        1740.904          43.000    25451196.179   104218456.652        1356.922          39.000  
G17  24785602.297   130249213.703       -3407.972          45.000    24785600.496   101492887.245       -2655.320          42.000  
G19  23011943.526   120928578.967       -2340.873          44.000                                                                  
G24  21698284.626   114025253.507       -1983.234          49.000    21698285.134    88850853.052       -1545.324          46.000  
G32  24519788.384   128852346.923        1648.140          43.000    24519789.504   100404440.433        1284.557          42.000  
G 2  26538552.452   139461012.575        2126.988          32.000                                                                  
> 2019  5 23  8 27 52.0040000  0 10                     
G12  21526093.009   113120381.632         505.019          46.000    21526092.339    88145741.701         393.477          46.000  
G15  25882467.215   136013278.136       -4553.490          44.000    25882468.132   105984401.939       -3548.028          37.000  
G25  24186020.569   127098392.742        2385.494          48.000    24186022.391    99037727.446        1858.911          44.000  
G14  26108193.070   137199481.503        2385.475          38.000                                                                  
G 6  25450863.585   133745188.674        1740.598          43.000    25450864.968   104217100.245        1356.094          38.000  
G17  24786250.927   130252621.921       -3408.318          45.000    24786248.996   101495542.993       -2655.760          42.000  
G19  23012388.997   120930920.266       -2341.724          44.000                                                                  
G24  21698662.109   114027237.020       -1983.826          49.000    21698662.522    88852398.651       -1545.894          46.000  
G32  24519474.695   128850698.978        1647.574          43.000    24519475.906   100403156.306        1284.176          42.000  
G 2  26538147.703   139458885.504        2127.311          32.000                                                                  
> 2019  5 23  8 27 53.0040000  0 10                     
G12  21525997.051   113119877.043         504.324          46.000    21525996.251    88145348.509         392.883          46.000  
G15  25883333.717   136017831.684       -4553.715          44.000    25883334.683   105987950.158       -3548.384          37.000  
G25  24185566.712   127096007.510        2385.092          48.000    24185568.550    99035868.835        1858.469          44.000  
G14  26107739.153   137197096.074        2385.135          38.000                                                                  
G 6  25450532.463   133743448.387        1740.062          43.000    25450533.845   104215744.160        1356.007          39.000  
G17  24786899.579   130256030.607       -3408.824          45.000    24786897.756   101498199.122       -2656.355          42.000  
G19  23012834.723   120933262.334       -2342.416          44.000                                                                  
G24  21699039.691   114029221.122       -1984.381          49.000    21699040.036    88853944.707       -1546.344          46.000  
G32  24519161.271   128849051.597        1647.083          43.000    24519162.458   100401872.657        1283.455          41.000  
G 2  26537743.074   139456758.609        2126.826          32.000                                                                  
> 2019  5 23  8 27 54.0040000  0 10                     
G12  21525901.111   113119372.971         503.624          46.000    21525900.330    88144955.733         392.343          46.000  
G15  25884200.270   136022385.275       -4553.944          44.000    25884201.261   105991498.408       -3548.264          37.000  
G25  24185112.834   127093622.565        2384.570          48.000    24185114.678    99034010.426        1858.184          44.000  
G14  26107285.219   137194710.928        2384.508          38.000                                                                  
G 6  25450201.349   133741708.459        1739.500          43.000    25450202.841   104214388.384        1355.441          39.000  
G17  24787548.373   130259439.697       -3409.553          45.000    24787546.530   101500855.558       -2656.856          42.000  
G19  23013280.500   120935605.098       -2343.397          44.000                                                                  
G24  21699417.358   114031205.763       -1985.132          49.000    21699417.579    88855491.173       -1546.926          46.000  
G32  24518847.899   128847404.724        1646.423          43.000    24518849.118   100400589.374        1283.094          41.000  
G 2  26537338.201                        2127.485          32.000                                                                  
> 2019  5 23  8 27 55.0040000  0 10                     
G12  21525805.449   113118869.641         503.437          46.000    21525804.505    88144563.526         392.223          46.000  
G15  25885066.811   136026939.132       -4553.461          44.000    25885067.821   105995046.889       -3548.355          37.000  
G25  24184659.057   127091238.080        2384.737          48.000    24184660.922    99032152.403        1858.040          44.000  
G14  26106831.539   137192326.239        2385.072          38.000                                                                  
G 6  25449870.277   133739969.137        1739.525          43.000    25449871.855   104213033.081        1355.170          39.000  
G17  24788197.209   130262849.404       -3409.557          45.000    24788195.330   101503512.460       -2656.793          42.000  
G19  23013726.515   120937948.754       -2343.775          44.000                                                                  
G24  21699795.146   114033191.137       -1985.396          49.000    21699795.291    88857038.219       -1546.997          46.000  
G32  24518534.638   128845758.560        1646.365          43.000    24518535.850   100399306.654        1282.855          42.000  
G 2  26536933.512   139452505.130        2126.483          31.000                                                                  
> 2019  5 23  8 27 56.0040000  0 10                     
G12  21525709.677   113118366.477         502.563          46.000    21525708.862    88144171.452         391.540          46.000  
G15  25885933.377   136031492.703       -4554.004          44.000    25885934.338   105998595.095       -3548.335          37.000  
G25  24184205.367   127088853.532        2384.064          48.000    24184207.263    99030294.319        1857.505          43.000  
G14  26106377.658   137189941.472        2384.573          38.000                                                                  
G 6  25449539.321   133738229.823        1738.876          44.000    25449540.914   104211677.763        1355.142          39.000  
G17  24788846.045   130266259.138       -3410.270          45.000    24788844.188   101506169.409       -2657.586          42.000  
G19  23014172.511   120940292.771       -2344.940          44.000                                                                  
G24  21700173.066   114035176.667       -1986.229          49.000    21700173.163    88858585.393       -1547.745          46.000  
G32  24518221.482   128844112.547        1645.463          43.000    24518222.619   100398024.061        1282.105          42.000  
G 2  26536528.730   139450378.231        2126.087          31.000                                                                  
> 2019  5 23  8 27 57.0040000  0 10                     
G12  21525614.067   113117864.082         502.169          46.000    21525613.367    88143779.973         391.281          46.000  
G15  25886800.066   136036046.553       -4553.908          44.000    25886800.892   106002143.556       -3548.550          37.000  
G25  24183751.756   127086469.498        2383.756          48.000    24183753.666    99028436.618        1857.577          43.000  
G14  26105923.806   137187557.231        2384.149          38.000                                                                  
G 6  25449208.533   133736491.153        1738.508          44.000    25449210.085   104210322.942        1355.052          39.000  
G17  24789495.017   130269669.517       -3410.401          45.000    24789493.178   101508826.840       -2657.502          42.000  
G19  23014618.675   120942637.696       -2345.285          44.000                                                                  
G24  21700551.022   114037162.967       -1986.513          49.000    21700551.142    88860133.151       -1548.007          46.000  
G32  24517908.327   128842467.290        1644.854          43.000    24517909.602   100396742.029        1281.777          42.000  
G 2  26536123.852   139448251.613        2126.295          31.000                                                                  
> 2019  5 23  8 27 58.0040000  0 10                     
G12  21525518.505   113117361.988         501.972          46.000    21525517.830    88143388.734         391.094          46.000  
G15  25887666.620   136040600.244       -4553.573          44.000    25887667.348   106005691.889       -3548.174          37.000  
G25  24183297.994   127084085.509        2383.936          48.000    24183299.981    99026578.974        1857.498          43.000  
G14  26105470.180   137185173.025        2384.333          38.000                                                                  
G 6  25448877.663   133734752.637        1738.391          44.000    25448879.255   104208968.273        1354.827          39.000  
G17  24790143.958   130273080.090       -3410.792          45.000    24790142.277   101511484.422       -2657.697          42.000  
G19  23015065.008   120944983.100       -2345.503          44.000                                                                  
G24  21700929.053   114039149.579       -1986.725          49.000    21700929.308    88861681.166       -1548.200          46.000  
G32  24517595.336   128840822.295        1645.035          43.000    24517596.651   100395460.217        1281.603          42.000  
G 2  26535718.875   139446124.839        2126.862          31.000                                                                  
> 2019  5 23  8 27 59.0040000  0 10                     
G12  21525422.927   113116860.299         501.229          46.000    21525422.306    88142997.810         390.548          46.000  
G15  25888533.162   136045153.863       -4553.902          44.000    25888533.845   106009240.164       -3548.539          37.000  
G25  24182844.288   127081701.673        2383.653          48.000    24182846.390    99024721.444        1857.216          43.000  
G14  26105016.454   137182788.967        2383.711          38.000                                                                  
G 6  25448546.954   133733014.377        1737.639          44.000    25448548.470   104207613.789        1353.967          39.000  
G17  24790793.006   130276490.922       -3411.343          45.000    24790791.420   101514142.204       -2657.927          42.000  
G19  23015511.502   120947329.087       -2346.564          44.000                                                                  
G24  21701307.228   114041136.592       -1987.595          49.000    21701307.357    88863229.480       -1548.708          46.000  
G32  24517282.366   128839177.689        1644.060          43.000    24517283.597   100394178.702        1281.117          42.000  
G 2  26535314.025   139443998.008        2126.333          31.000                                                                  
> 2019  5 23  8 28  0.0040000  0 10                     
G12  21525327.512   113116359.084         501.290          46.000    21525326.881    88142607.245         390.719          46.000  
G15  25889399.652   136049707.488       -4553.412          43.000    25889400.531   106012788.449       -3548.366          37.000  
G25  24182390.677   127079318.061        2383.861          48.000    24182392.898    99022864.083        1857.560          43.000  
G14  26104562.731   137180405.150        2383.851          38.000                                                                  
G 6  25448216.165   133731276.448        1737.935          44.000    25448217.822   104206259.544        1354.475          39.000  
G17  24791442.184   130279902.095       -3410.984          45.000    24791440.518   101516800.277       -2658.168          42.000  
G19  23015958.026   120949675.710       -2346.579          44.000                                                                  
G24  21701685.466   114043124.073       -1987.408          49.000    21701685.596    88864778.168       -1548.706          46.000  
G32  24516969.509   128837533.522        1644.171          43.000    24516970.694   100392897.532        1281.276          42.000  
G 2  26534909.265   139441871.154        2126.654          31.000                                                                  
> 2019  5 23  8 28  1.0040000  0 10                     
G12  21525232.220   113115858.401         500.558          46.000    21525231.605    88142217.108         389.958          46.000  
G15  25890266.185   136054261.168       -4553.634          43.000    25890267.033   106016336.766       -3548.635          37.000  
G25  24181937.130   127076934.733        2383.347          48.000    24181939.386    99021006.944        1857.025          43.000  
G14  26104109.126   137178021.564        2383.636          38.000                                                                  
G 6  25447885.534   133729538.898        1737.479          44.000    25447887.124   104204905.642        1353.546          39.000  
G17  24792091.459   130283313.681       -3411.774          45.000    24792089.683   101519458.632       -2658.225          42.000  
G19  23016404.721   120952023.031       -2347.548          44.000                                                                  
G24  21702063.743   114045112.077       -1988.183          49.000    21702063.896    88866327.262       -1549.261          46.000  
G32  24516656.717   128835889.878        1643.247          43.000    24516657.948   100391616.776        1280.486          42.000  
G 2  26534504.308   139439744.370        2126.348          31.000                                                                  
> 2019  5 23  8 28  2.0040000  0 10                     
G12  21525136.888   113115358.186         500.095          46.000    21525136.284    88141827.330         389.726          46.000  
G15  25891132.756   136058814.856       -4553.708          43.000    25891133.551   106019885.073       -3548.004          37.000  
G25  24181483.533   127074551.633        2383.142          48.000    24181485.745    99019149.979        1857.090          43.000  
G14  26103655.414   137175638.247        2383.348          38.000                                                                  
G 6  25447554.805   133727801.693        1737.044          44.000    25447556.459   104203551.972        1353.346          39.000  
G17  24792740.701   130286725.612       -3412.128          45.000    24792739.033   101522117.277       -2658.561          42.000  
G19  23016851.515   120954371.001       -2348.193          44.000                                                                  
G24  21702442.040   114047100.570       -1988.603          49.000    21702442.222    88867876.732       -1549.467          46.000  
G32  24516343.993   128834246.657        1643.232          43.000    24516345.211   100390336.360        1280.131          42.000  
G 2  26534099.440   139437617.599        2126.919          31.000                                                                  
> 2019  5 23  8 28  3.0040000  0 10                     
G12  21525041.775   113114858.646         499.339          46.000    21525041.208    88141438.074         389.138          46.000  
G15  25891999.337   136063368.720       -4553.651          43.000    25892000.210   106023433.558       -3548.340          37.000  
G25  24181030.028   127072168.943        2382.522          48.000    24181032.388    99017293.340        1856.527          43.000  
G14  26103201.945   137173255.334        2382.819          38.000                                                                  
G 6  25447224.284   133726065.019        1736.448          44.000    25447225.870   104202198.685        1353.470          38.000  
G17  24793390.017   130290138.072       -3412.634          45.000    24793388.384   101524776.352       -2659.247          42.000  
G19  23017298.459   120956719.803       -2349.099          44.000                                                                  
G24  21702820.636   114049089.706       -1989.330          49.000    21702820.705    88869426.706       -1550.048          46.000  
G32  24516031.460   128832604.101        1642.236          43.000    24516032.688   100389056.433        1279.613          42.000  
G 2  26533694.684   139435491.072        2124.959          32.000                                                                  
> 2019  5 23  8 28  4.0040000  0 10                     
G12  21524946.898   113114359.492         499.228          46.000    21524946.297    88141049.134         388.916          46.000  
G15  25892865.834   136067922.550       -4553.767          43.000    25892866.756   106026981.974       -3548.072          37.000  
G25  24180576.620   127069786.403        2382.584          48.000    24180578.992    99015436.810        1856.615          43.000  
G14  26102748.462   137170872.565        2382.536          38.000                                                                  
G 6  25446893.927   133724328.589        1736.500          44.000    25446895.457   104200845.638        1352.919          39.000  
G17  24794039.518   130293550.819       -3412.726          45.000    24794037.886   101527435.628       -2659.303          42.000  
G19  23017745.567   120959069.161       -2349.358          44.000                                                                  
G24  21703199.222   114051079.214       -1989.508          48.000    21703199.285    88870976.986       -1550.361          46.000  
G32  24515719.010   128830961.913        1642.082          43.000    24515720.211   100387776.803        1279.676          42.000  
G 2  26533290.004   139433364.392        2126.954          32.000                                                                  
> 2019  5 23  8 28  5.0040000  0 10                     
G12  21524852.019   113113860.733         498.293          45.000    21524851.372    88140660.489         388.198          46.000  
G15  25893732.355   136072476.259       -4554.117          43.000    25893733.262   106030530.330       -3548.482          37.000  
G25  24180123.334   127067403.991        2382.055          48.000    24180125.659    99013580.395        1856.084          43.000  
G14  26102294.986   137168489.933        2382.063          38.000                                                                  
G 6  25446563.526   133722592.403        1735.649          44.000    25446565.082   104199492.762        1352.550          39.000  
G17  24794688.923   130296963.808       -3413.455          45.000    24794687.278   101530095.095       -2659.991          42.000  
G19  23018192.713   120961419.080       -2350.390          44.000                                                                  
G24  21703577.883   114053069.111       -1990.415          48.000    21703578.034    88872527.541       -1550.905          46.000  
G32  24515406.491   128829320.087        1641.242          43.000    24515407.776   100386497.459        1278.854          42.000  
G 2  26532885.183   139431237.645        2126.929          32.000                                                                  
> 2019  5 23  8 28  6.0040000  0 10                     
G12  21524757.290   113113362.719         497.945          46.000    21524756.583    88140272.432         387.959          46.000  
G15  25894598.948   136077030.245       -4553.746          43.000    25894599.787   106034078.903       -3548.858          37.000  
G25  24179670.008   127065022.088        2381.906          48.000    24179672.411    99011724.359        1856.106          44.000  
G14  26101841.762   137166107.779        2382.023          38.000                                                                  
G 6  25446233.248   133720856.826        1735.442          44.000    25446234.828   104198140.359        1352.514          39.000  
G17  24795338.480   130300377.418       -3413.505          45.000    24795336.758   101532755.059       -2659.844          42.000  
G19  23018640.000   120963769.941       -2351.180          44.000                                                                  
G24  21703956.607   114055059.737       -1990.624          49.000    21703956.862    88874078.682       -1551.079          46.000  
G32  24515094.172   128827678.970        1641.173          43.000    24515095.483   100385218.684        1278.844          42.000  
G 2  26532480.435   139429111.210        2126.930          32.000                                                                  
> 2019  5 23  8 28  7.0040000  0 10                     
G12  21524662.627   113112865.073         497.728          46.000    21524661.873    88139884.645         387.890          46.000  
G15  25895465.564   136081584.148       -4553.644          43.000    25895466.303   106037627.398       -3548.447          37.000  
G25  24179216.764   127062640.302        2381.722          48.000    24179219.224    99009868.425        1856.006          44.000  
G14  26101388.534   137163725.752        2381.953          38.000                                                                  
G 6  25445902.987   133719121.456        1735.544          44.000    25445904.703   104196788.154        1352.043          39.000  
G17  24795988.159   130303791.281       -3413.690          45.000    24795986.357   101535415.208       -2660.158          42.000  
G19  23019087.472   120966121.298       -2351.395          44.000                                                                  
G24  21704335.487   114057050.738       -1991.036          48.000    21704335.779    88875630.112       -1551.547          46.000  
G32  24514781.934   128826038.223        1640.843          42.000    24514783.289   100383940.179        1278.403          42.000  
G 2  26532075.650   139426984.708        2125.986          32.000                                                                  
> 2019  5 23  8 28  8.0040000  0 10                     
G12  21524567.857   113112367.728         497.049          45.000    21524567.137    88139497.114         387.279          46.000  
G15  25896332.093   136086137.857       -4553.647          43.000    25896332.850   106041175.714       -3547.962          37.000  
G25  24178763.492   127060258.548        2381.514          48.000    24178765.966    99008012.525        1855.773          44.000  
G14  26100935.248   137161343.774        2381.715          38.000                                                                  
G 6  25445572.797   133717386.262        1735.022          44.000    25445574.537   104195436.062        1351.733          39.000  
G17  24796637.728   130307205.306       -3414.203          45.000    24796635.973   101538075.495       -2660.542          42.000  
G19  23019535.073   120968473.145       -2352.322          44.000                                                                  
G24  21704714.270   114059042.025       -1991.708          48.000    21704714.616    88877181.763       -1551.844          46.000  
G32  24514469.671   128824397.756        1639.991          42.000    24514471.123   100382661.890        1277.913          42.000  
G 2  26531671.064   139424858.021        2126.074          32.000                                                                  
> 2019  5 23  8 28  9.0040000  0 10                     
G12  21524473.324   113111871.003         496.483          45.000    21524472.615    88139110.044         386.934          46.000  
G15  25897198.711   136090691.729       -4553.908          43.000    25897199.343   106044724.189       -3548.337          37.000  
G25  24178310.385   127057877.178        2381.143          48.000    24178312.849    99006156.914        1855.494          44.000  
G14  26100481.980   137158962.178        2381.090          37.000                                                                  
G 6  25445242.728   133715651.532        1734.495          43.000    25445244.371   104194084.293        1351.734          39.000  
G17  24797287.504   130310619.829       -3414.679          45.000    24797285.774   101540736.152       -2660.778          42.000  
G19  23019982.752   120970825.779       -2352.956          44.000                                                                  
G24  21705093.428   114061033.949       -1992.274          49.000    21705093.708    88878733.910       -1552.325          46.000  
G32  24514157.534   128822757.868        1639.661          42.000    24514159.108   100381384.061        1277.499          42.000  
G 2  26531266.547   139422731.387        2126.698          32.000                                                                  
> 2019  5 23  8 28 10.0040000  0 10                     
G12  21524378.928   113111374.888         495.645          45.000    21524378.242    88138723.458         386.288          46.000  
G15  25898065.333   136095245.732       -4554.272          43.000    25898065.941   106048272.775       -3548.735          37.000  
G25  24177857.266   127055496.161        2380.652          48.000    24177859.811    99004301.576        1855.022          44.000  
G14  26100028.721   137156580.913        2380.850          37.000                                                                  
G 6  25444912.766   133713917.281        1733.728          43.000    25444914.368   104192732.957        1350.700          39.000  
G17  24797937.412   130314034.833       -3415.357          45.000    24797935.772   101543397.189       -2661.249          42.000  
G19  23020430.517   120973179.177       -2353.825          44.000                                                                  
G24  21705472.567   114063026.470       -1993.020          49.000    21705472.794    88880286.525       -1553.011          46.000  
G32  24513845.635   128821118.586        1638.726          42.000    24513847.150   100380106.691        1277.023          42.000  
G 2  26530862.045   139420605.019        2125.574          32.000                                                                  
> 2019  5 23  8 28 11.0040000  0 10                     
G12  21524284.611   113110879.545         494.984          45.000    21524283.867    88138337.478         385.708          46.000  
G15  25898932.029   136099800.037       -4554.456          43.000    25898932.574   106051821.571       -3548.908          37.000  
G25  24177404.166   127053115.664        2380.340          48.000    24177406.698    99002446.657        1854.664          44.000  
G14  26099575.666   137154200.193        2380.551          37.000                                                                  
G 6  25444582.832   133712183.671        1733.243          43.000    25444584.464   104191382.082        1350.670          39.000  
G17  24798587.280   130317450.479       -3415.921          45.000    24798585.749   101546058.726       -2661.592          42.000  
G19  23020878.403   120975533.529       -2354.870          44.000                                                                  
G24  21705851.759   114065019.768       -1993.624          49.000    21705852.097    88881839.737       -1553.408          46.000  
G32  24513533.883   128819480.035        1638.264          42.000    24513535.406   100378829.908        1276.440          42.000  
G 2  26530457.650   139418478.884        2126.005          32.000                                                                  
> 2019  5 23  8 28 12.0040000  0 10                     
G12  21524190.437   113110384.742         494.405          45.000    21524189.819    88137951.919         385.313          46.000  
G15  25899798.726   136104354.405       -4554.412          43.000    25899799.228   106055370.426       -3548.818          37.000  
G25  24176951.291   127050735.474        2380.078          48.000    24176953.777    99000591.952        1854.545          43.000  
G14  26099122.643   137151819.733        2380.382          37.000                                                                  
G 6  25444252.917   133710450.422        1733.136          43.000    25444254.659   104190031.486        1350.771          39.000  
G17  24799237.327   130320866.545       -3416.291          45.000    24799235.872   101548720.599       -2662.068          42.000  
G19  23021326.564   120977888.587       -2355.479          44.000                                                                  
G24  21706231.044   114067013.593       -1994.093          49.000    21706231.560    88883393.374       -1553.871          46.000  
G32  24513222.168   128817842.004        1637.946          42.000    24513223.801   100377553.509        1276.323          42.000  
G 2  26530053.314   139416352.830        2126.403          32.000                                                                  
> 2019  5 23  8 28 13.0040000  0 10                     
G12  21524096.389   113109890.352         494.198          45.000    21524095.732    88137566.686         385.037          46.000  
G15  25900665.479   136108908.724       -4554.133          43.000    25900665.826   106058919.242       -3548.386          37.000  
G25  24176498.453   127048355.445        2380.066          49.000    24176500.968    98998737.374        1854.824          43.000  
G14  26098669.701   137149439.451        2380.472          37.000                                                                  
G 6  25443923.195   133708717.474        1733.065          43.000    25443924.871   104188681.172        1350.110          39.000  
G17  24799887.490   130324282.892       -3416.351          45.000    24799885.955   101551382.683       -2662.117          42.000  
G19  23021774.880   120980244.225       -2355.949          44.000                                                                  
G24  21706610.650   114069007.865       -1994.465          49.000    21706611.104    88884947.348       -1554.066          46.000  
G32  24512910.507   128816204.392        1637.437          42.000    24512912.143   100376277.461        1275.721          42.000  
G 2  26529648.808   139414226.775        2126.142          33.000                                                                  
> 2019  5 23  8 28 14.0040000  0 10                     
G12  21524002.441   113109396.466         493.562          45.000    21524001.765    88137181.836         384.610          46.000  
G15  25901532.153   136113463.098       -4554.653          43.000    25901532.462   106062468.105       -3548.864          37.000  
G25  24176045.625   127045975.678        2379.400          49.000    24176048.184    98996883.011        1854.154          43.000  
G14  26098216.854   137147059.420        2379.884          37.000                                                                  
G 6  25443593.538   133706984.888        1732.450          43.000    25443595.192   104187331.088        1349.910          39.000  
G17  24800537.753   130327699.612       -3417.051          45.000    24800536.134   101554045.060       -2662.507          42.000  
G19  23022223.248   120982600.523       -2356.512          44.000                                                                  
G24  21706990.296   114071002.601       -1995.071          49.000    21706990.586    88886501.691       -1554.573          46.000  
G32  24512598.838   128814567.235        1636.836          42.000    24512600.609   100375001.741        1275.496          42.000  
G 2  26529244.434   139412100.703        2126.623          33.000                                                                  
> 2019  5 23  8 28 15.0040000  0 10                     
G12  21523908.620   113108903.257         492.868          45.000    21523907.865    88136797.518         384.125          46.000  
G15  25902398.831   136118017.666       -4554.705          43.000    25902399.248   106066017.116       -3548.796          37.000  
G25  24175592.831   127043596.319        2379.201          49.000    24175595.445    98995028.968        1853.904          43.000  
G14  26097764.018   137144679.817        2379.433          37.000                                                                  
G 6  25443263.838   133705252.835        1731.696          43.000    25443265.564   104185981.435        1349.649          39.000  
G17  24801187.985   130331116.879       -3417.376          45.000    24801186.342   101556707.874       -2662.889          42.000  
G19  23022671.685   120984957.679       -2357.584          44.000                                                                  
G24  21707369.937   114072998.014       -1995.716          49.000    21707370.293    88888056.557       -1554.968          46.000  
G32  24512287.386   128812930.731        1636.203          42.000    24512289.214   100373726.544        1275.192          42.000  
G 2  26528839.852   139409974.900        2125.214          33.000                                                                  
> 2019  5 23  8 28 16.0040000  0 10                     
G12  21523814.879   113108410.441         492.469          45.000    21523814.086    88136413.509         383.614          46.000  
G15  25903265.553   136122572.162       -4554.691          43.000    25903265.817   106069566.069       -3548.878          37.000  
G25  24175140.132   127041217.117        2379.010          49.000    24175142.657    98993175.033        1853.771          43.000  
G14  26097311.262   137142300.361        2379.024          37.000                                                                  
G 6  25442934.323   133703521.015        1731.548          43.000    25442936.034   104184631.971        1349.208          39.000  
G17  24801838.290   130334534.414       -3417.848          45.000    24801836.668   101559370.881       -2663.159          42.000  
G19  23023120.400   120987315.394       -2358.127          44.000                                                                  
G24  21707749.735   114074993.811       -1996.174          49.000    21707749.966    88889611.731       -1555.673          46.000  
G32  24511976.008   128811294.603        1635.759          42.000    24511977.952   100372451.643        1274.536          42.000  
G 2  26528435.153   139407848.958        2125.837          32.000                                                                  
> 2019  5 23  8 28 17.0040000  0 10                     
G12  21523721.227   113107918.039         492.129          45.000    21523720.370    88136029.810         383.434          46.000  
G15  25904132.298   136127126.600       -4554.606          43.000    25904132.561   106073114.994       -3548.740          37.000  
G25  24174687.538   127038838.077        2378.790          48.000    24174689.878    98991321.230        1853.610          43.000  
G14  26096858.445   137139921.034        2379.218          37.000                                                                  
G 6  25442604.742   133701789.481        1731.181          43.000    25442606.618   104183282.729        1349.158          39.000  
G17  24802488.693   130337952.228       -3418.029          45.000    24802487.119   101562034.108       -2663.274          42.000  
G19  23023569.078   120989673.695       -2358.774          44.000                                                                  
G24  21708129.554   114076990.005       -1996.589          49.000    21708129.789    88891167.192       -1555.516          46.000  
G32  24511664.700   128809658.861        1635.417          42.000    24511666.760   100371177.047        1274.406          42.000  
G 2  26528030.748   139405722.994        2125.908          33.000                                                                  
> 2019  5 23  8 28 18.0040000  0 10                     
G12  21523627.626   113107426.289         491.331          45.000    21523626.848    88135646.625         382.996          46.000  
G15  25904999.077   136131681.231       -4554.555          43.000    25904999.292   106076664.059       -3549.108          37.000  
G25  24174234.996   127036459.432        2378.531          48.000    24174237.143    98989467.742        1853.369          43.000  
G14  26096405.730   137137542.124        2378.874          37.000                                                                  
G 6  25442275.417   133700058.455        1730.721          43.000    25442277.258   104181933.853        1348.935          39.000  
G17  24803139.121   130341370.579       -3418.652          45.000    24803137.608   101564697.759       -2663.750          42.000  
G19  23024018.033   120992032.808       -2359.570          44.000                                                                  
G24  21708509.516   114078986.849       -1997.150          49.000    21708509.844    88892723.179       -1556.276          46.000  
G32  24511353.494   128808023.761        1634.938          42.000    24511355.704   100369902.939        1273.796          42.000  
G 2  26527626.391   139403597.217        2126.127          33.000                                                                  
> 2019  5 23  8 28 19.0040000  0 10                     
G12  21523534.124   113106934.968         491.079          45.000    21523533.368    88135263.782         382.725          46.000  
G15  25905865.799   136136235.820       -4554.585          43.000    25905866.062   106080213.068       -3548.779          37.000  
G25  24173782.445   127034080.979        2378.348          48.000    24173784.562    98987614.398        1853.274          43.000  
G14  26095953.121   137135163.416        2378.465          37.000                                                                  
G 6  25441946.087   133698327.723        1730.398          43.000    25441948.013   104180585.267        1348.461          39.000  
G17  24803789.600   130344789.224       -3418.911          45.000    24803788.046   101567361.648       -2664.064          42.000  
G19  23024467.224   120994392.532       -2360.318          44.000                                                                  
G24  21708889.481   114080984.141       -1997.604          49.000    21708889.876    88894279.515       -1556.612          46.000  
G32  24511042.422   128806389.069        1634.425          42.000    24511044.662   100368629.156        1273.391          42.000  
G 2  26527221.955   139401471.422        2125.461          33.000                                                                  
> 2019  5 23  8 28 20.0040000  0 10                     
G12  21523440.804   113106444.258         490.538          45.000    21523440.049    88134881.405         382.162          46.000  
G15  25906732.498   136140790.525       -4554.652          43.000    25906732.894   106083762.208       -3549.444          38.000  
G25  24173329.876   127031702.865        2378.086          48.000    24173331.911    98985761.324        1852.771          43.000  
G14  26095500.530   137132785.056        2378.148          37.000                                                                  
G 6  25441616.881   133696597.463        1730.038          43.000    25441618.768   104179237.027        1348.056          39.000  
G17  24804440.257   130348208.337       -3419.301          45.000    24804438.716   101570025.890       -2664.474          42.000  
G19  23024916.427   120996752.999       -2360.742          44.000                                                                  
G24  21709269.695   114082982.044       -1998.122          49.000    21709270.022    88895836.311       -1556.965          46.000  
G32  24510731.407   128804754.965        1633.847          42.000    24510733.670   100367355.817        1273.185          42.000  
G 2  26526817.441   139399345.743        2125.841          33.000                                                                  
> 2019  5 23  8 28 21.0040000  0 10                     
G12  21523347.570   113105953.973         490.309          45.000    21523346.640    88134499.373         381.939          46.000  
G15  25907599.176   136145345.206       -4554.507          43.000    25907599.612   106087311.299       -3549.059          37.000  
G25  24172877.354   127029324.940        2378.031          47.000    24172879.486    98983908.403        1852.879          43.000  
G14  26095047.860   137130406.863        2378.134          37.000                                                                  
G 6  25441287.710   133694867.496        1729.971          43.000    25441289.612   104177888.985        1348.040          39.000  
G17  24805090.891   130351627.758       -3419.421          45.000    24805089.431   101572690.373       -2664.675          42.000  
G19  23025365.747   120999114.086       -2361.193          44.000                                                                  
G24  21709649.954   114084980.343       -1998.327          49.000    21709650.255    88897393.430       -1557.085          46.000  
G32  24510420.514   128803121.264        1633.688          42.000    24510422.773   100366082.796        1273.322          42.000  
G 2  26526412.961   139397220.014        2126.265          33.000                                                                  
> 2019  5 23  8 28 22.0040000  0 10                     
G12  21523254.377   113105464.111         489.566          45.000    21523253.473    88134117.650         381.553          46.000  
G15  25908465.882   136149899.804       -4554.584          43.000    25908466.270   106090860.319       -3548.621          38.000  
G25  24172424.848   127026947.168        2377.587          47.000    24172427.102    98982055.596        1852.458          43.000  
G14  26094595.282   137128028.822        2377.935          37.000                                                                  
G 6  25440958.515   133693137.788        1729.500          43.000    25440960.477   104176541.151        1347.815          39.000  
G17  24805741.666   130355047.455       -3419.943          45.000    24805740.204   101575355.065       -2664.735          42.000  
G19  23025815.093   121001475.744       -2361.675          44.000                                                                  
G24  21710030.388   114086979.063       -1998.982          49.000    21710030.635    88898950.870       -1557.563          46.000  
G32  24510109.745   128801487.961        1632.910          42.000    24510112.000   100364810.086        1272.762          42.000  
G 2  26526008.228   139395094.288        2125.564          33.000                                                                  
> 2019  5 23  8 28 23.0040000  0 10                     
G12  21523161.248   113104974.913         489.050          45.000    21523160.451    88133736.465         380.916          46.000  
G15  25909332.673   136154454.626       -4554.965          43.000    25909333.042   106094409.549       -3549.359          37.000  
G25  24171972.449   127024569.833        2377.219          47.000    24171974.715    98980203.119        1852.588          44.000  
G14  26094142.947   137125651.236        2377.348          38.000                                                                  
G 6  25440629.471   133691408.622        1728.878          43.000    25440631.301   104175193.765        1347.203          39.000  
G17  24806392.564   130358467.713       -3420.473          45.000    24806390.952   101578020.198       -2665.199          42.000  
G19  23026264.700   121003838.270       -2362.901          44.000                                                                  
G24  21710410.934   114088978.458       -1999.580          49.000    21710411.178    88900508.848       -1558.105          46.000  
G32  24509798.971   128799855.288        1632.501          42.000    24509801.345   100363537.897        1272.050          42.000  
G 2  26525603.619   139392968.702        2126.125          33.000                                                                  
> 2019  5 23  8 28 24.0040000  0 10                     
G12  21523068.243   113104486.291         488.252          45.000    21523067.404    88133355.711         380.627          46.000  
G15  25910199.483   136159009.528       -4555.116          42.000    25910199.832   106097958.796       -3549.421          38.000  
G25  24171520.045   127022192.807        2376.724          47.000    24171522.398    98978350.903        1851.912          44.000  
G14  26093690.706   137123273.966        2376.338          37.000                                                                  
G 6  25440300.519   133689679.871        1728.477          44.000    25440302.345   104173846.671        1347.252          39.000  
G17  24807043.538   130361888.402       -3421.036          45.000    24807041.865   101580685.676       -2665.836          42.000  
G19  23026714.373   121006201.504       -2363.471          44.000                                                                  
G24  21710791.471   114090978.419       -2000.258          49.000    21710791.690    88902067.256       -1558.725          46.000  
G32  24509488.421   128798223.178        1631.544          42.000    24509490.723   100362266.119        1271.397          42.000  
G 2  26525199.204   139390843.239        2125.977          33.000                                                                  
> 2019  5 23  8 28 25.0040000  0 10                     
G12  21522975.435   113103998.125         487.918          45.000    21522974.520    88132975.317         380.453          46.000  
G15  25911066.252   136163564.400       -4554.697          42.000    25911066.562   106101508.062       -3549.083          37.000  
G25  24171067.774   127019815.996        2376.896          47.000    24171070.110    98976498.842        1852.255          44.000  
G14  26093238.312   137120896.870        2377.067          37.000                                                                  
G 6  25439971.583   133687951.442        1728.417          43.000    25439973.495   104172499.848        1347.057          39.000  
G17  24807694.601   130365309.416       -3421.032          45.000    24807692.829   101583351.392       -2665.790          42.000  
G19  23027164.125   121008565.375       -2364.033          44.000                                                                  
G24  21711172.151   114092978.837       -2000.500          49.000    21711172.375    88903626.023       -1558.881          46.000  
G32  24509177.907   128796591.507        1631.430          42.000    24509180.204   100360994.688        1271.476          42.000  
G 2  26524794.679   139388717.800        2125.676          33.000                                                                  
> 2019  5 23  8 28 26.0040000  0 10                     
G12  21522882.563   113103510.395         487.394          45.000    21522881.704    88132595.283         379.602          46.000  
G15  25911932.950   136168119.266       -4555.164          42.000    25911933.378   106105057.287       -3549.084          37.000  
G25  24170615.439   127017439.385        2376.401          48.000    24170617.820    98974646.933        1851.715          43.000  
G14  26092786.057   137118519.981        2376.606          37.000                                                                  
G 6  25439642.710   133686223.329        1727.702          43.000    25439644.634   104171153.272        1346.290          39.000  
G17  24808345.681   130368730.754       -3421.874          45.000    24808343.903   101586017.363       -2666.212          42.000  
G19  23027614.043   121010929.855       -2364.875          44.000                                                                  
G24  21711552.898   114094979.691       -2001.241          49.000    21711553.115    88905185.130       -1559.450          46.000  
G32  24508867.393   128794960.257        1630.774          42.000    24508869.875   100359723.588        1270.785          42.000  
G 2  26524390.251   139386592.315        2125.301          33.000                                                                  
> 2019  5 23  8 28 27.0040000  0 10                     
G12  21522789.962   113103023.422         486.952          45.000    21522789.004    88132215.814         379.574          46.000  
G15  25912799.792   136172674.382       -4554.743          42.000    25912800.158   106108606.750       -3549.260          37.000  
G25  24170163.294   127015063.261        2376.177          48.000    24170165.644    98972795.422        1851.512          43.000  
G14  26092333.756   137116143.587        2376.739          37.000                                                                  
G 6  25439313.941   133684495.798        1727.754          44.000    25439315.910   104169807.153        1346.252          39.000  
G17  24808996.897   130372152.694       -3421.837          45.000    24808995.118   101588683.807       -2666.271          42.000  
G19  23028064.153   121013295.254       -2365.570          44.000                                                                  
G24  21711933.889   114096981.291       -2001.599          49.000    21711933.971    88906744.817       -1559.667          46.000  
G32  24508557.063   128793329.709        1630.949          42.000    24508559.517   100358453.053        1270.477          42.000  
G 2  26523985.993   139384467.099        2125.460          33.000                                                                  
> 2019  5 23  8 28 28.0040000  0 10                     
G12  21522697.422   113102536.823         486.078          45.000    21522696.380    88131836.651         378.724          46.000  
G15  25913666.578   136177229.413       -4555.514          42.000    25913666.827   106112156.124       -3549.810          37.000  
G25  24169711.129   127012687.263        2375.515          48.000    24169713.567    98970943.989        1851.065          43.000  
G14  26091881.674   137113767.324        2375.828          37.000                                                                  
G 6  25438985.273   133682768.519        1726.774          44.000    25438987.265   104168461.214        1345.641          38.000  
G17  24809648.127   130375574.879       -3422.677          45.000    24809646.278   101591350.460       -2667.092          42.000  
G19  23028514.338   121015661.161       -2366.250          44.000                                                                  
G24  21712314.910   114098983.275       -2002.542          49.000    21712315.028    88908304.806       -1560.538          45.000  
G32  24508246.794   128791699.544        1629.459          42.000    24508249.256   100357182.771        1270.151          42.000  
G 2  26523581.632   139382341.794        2125.274          33.000                                                                  
> 2019  5 23  8 28 29.0040000  0 10                     
G12  21522604.920   113102050.723         485.773          45.000    21522603.903    88131457.874         378.566          46.000  
G15  25914533.253   136181784.467       -4555.249          42.000    25914533.545   106115705.506       -3549.708          37.000  
G25  24169259.068   127010311.516        2375.499          48.000    24169261.485    98969092.760        1850.963          43.000  
G14  26091429.481   137111391.324        2375.526          38.000                                                                  
G 6  25438656.659   133681041.598        1726.638          44.000    25438658.666   104167115.552        1345.490          38.000  
G17  24810299.371   130378997.441       -3422.885          45.000    24810297.659   101594017.382       -2667.202          42.000  
G19  23028964.717   121018027.770       -2366.992          45.000                                                                  
G24  21712695.949   114100985.745       -2002.928          49.000    21712696.060    88909865.167       -1560.752          45.000  
G32  24507936.628   128790069.858        1629.211          42.000    24507939.131   100355912.894        1269.513          42.000  
G 2  26523177.263   139380216.508        2125.535          33.000                                                                  
