     3.00           OBSERVATION DATA    G: GPS              RINEX VERSION / TYPE
RTKCONV 2.4.3 b32                       20200214 172927 UTC PGM / RUN BY / DATE 
log: C:\Users\lis4hi\Desktop\bosch\MatlabCode\KF&WLS\Data\  COMMENT             
format: u-blox                                              COMMENT             
                                                            MARKER NAME         
                                                            MARKER NUMBER       
                                                            MARKER TYPE         
                                                            OBSERVER / AGENCY   
                                                            REC # / TYPE / VERS 
                                                            ANT # / TYPE        
  3866764.2578   674225.5378  5010793.8482                  APPROX POSITION XYZ 
        0.0000        0.0000        0.0000                  ANTENNA: DELTA H/E/N
G    8 C1C L1C D1C S1C C2L L2L D2L S2L                      SYS / # / OBS TYPES 
  2019     5    23     8    49   52.9930000     GPS         TIME OF FIRST OBS   
  2019     5    23     9     8   46.9940000     GPS         TIME OF LAST OBS    
                                                            END OF HEADER       
> 2019  5 23  8 49 52.9930000  0  9                     
G 6  21444339.127   112690764.178         998.246          44.000    21444341.151    87810998.572         777.596          37.000  
G12  17846918.409    93786187.445        -341.973          49.000    17846916.413    73080135.344        -266.592          45.000  
G17  22062669.022   115940122.871       -4004.115          42.000    22062665.831    90342934.2801      -3120.545          32.000  
G19  20070399.461   105470652.761       -3334.370          43.000                                                                  
G24  18642318.860    97966040.954       -2799.811          49.000    18642321.268    76337177.044       -2181.665          48.000  
G25  19995058.996   105074743.272        1838.231          48.000    19995060.885    81876431.814        1432.652          44.000  
G32  20554495.711   108014608.144         767.313          45.000    20554496.735    84167224.757         597.960          42.000  
G 2  22379974.472   117607576.093        1819.252          36.000                                                                  
G14  21920189.107   115191390.806        1800.217          38.000                                                                  
> 2019  5 23  8 49 53.9930000  0  9                     
G 6  21444149.211   112689766.409         997.079          44.000    21444151.266    87810221.068         777.221          37.000  
G12  17846983.535    93786529.845        -343.095          49.000    17846981.593    73080402.137        -267.268          45.000  
G17  22063431.092   115944127.709       -4004.963          42.000    22063428.004    90346054.894       -3120.762          32.000  
G19  20071034.040   105473987.557       -3335.117          43.000                                                                  
G24  18642851.768    97968841.067       -2800.677          49.000    18642854.107    76339358.952       -2182.306          48.000  
G25  19994709.104   105072905.260        1837.413          47.000    19994711.091    81874999.602        1431.950          44.000  
G32  20554349.844   108013841.226         766.238          45.000    20554350.932    84166627.170         596.957          42.000  
G 2  22379628.338   117605757.181        1818.971          36.000                                                                  
G14  21919846.545   115189590.907        1799.480          38.000                                                                  
> 2019  5 23  8 49 54.9930000  0  9                     
G 6  21443959.553   112688769.771         995.927          44.000    21443961.667    87809444.471         776.178          37.000  
G12  17847048.991    93786873.383        -344.046          49.000    17847046.891    73080669.836        -268.207          45.000  
G17  22064193.253   115948133.427       -4005.839          42.000    22064190.364                       -3121.634          32.000  
G19  20071668.919   105477323.559       -3336.308          43.000                                                                  
G24  18643384.777    97971642.282       -2801.758          50.000    18643387.265    76341541.713       -2183.209          48.000  
G25  19994359.470   105071068.196        1836.546          48.000    19994361.597    81873568.130        1431.107          44.000  
G32  20554204.228   108013075.521         765.177          45.000    20554205.205    84166030.502         596.093          41.000  
G 2  22379282.292   117603939.119        1817.794          36.000                                                                  
G14  21919504.211   115187792.020        1798.361          38.000                                                                  
> 2019  5 23  8 49 55.9930000  0  9                     
G 6  21443770.157   112687774.393         994.626          44.000    21443772.325    87808668.859         775.207          37.000  
G12  17847114.626    93787218.224        -345.627          49.000    17847112.462    73080938.546        -269.453          45.000  
G17  22064955.711   115952140.236       -4007.607          42.000    22064953.152    90352298.460       -3123.108          32.000  
G19  20072304.018   105480660.928       -3338.223          43.000                                                                  
G24  18643918.038    97974444.768       -2803.229          50.000    18643920.626    76343725.476       -2184.393          48.000  
G25  19994010.094   105069232.237        1835.309          48.000    19994012.205    81872137.508        1430.146          44.000  
G32  20554058.774   108012311.190         763.531          45.000    20554059.715    84165434.934         594.941          42.000  
G 2  22378936.481   117602121.989        1816.578          35.000                                                                  
G14  21919162.161   115185994.306        1796.687          37.000                                                                  
> 2019  5 23  8 49 56.9930000  0  9                     
G 6  21443581.003   112686780.324         993.669          44.000    21443583.258    87807894.265         774.415          38.000  
G12  17847180.379    93787564.364        -346.620          49.000    17847178.319    73081208.271        -270.321          45.000  
G17  22065718.331   115956148.064       -4008.357          42.000    22065715.762    90355421.412       -3123.543          32.000  
G19  20072939.410   105483999.639       -3339.196          43.000                                                                  
G24  18644451.444    97977248.480       -2804.205          50.000    18644454.099    76345910.182       -2185.046          48.000  
G25  19993660.905   105067397.382        1834.492          48.000    19993663.145    81870707.748        1429.550          44.000  
G32  20553913.619   108011548.248         762.482          45.000    20553914.527    84164840.425         594.125          41.000  
G 2  22378590.850   117600305.807        1816.284          36.000                                                                  
G14  21918820.304   115184197.733        1796.071          37.000                                                                  
> 2019  5 23  8 49 57.9930000  0  9                     
G 6  21443391.972   112685787.123         992.489          44.000    21443394.298    87807120.336         773.479          38.000  
G12  17847246.442    93787911.389        -347.848          49.000    17847244.315    73081478.676        -271.069          45.000  
G17  22066481.116   115960156.518       -4009.055          42.000    22066478.537    90358544.889       -3124.096          32.000  
G19  20073574.861   105487339.260       -3340.108          43.000                                                                  
G24  18644985.067    97980052.996       -2805.151          50.000    18644987.914    76348095.532       -2186.017          48.000  
G25  19993311.835   105065563.202        1833.742          48.000    19993314.117    81869278.522        1428.936          44.000  
G32  20553768.601   108010786.242         761.305          45.000    20553769.589    84164246.659         593.237          42.000  
G 2  22378245.305   117598490.202        1815.019          36.000                                                                  
G14  21918478.555   115182401.904        1795.220          38.000                                                                  
> 2019  5 23  8 49 58.9930000  0  9                     
G 6  21443203.229   112684795.012         991.396          44.000    21443205.494    87806347.256         772.932          37.000  
G12  17847312.719    93788259.521        -348.639          49.000    17847310.578    73081749.950        -271.740          45.000  
G17  22067244.139   115964165.846       -4009.933          42.000    22067241.541    90361669.034       -3124.750          32.000  
G19  20074210.551   105490680.067       -3341.405          43.000                                                                  
G24  18645518.871    97982858.579       -2806.158          50.000    18645521.885    76350281.693       -2186.652          48.000  
G25  19992963.067   105063729.930        1832.793          47.000    19992965.233    81867850.007        1428.294          44.000  
G32  20553623.737   108010025.423         760.219          45.000    20553624.778    84163653.809         592.502          42.000  
G 2  22377899.904   117596675.381        1814.142          35.000                                                                  
G14  21918137.012   115180607.043        1794.428          38.000                                                                  
> 2019  5 23  8 49 59.9930000  0  9                     
G 6  21443014.568   112683803.660         991.044          44.000    21443016.851    87805574.798         772.136          38.000  
G12  17847379.196    93788608.439        -349.261          49.000    17847376.804    73082021.826        -272.090          45.000  
G17  22068007.200   115968175.689       -4009.857          42.000    22068004.709    90364793.581       -3124.568          32.000  
G19  20074846.408   105494021.688       -3342.091          43.000                                                                  
G24  18646052.915    97985664.905       -2806.641          49.000    18646055.849    76352468.440       -2187.036          48.000  
G25  19992614.277   105061897.238        1832.437          47.000    19992616.418    81866421.947        1427.711          44.000  
G32  20553479.101   108009265.461         759.591          45.000    20553480.232    84163061.633         591.982          42.000  
G 2  22377554.602   117594860.934        1814.309          35.000                                                                  
G14  21917795.470   115178812.811        1794.426          38.000                                                                  
> 2019  5 23  8 50  0.9930000  0  9                     
G 6  21442826.077   112682812.920         990.165          44.000    21442828.451    87804802.782         771.900          38.000  
G12  17847445.721    93788957.968        -350.060          49.000    17847443.381    73082294.188        -272.784          45.000  
G17  22068770.317   115972185.909       -4010.515          42.000    22068767.821    90367918.464       -3125.936          32.000  
G19  20075482.469   105497363.971       -3342.765          44.000                                                                  
G24  18646587.107    97988471.835       -2807.397          49.000    18646589.900    76354655.652       -2187.598          48.000  
G25  19992265.645   105060064.963        1831.730          47.000    19992267.749    81864994.209        1427.116          43.000  
G32  20553334.590   108008506.197         758.650          45.000    20553335.838    84162470.001         591.222          42.000  
G 2  22377209.410   117593046.778        1813.785          35.000                                                                  
G14  21917454.286   115177019.094        1793.248          37.000                                                                  
> 2019  5 23  8 50  1.9930000  0  9                     
G 6  21442637.595   112681822.600         990.098          44.000    21442640.061    87804031.095         771.815          38.000  
G12  17847512.398    93789307.932        -350.262          49.000    17847510.055    73082566.899        -273.054          45.000  
G17  22069533.461   115976196.334       -4010.877          42.000    22069531.039    90371043.428       -3125.373          32.000  
G19  20076118.527   105500706.737       -3343.094          44.000                                                                  
G24  18647121.307    97991279.141       -2807.611          49.000    18647124.198    76356843.167       -2187.793          48.000  
G25  19991916.992   105058232.935        1831.729          47.000    19991919.113    81863566.646        1427.271          44.000  
G32  20553190.212   108007747.427         758.467          45.000    20553191.480    84161878.760         590.950          42.000  
G 2  22376864.167   117591232.744        1813.188          36.000                                                                  
G14  21917113.043   115175225.651        1793.179          38.000                                                                  
> 2019  5 23  8 50  2.9930000  0  9                     
G 6  21442449.354   112680832.772         989.698          44.000    21442451.797    87803259.817         771.401          38.000  
G12  17847579.037    93789658.412        -350.760          49.000    17847576.725    73082839.991        -273.237          45.000  
G17  22070296.717   115980206.976       -4010.807          42.000    22070294.261    90374168.612       -3124.967          32.000  
G19  20076754.758   105504050.063       -3343.465          43.000                                                                  
G24  18647655.547    97994086.922       -2808.093          49.000    18647658.484    76359031.046       -2188.013          48.000  
G25  19991568.480   105056401.197        1831.647          47.000    19991570.521    81862139.323        1427.138          44.000  
G32  20553045.939   108006989.256         757.761          45.000    20553047.251    84161287.971         590.517          42.000  
G 2  22376518.984   117589418.839        1813.647          36.000                                                                  
G14  21916771.738   115173432.584        1792.861          38.000                                                                  
> 2019  5 23  8 50  3.9930000  0  9                     
G 6  21442261.092   112679843.407         989.264          44.000    21442263.487    87802488.877         770.743          38.000  
G12  17847645.844    93790009.350        -351.210          49.000    17847643.501    73083113.446        -273.726          45.000  
G17  22071059.941   115984217.843       -4010.991          42.000    22071057.643    90377293.985       -3125.971          33.000  
G19  20077391.036   105507393.892       -3343.913          43.000                                                                  
G24  18648189.926    97996895.114       -2808.459          50.000    18648192.828    76361219.243       -2188.245          48.000  
G25  19991219.963   105054569.732        1831.504          48.000    19991221.969    81860712.202        1426.958          44.000  
G32  20552901.745   108006231.646         757.244          45.000    20552903.091    84160697.593         590.279          42.000  
G 2  22376173.800   117587605.080        1813.567          36.000                                                                  
G14  21916430.593   115171639.829        1792.219          38.000                                                                  
> 2019  5 23  8 50  4.9930000  0  9                     
G 6  21442072.761   112678854.108         989.117          45.000    21442075.331    87801717.987         770.942          38.000  
G12  17847712.727    93790360.396        -351.250          49.000    17847710.322    73083386.988        -273.793          45.000  
G17  22071823.218   115988228.570       -4011.043          42.000    22071820.962    90380419.208       -3125.571          33.000  
G19  20078027.448   105510737.888       -3343.926          43.000                                                                  
G24  18648724.362    97999703.374       -2808.368          50.000    18648727.182    76363407.503       -2188.349          48.000  
G25  19990871.405   105052738.173        1831.591          48.000    19990873.486    81859285.017        1426.993          44.000  
G32  20552757.624   108005474.161         757.441          44.000    20552759.006    84160107.351         589.982          42.000  
G 2  22375828.552   117585791.060        1813.895          36.000                                                                  
G14  21916089.439   115169847.092        1792.693          40.000                                                                  
> 2019  5 23  8 50  5.9930000  0  9                     
G 6  21441884.545   112677865.215         988.623          44.000    21441887.249    87800947.405         770.747          38.000  
G12  17847779.652    93790711.842        -351.798          49.000    17847777.217    73083660.849        -273.976          45.000  
G17  22072586.462   115992239.469       -4011.368          42.000    22072584.452    90383544.543       -3125.356          33.000  
G19  20078663.832   105514082.324       -3344.614          43.000                                                                  
G24  18649258.839    98002512.004       -2808.868          50.000    18649261.647    76365596.061       -2188.947          48.000  
G25  19990522.944   105050906.841        1830.829          46.000    19990524.912    81857858.004        1426.535          45.000  
G32  20552613.607   108004717.155         756.951          45.000    20552614.854    84159517.522         589.484          40.000  
G 2  22375483.472   117583977.131        1813.989          36.000                                                                  
G14  21915748.428   115168054.554        1792.740          41.000                                                                  
> 2019  5 23  8 50  6.9930000  0  9                     
G 6  21441696.490   112676876.812         988.048          44.000    21441699.161    87800177.248         769.774          38.000  
G12  17847846.588    93791063.799        -352.367          49.000    17847844.225    73083935.089        -274.646          45.000  
G17  22073349.727   115996250.590       -4011.667          42.000    22073347.902    90386670.100       -3126.160          33.000  
G19  20079300.487   105517427.320       -3345.383          43.000                                                                  
G24  18649793.324    98005321.079       -2809.436          50.000    18649796.216    76367784.943       -2189.075          48.000  
G25  19990174.541   105049075.781        1830.478          47.000    19990176.483    81856431.198        1426.647          43.000  
G32  20552469.616   108003960.748         756.133          45.000    20552470.954    84158928.089         589.162          41.000  
G 2  22375138.326   117582163.344        1813.433          37.000                                                                  
G14  21915407.332   115166262.412        1791.617          40.000                                                                  
> 2019  5 23  8 50  7.9930000  0  9                     
G 6  21441508.744   112675889.760         985.195          43.000    21441511.262    87799408.108         767.207          39.000  
G12  17847913.768    93791417.104        -355.372          49.000    17847911.465    73084210.406        -276.962          45.000  
G17  22074113.235   116000262.843       -4014.430          41.000    22074111.597    90389796.442       -3127.032          33.000  
G19  20079937.268   105520773.712       -3348.477          43.000                                                                  
G24  18650328.076    98008131.470       -2812.329          50.000    18650331.059    76369974.850       -2191.412          47.000  
G25  19989826.292   105047245.875        1827.767          47.000    19989828.326    81855005.303        1424.290          43.000  
G32  20552326.016   108003205.813         752.397          44.000    20552327.245    84158339.780         586.910          41.000  
G 2  22374793.322   117580350.611        1810.531          38.000                                                                  
G14  21915066.547   115164471.507        1788.861          40.000                                                                  
> 2019  5 23  8 50  8.9930000  0  9                     
G 6  21441320.999   112674902.973         987.358          43.000    21441323.554    87798639.212         769.104          39.000  
G12  17847981.084    93791770.710        -352.847          49.000    17847978.735    73084485.940        -275.010          45.000  
G17  22074876.752   116004275.102       -4010.905          41.000    22074875.527    90392922.926       -3125.714          32.000  
G19  20080574.034   105524120.478       -3346.275          43.000                                                                  
G24  18650862.820    98010942.123       -2809.967          50.000    18650865.848    76372164.966       -2189.825          47.000  
G25  19989478.129   105045416.088        1830.513          48.000    19989480.138    81853579.502        1426.134          43.000  
G32  20552182.435   108002451.190         755.069          45.000    20552183.734    84157751.790         588.565          41.000  
G 2  22374448.399   117578537.811        1813.197          38.000                                                                  
G14  21914725.816   115162680.751        1791.132          42.000                                                                  
> 2019  5 23  8 50  9.9930000  0  9                     
G 6  21441133.278   112673916.352         985.126          43.000    21441135.849    87797870.362         767.790          39.000  
G12  17848048.425    93792124.477        -355.471          49.000    17848045.984    73084761.591        -276.967          45.000  
G17  22075640.263   116008287.313       -4013.957          43.000    22075639.249                       -3127.698          31.000  
G19  20081210.880   105527467.402       -3348.300          43.000                                                                  
G24  18651397.708    98013752.824       -2812.402          50.000    18651400.772    76374355.120       -2191.260          47.000  
G25  19989129.894   105043586.225        1828.487          47.000    19989132.001    81852153.631        1424.830          43.000  
G32  20552038.888   108001696.819         752.481          45.000    20552040.212    84157163.990         586.493          41.000  
G 2  22374103.409   117576724.811        1811.154          38.000                                                                  
G14  21914385.037   115160890.018        1788.745          36.000                                                                  
> 2019  5 23  8 50 10.9930000  0  9                     
G 6  21440945.729   112672930.695         986.153          43.000    21440948.270    87797102.329         768.517          40.000  
G12  17848115.930    93792479.221        -353.754          49.000    17848113.595    73085038.028        -275.746          45.000  
G17  22076404.027   116012300.253       -4012.033          40.000    22076402.972                       -3126.490          30.000  
G19  20081847.920   105530815.423       -3347.633          44.000                                                                  
G24  18651932.748    98016564.489       -2810.840          49.000    18651935.780    76376546.036       -2190.179          47.000  
G25  19988781.903   105041757.178        1830.046          47.000    19988784.031    81850728.413        1425.871          43.000  
G32  20551895.653   108000943.506         754.448          45.000    20551896.841    84156576.978         587.620          41.000  
G 2  22373758.686   117574912.482        1812.922          38.000                                                                  
G14  21914044.362   115159100.160        1790.505          37.000                                                                  
> 2019  5 23  8 50 11.9930000  0  9                     
G 6  21440758.089   112671944.399         986.089          44.000    21440760.722    87796333.797         768.260          39.000  
G12  17848183.365    93792833.356        -354.331          49.000    17848181.061    73085313.958        -275.875          45.000  
G17  22077167.467   116016312.290       -4012.053          41.000    22077166.500    90402302.610       -3126.665          31.000  
G19  20082484.880   105534162.820       -3347.662          44.000                                                                  
G24  18652467.586    98019375.515       -2811.212          49.000    18652470.595    76378736.447       -2190.405          47.000  
G25  19988433.772   105039927.315        1829.400          47.000    19988435.752    81849302.527        1425.790          43.000  
G32  20551752.023   108000189.682         753.340          45.000    20551753.466    84155989.584         587.334          42.000  
G 2  22373413.582   117573099.159        1812.969          38.000                                                                  
G14  21913703.494   115157309.442        1790.482          38.000                                                                  
> 2019  5 23  8 50 12.9930000  0  9                     
G 6  21440570.479   112670958.619         985.571          43.000    21440573.156    87795565.652         767.936          39.000  
G12  17848250.785    93793188.001        -354.840          49.000    17848248.634    73085590.322        -276.727          45.000  
G17  22077930.975   116020324.582       -4012.291          45.000    22077930.637    90405428.974       -3127.263          33.000  
G19  20083122.000   105537510.799       -3348.497          44.000                                                                  
G24  18653002.575    98022187.029       -2811.841          49.000    18653005.629    76380927.238       -2191.071          47.000  
G25  19988085.632   105038097.763        1829.476          47.000    19988087.548    81847876.913        1425.605          43.000  
G32  20551608.651   107999436.413         752.680          45.000    20551610.088    84155402.627         586.561          41.000  
G 2  22373068.568   117571286.028        1813.129          38.000                                                                  
G14  21913362.733   115155519.236        1789.921          39.000                                                                  
> 2019  5 23  8 50 13.9930000  0  9                     
G 6  21440383.010   112669973.497         984.550          43.000    21440385.769    87794798.022         767.069          39.000  
G12  17848318.431    93793543.306        -355.673          49.000    17848316.245    73085867.174        -277.169          45.000  
G17  22078694.452   116024337.291       -4012.921          42.000    22078694.230                       -3127.835          30.000  
G19  20083759.232   105540859.489       -3349.484          44.000                                                                  
G24  18653537.763    98024999.146       -2812.531          49.000    18653540.791    76383118.495       -2191.687          47.000  
G25  19987737.483   105036268.669        1828.838          46.000    19987739.495    81846451.644        1424.946          43.000  
G32  20551465.402   107998683.879         752.041          45.000    20551466.827    84154816.252         585.782          41.000  
G 2  22372723.660   117569473.220        1812.449          38.000                                                                  
G14  21913022.078   115153729.430        1789.484          38.000                                                                  
> 2019  5 23  8 50 14.9930000  0  9                     
G 6  21440195.741   112668989.038         984.002          44.000    21440198.545    87794030.960         766.188          39.000  
G12  17848386.198    93793899.312        -356.380          49.000    17848383.961    73086144.586        -277.774          45.000  
G17  22079458.155   116028350.528       -4014.714          37.000    22079458.066                       -3126.544          23.000  
G19  20084396.565   105544208.888       -3349.510          43.000                                                                  
G24  18654073.016    98027811.921       -2813.135          49.000    18654076.097    76385310.260       -2191.974          47.000  
G25  19987389.410   105034440.085        1828.090          46.000    19987391.530    81845026.776        1424.752          43.000  
G32  20551322.341   107997932.145         751.202          45.000    20551323.724    84154230.465         585.304          41.000  
G 2  22372378.782   117567660.761        1812.385          38.000                                                                  
G14  21912681.629   115151940.241        1788.970          39.000                                                                  
> 2019  5 23  8 50 15.9930000  0  9                     
G 6  21440008.510   112668005.371         983.266          44.000    21440011.479    87793264.427         765.926          39.000  
G12  17848454.119    93794256.172        -357.335          49.000    17848451.918    73086422.666        -278.630          45.000  
G17  22080221.920   116032364.277       -4013.528          43.000    22080221.842                       -3129.351          33.000  
G19  20085034.189   105547559.321       -3351.160          44.000                                                                  
G24  18654608.399    98030625.541       -2814.294          49.000    18654611.493    76387502.691       -2192.883          47.000  
G25  19987041.530   105032612.130        1827.769          46.000    19987043.739    81843602.407        1424.182          44.000  
G32  20551179.465   107997181.341         749.970          44.000    20551180.951    84153645.430         584.356          41.000  
G 2  22372034.036   117565848.872        1811.418          38.000                                                                  
G14  21912341.276   115150151.758        1787.955          39.000                                                                  
> 2019  5 23  8 50 16.9930000  0  9                     
G 6  21439821.447   112667022.793         981.543          44.000    21439824.561    87792498.758         765.266          38.000  
G12  17848522.159    93794614.052        -359.177          49.000    17848519.875    73086701.516        -279.861          45.000  
G17  22080985.948   116036378.767       -4015.564          36.000    22080985.780                       -3129.896          28.000  
G19  20085671.887   105550910.662       -3352.090          43.000                                                                  
G24  18655144.034    98033440.124       -2815.875          49.000    18655146.915    76389695.872       -2194.348          47.000  
G25  19986693.917   105030785.008        1826.097          47.000    19986696.013    81842178.663        1423.012          44.000  
G32  20551036.802   107996431.608         748.318          44.000    20551038.279    84153061.239         582.980          42.000  
G 2  22371689.324   117564037.630        1809.619          36.000                                                                  
G14  21912001.150   115148364.175        1786.577          39.000                                                                  
> 2019  5 23  8 50 17.9930000  0  9                     
G 6  21439634.852   112666042.421         980.564          43.000    21439637.979    87791734.843         764.221          38.000  
G12  17848590.629    93794974.145        -360.177          50.000    17848588.405    73086982.120        -280.649          46.000  
G17  22081750.329   116040395.398       -4015.743          38.000    22081750.204                       -3129.116          28.000  
G19  20086310.119   105554264.326       -3353.844          43.000                                                                  
G24  18655680.063    98036256.877       -2816.638          50.000    18655682.847    76391890.750       -2194.873          47.000  
G25  19986346.544   105028959.921        1825.115          47.000    19986348.750    81840756.502        1422.325          44.000  
G32  20550894.645   107995684.192         747.439          44.000    20550896.034    84152478.812         582.334          41.000  
G 2  22371345.022   117562228.163        1809.596          38.000                                                                  
G14  21911661.346   115146578.618        1785.473          38.000                                                                  
> 2019  5 23  8 50 18.9930000  0  9                     
G 6  21439448.091   112665061.309         982.451          44.000    21439451.291    87790970.444         762.935          34.000  
G12  17848659.002    93795333.572        -359.079          49.000    17848656.823    73087262.196        -279.602          45.000  
G17  22082514.498   116044410.905       -4015.512          39.000    22082514.328                       -3129.122          29.000  
G19  20086948.110   105557617.353       -3351.899          40.000                                                                  
G24  18656215.947    98039072.919       -2815.625          50.000    18656218.706    76394085.072       -2193.982          47.000  
G25  19985999.041   105027133.970        1826.544          46.000    19986001.357    81839333.673        1423.646          44.000  
G32  20550752.315   107994936.158         748.554          44.000    20550753.639    84151895.947         583.191          41.000  
G 2  22371000.565   117560417.792        1811.204          32.000                                                                  
G14  21911321.366   115144792.304        1786.479          39.000                                                                  
> 2019  5 23  8 50 19.9930000  0  9                     
G 6  21439261.275   112664079.440         982.278          39.000    21439264.514    87790205.317         766.064          37.000  
G12  17848727.191    93795692.120        -358.105          49.000    17848725.008    73087541.572        -278.935          45.000  
G17  22083278.563   116048425.375       -4013.804          41.000    22083278.210                3      -3129.244          22.000  
G19  20087586.053   105560969.619       -3351.942          43.000                                                                  
G24  18656751.626    98041888.046       -2814.679          50.000    18656754.441    76396278.682       -2193.555          47.000  
G25  19985651.473   105025306.918        1827.668          46.000    19985653.632    81837910.029        1424.136          44.000  
G32  20550609.742   107994187.301         749.770          44.000    20550611.108    84151312.445         583.523          41.000  
G 2  22370655.784   117558606.193        1812.843          37.000                                                                  
G14  21910981.315   115143005.031        1786.807          40.000                                                                  
> 2019  5 23  8 50 20.9930000  0  9                     
G 6  21439073.941   112663095.287         985.283          41.000    21439077.371    87789438.453         768.390          34.000  
G12  17848795.071    93796048.647        -355.417          49.000    17848792.861    73087819.396        -277.436          45.000  
G17  22084041.968   116052437.660       -4011.921          41.000    22084043.435                       -3125.375          30.000  
G19  20088223.565   105564319.840       -3348.491          42.000                                                                  
G24  18657286.970    98044701.101       -2812.298          49.000    18657289.797    76398470.671       -2191.455          47.000  
G25  19985303.248   105023477.649        1830.677          46.000    19985305.490    81836484.649        1425.505          44.000  
G32  20550466.837   107993436.576         751.545          45.000    20550468.120    84150727.416         585.923          41.000  
G 2  22370310.469   117556792.223        1814.908          34.000                                                                  
G14  21910640.795   115141215.530        1790.847          39.000                                                                  
> 2019  5 23  8 50 21.9930000  0  9                     
G 6  21438886.371   112662109.733         985.536          43.000    21438889.858    87788670.408         768.367          41.000  
G12  17848862.574    93796403.455        -354.941          50.000    17848860.364    73088095.848        -276.343          45.000  
G17  22084805.023   116056447.814       -4011.369          43.000    22084805.631                3      -3112.483          23.000  
G19  20088860.828   105567668.483       -3348.181          39.000                                                                  
G24  18657822.085    98047512.348       -2811.060          49.000    18657824.669    76400661.237       -2190.381          47.000  
G25  19984954.744   105021646.438        1831.295          47.000    19984957.069    81835057.713        1427.350          43.000  
G32  20550323.667   107992684.142         752.104          45.000    20550324.827    84150141.127         586.357          41.000  
G 2  22369964.905   117554976.093        1816.993          34.000                                                                  
G14  21910299.910   115139424.143        1791.195          39.000                                                                  
> 2019  5 23  8 50 22.9930000  0  9                     
G 6  21438698.718   112661123.578         986.601          38.000    21438702.270                         768.280          31.000  
G12  17848930.087    93796757.967        -354.653          49.000    17848927.835    73088372.096        -276.374          45.000  
G17  22085568.093   116060457.554       -4010.875          43.000    22085567.481                       -3124.822          30.000  
G19  20089497.919   105571016.785       -3348.394          45.000                                                                  
G24  18658356.961    98050323.336       -2811.298          49.000    18658359.620    76402851.609       -2190.595          47.000  
G25  19984606.201   105019814.757        1831.540          47.000    19984608.500    81833630.435        1427.367          43.000  
G32  20550180.419   107991931.507         752.192          45.000    20550181.586    84149554.666         586.160          41.000  
G 2  22369619.282   117553159.586        1816.896          37.000                                                                  
G14  21909958.931   115137632.375        1791.416          39.000                                                                  
> 2019  5 23  8 50 23.9930000  0  9                     
G 6  21438511.201   112660138.214         984.942          45.000    21438514.877    87787134.160         767.700          41.000  
G12  17848997.610    93797113.087        -355.368          49.000    17848995.527    73088648.824        -277.122          45.000  
G17  22086331.142   116064467.372       -4009.324          32.000    22086330.879                3      -3129.342          23.000  
G19  20090135.202   105574365.707       -3349.136          39.000                                                                  
G24  18658892.051    98053134.829       -2812.073          50.000    18658894.557    76405042.370       -2190.857          47.000  
G25  19984257.659   105017983.478        1831.438          47.000    19984259.965    81832203.465        1426.756          43.000  
G32  20550037.343   107991179.548         751.117          44.000    20550038.546    84148968.700         585.840          42.000  
G 2  22369273.461   117551343.163        1815.936          34.000                                                                  
G14  21909618.113   115135841.011        1791.513          39.000                                                                  
> 2019  5 23  8 50 24.9930000  0  9                     
G 6  21438323.840   112659153.493         984.135          43.000    21438327.456    87786366.906         766.561          40.000  
G12  17849065.357    93797468.984        -356.676          49.000    17849063.296    73088926.135        -277.581          45.000  
G17  22087094.401   116068478.039       -4011.420          42.000    22087092.331                       -3123.725          30.000  
G19  20090772.633   105577715.534       -3350.186          43.000                                                                  
G24  18659427.245    98055947.034       -2812.842          49.000    18659429.678    76407233.740       -2192.053          47.000  
G25  19983909.227   105016152.784        1830.093          46.000    19983911.549    81830776.953        1425.933          43.000  
G32  20549894.383   107990428.422         750.292          45.000    20549895.627    84148383.418         584.786          41.000  
G 2  22368927.866   117549527.187        1815.317          37.000                                                                  
G14  21909277.308   115134050.370        1789.620          37.000                                                                  
> 2019  5 23  8 50 25.9930000  0  9                     
G 6  21438136.931   112658171.060         982.465          44.000    21438140.552    87785601.332         765.429          38.000  
G12  17849133.444    93797827.128        -358.232          49.000    17849131.487    73089205.219        -278.986          45.000  
G17  22087857.985   116072490.594       -4012.659          42.000    22087852.971                       -3126.557          30.000  
G19  20091410.499   105581067.647       -3352.182          44.000                                                                  
G24  18659962.733    98058761.473       -2814.569          49.000    18659965.257    76409426.783       -2193.036          47.000  
G25  19983561.243   105014324.154        1828.608          47.000    19983563.491    81829352.041        1424.724          43.000  
G32  20549751.863   107989679.674         748.564          43.000    20549753.171    84147799.975         583.269          41.000  
G 2  22368582.480   117547713.157        1814.172          35.000                                                                  
G14  21908936.972   115132261.773        1788.410          40.000                                                                  
> 2019  5 23  8 50 26.9930000  0  9                     
G 6  21437949.877   112657188.150         983.524          44.000    21437953.506    87784835.470         766.046          39.000  
G12  17849201.519    93798184.814        -357.216          49.000    17849199.497    73089483.936        -278.323          45.000  
G17  22088621.517   116076502.381       -4010.980          42.000    22088616.591                       -3125.385          30.000  
G19  20092048.229   105584419.342       -3351.433          44.000                                                                  
G24  18660498.195    98061575.411       -2813.501          50.000    18660500.749    76411619.465       -2192.365          47.000  
G25  19983213.201   105012494.846        1829.861          47.000    19983215.307    81827926.609        1425.913          44.000  
G32  20549609.209   107988930.517         749.665          44.000    20549610.575    84147216.216         584.104          41.000  
G 2  22368236.866   117545898.304        1815.450          35.000                                                                  
G14  21908596.434   115130472.632        1789.623          41.000                                                                  
> 2019  5 23  8 50 27.9930000  0  9                     
G 6  21437762.651   112656204.462         983.958          44.000    21437766.224    87784068.919         767.007          38.000  
G12  17849269.487    93798541.718        -356.601          49.000    17849267.381    73089762.048        -277.853          45.000  
G17  22089384.695   116080513.201       -4010.682          42.000    22089377.743                       -3125.453          30.000  
G19  20092685.907   105587770.272       -3350.388          43.000                                                                  
G24  18661033.531    98064388.503       -2812.756          50.000    18661035.976    76413811.488       -2191.583          47.000  
G25  19982864.822   105010664.552        1830.712          47.000    19982866.977    81826500.423        1426.298          44.000  
G32  20549466.498   107988180.650         750.250          44.000    20549467.891    84146631.894         584.673          41.000  
G 2  22367891.332   117544082.353        1816.168          36.000                                                                  
G14  21908255.733   115128682.552        1790.421          41.000                                                                  
> 2019  5 23  8 50 28.9930000  0  9                     
G 6  21437575.317   112655219.888         985.580          44.000    21437578.769    87783301.743         767.625          38.000  
G12  17849337.239    93798897.756        -354.890          49.000    17849335.081    73090039.474        -276.540          45.000  
G17  22090147.671   116084522.876       -4008.246          42.000    22090141.712                       -3123.811          29.000  
G19  20093323.388   105591120.415       -3348.959          43.000                                                                  
G24  18661568.595    98067200.718       -2811.115          49.000    18661571.125    76416002.825       -2190.442          47.000  
G25  19982516.323   105008833.225        1832.367          47.000    19982518.480    81825073.396        1427.899          44.000  
G32  20549323.620   107987429.984         751.756          44.000    20549325.053    84146046.980         586.168          40.000  
G 2  22367545.616   117542265.199        1818.054          38.000                                                                  
G14  21907914.971   115126891.475        1792.496          40.000                                                                  
> 2019  5 23  8 50 29.9930000  0  9                     
G 6  21437387.509   112654232.997         987.500          44.000    21437390.874    87782532.723         769.285          38.000  
G12  17849404.708    93799251.496        -353.258          49.000    17849402.436    73090315.128        -275.360          46.000  
G17  22090910.136   116088530.001       -4006.397          43.000    22090904.662                       -3120.865          30.000  
G19  20093960.469   105594468.292       -3347.366          43.000                                                                  
G24  18662103.255    98070010.590       -2809.302          49.000    18662105.889    76418192.338       -2189.178          47.000  
G25  19982167.485   105006999.372        1834.432          47.000    19982169.565    81823644.422        1429.428          43.000  
G32  20549180.424   107986677.130         753.323          45.000    20549181.747    84145460.317         587.130          41.000  
G 2  22367199.380   117540445.388        1820.293          38.000                                                                  
G14  21907573.737   115125097.964        1794.225          39.000                                                                  
> 2019  5 23  8 50 30.9930000  0  9                     
G 6  21437199.568   112653245.611         987.024          44.000    21437203.042    87781763.348         769.179          38.000  
G12  17849471.896    93799604.752        -353.842          49.000    17849469.743    73090590.393        -275.663          45.000  
G17  22091672.554   116092536.390       -4006.516          42.000    22091668.160                       -3122.285          30.000  
G19  20094597.463   105597815.698       -3347.418          43.000                                                                  
G24  18662637.781    98072819.907       -2809.851          49.000    18662640.519    76420381.410       -2189.459          47.000  
G25  19981818.259   105005164.841        1834.072          47.000    19981820.324    81822214.902        1429.569          43.000  
G32  20549037.163   107985923.847         752.664          45.000    20549038.360    84144873.347         586.225          41.000  
G 2  22366852.890   117538624.729        1820.319          38.000                                                                  
G14  21907232.188   115123303.798        1793.507          39.000                                                                  
> 2019  5 23  8 50 31.9930000  0  9                     
G 6  21437012.039   112652260.205         983.903          44.000    21437015.522    87780995.481         766.850          39.000  
G12  17849539.468    93799959.985        -356.800          49.000    17849537.309    73090867.188        -277.760          46.000  
G17  22092435.385   116096544.540       -4010.196          41.000    22092430.910                       -3126.568          30.000  
G19  20095234.864   105601165.220       -3352.003          42.000                                                                  
G24  18663172.706    98075631.148       -2812.695          49.000    18663175.443    76422571.990       -2191.626          47.000  
G25  19981469.433   105003332.094        1831.338          47.000    19981471.641    81820786.801        1427.148          44.000  
G32  20548894.125   107985172.599         750.487          44.000    20548895.587    84144287.968         584.670          40.000  
G 2  22366506.829   117536805.760        1817.678          38.000                                                                  
G14  21906891.087   115121511.568        1790.062          40.000                                                                  
> 2019  5 23  8 50 32.9930000  0  9                     
G 6  21436824.647   112651275.191         985.135          42.000    21436828.118    87780227.959         768.444          40.000  
G12  17849607.048    93800315.655        -355.041          49.000    17849605.044    73091144.351        -276.885          46.000  
G17  22093198.115   116100552.732       -4006.405          40.000    22093193.615                1      -3116.247          23.000  
G19  20095872.323   105604515.225       -3348.982          39.000                                                                  
G24  18663707.679    98078442.779       -2810.907          49.000    18663710.497    76424762.875       -2190.295          47.000  
G25  19981120.826   105001499.580        1833.206          47.000    19981122.992    81819358.872        1428.372          44.000  
G32  20548751.216   107984421.886         751.467          45.000    20548752.717    84143703.006         585.414          41.000  
G 2  22366160.710   117534986.845        1819.471          38.000                                                                  
G14  21906550.088   115119719.532        1792.978          40.000                                                                  
> 2019  5 23  8 50 33.9930000  0  9                     
G 6  21436637.194   112650290.257         983.424          38.000    21436640.688    87779460.510         766.986          35.000  
G12  17849674.709    93800671.317        -356.349          50.000    17849672.664    73091421.483        -277.780          45.000  
G17  22093960.840   116104560.873       -4009.587          42.000    22093954.952                       -3123.995          30.000  
G19  20096509.785   105607865.097       -3350.982          42.000                                                                  
G24  18664242.723    98081254.396       -2812.427          50.000    18664245.550    76426953.735       -2191.339          47.000  
G25  19980772.155   104999666.866        1832.113          47.000    19980774.367    81817930.769        1427.551          44.000  
G32  20548608.331   107983671.238         749.894          44.000    20548609.933    84143118.085         584.223          41.000  
G 2  22365814.490   117533167.639        1818.124          38.000                                                                  
G14  21906209.069   115117927.425        1791.165          40.000                                                                  
> 2019  5 23  8 50 34.9930000  0  9                     
G 6  21436450.114   112649306.509         983.319          41.000    21436453.470    87778693.984         766.019          37.000  
G12  17849742.711    93801028.381        -357.712          49.000    17849740.647    73091699.724        -278.972          45.000  
G17  22094723.664   116108570.040       -4010.196          42.000    22094720.874                       -3124.151          29.000  
G19  20097147.578   105611216.576       -3353.217          43.000                                                                  
G24  18664778.222    98084067.381       -2813.843          50.000    18664780.719    76429145.669       -2192.456          48.000  
G25  19980423.663   104997835.360        1830.842          47.000    19980425.805    81816503.630        1426.421          44.000  
G32  20548465.714   107982922.071         748.385          44.000    20548467.334    84142534.305         583.400          41.000  
G 2  22365468.524   117531349.423        1818.036          37.000                                                                  
G14  21905868.328   115116136.552        1790.146          40.000                                                                  
> 2019  5 23  8 50 35.9930000  0  9                     
G 6  21436263.130   112648323.880         982.169          44.000    21436266.565    87777928.228         765.668          39.000  
G12  17849810.857    93801386.387        -358.359          50.000    17849808.765    73091978.686        -279.349          45.000  
G17  22095486.772   116112579.901       -4010.312          42.000    22095484.752                       -3125.051          29.000  
G19  20097785.508   105614568.929       -3352.373          43.000                                                                  
G24  18665313.712    98086881.247       -2814.203          50.000    18665316.167    76431338.305       -2192.926          47.000  
G25  19980075.373   104996004.568        1830.634          47.000    19980077.466    81815077.036        1426.509          44.000  
G32  20548323.198   107982173.914         747.760          45.000    20548324.920    84141951.340         582.559          41.000  
G 2  22365122.674   117529531.906        1817.750          37.000                                                                  
G14  21905527.686   115114346.496        1789.981          40.000                                                                  
> 2019  5 23  8 50 36.9930000  0  9                     
G 6  21436076.116   112647341.554         982.058          44.000    21436079.633    87777162.799         765.190          39.000  
G12  17849879.065    93801744.765        -358.537          50.000    17849877.073    73092257.935        -279.331          45.000  
G17  22096249.874   116116589.897       -4010.253          42.000    22096250.746                       -3124.717          29.000  
G19  20098423.457   105617921.779       -3353.210          43.000                                                                  
G24  18665849.256    98089695.451       -2814.441          49.000    18665851.669    76433531.181       -2193.152          47.000  
G25  19979727.018   104994173.986        1830.473          46.000    19979729.105    81813650.611        1426.406          44.000  
G32  20548180.923   107981426.217         747.278          45.000    20548182.594    84141368.734         582.145          42.000  
G 2  22364776.946   117527714.259        1817.780          37.000                                                                  
G14  21905187.069   115112556.687        1789.679          40.000                                                                  
> 2019  5 23  8 50 37.9930000  0  9                     
G 6  21435889.257   112646359.952         981.216          43.000    21435892.877    87776397.898         764.498          39.000  
G12  17849947.365    93802103.870        -359.391          50.000    17849945.492    73092537.760        -280.106          45.000  
G17  22097013.120   116120600.364       -4010.396          42.000    22097011.577                       -3125.272          29.000  
G19  20099061.726   105621275.381       -3353.884          43.000                                                                  
G24  18666384.911    98092510.328       -2815.265          50.000    18666387.220    76435724.590       -2193.695          47.000  
G25  19979378.786   104992343.915        1829.718          46.000    19979380.917    81812224.587        1425.759          44.000  
G32  20548038.926   107980679.320         746.460          45.000    20548040.407    84140786.711         581.658          42.000  
G 2  22364431.137   117525897.159        1817.589          35.000                                                                  
G14  21904846.563   115110767.442        1789.265          40.000                                                                  
> 2019  5 23  8 50 38.9930000  0  9                     
G 6  21435702.567   112645379.013         980.664          44.000    21435706.270    87775633.536         764.136          39.000  
G12  17850015.894    93802463.653        -360.000          50.000    17850013.951    73092818.112        -280.570          45.000  
G17  22097776.426   116124611.295       -4011.174          42.000    22097774.735                       -3125.727          29.000  
G19  20099699.995   105624629.712       -3354.703          43.000                                                                  
G24  18666920.663    98095325.842       -2815.729          50.000    18666923.023    76437918.501       -2194.000          47.000  
G25  19979030.509   104990514.312        1829.477          47.000    19979032.686    81810798.929        1425.416          44.000  
G32  20547897.000   107979933.166         745.733          44.000    20547898.468    84140205.301         581.075          42.000  
G 2  22364085.351   117524080.337        1817.362          35.000                                                                  
G14  21904506.156   115108978.773        1788.334          40.000                                                                  
> 2019  5 23  8 50 39.9930000  0  9                     
G 6  21435516.052   112644399.062         979.128          44.000    21435519.860    87774869.947         762.737          39.000  
G12  17850084.545    93802824.452        -361.739          50.000    17850082.528    73093099.248        -281.954          45.000  
G17  22098539.796   116128622.958       -4012.425          42.000    22098540.428                       -3126.476          29.000  
G19  20100338.455   105627985.079       -3356.154          43.000                                                                  
G24  18667456.686    98098142.310       -2817.346          49.000    18667459.011    76440113.150       -2195.312          47.000  
G25  19978682.453   104988685.518        1828.094          47.000    19978684.727    81809373.891        1424.417          44.000  
G32  20547755.153   107979188.100         744.275          44.000    20547756.689    84139624.736         579.620          42.000  
G 2  22363739.713   117522264.183        1815.493          36.000                                                                  
G14  21904165.946   115107190.958        1787.004          40.000                                                                  
> 2019  5 23  8 50 40.9930000  0  9                     
G 6  21435329.817   112643420.384         978.161          44.000    21435333.625    87774107.326         762.459          39.000  
G12  17850153.461    93803186.503        -362.533          50.000    17850151.374    73093381.359        -282.474          45.000  
G17  22099303.328   116132635.635       -4012.931          42.000    22099303.612                       -3126.888          29.000  
G19  20100977.219   105631341.756       -3357.164          43.000                                                                  
G24  18667992.843    98100959.989       -2818.060          50.000    18667995.281    76442308.742       -2195.947          47.000  
G25  19978334.754   104986857.810        1827.382          47.000    19978336.936    81807949.698        1423.834          44.000  
G32  20547613.576   107978444.388         743.250          44.000    20547615.093    84139045.212         578.801          42.000  
G 2  22363394.315   117520448.971        1814.824          37.000                                                                  
G14  21903825.922   115105404.280        1786.166          40.000                                                                  
> 2019  5 23  8 50 41.9930000  0  9                     
G 6  21435143.714   112642442.774         977.210          44.000    21435147.572    87773345.557         761.266          39.000  
G12  17850222.592    93803549.662        -363.711          50.000    17850220.353    73093664.345        -283.265          46.000  
G17  22100067.122   116136649.166       -4014.042          42.000    22100065.776                       -3128.018          29.000  
G19  20101616.092   105634699.603       -3358.553          43.000                                                                  
G24  18668529.258    98103778.722       -2819.238          50.000    18668531.575    76444505.159       -2196.790          47.000  
G25  19977987.251   104985031.005        1826.295          47.000    19977989.278    81806526.203        1423.228          44.000  
G32  20547472.313   107977701.838         742.158          44.000    20547473.858    84138466.610         578.035          42.000  
G 2  22363048.942   117518634.474        1814.498          37.000                                                                  
G14  21903486.017   115103618.552        1785.093          40.000                                                                  
> 2019  5 23  8 50 42.9930000  0  9                     
G 6  21434957.918   112641466.303         975.853          44.000    21434961.742    87772584.669         760.646          39.000  
G12  17850291.913    93803913.950        -364.720          50.000    17850289.666    73093948.213        -284.284          46.000  
G17  22100831.074   116140663.551       -4014.840          42.000    22100828.723                       -3128.884          29.000  
G19  20102255.261   105638058.589       -3359.365          43.000                                                                  
G24  18669065.923    98106598.522       -2820.300          50.000    18669068.183    76446702.407       -2197.614          47.000  
G25  19977639.805   104983205.108        1825.432          46.000    19977641.895    81805103.434        1422.436          44.000  
G32  20547331.216   107976960.519         740.674          44.000    20547332.831    84137888.943         577.310          42.000  
G 2  22362703.862   117516820.829        1813.237          37.000                                                                  
G14  21903146.441   115101833.825        1784.302          40.000                                                                  
> 2019  5 23  8 50 43.9930000  0  9                     
G 6  21434772.317   112640491.199         974.418          43.000    21434776.062    87771824.848         759.202          39.000  
G12  17850361.599    93804279.611        -366.249          50.000    17850359.159    73094233.140        -285.428          46.000  
G17  22101595.248   116144679.069       -4015.881          42.000    22101592.927                       -3129.308          29.000  
G19  20102894.690   105641419.043       -3361.186          43.000                                                                  
G24  18669602.694    98109419.656       -2821.802          50.000    18669604.975    76448900.689       -2198.743          47.000  
G25  19977292.530   104981380.401        1824.218          46.000    19977294.680    81803681.592        1421.394          44.000  
G32  20547190.516   107976220.628         739.277          44.000    20547192.082    84137312.410         576.069          42.000  
G 2  22362358.949   117515008.236        1811.284          37.000                                                                  
G14  21902807.095   115100050.345        1782.929          40.000                                                                  
> 2019  5 23  8 50 44.9930000  0  9                     
G 6  21434586.970   112639517.089         973.766          43.000    21434590.711    87771065.803         758.555          39.000  
G12  17850431.342    93804646.296        -367.098          50.000    17850428.894    73094518.866        -286.063          46.000  
G17  22102359.467   116148695.351       -4016.810          42.000    22102357.181                       -3129.817          29.000  
G19  20103534.368   105644780.526       -3362.030          43.000                                                                  
G24  18670139.735    98112241.746       -2822.491          50.000    18670141.928    76451099.720       -2199.341          47.000  
G25  19976945.339   104979556.505        1823.478          46.000    19976947.612    81802260.378        1420.882          44.000  
G32  20547049.887   107975481.855         738.367          44.000    20547051.356    84136736.732         575.435          42.000  
G 2  22362014.208   117513196.240        1811.824          37.000                                                                  
G14  21902467.925   115098267.750        1782.230          40.000                                                                  
> 2019  5 23  8 50 45.9930000  0  9                     
G 6  21434401.861   112638544.053         972.513          43.000    21434405.495    87770307.591         757.805          39.000  
G12  17850501.327    93805014.059        -368.204          50.000    17850498.911    73094805.435        -286.899          46.000  
G17  22103124.016   116152712.447       -4017.417          42.000    22103121.723                       -3130.745          29.000  
G19  20104174.236   105648143.162       -3363.116          43.000                                                                  
G24  18670676.982    98115064.874       -2823.492          50.000    18670679.212    76453299.561       -2200.122          47.000  
G25  19976598.419   104977733.503        1822.605          46.000    19976600.642    81800839.855        1420.335          44.000  
G32  20546909.554   107974744.221         737.087          44.000    20546911.050    84136161.956         574.286          42.000  
G 2  22361669.638   117511385.039        1810.723          37.000                                                                  
G14  21902128.962   115096486.111        1780.894          40.000                                                                  
> 2019  5 23  8 50 46.9930000  0  9                     
G 6  21434216.764   112637571.612         971.983          43.000    21434220.453    87769549.846         757.452          39.000  
G12  17850571.530    93805382.428        -368.904          50.000    17850569.064    73095092.474        -287.416          46.000  
G17  22103888.583   116156729.902       -4017.797          42.000    22103885.946                       -3130.899          29.000  
G19  20104814.287   105651506.418       -3363.747          43.000                                                                  
G24  18671214.278    98117888.577       -2824.207          50.000    18671216.626    76455499.852       -2200.745          47.000  
G25  19976251.548   104975910.900        1822.141          46.000    19976253.827    81799419.648        1419.772          44.000  
G32  20546769.228   107974007.271         736.437          44.000    20546770.949    84135587.721         573.722          42.000  
G 2  22361324.936   117509574.062        1811.133          37.000                                                                  
G14  21901790.043   115094704.900        1780.777          40.000                                                                  
> 2019  5 23  8 50 47.9930000  0  9                     
G 6  21434031.826   112636599.986         971.035          43.000    21434035.561    87768792.733         756.983          39.000  
G12  17850641.746    93805751.604        -369.707          50.000    17850639.372    73095380.151        -288.095          46.000  
G17  22104653.175   116160747.908       -4018.168          42.000    22104650.552                       -3130.318          29.000  
G19  20105454.438   105654870.551       -3364.518          43.000                                                                  
G24  18671751.722    98120713.063       -2824.988          50.000    18671754.065    76457700.746       -2201.257          47.000  
G25  19975904.784   104974088.916        1821.639          47.000    19975907.084    81797999.925        1419.299          44.000  
G32  20546629.180   107973271.209         735.541          44.000    20546630.939    84135014.160         573.230          42.000  
G 2  22360980.461   117507763.622        1809.814          37.000                                                                  
G14  21901451.327   115092924.404        1780.036          40.000                                                                  
> 2019  5 23  8 50 48.9930000  0  9                     
G 6  21433847.166   112635629.298         970.330          43.000    21433850.892    87768036.372         755.968          39.000  
G12  17850712.205    93806121.745        -370.585          50.000    17850709.769    73095668.568        -288.850          46.000  
G17  22105417.873   116164766.632       -4019.008          42.000    22105415.425                       -3131.996          29.000  
G19  20106094.746   105658235.682       -3365.488          43.000                                                                  
G24  18672289.345    98123538.478       -2825.824          49.000    18672291.537    76459902.370       -2201.984          47.000  
G25  19975558.124   104972267.703        1820.757          47.000    19975560.547    81796580.781        1418.899          44.000  
G32  20546489.320   107972536.196         734.433          44.000    20546491.107    84134441.419         572.206          42.000  
G 2  22360636.001   117505953.789        1809.597          37.000                                                                  
G14  21901112.713   115091144.709        1779.563          40.000                                                                  
> 2019  5 23  8 50 49.9930000  0  9                     
G 6  21433662.646   112634659.666         969.262          43.000    21433666.282    87767280.815         755.124          39.000  
G12  17850782.848    93806492.940        -371.477          50.000    17850780.548    73095957.814        -289.515          46.000  
G17  22106182.747   116168786.149       -4019.596          42.000    22106180.356                       -3132.739          29.000  
G19  20106735.313   105661601.917       -3366.656          43.000                                                                  
G24  18672827.280    98126364.920       -2826.703          50.000    18672829.383    76462104.788       -2202.588          47.000  
G25  19975211.575   104970447.329        1820.113          47.000    19975214.204    81795162.326        1418.176          44.000  
G32  20546349.615   107971802.301         733.539          44.000    20546351.406    84133869.547         571.750          42.000  
G 2  22360291.716   117504144.644        1809.421          37.000                                                                  
G14  21900774.221   115089365.944        1778.888          40.000                                                                  
> 2019  5 23  8 50 50.9930000  0  9                     
G 6  21433478.334   112633690.874         968.396          43.000    21433481.930    87766525.908         754.590          39.000  
G12  17850853.757    93806865.001        -372.565          50.000    17850851.322    73096247.736        -290.380          46.000  
G17  22106947.912   116172806.290       -4020.498          42.000    22106945.173                       -3132.458          29.000  
G19  20107376.090   105664969.050       -3367.338          43.000                                                                  
G24  18673365.364    98129192.158       -2827.631          50.000    18673367.454    76464307.835       -2203.369          47.000  
G25  19974865.306   104968627.633        1819.338          47.000    19974867.861    81793744.377        1417.729          44.000  
G32  20546210.155   107971069.359         732.450          44.000    20546211.832    84133298.427         570.934          42.000  
G 2  22359947.629   117502336.063        1808.105          38.000                                                                  
G14  21900435.858   115087587.915        1777.819          40.000                                                                  
> 2019  5 23  8 50 51.9930000  0  9                     
G 6  21433294.084   112632722.647         967.728          43.000    21433297.672    87765771.462         753.964          39.000  
G12  17850924.789    93807237.619        -373.120          50.000    17850922.259    73096538.078        -290.684          46.000  
G17  22107712.956   116176826.726       -4021.045          42.000    22107710.291                       -3132.953          29.000  
G19  20108016.949   105668336.802       -3368.420          43.000                                                                  
G24  18673903.560    98132019.887       -2828.223          50.000    18673905.568    76466511.261       -2203.912          47.000  
G25  19974519.017   104966808.291        1818.907          47.000    19974521.626    81792326.701        1417.467          44.000  
G32  20546070.732   107970337.045         731.708          44.000    20546072.523    84132727.810         570.093          42.000  
G 2  22359603.478   117500527.664        1808.279          38.000                                                                  
G14  21900097.644   115085810.314        1777.316          40.000                                                                  
> 2019  5 23  8 50 52.9930000  0  9                     
G 6  21433110.017   112631755.189         966.830          43.000    21433113.516    87765017.581         753.415          39.000  
G12  17850995.800    93807611.018        -373.938          50.000    17850993.366    73096829.044        -291.392          46.000  
G17  22108478.099   116180847.663       -4021.185          42.000    22108475.273                       -3133.089          29.000  
G19  20108657.957   105671705.375       -3369.187          43.000                                                                  
G24  18674441.756    98134848.362       -2828.955          50.000    18674443.763    76468715.261       -2204.364          47.000  
G25  19974172.879   104964989.531        1818.335          47.000    19974175.537    81790909.494        1416.840          44.000  
G32  20545931.497   107969605.602         730.684          44.000    20545933.411    84132157.825         569.744          42.000  
G 2  22359259.333   117498719.741        1807.550          38.000                                                                  
G14  21899759.543   115084033.365        1776.319          40.000                                                                  
> 2019  5 23  8 50 53.9930000  0  9                     
G 6  21432926.025   112630788.149         967.105          43.000    21432929.446    87764264.066         753.271          39.000  
G12  17851066.912    93807984.864        -373.953          50.000    17851064.558    73097120.352        -291.504          46.000  
G17  22109243.290   116184868.816       -4021.074          42.000    22109240.377                       -3133.638          29.000  
G19  20109299.067   105675074.440       -3369.365          43.000                                                                  
G24  18674980.117    98137677.251       -2828.961          50.000    18674981.990    76470919.593       -2204.419          47.000  
G25  19973826.848   104963171.024        1818.549          47.000    19973829.485    81789492.479        1416.878          44.000  
G32  20545792.357   107968874.662         730.855          44.000    20545794.265    84131588.271         569.647          42.000  
G 2  22358915.295   117496911.947        1807.421          38.000                                                                  
G14  21899421.516   115082256.712        1776.527          40.000                                                                  
> 2019  5 23  8 50 54.9930000  0  9                     
G 6  21432742.087   112629821.687         966.473          43.000    21432745.476    87763510.971         752.644          39.000  
G12  17851138.172    93808359.265        -374.348          50.000    17851135.755    73097412.089        -291.657          46.000  
G17  22110008.648   116188890.266       -4021.385          42.000    22110005.631    90536762.874       -3133.505          29.000  
G19  20109940.289   105678444.086       -3369.677          43.000                                                                  
G24  18675518.478    98140506.617       -2829.315          50.000    18675520.332    76473124.295       -2204.620          47.000  
G25  19973480.894   104961352.883        1818.318          47.000    19973483.509    81788075.741        1416.831          44.000  
G32  20545653.403   107968144.373         730.210          44.000    20545655.179    84131019.206         569.196          42.000  
G 2  22358571.323   117495104.334        1807.568          38.000                                                                  
G14  21899083.535   115080480.483        1776.210          40.000                                                                  
> 2019  5 23  8 50 55.9930000  0  9                     
G 6  21432558.140   112628855.390         966.044          43.000    21432561.579    87762758.005         752.802          39.000  
G12  17851209.362    93808733.859        -374.613          50.000    17851207.107    73097703.984        -291.829          46.000  
G17  22110773.837   116192911.658       -4021.374          42.000    22110770.978                       -3133.637          29.000  
G19  20110581.593   105681813.975       -3369.738          43.000                                                                  
G24  18676056.943    98143336.124       -2829.553          50.000    18676058.733    76475329.105       -2204.840          47.000  
G25  19973134.948   104959534.729        1818.166          47.000    19973137.531    81786658.998        1416.686          44.000  
G32  20545514.435   107967414.345         729.858          44.000    20545516.174    84130450.368         568.654          42.000  
G 2  22358227.161   117493296.579        1807.911          38.000                                                                  
G14  21898745.557   115078704.306        1776.117          40.000                                                                  
> 2019  5 23  8 50 56.9930000  0  9                     
G 6  21432374.284   112627889.345         965.751          43.000    21432377.798    87762005.243         752.500          39.000  
G12  17851280.721    93809108.721        -375.164          50.000    17851278.489    73097996.087        -292.447          46.000  
G17  22111539.119   116196933.047       -4021.827          42.000    22111536.306                       -3133.299          29.000  
G19  20111222.904   105685184.184       -3370.651          43.000                                                                  
G24  18676595.472    98146165.870       -2830.023          50.000    18676597.229    76477534.102       -2205.286          47.000  
G25  19972788.964   104957716.644        1817.814          47.000    19972791.575    81785242.315        1416.407          44.000  
G32  20545375.633   107966684.663         729.188          44.000    20545377.362    84129881.774         568.392          43.000  
G 2  22357883.130   117491488.759        1807.648          38.000                                                                  
G14  21898407.668   115076928.270        1775.878          40.000                                                                  
> 2019  5 23  8 50 57.9930000  0  9                     
G 6  21432190.527   112626923.991         965.156          43.000    21432194.210    87761253.042         751.824          39.000  
G12  17851352.190    93809484.274        -375.843          50.000    17851349.944    73098288.726        -292.975          46.000  
G17  22112304.420   116200954.878       -4022.029          42.000    22112301.614                       -3133.768          29.000  
G19  20111864.419   105688555.134       -3371.597          43.000                                                                  
G24  18677134.035    98148996.266       -2830.621          50.000    18677135.864    76479739.610       -2205.762          47.000  
G25  19972443.133   104955899.050        1817.436          47.000    19972445.660    81783826.014        1416.097          44.000  
G32  20545236.996   107965955.766         728.478          44.000    20545238.707    84129313.812         567.665          43.000  
G 2  22357539.219   117489681.287        1807.322          38.000                                                                  
G14  21898069.698   115075152.797        1775.380          40.000                                                                  
> 2019  5 23  8 50 58.9930000  0  9                     
G 6  21432007.025   112625959.375         964.338          43.000    21432010.619    87760501.375         751.238          39.000  
G12  17851423.818    93809860.561        -376.656          50.000    17851421.539    73098581.931        -293.439          46.000  
G17  22113069.787   116204977.189       -4022.605          42.000    22113067.060                       -3134.126          29.000  
G19  20112506.029   105691926.841       -3372.173          43.000                                                                  
G24  18677672.846    98151827.352       -2831.433          50.000    18677674.653    76481945.641       -2206.110          47.000  
G25  19972097.317   104954082.003        1816.844          47.000    19972099.902    81782410.123        1415.770          44.000  
G32  20545098.455   107965227.663         727.835          44.000    20545100.138    84128746.458         566.976          42.000  
G 2  22357195.323   117487874.237        1807.020          38.000                                                                  
G14  21897731.932   115073377.933        1774.469          40.000                                                                  
> 2019  5 23  8 50 59.9930000  0  9                     
G 6  21431823.517   112624995.563         963.261          43.000    21431827.129    87759750.356         750.529          39.000  
G12  17851495.653    93810237.663        -377.660          50.000    17851493.304    73098875.785        -294.374          46.000  
G17  22113835.366   116209000.065       -4023.476          42.000    22113832.739                       -3134.765          29.000  
G19  20113147.752   105695299.422       -3373.173          43.000                                                                  
G24  18678211.663    98154659.196       -2832.410          50.000    18678213.530    76484152.277       -2207.050          47.000  
G25  19971751.575   104952265.572        1816.153          47.000    19971754.267    81780994.729        1415.146          44.000  
G32  20544960.073   107964500.475         726.477          44.000    20544961.833    84128179.822         565.951          43.000  
G 2  22356851.634   117486067.666        1805.964          38.000                                                                  
G14  21897394.321   115071603.731        1773.930          40.000                                                                  
> 2019  5 23  8 51  0.9930000  0  9                     
G 6  21431640.348   112624032.719         962.598          43.000    21431643.863    87759000.072         750.295          39.000  
G12  17851567.556    93810615.744        -378.488          50.000    17851565.346    73099170.384        -294.818          46.000  
G17  22114601.031   116213023.658       -4023.957          42.000    22114598.587                       -3135.289          29.000  
G19  20113789.766   105698673.013       -3373.900          43.000                                                                  
G24  18678750.687    98157491.985       -2833.264          50.000    18678752.572    76486359.642       -2207.721          47.000  
G25  19971406.092   104950449.920        1815.311          47.000    19971408.794    81779579.927        1414.601          44.000  
G32  20544821.883   107963774.336         725.718          44.000    20544823.725    84127613.981         565.680          43.000  
G 2  22356508.118   117484261.744        1805.824          38.000                                                                  
G14  21897056.922   115069830.395        1772.949          40.000                                                                  
> 2019  5 23  8 51  1.9930000  0  9                     
G 6  21431457.331   112623070.761         961.461          43.000    21431460.756    87758250.522         749.002          39.000  
G12  17851639.564    93810994.708        -379.526          50.000    17851637.463    73099465.680        -295.668          46.000  
G17  22115366.806   116217047.869       -4024.591          42.000    22115364.333    90558703.810       -3135.839          29.000  
G19  20114431.984   105702047.545       -3374.967          43.000                                                                  
G24  18679289.887    98160325.622       -2834.216          50.000    18679291.760    76488567.672       -2208.508          47.000  
G25  19971060.763   104948634.951        1814.620          46.000    19971063.462    81778165.675        1413.840          44.000  
G32  20544683.807   107963049.161         724.610          44.000    20544685.795    84127048.918         564.581          43.000  
G 2  22356164.585   117482456.354        1805.166          38.000                                                                  
G14  21896719.689   115068057.809        1772.099          40.000                                                                  
> 2019  5 23  8 51  2.9930000  0  9                     
G 6  21431274.488   112622110.153         959.767          43.000    21431277.973    87757501.990         747.824          39.000  
G12  17851711.967    93811375.038        -381.125          50.000    17851709.914    73099762.050        -297.080          46.000  
G17  22116132.749   116221073.216       -4026.090          42.000    22116130.348                       -3136.794          29.000  
G19  20115074.408   105705423.498       -3376.523          43.000                                                                  
G24  18679829.296    98163160.570       -2835.693          50.000    18679831.258    76490776.728       -2209.698          47.000  
G25  19970715.682   104946821.167        1813.121          46.000    19970718.418    81776752.333        1412.755          44.000  
G32  20544545.983   107962325.436         722.797          44.000    20544548.107    84126484.979         563.090          42.000  
G 2  22355821.348   117480652.003        1803.926          38.000                                                                  
G14  21896382.633   115066286.463        1770.449          40.000                                                                  
> 2019  5 23  8 51  3.9930000  0  9                     
G 6  21431091.933   112621150.646         958.928          43.000    21431095.273    87756754.318         747.241          39.000  
G12  17851784.491    93811756.477        -382.066          50.000    17851782.543    73100059.261        -297.563          46.000  
G17  22116898.952   116225099.400       -4026.735          42.000    22116896.712                       -3138.027          29.000  
G19  20115717.130   105708800.573       -3377.710          43.000                                                                  
G24  18680368.988    98165996.605       -2836.658          50.000    18680370.801    76492986.625       -2210.419          47.000  
G25  19970370.782   104945008.274        1812.412          47.000    19970373.389    81775339.693        1412.082          44.000  
G32  20544408.508   107961602.879         721.938          44.000    20544410.504    84125921.944         562.500          42.000  
G 2  22355478.214   117478848.441        1803.002          38.000                                                                  
G14  21896045.733   115064516.087        1769.648          40.000                                                                  
> 2019  5 23  8 51  4.9930000  0  9                     
G 6  21430909.550   112620192.305         957.626          43.000    21430912.986    87756007.536         746.645          39.000  
G12  17851857.338    93812139.087        -383.290          50.000    17851855.284    73100357.400        -298.484          46.000  
G17  22117665.236   116229126.496       -4027.859          42.000    22117663.133                       -3138.667          29.000  
G19  20116359.982   105712178.885       -3379.029          43.000                                                                  
G24  18680908.976    98168833.772       -2837.781          50.000    18680910.850    76495197.403       -2211.261          47.000  
G25  19970025.897   104943196.363        1811.502          47.000    19970028.514    81773927.804        1411.524          44.000  
G32  20544271.206   107960881.586         720.723          44.000    20544273.222    84125359.897         561.672          42.000  
G 2  22355135.177   117477045.687        1802.009          37.000                                                                  
G14  21895709.092   115062746.734        1768.729          40.000                                                                  
> 2019  5 23  8 51  5.9930000  0  9                     
G 6  21430727.454   112619235.271         956.444          43.000    21430730.821    87755261.818         745.443          39.000  
G12  17851930.449    93812523.012        -384.537          50.000    17851928.342    73100656.565        -299.618          46.000  
G17  22118431.865   116233154.641       -4028.328          42.000    22118429.647                       -3139.533          29.000  
G19  20117003.062   105715558.531       -3380.298          43.000                                                                  
G24  18681449.045    98171672.182       -2838.910          50.000    18681450.830    76497409.147       -2212.115          47.000  
G25  19969681.366   104941385.572        1810.414          47.000    19969683.916    81772516.812        1410.489          44.000  
G32  20544134.179   107960161.668         719.313          44.000    20544136.302    84124798.929         560.531          42.000  
G 2  22354792.255   117475243.922        1801.071          37.000                                                                  
G14  21895372.700   115060978.583        1767.602          40.000                                                                  
> 2019  5 23  8 51  6.9930000  0  9                     
G 6  21430545.513   112618279.533         955.377          43.000    21430548.963    87754517.092         744.180          39.000  
G12  17852003.764    93812908.234        -385.460          50.000    17852001.596    73100956.746        -300.499          46.000  
G17  22119198.649   116237183.845       -4029.321          42.000    22119196.219                       -3139.540          29.000  
G19  20117646.417   105718939.541       -3381.773          43.000                                                                  
G24  18681989.460    98174511.864       -2839.966          50.000    18681991.212    76499621.893       -2213.092          47.000  
G25  19969336.928   104939575.904        1809.256          47.000    19969339.636    81771106.672        1409.694          44.000  
G32  20543997.444   107959443.137         718.256          44.000    20543999.535    84124239.035         559.732          42.000  
G 2  22354449.372   117473443.102        1800.790          37.000                                                                  
G14  21895036.441   115059211.574        1766.922          40.000                                                                  
> 2019  5 23  8 51  7.9930000  0  9                     
G 6  21430363.724   112617324.670         954.548          43.000    21430367.379    87753773.040         743.905          39.000  
G12  17852077.286    93813294.346        -386.549          50.000    17852075.176    73101257.610        -301.172          46.000  
G17  22119965.527   116241213.696       -4030.363          42.000    22119963.095                       -3139.775          29.000  
G19  20118289.900   105722321.460       -3382.210          43.000                                                                  
G24  18682530.040    98177352.390       -2840.863          50.000    18682531.698    76501835.288       -2213.708          47.000  
G25  19968992.601   104937766.906        1808.583          47.000    19968995.378    81769697.057        1409.343          44.000  
G32  20543860.883   107958725.587         717.199          44.000    20543862.895    84123679.901         558.932          42.000  
G 2  22354106.844   117471642.872        1799.987          38.000                                                                  
G14  21894700.414   115057445.366        1765.761          40.000                                                                  
> 2019  5 23  8 51  8.9930000  0  9                     
G 6  21430182.181   112616370.608         953.735          43.000    21430185.786    87753029.620         743.158          39.000  
G12  17852150.938    93813681.270        -387.237          50.000    17852148.802    73101559.104        -301.735          46.000  
G17  22120732.495   116245244.083       -4030.616          42.000    22120729.897                       -3140.722          29.000  
G19  20118933.659   105725704.231       -3382.861          43.000                                                                  
G24  18683070.800    98180193.654       -2841.486          50.000    18683072.445    76504049.255       -2214.191          47.000  
G25  19968648.419   104935958.501        1808.290          46.000    19968651.286    81768287.921        1408.878          44.000  
G32  20543724.634   107958008.931         716.387          44.000    20543726.549    84123121.469         558.116          42.000  
G 2  22353764.449   117469843.099        1799.740          38.000                                                                  
G14  21894364.406   115055679.799        1765.329          40.000                                                                  
> 2019  5 23  8 51  9.9930000  0  9                     
G 6  21430000.872   112615417.666         952.078          43.000    21430004.447    87752287.060         741.960          39.000  
G12  17852224.725    93814069.306        -388.820          50.000    17852222.622    73101861.479        -303.041          46.000  
G17  22121499.618   116249275.338       -4031.927          41.000    22121497.041                       -3142.067          29.000  
G19  20119577.658   105729088.186       -3384.768          43.000                                                                  
G24  18683611.637    98183036.002       -2843.127          50.000    18683613.358    76506264.077       -2215.399          47.000  
G25  19968304.477   104934151.039        1806.700          46.000    19968307.404    81766879.509        1407.881          44.000  
G32  20543588.433   107957293.460         714.721          44.000    20543590.518    84122563.950         556.958          42.000  
G 2  22353422.196   117468044.119        1798.547          38.000                                                                  
G14  21894028.547   115053915.232        1763.814          40.000                                                                  
> 2019  5 23  8 51 10.9930000  0  9                     
G 6  21429819.692   112614465.754         951.357          43.000    21429823.252    87751545.313         741.367          39.000  
G12  17852298.885    93814458.391        -389.574          50.000    17852296.712    73102164.651        -303.423          46.000  
G17  22122266.924   116253307.373       -4032.375          42.000    22122264.342                       -3141.896          29.000  
G19  20120221.864   105732473.229       -3385.674          43.000                                                                  
G24  18684152.693    98185879.347       -2843.835          50.000    18684154.489    76508479.670       -2215.912          47.000  
G25  19967960.729   104932344.416        1806.274          46.000    19967963.735    81765471.761        1407.323          44.000  
G32  20543452.458   107956579.119         713.630          44.000    20543454.581    84122007.329         556.081          43.000  
G 2  22353079.884   117466245.873        1797.584          38.000                                                                  
G14  21893692.863   115052151.571        1763.233          40.000                                                                  
> 2019  5 23  8 51 11.9930000  0  9                     
G 6  21429638.548   112613514.503         950.513          43.000    21429642.098    87750804.073         740.799          39.000  
G12  17852373.059    93814848.159        -390.487          50.000    17852370.920    73102468.376        -304.417          46.000  
G17  22123034.300   116257339.841       -4032.991          42.000    22123031.824                       -3142.148          29.000  
G19  20120866.177   105735858.996       -3386.601          43.000                                                                  
G24  18684693.792    98188723.328       -2844.739          50.000    18684695.776    76510695.762       -2216.809          47.000  
G25  19967616.964   104930538.275        1805.639          46.000    19967620.063    81764064.377        1407.065          44.000  
G32  20543316.754   107955865.533         712.734          45.000    20543318.820    84121451.285         555.424          43.000  
G 2  22352737.874   117464447.935        1797.030          38.000                                                                  
G14  21893357.304   115050388.474        1762.309          40.000                                                                  
> 2019  5 23  8 51 12.9930000  0  9                     
G 6  21429457.719   112612564.069         950.576          43.000    21429461.176    87750063.485         740.842          39.000  
G12  17852447.189    93815238.726        -390.489          49.000    17852445.246    73102772.712        -304.272          46.000  
G17  22123801.778   116261372.868       -4032.907          41.000    22123799.337                       -3143.248          29.000  
G19  20121510.608   105739245.587       -3386.333          43.000                                                                  
G24  18685235.125    98191568.040       -2844.580          50.000    18685237.062    76512912.422       -2216.632          47.000  
G25  19967273.382   104928732.744        1805.678          46.000    19967276.387    81762657.475        1407.056          44.000  
G32  20543181.175   107955152.835         712.653          45.000    20543183.204    84120895.938         555.377          43.000  
G 2  22352395.899   117462650.474        1798.026          38.000                                                                  
G14  21893021.886   115048626.037        1762.477          40.000                                                                  
> 2019  5 23  8 51 13.9930000  0  9                     
G 6  21429276.899   112611613.773         949.716          43.000    21429280.382    87749322.994         739.931          39.000  
G12  17852521.527    93815629.426        -391.228          49.000    17852519.661    73103077.162        -304.991          46.000  
G17  22124569.311   116265405.755       -4033.290          41.000    22124566.615                       -3144.253          29.000  
G19  20122155.082   105742632.378       -3387.262          43.000                                                                  
G24  18685776.473    98194412.834       -2845.221          50.000    18685778.444    76515129.148       -2217.188          47.000  
G25  19966929.777   104926927.162        1805.129          46.000    19966932.697    81761250.534        1406.566          44.000  
G32  20543045.742   107954440.346         712.053          45.000    20543047.628    84120340.751         554.678          43.000  
G 2  22352053.709   117460852.814        1797.220          38.000                                                                  
G14  21892686.511   115046863.608        1761.949          40.000                                                                  
> 2019  5 23  8 51 14.9930000  0  9                     
G 6  21429096.218   112610663.851         949.618          43.000    21429099.688    87748582.798         740.051          39.000  
G12  17852595.928    93816020.529        -391.340          49.000    17852594.053    73103381.908        -304.887          46.000  
G17  22125336.679   116269438.788       -4033.058          41.000    22125334.041                       -3142.422          29.000  
G19  20122799.660   105746019.604       -3387.344          43.000                                                                  
G24  18686317.900    98197258.002       -2845.337          50.000    18686319.730    76517346.156       -2217.230          47.000  
G25  19966586.177   104925121.766        1805.308          46.000    19966589.180    81759843.733        1406.658          44.000  
G32  20542910.383   107953728.329         711.820          45.000    20542912.201    84119785.929         554.648          43.000  
G 2  22351711.608   117459055.226        1797.535          38.000                                                                  
G14  21892351.191   115045101.457        1761.718          40.000                                                                  
> 2019  5 23  8 51 15.9930000  0  9                     
G 6  21428915.537   112609714.401         948.856          43.000    21428919.020    87747842.965         739.501          39.000  
G12  17852670.335    93816412.108        -392.076          49.000    17852668.567    73103687.033        -305.422          46.000  
G17  22126104.164   116273472.047       -4033.532          41.000    22126101.492                       -3143.076          29.000  
G19  20123444.368   105749407.356       -3388.019          43.000                                                                  
G24  18686859.302    98200103.623       -2846.124          50.000    18686861.274    76519563.521       -2217.767          47.000  
G25  19966242.661   104923316.667        1804.761          46.000    19966245.670    81758437.158        1406.281          44.000  
G32  20542774.980   107953016.881         710.843          45.000    20542776.793    84119231.545         554.095          43.000  
G 2  22351369.555   117457257.765        1796.902          38.000                                                                  
G14  21892015.813   115043339.640        1761.203          40.000                                                                  
> 2019  5 23  8 51 16.9930000  0  9                     
G 6  21428734.954   112608765.308         948.759          43.000    21428738.392    87747103.403         739.081          39.000  
G12  17852744.893    93816804.039        -392.118          49.000    17852743.159    73103992.445        -305.682          46.000  
G17  22126871.670   116277505.419       -4033.759          42.000    22126869.030                       -3143.011          29.000  
G19  20124089.181   105752795.509       -3388.473          43.000                                                                  
G24  18687400.921    98202949.537       -2846.021          50.000    18687402.879    76521781.113       -2217.639          47.000  
G25  19965899.058   104921511.720        1804.896          47.000    19965902.165    81757030.707        1406.357          44.000  
G32  20542639.577   107952305.849         710.843          45.000    20542641.485    84118677.506         553.832          43.000  
G 2  22351027.538   117455460.347        1797.383          38.000                                                                  
G14  21891680.625   115041578.051        1761.185          40.000                                                                  
> 2019  5 23  8 51 17.9930000  0  9                     
G 6  21428554.475   112607816.596         948.430          43.000    21428557.883    87746364.161         739.285          39.000  
G12  17852819.544    93817196.384        -392.527          49.000    17852817.772    73104298.163        -306.028          46.000  
G17  22127639.168   116281538.902       -4033.427          41.000    22127636.454                       -3142.986          29.000  
G19  20124734.030   105756184.127       -3389.167          43.000                                                                  
G24  18687942.653    98205795.825       -2846.545          50.000    18687944.527    76523998.999       -2218.091          47.000  
G25  19965555.616   104919706.979        1804.652          47.000    19965558.741    81755624.412        1406.168          44.000  
G32  20542504.352   107951595.320         710.278          45.000    20542506.430    84118123.839         553.644          43.000  
G 2  22350685.597   117453662.966        1797.122          38.000                                                                  
G14  21891345.470   115039816.725        1760.896          40.000                                                                  
> 2019  5 23  8 51 18.9930000  0  9                     
G 6  21428374.077   112606868.511         947.643          43.000    21428377.433    87745625.386         738.389          39.000  
G12  17852894.270    93817589.347        -393.311          49.000    17852892.547    73104604.364        -306.527          46.000  
G17  22128406.790   116285572.790       -4034.281          41.000    22128404.009                       -3143.412          29.000  
G19  20125378.975   105759573.377       -3389.916          43.000                                                                  
G24  18688484.421    98208642.669       -2847.210          50.000    18688486.267    76526217.320       -2218.720          47.000  
G25  19965212.212   104917902.671        1804.080          47.000    19965215.432    81754218.450        1405.727          44.000  
G32  20542369.330   107950885.500         709.060          45.000    20542371.296    84117570.728         552.812          43.000  
G 2  22350343.595   117451865.910        1796.654          38.000                                                                  
G14  21891010.357   115038055.904        1760.262          40.000                                                                  
> 2019  5 23  8 51 19.9930000  0  9                     
G 6  21428193.866   112605921.354         946.341          43.000    21428197.235    87744887.340         737.498          39.000  
G12  17852969.260    93817983.235        -394.700          49.000    17852967.564    73104911.292        -307.563          46.000  
G17  22129174.553   116289607.319       -4034.959          41.000    22129171.762    90615243.630       -3144.143          29.000  
G19  20126024.190   105762963.596       -3391.169          43.000                                                                  
G24  18689026.320    98211490.370       -2848.407          50.000    18689028.140    76528436.308       -2219.586          47.000  
G25  19964869.033   104916099.091        1802.924          47.000    19964872.213    81752813.060        1404.994          44.000  
G32  20542234.476   107950176.659         708.067          44.000    20542236.453    84117018.409         551.555          43.000  
G 2  22350001.864   117450069.412        1795.858          38.000                                                                  
G14  21890675.489   115036295.880        1758.979          40.000                                                                  
> 2019  5 23  8 51 20.9930000  0  9                     
G 6  21428013.798   112604975.140         945.928          43.000    21428017.188    87744150.032         737.293          40.000  
G12  17853044.414    93818378.075        -395.043          49.000    17853042.710    73105218.954        -307.794          46.000  
G17  22129942.379   116293642.538       -4035.236          41.000    22129939.677    90618387.963       -3144.376          29.000  
G19  20126669.489   105766354.822       -3391.720          43.000                                                                  
G24  18689568.436    98214338.975       -2848.828          50.000    18689570.289    76530655.999       -2219.855          47.000  
G25  19964525.866   104914296.263        1802.510          47.000    19964529.141    81751408.254        1404.727          44.000  
G32  20542099.763   107949468.873         707.397          44.000    20542101.787    84116466.878         551.255          43.000  
G 2  22349660.113   117448273.542        1795.795          38.000                                                                  
G14  21890340.712   115034536.644        1759.143          40.000                                                                  
> 2019  5 23  8 51 21.9930000  0  9                     
G 6  21427833.988   112604030.173         944.267          43.000    21427837.345    87743413.699         735.628          40.000  
G12  17853119.753    93818774.180        -396.876          50.000    17853118.107    73105527.605        -309.153          46.000  
G17  22130710.425   116297678.774       -4037.019          41.000    22130707.503                       -3145.276          29.000  
G19  20127314.988   105769747.315       -3392.986          43.000                                                                  
G24  18690110.691    98217188.814       -2850.482          50.000    18690112.602    76532876.652       -2221.191          47.000  
G25  19964182.984   104912494.506        1801.103          47.000    19964186.231    81750004.301        1403.341          44.000  
G32  20541965.271   107948762.402         705.857          44.000    20541967.316    84115916.387         549.880          43.000  
G 2  22349318.610   117446478.611        1794.681          38.000                                                                  
G14  21890006.160   115032778.568        1757.606          40.000                                                                  
> 2019  5 23  8 51 22.9930000  0  9                     
G 6  21427654.399   112603086.279         943.098          43.000    21427657.726    87742678.204         734.945          40.000  
G12  17853195.366    93819171.345        -397.668          50.000    17853193.664    73105837.100        -309.942          46.000  
G17  22131478.570   116301715.819       -4037.466          41.000    22131475.630                       -3145.877          29.000  
G19  20127960.741   105773140.963       -3393.869          43.000                                                                  
G24  18690653.142    98220039.699       -2851.361          50.000    18690655.109    76535098.121       -2221.820          47.000  
G25  19963840.257   104910693.624        1800.419          47.000    19963843.650    81748601.008        1403.046          44.000  
G32  20541831.094   107948057.101         704.918          44.000    20541833.093    84115366.809         549.160          43.000  
G 2  22348977.208   117444684.427        1793.275          38.000                                                                  
G14  21889671.790   115031021.426        1756.615          40.000                                                                  
> 2019  5 23  8 51 23.9930000  0  9                     
G 6  21427474.939   112602143.268         942.632          43.000    21427478.276    87741943.377         734.743          40.000  
G12  17853271.219    93819569.427        -398.534          50.000    17853269.340    73106147.284        -310.559          46.000  
G17  22132246.921   116305753.511       -4037.930          41.000    22132244.122                       -3146.209          29.000  
G19  20128606.776   105776535.527       -3395.259          43.000                                                                  
G24  18691195.783    98222891.443       -2852.173          50.000    18691197.762    76537320.264       -2222.589          47.000  
G25  19963497.660   104908893.434        1799.625          47.000    19963501.152    81747198.265        1402.369          44.000  
G32  20541697.084   107947352.793         703.967          44.000    20541699.091    84114817.983         548.402          43.000  
G 2  22348635.860   117442890.773        1793.871          38.000                                                                  
G14  21889337.663   115029265.047        1756.039          40.000                                                                  
> 2019  5 23  8 51 24.9930000  0  9                     
G 6  21427295.659   112601201.206         941.828          43.000    21427298.998    87741209.313         733.893          40.000  
G12  17853347.221    93819968.450        -399.274          50.000    17853345.258    73106458.204        -311.104          46.000  
G17  22133015.517   116309791.878       -4038.368          41.000    22133012.800                       -3146.783          29.000  
G19  20129253.003   105779931.068       -3395.358          43.000                                                                  
G24  18691738.525    98225744.076       -2852.844          50.000    18691740.514    76539543.086       -2222.974          47.000  
G25  19963155.324   104907093.984        1799.428          47.000    19963158.777    81745796.101        1402.129          44.000  
G32  20541563.229   107946649.484         703.020          45.000    20541565.310    84114269.950         547.871          43.000  
G 2  22348294.617   117441097.761        1793.469          38.000                                                                  
G14  21889003.577   115027509.468        1755.607          40.000                                                                  
> 2019  5 23  8 51 25.9930000  0  9                     
G 6  21427116.607   112600260.182         940.410          43.000    21427120.013    87740476.043         732.897          40.000  
G12  17853423.338    93820368.518        -400.624          50.000    17853421.471    73106769.950        -312.230          46.000  
G17  22133784.156   116313831.047       -4039.571          41.000    22133781.404                       -3148.425          29.000  
G19  20129899.331   105783327.761       -3397.640          43.000                                                                  
G24  18692281.461    98228597.707       -2854.218          50.000    18692283.554    76541766.697       -2224.066          47.000  
G25  19962813.091   104905295.422        1797.936          47.000    19962816.641    81744394.628        1400.852          45.000  
G32  20541429.648   107945947.325         701.504          44.000    20541431.819    84113722.817         546.544          43.000  
G 2  22347953.579   117439305.449        1792.203          38.000                                                                  
G14  21888669.669   115025754.848        1753.943          40.000                                                                  
> 2019  5 23  8 51 26.9930000  0  9                     
G 6  21426937.749   112599320.435         939.355          43.000    21426941.309    87739743.787         732.020          40.000  
G12  17853499.717    93820769.862        -401.857          50.000    17853497.861    73107082.692        -313.146          46.000  
G17  22134552.861   116317871.237       -4040.714          41.000    22134550.199                       -3148.321          29.000  
G19  20130546.021   105786725.717       -3398.637          43.000                                                                  
G24  18692824.749    98231452.584       -2855.389          50.000    18692826.824    76543991.270       -2224.896          47.000  
G25  19962470.960   104903497.916        1797.082          47.000    19962474.488    81742993.982        1400.293          45.000  
G32  20541296.223   107945246.524         699.874          44.000    20541298.452    84113176.732         545.578          43.000  
G 2  22347612.784   117437514.105        1791.207          38.000                                                                  
G14  21888336.034   115024001.334        1753.118          40.000                                                                  
> 2019  5 23  8 51 27.9930000  0  9                     
G 6  21426759.115   112598381.492         938.327          43.000    21426762.673    87739012.147         730.915          40.000  
G12  17853576.225    93821172.004        -402.776          50.000    17853574.469    73107396.048        -313.770          46.000  
G17  22135321.727   116321911.976       -4041.293          41.000    22135319.326                       -3148.855          29.000  
G19  20131192.820   105790124.523       -3399.257          44.000                                                                  
G24  18693368.161    98234308.186       -2856.140          50.000    18693370.294    76546216.422       -2225.586          47.000  
G25  19962129.013   104901701.022        1796.355          47.000    19962132.513    81741593.801        1399.804          44.000  
G32  20541163.008   107944546.565         699.489          44.000    20541165.310    84112631.316         545.062          43.000  
G 2  22347271.900   117435723.220        1789.984          38.000                                                                  
G14  21888002.419   115022248.506        1752.482          40.000                                                                  
> 2019  5 23  8 51 28.9930000  0  9                     
G 6  21426580.497   112597443.173         938.026          43.000    21426584.089    87738281.000         730.589          40.000  
G12  17853652.825    93821574.797        -403.236          50.000    17853651.143    73107709.920        -314.450          46.000  
G17  22136090.714   116325953.086       -4041.462          41.000    22136088.544                       -3149.357          29.000  
G19  20131839.608   105793524.017       -3400.037          43.000                                                                  
G24  18693911.726    98237164.392       -2856.641          50.000    18693913.768    76548442.035       -2226.031          47.000  
G25  19961787.222   104899904.567        1795.991          47.000    19961790.807    81740193.966        1399.457          44.000  
G32  20541029.845   107943847.369         698.568          44.000    20541032.210    84112086.495         544.290          43.000  
G 2  22346931.157   117433932.637        1790.144          38.000                                                                  
G14  21887668.990   115020496.194        1751.868          40.000                                                                  
> 2019  5 23  8 51 29.9930000  0  9                     
G 6  21426402.137   112596505.783         937.238          43.000    21426405.733    87737550.553         730.125          40.000  
G12  17853729.671    93821978.513        -403.963          50.000    17853728.082    73108024.503        -315.038          46.000  
G17  22136859.773   116329994.878       -4041.932          41.000    22136857.728                       -3149.133          29.000  
G19  20132486.737   105796924.486       -3400.847          43.000                                                                  
G24  18694455.501    98240021.454       -2857.330          50.000    18694457.487    76550668.320       -2226.501          47.000  
G25  19961445.512   104898108.859        1795.381          47.000    19961449.014    81738794.704        1398.933          44.000  
G32  20540896.890   107943149.176         697.764          44.000    20540899.312    84111542.433         543.798          43.000  
G 2  22346590.532   117432142.620        1789.858          38.000                                                                  
G14  21887335.672   115018744.665        1751.542          40.000                                                                  
> 2019  5 23  8 51 30.9930000  0  9                     
G 6  21426223.846   112595568.721         937.193          43.000    21426227.502    87736820.367         730.382          40.000  
G12  17853806.628    93822382.561        -403.779          50.000    17853804.974    73108339.337        -314.511          46.000  
G17  22137629.045   116334036.720       -4041.127          41.000    22137626.799                       -3149.477          29.000  
G19  20133133.934   105800325.302       -3400.717          43.000                                                                  
G24  18694999.151    98242878.787       -2856.982          50.000    18695001.142    76552894.817       -2226.221          47.000  
G25  19961103.888   104896313.252        1796.013          46.000    19961107.334    81737395.549        1399.235          44.000  
G32  20540764.180   107942451.367         698.214          44.000    20540766.530    84110998.705         543.967          43.000  
G 2  22346249.877   117430352.656        1789.943          38.000                                                                  
G14  21887002.386   115016993.337        1751.980          40.000                                                                  
> 2019  5 23  8 51 31.9930000  0  9                     
G 6  21426045.550   112594631.734         937.031          43.000    21426049.240    87736090.257         730.065          40.000  
G12  17853883.512    93822786.688        -404.029          50.000    17853881.866    73108654.259        -315.097          46.000  
G17  22138398.156   116338078.439       -4041.926          41.000    22138395.983                       -3149.333          29.000  
G19  20133781.135   105803726.256       -3401.204          43.000                                                                  
G24  18695542.833    98245736.204       -2857.507          50.000    18695545.004    76555121.364       -2226.447          47.000  
G25  19960762.109   104894517.554        1795.817          46.000    19960765.628    81735996.301        1399.192          44.000  
G32  20540631.439   107941753.761         697.631          44.000    20540633.851    84110455.127         543.221          43.000  
G 2  22345909.171   117428562.398        1790.663          38.000                                                                  
G14  21886669.190   115015241.991        1751.250          40.000                                                                  
> 2019  5 23  8 51 32.9930000  0  9                     
G 6  21425867.269   112593695.214         936.346          43.000    21425870.998    87735360.499         729.569          40.000  
G12  17853960.426    93823191.298        -404.844          50.000    17853958.806    73108969.527        -315.463          46.000  
G17  22139167.383   116342120.332       -4042.207          41.000    22139165.186                       -3149.080          29.000  
G19  20134428.334   105807127.720       -3402.001          43.000                                                                  
G24  18696086.648    98248594.031       -2858.130          50.000    18696088.862    76557348.249       -2227.057          47.000  
G25  19960420.444   104892722.131        1795.288          46.000    19960423.945    81734597.276        1398.848          44.000  
G32  20540498.779   107941056.692         696.846          44.000    20540501.291    84109911.943         542.914          43.000  
G 2  22345568.551   117426772.293        1789.934          38.000                                                                  
G14  21886335.998   115013490.968        1750.902          40.000                                                                  
> 2019  5 23  8 51 33.9930000  0  9                     
G 6  21425689.044   112592759.102         935.901          43.000    21425692.949    87734631.068         729.161          40.000  
G12  17854037.468    93823596.309        -405.352          50.000    17854035.895    73109285.125        -315.961          46.000  
G17  22139936.543   116346162.367       -4042.144          41.000    22139934.439                       -3149.649          28.000  
G19  20135075.638   105810529.634       -3402.374          44.000                                                                  
G24  18696630.612    98251452.220       -2858.563          50.000    18696632.701    76559575.412       -2227.460          47.000  
G25  19960078.791   104890926.920        1795.017          47.000    19960082.400    81733198.403        1398.812          44.000  
G32  20540366.200   107940360.112         696.086          44.000    20540368.756    84109369.147         542.544          43.000  
G 2  22345227.807   117424982.312        1788.850          38.000                                                                  
G14  21886002.799   115011740.226        1750.352          40.000                                                                  
> 2019  5 23  8 51 34.9930000  0  9                     
G 6  21425511.093   112591823.774         934.973          43.000    21425515.018    87733902.233         728.378          40.000  
G12  17854114.674    93824002.113        -406.180          50.000    17854113.142    73109601.335        -316.592          46.000  
G17  22140705.841   116350204.959       -4042.930          41.000    22140703.531                       -3150.099          29.000  
G19  20135723.061   105813932.375       -3403.432          44.000                                                                  
G24  18697174.657    98254311.144       -2859.259          50.000    18697176.772    76561803.148       -2228.015          46.000  
G25  19959737.292   104889132.309        1794.313          47.000    19959740.913    81731800.005        1398.179          44.000  
G32  20540233.846   107939664.410         695.143          44.000    20540236.419    84108827.039         541.841          43.000  
G 2  22344887.123   117423192.770        1788.240          38.000                                                                  
G14  21885669.737   115009990.137        1749.851          40.000                                                                  
> 2019  5 23  8 51 35.9930000  0  9                     
G 6  21425333.224   112590889.345         933.610          43.000    21425337.193    87733174.120         727.205          40.000  
G12  17854192.097    93824408.829        -407.573          50.000    17854190.536    73109918.248        -317.624          46.000  
G17  22141475.267   116354248.196       -4044.047          41.000    22141472.645                       -3150.559          29.000  
G19  20136370.794   105817336.060       -3404.606          44.000                                                                  
G24  18697718.800    98257170.951       -2860.608          50.000    18697720.938    76564031.561       -2228.912          47.000  
G25  19959395.991   104887338.415        1793.194          47.000    19959399.457    81730402.162        1397.210          45.000  
G32  20540101.690   107938969.690         693.768          44.000    20540104.120    84108285.698         540.678          43.000  
G 2  22344546.676   117421403.726        1788.253          38.000                                                                  
G14  21885336.779   115008240.831        1748.567          40.000                                                                  
> 2019  5 23  8 51 36.9930000  0  9                     
G 6  21425155.719   112589956.006         932.769          43.000    21425159.672    87732446.842         726.602          40.000  
G12  17854269.765    93824816.626        -408.352          50.000    17854268.212    73110236.008        -318.192          46.000  
G17  22142244.786   116358292.255       -4044.604          41.000    22142242.276    90668764.310       -3151.476          29.000  
G19  20137018.634   105820740.875       -3405.490          44.000                                                                  
G24  18698263.213    98260031.805       -2861.432          50.000    18698265.264    76566260.801       -2229.663          47.000  
G25  19959054.730   104885545.410        1792.515          47.000    19959058.095    81729005.005        1396.871          45.000  
G32  20539969.735   107938276.144         692.863          44.000    20539972.204    84107745.272         539.925          43.000  
G 2  22344206.439   117419615.483        1788.031          38.000                                                                  
G14  21885004.139   115006492.489        1747.887          40.000                                                                  
> 2019  5 23  8 51 37.9930000  0  9                     
G 6  21424978.309   112589023.640         931.887          43.000    21424982.281    87731720.311         726.324          40.000  
G12  17854347.575    93825225.411        -409.181          50.000    17854346.012    73110554.546        -318.847          46.000  
G17  22143014.562   116362337.037       -4045.115          41.000    22143011.836                       -3151.949          29.000  
G19  20137666.691   105824146.728       -3406.497          43.000                                                                  
G24  18698807.825    98262893.584       -2862.134          50.000    18698809.888    76568490.763       -2230.255          47.000  
G25  19958713.770   104883753.185        1791.959          47.000    19958717.098    81727608.479        1396.365          45.000  
G32  20539837.976   107937583.661         692.086          44.000    20539840.571    84107205.679         539.243          43.000  
G 2  22343866.373   117417827.939        1786.512          39.000                                                                  
G14  21884671.650   115004745.008        1747.168          41.000                                                                  
> 2019  5 23  8 51 38.9930000  0  9                     
G 6  21424801.082   112588091.834         931.597          43.000    21424805.045    87730994.237         725.915          40.000  
G12  17854425.458    93825634.767        -409.678          50.000    17854423.895    73110873.520        -319.175          46.000  
G17  22143784.349   116366382.138       -4045.288          41.000    22143781.643                       -3152.279          29.000  
G19  20138314.938   105827553.177       -3406.815          43.000                                                                  
G24  18699352.500    98265755.908       -2862.653          49.000    18699354.572    76570721.145       -2230.670          47.000  
G25  19958372.843   104881961.334        1791.736          47.000    19958376.037    81726212.240        1396.077          45.000  
G32  20539706.367   107936891.830         691.466          44.000    20539708.961    84106666.585         538.853          43.000  
G 2  22343526.383   117416040.607        1786.194          39.000                                                                  
G14  21884339.085   115002997.961        1746.863          40.000                                                                  
> 2019  5 23  8 51 39.9930000  0  9                     
G 6  21424623.816   112587160.493         931.507          43.000    21424627.836    87730268.518         725.720          40.000  
G12  17854503.466    93826044.565        -409.653          50.000    17854501.921    73111192.852        -319.324          46.000  
G17  22144554.233   116370427.426       -4045.070          41.000    22144551.372                       -3151.991          29.000  
G19  20138963.122   105830960.124       -3406.870          43.000                                                                  
G24  18699897.174    98268618.622       -2862.518          49.000    18699899.432    76572951.833       -2230.658          47.000  
G25  19958031.914   104880169.746        1791.946          47.000    19958035.199    81724816.196        1396.233          45.000  
G32  20539574.718   107936200.524         691.368          44.000    20539577.423    84106127.899         538.943          43.000  
G 2  22343186.355   117414253.357        1787.526          39.000                                                                  
G14  21884006.721   115001251.235        1746.881          41.000                                                                  
> 2019  5 23  8 51 40.9930000  0  9                     
G 6  21424446.660   112586229.043         931.273          43.000    21424450.653    87729542.704         725.780          40.000  
G12  17854581.372    93826454.257        -409.521          50.000    17854579.895    73111512.097        -319.286          46.000  
G17  22145323.927   116374472.347       -4044.932          41.000    22145321.034                       -3151.826          29.000  
G19  20139611.503   105834367.008       -3407.125          43.000                                                                  
G24  18700441.948    98271481.165       -2862.524          49.000    18700444.205    76575182.383       -2230.579          47.000  
G25  19957690.959   104878377.862        1791.881          47.000    19957694.160    81723419.925        1396.218          44.000  
G32  20539443.115   107935509.191         691.354          44.000    20539445.830    84105589.216         538.612          43.000  
G 2  22342846.220   117412465.668        1788.517          39.000                                                                  
G14  21883674.256   114999504.291        1746.741          40.000                                                                  
> 2019  5 23  8 51 41.9930000  0  9                     
G 6  21424269.597   112585298.091         930.380          43.000    21424273.578    87728817.293         724.942          40.000  
G12  17854659.493    93826864.466        -410.495          50.000    17854657.912    73111831.739        -320.013          46.000  
G17  22146093.768   116378517.515       -4045.409          41.000    22146090.787                       -3152.425          29.000  
G19  20140259.968   105837774.432       -3407.887          43.000                                                                  
G24  18700986.835    98274344.188       -2863.336          49.000    18700989.065    76577413.311       -2231.207          47.000  
G25  19957350.027   104876586.279        1791.290          47.000    19957353.261    81722023.883        1395.734          44.000  
G32  20539311.708   107934818.452         690.406          44.000    20539314.435    84105050.977         537.967          43.000  
G 2  22342506.015   117410678.220        1787.043          39.000                                                                  
G14  21883341.757   114997757.679        1746.545          40.000                                                                  
> 2019  5 23  8 51 42.9930000  0  9                     
G 6  21424092.535   112584368.079         929.589          43.000    21424096.617    87728092.599         724.530          40.000  
G12  17854737.729    93827275.637        -411.512          50.000    17854736.157    73112152.123        -320.649          46.000  
G17  22146863.680   116382563.398       -4046.260          41.000    22146860.524                       -3153.099          28.000  
G19  20140908.564   105841182.856       -3409.116          43.000                                                                  
G24  18701531.677    98277208.132       -2864.386          49.000    18701534.060    76579644.954       -2232.062          47.000  
G25  19957009.252   104874795.477        1790.273          47.000    19957012.481    81720628.442        1395.126          44.000  
G32  20539180.470   107934128.776         689.065          44.000    20539183.170    84104513.563         536.943          43.000  
G 2  22342165.951   117408891.310        1787.358          39.000                                                                  
G14  21883009.509   114996011.944        1745.227          40.000                                                                  
> 2019  5 23  8 51 43.9930000  0  9                     
G 6  21423915.762   112583438.663         929.415          43.000    21423919.819    87727368.407         724.118          40.000  
G12  17854816.086    93827687.407        -412.036          50.000    17854814.525    73112472.977        -320.994          46.000  
G17  22147633.735   116386609.596       -4046.189          41.000    22147630.419                       -3153.191          28.000  
G19  20141557.290   105844591.921       -3409.263          43.000                                                                  
G24  18702076.729    98280072.617       -2864.636          49.000    18702079.178    76581877.016       -2232.196          47.000  
G25  19956668.572   104873005.061        1790.324          47.000    19956671.773    81719233.326        1394.948          44.000  
G32  20539049.343   107933439.757         688.656          44.000    20539052.041    84103976.672         536.471          43.000  
G 2  22341825.950   117407104.764        1786.500          38.000                                                                  
G14  21882677.384   114994266.654        1745.233          41.000                                                                  
> 2019  5 23  8 51 44.9930000  0  9                     
G 6  21423739.058   112582509.911         928.179          43.000    21423743.023    87726644.687         723.328          40.000  
G12  17854894.537    93828099.808        -412.865          50.000    17854893.089    73112794.326        -321.624          46.000  
G17  22148403.707   116390656.179       -4046.868          41.000    22148400.419                       -3153.669          28.000  
G19  20142206.065   105848001.654       -3410.287          43.000                                                                  
G24  18702621.940    98282937.688       -2865.484          49.000    18702624.379    76584109.532       -2232.678          47.000  
G25  19956327.964   104871215.097        1789.576          47.000    19956331.246    81717838.546        1394.314          44.000  
G32  20538918.413   107932751.470         687.512          44.000    20538921.059    84103440.336         535.806          43.000  
G 2  22341486.028   117405318.495        1785.492          38.000                                                                  
G14  21882345.416   114992521.879        1744.275          41.000                                                                  
> 2019  5 23  8 51 45.9930000  0  9                     
G 6  21423562.449   112581581.961         927.404          43.000    21423566.470    87725921.619         722.619          40.000  
G12  17854973.147    93828513.030        -413.692          50.000    17854971.760    73113116.327        -322.454          46.000  
G17  22149173.899   116394703.358       -4047.755          41.000    22149170.573                       -3154.179          28.000  
G19  20142855.158   105851412.284       -3411.252          44.000                                                                  
G24  18703167.290    98285803.554       -2866.370          50.000    18703169.784    76586342.676       -2233.557          47.000  
G25  19955987.446   104869425.755        1789.028          47.000    19955990.736    81716444.257        1393.902          44.000  
G32  20538787.635   107932064.081         686.716          44.000    20538790.204    84102904.706         535.348          43.000  
G 2  22341146.171   117403532.684        1785.846          38.000                                                                  
G14  21882013.603   114990777.809        1743.701          41.000                                                                  
> 2019  5 23  8 51 46.9930000  0  9                     
G 6  21423386.106   112580654.875         926.579          43.000    21423389.996    87725199.212         722.101          40.000  
G12  17855051.962    93828927.125        -414.493          50.000    17855050.669    73113438.996        -322.939          46.000  
G17  22149944.142   116398751.114       -4048.032          41.000    22149940.859                       -3154.480          29.000  
G19  20143504.331   105854823.797       -3411.993          43.000                                                                  
G24  18703712.770    98288670.236       -2867.108          50.000    18703715.242    76588576.455       -2234.003          47.000  
G25  19955647.042   104867637.078        1788.546          47.000    19955650.326    81715050.487        1393.638          44.000  
G32  20538657.034   107931377.629         686.139          45.000    20538659.514    84102369.810         534.698          43.000  
G 2  22340806.415   117401747.461        1784.943          38.000                                                                  
G14  21881681.844   114989034.477        1742.920          40.000                                                                  
> 2019  5 23  8 51 47.9930000  0  9                     
G 6  21423209.747   112579728.430         926.206          43.000    21423213.761    87724477.312         721.450          40.000  
G12  17855130.896    93829341.866        -414.923          50.000    17855129.543    73113762.174        -323.312          46.000  
G17  22150714.347   116402799.267       -4048.267          41.000    22150711.121                       -3154.382          28.000  
G19  20144153.706   105858235.998       -3412.505          43.000                                                                  
G24  18704258.434    98291537.542       -2867.566          50.000    18704260.799    76590810.724       -2234.522          47.000  
G25  19955306.675   104865848.878        1787.978          47.000    19955310.096    81713657.075        1393.277          44.000  
G32  20538526.521   107930691.926         685.345          45.000    20538529.119    84101835.497         534.099          43.000  
G 2  22340466.803   117399962.497        1784.875          38.000                                                                  
G14  21881350.173   114987291.657        1742.633          40.000                                                                  
> 2019  5 23  8 51 48.9930000  0  9                     
G 6  21423033.615   112578802.486         925.887          43.000    21423037.571    87723755.793         721.336          40.000  
G12  17855209.942    93829757.113        -415.298          50.000    17855208.625    73114085.737        -323.529          46.000  
G17  22151484.651   116406847.653       -4048.131          41.000    22151481.537                       -3154.757          29.000  
G19  20144803.160   105861648.740       -3412.786          43.000                                                                  
G24  18704804.149    98294405.277       -2867.816          50.000    18704806.545    76593045.323       -2234.735          47.000  
G25  19954966.508   104864060.977        1787.841          47.000    19954969.803    81712263.909        1393.129          44.000  
G32  20538396.085   107930006.803         685.060          45.000    20538398.733    84101301.647         533.641          43.000  
G 2  22340127.174   117398177.705        1785.488          38.000                                                                  
G14  21881018.730   114985549.215        1742.371          40.000                                                                  
> 2019  5 23  8 51 49.9930000  0  9                     
G 6  21422857.480   112577876.944         925.357          43.000    21422861.296    87723034.591         721.116          40.000  
G12  17855289.102    93830172.757        -415.696          50.000    17855287.815    73114409.616        -323.893          46.000  
G17  22152254.969   116410896.190       -4048.162          41.000    22152251.940                       -3154.600          29.000  
G19  20145452.533   105865061.910       -3412.913          43.000                                                                  
G24  18705349.897    98297273.384       -2868.085          50.000    18705352.332    76595280.204       -2234.845          47.000  
G25  19954626.314   104862273.264        1787.912          47.000    19954629.622    81710870.901        1392.935          44.000  
G32  20538265.924   107929322.158         684.537          45.000    20538268.372    84100768.136         533.738          43.000  
G 2  22339787.618   117396393.062        1784.487          38.000                                                                  
G14  21880687.246   114983807.043        1742.279          40.000                                                                  
> 2019  5 23  8 51 50.9930000  0  9                     
G 6  21422681.463   112576951.844         924.553          43.000    21422685.259    87722313.738         720.433          40.000  
G12  17855368.268    93830588.854        -416.556          50.000    17855367.001    73114733.842        -324.526          46.000  
G17  22153025.457   116414944.916       -4049.255          41.000    22153022.452                       -3155.445          29.000  
G19  20146102.121   105868475.591       -3414.677          43.000                                                                  
G24  18705895.762    98300141.917       -2869.031          50.000    18705898.245    76597515.426       -2235.669          47.000  
G25  19954286.261   104860485.824        1787.068          47.000    19954289.424    81709478.065        1392.567          44.000  
G32  20538135.690   107928638.055         683.460          45.000    20538138.219    84100235.080         532.585          43.000  
G 2  22339448.007   117394608.482        1783.772          38.000                                                                  
G14  21880355.831   114982065.200        1741.400          40.000                                                                  
> 2019  5 23  8 51 51.9930000  0  9                     
G 6  21422505.563   112576027.367         924.210          43.000    21422509.303    87721593.364         720.232          40.000  
G12  17855447.418    93831005.561        -416.879          50.000    17855446.249    73115058.559        -324.883          46.000  
G17  22153796.054   116418993.999       -4049.274          41.000    22153793.059    90716064.378       -3155.118          29.000  
G19  20146751.927   105871889.916       -3414.417          43.000                                                                  
G24  18706441.718    98303011.009       -2869.305          50.000    18706444.327    76599751.090       -2235.925          47.000  
G25  19953946.195   104858698.800        1786.861          47.000    19953949.300    81708085.590        1392.250          44.000  
G32  20538005.587   107927954.641         683.171          45.000    20538008.172    84099702.547         532.572          43.000  
G 2  22339108.551   117392824.182        1784.785          38.000                                                                  
G14  21880024.443   114980323.848        1741.016          40.000                                                                  
> 2019  5 23  8 51 52.9930000  0  9                     
G 6  21422329.760   112575103.527         923.068          43.000    21422333.505    87720873.484         719.469          40.000  
G12  17855526.873    93831422.925        -418.111          50.000    17855525.588    73115383.774        -325.770          46.000  
G17  22154566.577   116423043.461       -4049.988          41.000    22154563.710                       -3155.842          28.000  
G19  20147401.911   105875304.912       -3415.914          43.000                                                                  
G24  18706987.814    98305880.674       -2870.288          50.000    18706990.435    76601987.194       -2236.591          47.000  
G25  19953606.244   104856912.220        1786.105          47.000    19953609.358    81706693.440        1391.833          44.000  
G32  20537875.743   107927271.954         681.995          45.000    20537878.287    84099170.597         531.252          43.000  
G 2  22338769.139   117391040.217        1783.257          38.000                                                                  
G14  21879693.178   114978582.996        1740.143          40.000                                                                  
> 2019  5 23  8 51 53.9930000  0  9                     
G 6  21422154.117   112574180.542         922.365          43.000    21422157.852    87720154.294         718.585          40.000  
G12  17855606.525    93831841.144        -418.950          50.000    17855605.130    73115709.657        -326.347          46.000  
G17  22155337.238   116427093.537       -4050.657          41.000    22155334.378                       -3155.639          28.000  
G19  20148051.990   105878720.821       -3416.448          43.000                                                                  
G24  18707534.030    98308751.147       -2871.002          50.000    18707536.787    76604223.927       -2237.116          47.000  
G25  19953266.400   104855126.313        1785.485          47.000    19953269.509    81705301.838        1391.188          44.000  
G32  20537746.034   107926590.221         681.130          45.000    20537748.577    84098639.365         530.923          43.000  
G 2  22338429.790   117389256.765        1783.472          38.000                                                                  
G14  21879362.034   114976842.876        1739.728          40.000                                                                  
> 2019  5 23  8 51 54.9930000  0  9                     
G 6  21421978.513   112573258.077         921.919          43.000    21421982.359    87719435.483         718.497          40.000  
G12  17855686.251    93832259.870        -419.207          50.000    17855684.743    73116035.939        -326.657          46.000  
G17  22156108.050   116431143.850       -4050.448          41.000    22156105.125                       -3156.001          29.000  
G19  20148702.048   105882137.296       -3417.209          43.000                                                                  
G24  18708080.428    98311622.087       -2871.454          49.000    18708083.028    76606461.024       -2237.604          47.000  
G25  19952926.615   104853340.732        1785.296          47.000    19952929.751    81703910.464        1391.239          44.000  
G32  20537616.374   107925909.085         680.525          45.000    20537619.009    84098108.619         530.335          43.000  
G 2  22338090.504   117387473.510        1783.110          38.000                                                                  
G14  21879031.009   114975103.161        1739.319          40.000                                                                  
> 2019  5 23  8 51 55.9930000  0  9                     
G 6  21421803.095   112572336.304         921.140          43.000    21421807.001    87718717.222         717.628          40.000  
G12  17855766.137    93832679.287        -420.126          50.000    17855764.552    73116362.764        -327.426          46.000  
G17  22156878.853   116435194.617       -4051.233          41.000    22156875.894                       -3157.042          29.000  
G19  20149352.336   105885554.486       -3417.954          43.000                                                                  
G24  18708626.859    98314493.658       -2872.162          50.000    18708629.461    76608698.608       -2238.147          47.000  
G25  19952586.897   104851555.653        1784.359          47.000    19952590.085    81702519.498        1390.617          44.000  
G32  20537486.974   107925228.715         679.618          45.000    20537489.528    84097578.467         529.567          43.000  
G 2  22337751.213   117385690.654        1782.587          38.000                                                                  
G14  21878700.061   114973364.011        1738.550          40.000                                                                  
> 2019  5 23  8 51 56.9930000  0  9                     
G 6  21421627.856   112571415.549         920.163          43.000    21421631.696    87717999.737         717.204          40.000  
G12  17855846.163    93833099.735        -421.041          50.000    17855844.608    73116690.378        -327.981          46.000  
G17  22157649.833   116439246.144       -4052.007          41.000    22157646.972    90731845.284       -3157.620          29.000  
G19  20150002.704   105888972.745       -3418.636          44.000                                                                  
G24  18709173.495    98317366.226       -2873.187          50.000    18709176.004    76610936.962       -2238.721          47.000  
G25  19952247.428   104849771.381        1784.043          47.000    19952250.604    81701129.166        1390.006          44.000  
G32  20537357.717   107924549.455         678.696          45.000    20537360.221    84097049.170         528.882          43.000  
G 2  22337412.033   117383908.481        1780.868          38.000                                                                  
G14  21878369.262   114971625.752        1737.494          41.000                                                                  
> 2019  5 23  8 51 57.9930000  0  9                     
G 6  21421452.856   112570495.952         919.042          43.000    21421456.683    87717283.172         716.007          40.000  
G12  17855926.360    93833521.338        -422.052          50.000    17855924.816    73117018.900        -328.928          47.000  
G17  22158420.973   116443298.583       -4053.121          41.000    22158418.127                       -3158.219          28.000  
G19  20150653.397   105892392.202       -3420.079          43.000                                                                  
G24  18709720.430    98320239.909       -2874.170          50.000    18709722.895    76613176.192       -2239.667          47.000  
G25  19951908.074   104847988.093        1782.857          47.000    19951911.270    81699739.577        1389.212          44.000  
G32  20537228.756   107923871.450         677.414          45.000    20537231.238    84096520.841         527.893          43.000  
G 2  22337073.073   117382127.077        1781.306          38.000                                                                  
G14  21878038.759   114969888.513        1736.884          41.000                                                                  
> 2019  5 23  8 51 58.9930000  0  9                     
G 6  21421278.175   112569577.517         917.506          43.000    21421281.776    87716567.509         715.172          40.000  
G12  17856006.780    93833944.114        -423.391          50.000    17856005.196    73117348.345        -330.054          47.000  
G17  22159192.283   116447351.916       -4054.197          41.000    22159189.422                       -3158.881          28.000  
G19  20151304.351   105895812.860       -3421.529          43.000                                                                  
G24  18710267.498    98323114.708       -2875.537          50.000    18710269.883    76615416.298       -2240.637          47.000  
G25  19951568.858   104846205.771        1781.727          47.000    19951572.113    81698350.767        1388.289          44.000  
G32  20537099.964   107923194.694         675.749          45.000    20537102.445    84095993.512         526.384          43.000  
G 2  22336734.206   117380346.595        1779.237          39.000                                                                  
G14  21877708.343   114968152.318        1735.223          41.000                                                                  
> 2019  5 23  8 51 59.9930000  0  9                     
G 6  21421103.539   112568660.154         916.721          43.000    21421107.300    87715852.678         714.490          40.000  
G12  17856087.472    93834367.972        -424.477          50.000    17856085.874    73117678.618        -330.826          47.000  
G17  22159963.633   116451406.075       -4055.087          41.000    22159960.797                       -3159.111          29.000  
G19  20151955.568   105899234.624       -3422.329          43.000                                                                  
G24  18710814.740    98325990.532       -2876.532          50.000    18710817.096    76617657.200       -2241.449          47.000  
G25  19951229.910   104844424.336        1780.784          47.000    19951233.167    81696962.629        1387.663          44.000  
G32  20536971.411   107922519.066         674.887          45.000    20536973.962    84095467.042         525.942          43.000  
G 2  22336395.488   117378566.795        1779.246          39.000                                                                  
G14  21877378.195   114966417.075        1734.625          41.000                                                                  
> 2019  5 23  8 52  0.9930000  0  9                     
G 6  21420929.099   112567743.849         915.538          43.000    21420932.973    87715138.684         713.401          40.000  
G12  17856168.347    93834792.890        -425.594          50.000    17856166.728    73118009.721        -331.563          47.000  
G17  22160735.241   116455461.010       -4055.330          41.000    22160732.500                       -3160.114          29.000  
G19  20152606.904   105902657.486       -3423.570          43.000                                                                  
G24  18711362.199    98328867.383       -2877.521          50.000    18711364.673    76619898.901       -2242.249          47.000  
G25  19950891.150   104842643.754        1779.853          47.000    19950894.316    81695575.167        1387.034          44.000  
G32  20536843.051   107921844.600         673.605          45.000    20536845.705    84094941.478         525.146          43.000  
G 2  22336056.971   117376787.738        1778.293          39.000                                                                  
G14  21877048.248   114964682.750        1733.771          41.000                                                                  
> 2019  5 23  8 52  1.9930000  0  9                     
G 6  21420755.019   112566828.848         914.434          43.000    21420758.834    87714425.692         712.597          40.000  
G12  17856249.416    93835219.106        -426.785          50.000    17856247.884    73118341.846        -332.590          46.000  
G17  22161507.055   116459517.034       -4056.622          41.000    22161504.087    90747640.743       -3160.858          29.000  
G19  20153258.566   105906081.710       -3424.915          43.000                                                                  
G24  18711909.868    98331745.491       -2878.705          50.000    18711912.369    76622141.582       -2243.103          47.000  
G25  19950552.572   104840864.302        1778.797          47.000    19950555.705    81694188.579        1386.138          44.000  
G32  20536714.966   107921171.524         672.292          45.000    20536717.658    84094417.009         524.049          43.000  
G 2  22335718.636   117375009.684        1777.630          39.000                                                                  
G14  21876718.528   114962949.619        1732.697          41.000                                                                  
> 2019  5 23  8 52  2.9930000  0  9                     
G 6  21420581.144   112565914.866         913.695          43.000    21420584.900    87713713.508         711.999          40.000  
G12  17856330.677    93835646.345        -427.524          50.000    17856329.226    73118674.762        -333.258          46.000  
G17  22162279.113   116463573.768       -4056.744          41.000    22162275.841                       -3161.051          28.000  
G19  20153910.380   105909506.953       -3425.357          43.000                                                                  
G24  18712457.614    98334624.542       -2879.352          50.000    18712460.228    76624385.000       -2243.726          46.000  
G25  19950214.193   104839085.648        1778.418          47.000    19950217.196    81692802.613        1385.881          44.000  
G32  20536587.159   107920499.544         671.523          45.000    20536589.834    84093893.382         523.493          43.000  
G 2  22335380.395   117373232.283        1777.454          41.000                                                                  
G14  21876388.916   114961217.362        1731.970          41.000                                                                  
> 2019  5 23  8 52  3.9930000  0  9                     
G 6  21420407.333   112565001.771         912.504          43.000    21420411.132    87713001.997         711.057          40.000  
G12  17856412.139    93836074.480        -428.666          49.000    17856410.704    73119008.362        -333.899          46.000  
G17  22163051.226   116467631.169       -4057.836          41.000    22163047.784    90753963.434       -3161.791          28.000  
G19  20154562.414   105912933.167       -3426.810          43.000                                                                  
G24  18713005.619    98337504.436       -2880.365          50.000    18713008.251    76626629.074       -2244.427          46.000  
G25  19949875.921   104837307.700        1777.472          47.000    19949878.858    81691417.202        1385.020          44.000  
G32  20536459.468   107919828.529         670.575          45.000    20536462.161    84093370.527         522.540          44.000  
G 2  22335042.256   117371455.478        1776.586          40.000                                                                  
G14  21876059.366   114959485.901        1731.110          41.000                                                                  
> 2019  5 23  8 52  4.9930000  0  9                     
G 6  21420233.705   112564089.582         911.556          43.000    21420237.545    87712291.204         710.294          40.000  
G12  17856493.837    93836503.520        -429.729          50.000    17856492.338    73119342.685        -334.861          46.000  
G17  22163823.321   116471689.175       -4058.207          41.000    22163819.828    90757125.516       -3161.980          28.000  
G19  20155214.550   105916360.288       -3427.598          43.000                                                                  
G24  18713553.832    98340385.203       -2881.348          50.000    18713556.338    76628873.831       -2245.209          46.000  
G25  19949537.705   104835530.471        1776.720          47.000    19949540.741    81690032.350        1384.277          44.000  
G32  20536332.076   107919158.510         669.543          45.000    20536334.738    84092848.440         521.680          44.000  
G 2  22334704.277   117369679.222        1775.717          40.000                                                                  
G14  21875729.969   114957755.186        1730.334          41.000                                                                  
> 2019  5 23  8 52  5.9930000  0  9                     
G 6  21420060.243   112563178.191         910.703          43.000    21420064.107    87711581.035         709.525          40.000  
G12  17856575.545    93836933.366        -430.730          50.000    17856574.091    73119677.629        -335.584          46.000  
G17  22164595.665   116475747.783       -4059.521          41.000    22164592.131                       -3163.049          28.000  
G19  20155866.936   105919788.284       -3428.738          43.000                                                                  
G24  18714102.190    98343266.750       -2882.373          50.000    18714104.561    76631119.189       -2246.027          46.000  
G25  19949199.694   104833753.844        1775.860          47.000    19949202.621    81688647.967        1383.674          44.000  
G32  20536204.663   107918489.399         668.115          45.000    20536207.372    84092327.053         520.594          43.000  
G 2  22334366.399   117367903.476        1775.535          39.000                                                                  
G14  21875400.737   114956025.183        1728.894          41.000                                                                  
> 2019  5 23  8 52  6.9930000  0  9                     
G 6  21419887.002   112562267.869         909.763          43.000    21419890.725    87710871.690         708.984          40.000  
G12  17856657.585    93837364.269        -431.278          50.000    17856656.153    73120013.388        -335.976          47.000  
G17  22165368.076   116479807.149       -4059.771          41.000    22165364.504                       -3163.035          28.000  
G19  20156519.456   105923217.373       -3429.767          43.000                                                                  
G24  18714650.693    98346149.284       -2882.922          50.000    18714653.122    76633365.318       -2246.466          46.000  
G25  19948861.851   104831978.079        1775.402          47.000    19948864.702    81687264.250        1383.580          44.000  
G32  20536077.606   107917821.405         667.535          45.000    20536080.229    84091806.551         519.890          44.000  
G 2  22334028.708   117366128.462        1774.843          39.000                                                                  
G14  21875071.700   114954296.069        1729.034          41.000                                                                  
> 2019  5 23  8 52  7.9930000  0  9                     
G 6  21419714.007   112561358.472         909.070          43.000    21419717.749    87710163.060         708.460          40.000  
G12  17856739.710    93837796.101        -432.111          50.000    17856738.300    73120349.890        -336.657          46.000  
G17  22166140.714   116483867.190       -4060.133          41.000    22166136.839                       -3164.048          28.000  
G19  20157172.160   105926647.422       -3430.357          43.000                                                                  
G24  18715199.398    98349032.708       -2883.600          50.000    18715201.940    76635612.141       -2246.924          46.000  
G25  19948524.093   104830203.062        1774.870          47.000    19948526.860    81685881.125        1383.117          44.000  
G32  20535950.670   107917154.434         666.624          45.000    20535953.335    84091286.823         519.471          44.000  
G 2  22333691.034   117364354.021        1774.576          39.000                                                                  
G14  21874742.817   114952567.801        1728.143          41.000                                                                  
> 2019  5 23  8 52  8.9930000  0  9                     
G 6  21419541.099   112560449.804         907.870          43.000    21419544.799    87709455.011         707.641          40.000  
G12  17856822.108    93838228.667        -433.230          49.000    17856820.725    73120686.956        -337.700          47.000  
G17  22166913.457   116487927.707       -4061.012          41.000    22166909.522                       -3164.199          28.000  
G19  20157824.925   105930078.245       -3431.429          43.000                                                                  
G24  18715748.214    98351916.824       -2884.668          50.000    18715750.674    76637859.514       -2247.968          46.000  
G25  19948186.420   104828428.570        1773.946          47.000    19948189.158    81684498.417        1382.079          44.000  
G32  20535823.912   107916488.283         665.482          45.000    20535826.604    84090767.759         518.314          44.000  
G 2  22333353.441   117362579.989        1773.710          39.000                                                                  
G14  21874413.997   114950840.127        1727.228          41.000                                                                  
> 2019  5 23  8 52  9.9930000  0  9                     
G 6  21419368.397   112559542.137         906.892          43.000    21419372.196    87708747.738         706.801          40.000  
G12  17856904.680    93838662.229        -434.001          49.000    17856903.205    73121024.794        -338.137          47.000  
G17  22167686.334   116491988.963       -4061.758          41.000    22167682.270                       -3165.200          28.000  
G19  20158478.021   105933510.108       -3432.253          43.000                                                                  
G24  18716297.245    98354801.904       -2885.614          50.000    18716299.716    76640107.620       -2248.486          46.000  
G25  19947848.875   104826654.896        1773.317          47.000    19947851.703    81683116.319        1381.935          44.000  
G32  20535697.394   107915823.212         664.556          45.000    20535700.108    84090249.514         517.577          44.000  
G 2  22333015.991   117360806.634        1772.709          38.000                                                                  
G14  21874085.452   114949113.321        1726.514          41.000                                                                  
> 2019  5 23  8 52 10.9930000  0  9                     
G 6  21419195.850   112558635.285         906.433          43.000    21419199.578    87708041.106         706.415          40.000  
G12  17856987.427    93839096.624        -434.898          49.000    17856985.911    73121363.286        -338.877          47.000  
G17  22168459.233   116496050.766       -4061.906          41.000    22168455.033                       -3165.623          28.000  
G19  20159131.241   105936942.835       -3433.099          43.000                                                                  
G24  18716846.425    98357687.754       -2886.267          50.000    18716848.958    76642356.336       -2248.981          46.000  
G25  19947511.489   104824881.858        1772.629          47.000    19947514.324    81681734.738        1381.259          44.000  
G32  20535570.903   107915159.053         663.548          45.000    20535573.702    84089731.978         517.266          44.000  
G 2  22332678.672   117359033.768        1772.831          38.000                                                                  
G14  21873757.070   114947387.238        1725.513          41.000                                                                  
> 2019  5 23  8 52 11.9930000  0  9                     
G 6  21419023.403   112557729.278         905.559          43.000    21419027.220    87707335.129         705.774          40.000  
G12  17857070.228    93839531.852        -435.692          50.000    17857068.742    73121702.419        -339.412          47.000  
G17  22169232.319   116500113.189       -4062.772          40.000    22169228.103                       -3166.200          28.000  
G19  20159784.732   105940376.433       -3434.068          43.000                                                                  
G24  18717395.700    98360574.393       -2887.097          50.000    18717398.253    76644605.667       -2249.817          46.000  
G25  19947174.314   104823109.455        1772.013          47.000    19947177.015    81680353.639        1381.030          44.000  
G32  20535444.708   107914495.812         662.723          45.000    20535447.466    84089215.175         516.358          44.000  
G 2  22332341.473   117357261.431        1771.924          38.000                                                                  
G14  21873428.691   114945661.834        1725.189          41.000                                                                  
> 2019  5 23  8 52 12.9930000  0  9                     
G 6  21418851.094   112556823.990         904.642          43.000    21418854.977    87706629.712         704.997          40.000  
G12  17857153.196    93839967.797        -436.519          50.000    17857151.715    73122042.117        -340.156          47.000  
G17  22170005.436   116504176.033       -4063.161          40.000    22170001.250                       -3166.531          28.000  
G19  20160438.336   105943810.792       -3434.988          43.000                                                                  
G24  18717945.190    98363461.701       -2887.836          50.000    18717947.763    76646855.508       -2250.214          47.000  
G25  19946837.148   104821337.575        1771.434          47.000    19946839.804    81678972.964        1380.280          44.000  
G32  20535318.663   107913833.371         661.886          45.000    20535321.286    84088698.987         515.860          44.000  
G 2  22332004.352   117355489.477        1771.268          38.000                                                                  
G14  21873100.436   114943937.041        1724.182          41.000                                                                  
> 2019  5 23  8 52 13.9930000  0  9                     
G 6  21418678.970   112555919.434         904.297          43.000    21418682.785    87705924.879         704.330          40.000  
G12  17857236.336    93840404.484        -437.037          50.000    17857234.848    73122382.396        -340.592          47.000  
G17  22170778.745   116508239.380       -4063.730          40.000    22170774.489                       -3166.399          29.000  
G19  20161091.992   105947245.909       -3435.312          43.000                                                                  
G24  18718494.743    98366349.696       -2888.214          50.000    18718497.348    76649105.893       -2250.531          47.000  
G25  19946500.158   104819566.244        1771.320          48.000    19946502.690    81677592.703        1380.232          44.000  
G32  20535192.848   107913171.769         661.031          45.000    20535195.400    84088183.447         515.225          44.000  
G 2  22331667.220   117353717.945        1770.848          38.000                                                                  
G14  21872772.371   114942212.844        1724.036          41.000                                                                  
> 2019  5 23  8 52 14.9930000  0  9                     
G 6  21418507.017   112555015.571         903.497          43.000    21418510.731    87705220.558         703.849          40.000  
G12  17857319.551    93840841.857        -437.889          50.000    17857318.065    73122723.200        -341.234          47.000  
G17  22171552.012   116512303.142       -4064.208          40.000    22171547.955                       -3166.984          29.000  
G19  20161745.760   105950681.775       -3436.306          43.000                                                                  
G24  18719044.472    98369238.313       -2888.971          50.000    18719047.097    76651356.762       -2251.215          47.000  
G25  19946163.164   104817795.410        1770.375          48.000    19946165.717    81676212.823        1379.533          44.000  
G32  20535067.067   107912510.917         660.331          45.000    20535069.669    84087668.502         514.562          44.000  
G 2  22331330.232   117351946.769        1770.187          38.000                                                                  
G14  21872444.309   114940489.218        1723.096          41.000                                                                  
> 2019  5 23  8 52 15.9930000  0  9                     
G 6  21418335.104   112554112.442         902.518          43.000    21418338.763    87704516.813         703.708          40.000  
G12  17857402.921    93841279.953        -438.567          50.000    17857401.432    73123064.576        -341.688          47.000  
G17  22172325.402   116516367.383       -4064.681          40.000    22172321.250                       -3167.366          29.000  
G19  20162399.728   105954118.394       -3437.196          43.000                                                                  
G24  18719594.256    98372127.599       -2889.728          50.000    18719596.778    76653608.156       -2251.813          47.000  
G25  19945826.230   104816025.119        1769.793          48.000    19945828.760    81674833.350        1379.447          44.000  
G32  20534941.385   107911850.892         659.362          45.000    20534944.202    84087154.200         513.810          44.000  
G 2  22330993.295   117350175.963        1770.748          39.000                                                                  
G14  21872116.392   114938766.180        1722.974          41.000                                                                  
> 2019  5 23  8 52 16.9930000  0  9                     
G 6  21418163.499   112553210.417         901.758          43.000    21418167.245    87703813.934         702.815          40.000  
G12  17857486.494    93841719.171        -439.413          49.000    17857485.081    73123406.822        -342.367          47.000  
G17  22173098.932   116520432.496       -4065.230          41.000    22173094.842                       -3168.308          28.000  
G19  20163053.881   105957556.155       -3437.891          43.000                                                                  
G24  18720144.305    98375017.958       -2890.509          50.000    18720146.783    76655860.381       -2252.240          47.000  
G25  19945489.512   104814255.713        1769.482          48.000    19945492.022    81673454.624        1378.679          44.000  
G32  20534816.038   107911192.053         658.597          45.000    20534818.774    84086640.824         513.025          44.000  
G 2  22330656.586   117348406.012        1769.841          39.000                                                                  
G14  21871788.618   114937044.160        1721.783          41.000                                                                  
> 2019  5 23  8 52 17.9930000  0  9                     
G 6  21417992.095   112552309.494         900.407          43.000    21417995.760    87703111.925         701.739          40.000  
G12  17857570.157    93842159.482        -440.661          49.000    17857568.863    73123749.929        -343.403          47.000  
G17  22173872.596   116524498.432       -4066.291          41.000    22173868.380                       -3168.235          28.000  
G19  20163708.292   105960995.075       -3439.497          43.000                                                                  
G24  18720694.561    98377909.381       -2891.846          50.000    18720696.981    76658113.444       -2253.363          47.000  
G25  19945152.956   104812487.250        1768.292          48.000    19945155.509    81672076.592        1377.969          44.000  
G32  20534690.970   107910534.408         657.161          45.000    20534693.719    84086128.372         512.071          44.000  
G 2  22330319.931   117346636.719        1769.601          39.000                                                                  
G14  21871461.124   114935323.088        1720.715          41.000                                                                  
> 2019  5 23  8 52 18.9930000  0  9                     
G 6  21417820.702   112551409.255         899.810          43.000    21417824.532    87702410.453         700.937          40.000  
G12  17857654.032    93842600.481        -441.499          49.000    17857652.783    73124093.566        -343.985          47.000  
G17  22174646.399   116528564.792       -4066.726          40.000    22174642.141                       -3168.289          28.000  
G19  20164362.837   105964434.684       -3440.014          43.000                                                                  
G24  18721244.937    98380801.461       -2892.621          50.000    18721247.361    76660367.006       -2253.857          47.000  
G25  19944816.494   104810719.278        1767.642          48.000    19944818.961    81670698.953        1377.346          44.000  
G32  20534565.976   107909877.535         656.309          45.000    20534568.766    84085616.526         511.250          43.000  
G 2  22329983.356   117344867.849        1768.687          39.000                                                                  
G14  21871133.719   114933602.586        1720.215          41.000                                                                  
> 2019  5 23  8 52 19.9930000  0  9                     
G 6  21417649.509   112550509.822         898.949          43.000    21417653.347    87701709.599         700.309          40.000  
G12  17857738.186    93843042.295        -442.445          49.000    17857736.904    73124437.837        -344.807          47.000  
G17  22175420.378   116532631.706       -4067.375          40.000    22175416.093                       -3169.455          28.000  
G19  20165017.550   105967875.165       -3441.132          43.000                                                                  
G24  18721795.467    98383694.309       -2893.372          50.000    18721797.859    76662621.177       -2254.669          46.000  
G25  19944480.295   104808951.912        1766.948          48.000    19944482.705    81669321.795        1376.714          44.000  
G32  20534441.199   107909221.557         655.250          45.000    20534443.905    84085105.362         510.699          43.000  
G 2  22329646.892   117343099.500        1767.975          39.000                                                                  
G14  21870806.594   114931882.762        1719.574          41.000                                                                  
> 2019  5 23  8 52 20.9930000  0  9                     
G 6  21417478.549   112549611.236         898.228          43.000    21417482.350    87701009.381         700.035          40.000  
G12  17857822.457    93843484.927        -442.963          50.000    17857821.066    73124782.739        -345.102          47.000  
G17  22176194.410   116536699.185       -4067.636          40.000    22176189.997                       -3169.687          28.000  
G19  20165672.464   105971316.500       -3441.567          43.000                                                                  
G24  18722346.131    98386587.932       -2893.884          50.000    18722348.567    76664875.943       -2255.066          47.000  
G25  19944143.988   104807185.187        1766.259          47.000    19944146.422    81667945.108        1376.489          44.000  
G32  20534316.483   107908566.478         654.491          45.000    20534319.088    84084594.913         510.164          43.000  
G 2  22329310.452   117341331.600        1767.971          38.000                                                                  
G14  21870479.533   114930163.667        1718.713          41.000                                                                  
> 2019  5 23  8 52 21.9930000  0  9                     
G 6  21417307.646   112548713.311         897.346          43.000    21417311.466    87700309.708         699.351          40.000  
G12  17857906.874    93843928.243        -443.967          50.000    17857905.481    73125128.174        -345.828          47.000  
G17  22176968.385   116540767.066       -4068.151          40.000    22176964.033                       -3169.991          28.000  
G19  20166327.473   105974758.547       -3442.641          43.000                                                                  
G24  18722896.943    98389482.182       -2894.910          50.000    18722899.299    76667131.197       -2255.609          47.000  
G25  19943807.825   104805418.918        1765.894          47.000    19943810.355    81666568.812        1375.967          44.000  
G32  20534192.048   107907912.163         653.719          45.000    20534194.576    84084085.054         509.390          43.000  
G 2  22328974.127   117339564.078        1766.864          38.000                                                                  
G14  21870152.375   114928445.117        1717.712          41.000                                                                  
> 2019  5 23  8 52 22.9930000  0  9                     
G 6  21417136.949   112547815.964         897.193          43.000    21417140.774    87699610.481         699.115          40.000  
G12  17857991.360    93844372.121        -443.885          50.000    17857989.975    73125474.070        -346.109          47.000  
G17  22177742.569   116544835.255       -4068.081          41.000    22177738.085                       -3169.946          28.000  
G19  20166982.561   105978201.213       -3442.729          44.000                                                                  
G24  18723447.832    98392376.954       -2894.824          50.000    18723450.149    76669386.869       -2255.811          47.000  
G25  19943471.721   104803653.044        1765.929          48.000    19943474.266    81665192.809        1375.962          44.000  
G32  20534067.547   107907258.505         653.646          45.000    20534070.239    84083575.712         509.255          44.000  
G 2  22328637.800   117337796.816        1766.926          39.000                                                                  
G14  21869825.288   114926727.006        1717.859          41.000                                                                  
> 2019  5 23  8 52 23.9930000  0  9                     
G 6  21416966.294   112546918.986         896.696          43.000    21416970.028    87698911.530         698.735          40.000  
G12  17858075.900    93844816.380        -444.426          49.000    17858074.484    73125820.237        -346.387          47.000  
G17  22178516.826   116548903.552       -4068.281          41.000    22178512.178                       -3170.581          28.000  
G19  20167637.718   105981644.278       -3443.291          44.000                                                                  
G24  18723998.787    98395272.050       -2895.233          50.000    18724001.115    76671642.792       -2256.128          47.000  
G25  19943135.765   104801887.351        1765.729          48.000    19943138.332    81663816.948        1375.791          44.000  
G32  20533943.111   107906605.311         653.014          45.000    20533945.900    84083066.739         508.479          43.000  
G 2  22328301.485   117336029.545        1766.998          39.000                                                                  
G14  21869498.346   114925009.132        1717.694          41.000                                                                  
> 2019  5 23  8 52 24.9930000  0  9                     
G 6  21416795.824   112546022.867         896.028          43.000    21416799.567    87698213.258         698.145          40.000  
G12  17858160.579    93845261.508        -445.165          49.000    17858159.115    73126167.080        -346.878          47.000  
G17  22179291.094   116552972.473       -4069.019          41.000    22179286.474                       -3170.506          28.000  
G19  20168293.098   105985088.239       -3444.401          43.000                                                                  
G24  18724549.947    98398167.973       -2895.978          50.000    18724552.008    76673899.349       -2256.598          47.000  
G25  19942799.932   104800122.331        1765.095          48.000    19942802.311    81662441.592        1375.446          44.000  
G32  20533819.069   107905953.068         652.106          45.000    20533821.739    84082558.490         508.227          43.000  
G 2  22327965.286   117334262.828        1766.330          39.000                                                                  
G14  21869171.627   114923292.010        1716.931          41.000                                                                  
> 2019  5 23  8 52 25.9930000  0  9                     
G 6  21416625.443   112545127.147         895.421          43.000    21416629.132    87697515.312         697.409          40.000  
G12  17858245.408    93845707.013        -445.761          49.000    17858243.849    73126514.232        -347.215          47.000  
G17  22180065.256   116557041.497       -4069.255          41.000    22180060.724                       -3170.444          28.000  
G19  20168948.648   105988532.619       -3444.647          43.000                                                                  
G24  18725101.002    98401064.233       -2896.448          50.000    18725103.284    76676156.181       -2256.989          47.000  
G25  19942464.127   104798357.507        1764.617          48.000    19942466.490    81661066.399        1375.116          44.000  
G32  20533695.085   107905301.280         651.615          45.000    20533697.616    84082050.612         507.716          43.000  
G 2  22327629.130   117332496.189        1766.067          39.000                                                                  
G14  21868844.909   114921575.139        1716.760          41.000                                                                  
> 2019  5 23  8 52 26.9930000  0  9                     
G 6  21416455.096   112544231.723         894.876          43.000    21416458.746    87696817.554         697.348          40.000  
G12  17858330.224    93846152.829        -446.359          49.000    17858328.643    73126861.625        -347.822          47.000  
G17  22180839.480   116561110.553       -4069.479          41.000    22180834.873                       -3170.829          28.000  
G19  20169604.172   105991977.337       -3445.404          43.000                                                                  
G24  18725652.184    98403960.761       -2897.058          50.000    18725654.564    76678413.206       -2257.349          47.000  
G25  19942128.347   104796592.781        1764.199          48.000    19942130.767    81659691.297        1374.806          44.000  
G32  20533571.231   107904649.897         650.893          45.000    20533573.727    84081543.032         507.106          43.000  
G 2  22327292.965   117330729.532        1766.195          40.000                                                                  
G14  21868518.305   114919858.464        1716.034          41.000                                                                  
> 2019  5 23  8 52 27.9930000  0  9                     
G 6  21416284.931   112543336.980         894.415          43.000    21416288.516    87696120.347         697.027          40.000  
G12  17858415.131    93846599.322        -446.997          50.000    17858413.569    73127209.535        -348.202          47.000  
G17  22181613.918   116565180.012       -4069.688          41.000    22181609.363                       -3171.183          28.000  
G19  20170259.760   105995422.777       -3446.006          43.000                                                                  
G24  18726203.463    98406857.918       -2897.540          50.000    18726205.835    76680670.738       -2257.983          47.000  
G25  19941792.673   104794828.552        1763.841          48.000    19941795.064    81658316.564        1374.575          44.000  
G32  20533447.495   107903999.271         650.014          45.000    20533449.887    84081036.047         506.593          43.000  
G 2  22326956.846   117328963.163        1766.475          39.000                                                                  
G14  21868191.717   114918142.317        1715.698          41.000                                                                  
> 2019  5 23  8 52 28.9930000  0  9                     
G 6  21416114.805   112542443.049         893.469          43.000    21416118.355    87695423.782         696.412          40.000  
G12  17858500.240    93847046.627        -447.723          50.000    17858498.783    73127558.097        -349.053          47.000  
G17  22182388.420   116569250.063       -4070.525          41.000    22182383.845                       -3171.721          28.000  
G19  20170915.647   105998869.056       -3446.619          43.000                                                                  
G24  18726754.901    98409755.861       -2898.413          50.000    18726757.330    76682928.872       -2258.429          47.000  
G25  19941457.082   104793064.935        1763.226          48.000    19941459.536    81656942.336        1373.848          44.000  
G32  20533323.900   107903349.538         649.208          45.000    20533326.236    84080529.770         505.894          43.000  
G 2  22326620.837   117327197.365        1765.216          39.000                                                                  
G14  21867865.251   114916426.881        1714.941          41.000                                                                  
> 2019  5 23  8 52 29.9930000  0  9                     
G 6  21415944.753   112541549.841         892.955          43.000    21415948.425    87694727.786         695.879          40.000  
G12  17858585.425    93847494.653        -448.045          49.000    17858584.048    73127907.202        -349.149          47.000  
G17  22183163.032   116573320.543       -4070.597          41.000    22183158.545                       -3172.032          28.000  
G19  20171571.604   106002316.090       -3447.031          43.000                                                                  
G24  18727306.499    98412654.453       -2898.627          50.000    18727308.880    76685187.520       -2258.698          47.000  
G25  19941121.677   104791301.836        1763.260          48.000    19941124.064    81655568.501        1373.680          44.000  
G32  20533200.541   107902700.609         648.727          45.000    20533202.840    84080024.124         505.218          43.000  
G 2  22326284.795   117325431.896        1765.463          39.000                                                                  
G14  21867538.947   114914712.034        1714.703          41.000                                                                  
> 2019  5 23  8 52 30.9930000  0  9                     
G 6  21415774.951   112540657.251         891.720          43.000    21415778.560    87694032.254         695.123          41.000  
G12  17858670.926    93847943.302        -449.456          49.000    17858669.451    73128256.799        -350.128          47.000  
G17  22183937.770   116577391.376       -4071.359          40.000    22183933.168                       -3172.995          28.000  
G19  20172227.685   106005763.790       -3448.302          43.000                                                                  
G24  18727858.113    98415553.606       -2899.798          50.000    18727860.569    76687446.596       -2259.613          47.000  
G25  19940786.279   104789539.176        1762.024          48.000    19940788.622    81654194.988        1373.064          44.000  
G32  20533077.236   107902052.382         647.533          45.000    20533079.359    84079518.998         504.486          43.000  
G 2  22325948.885   117323666.726        1764.213          39.000                                                                  
G14  21867212.757   114912997.685        1713.580          41.000                                                                  
> 2019  5 23  8 52 31.9930000  0  9                     
G 6  21415605.331   112539765.734         891.003          43.000    21415608.962    87693337.603         693.998          41.000  
G12  17858756.517    93848393.025        -450.162          49.000    17858755.065    73128607.230        -350.731          47.000  
G17  22184712.481   116581463.043       -4072.004          41.000    22184707.762                       -3173.164          28.000  
G19  20172884.049   106009212.599       -3449.367          43.000                                                                  
G24  18728410.144    98418453.781       -2900.616          50.000    18728412.467    76689706.467       -2260.144          46.000  
G25  19940451.146   104787777.393        1761.558          48.000    19940453.237    81652822.171        1372.699          44.000  
G32  20532954.086   107901405.329         646.632          45.000    20532956.154    84079014.800         503.867          44.000  
G 2  22325613.065   117321902.322        1764.703          40.000                                                                  
G14  21866886.826   114911284.258        1713.239          41.000                                                                  
> 2019  5 23  8 52 32.9930000  0  9                     
G 6  21415435.870   112538875.227         889.403          43.000    21415439.473    87692643.666         693.239          41.000  
G12  17858842.255    93848843.750        -451.628          49.000    17858840.783    73128958.452        -352.008          47.000  
G17  22185487.437   116585535.423       -4073.267          41.000    22185482.489                       -3173.610          28.000  
G19  20173540.477   106012662.453       -3450.860          43.000                                                                  
G24  18728962.222    98421354.926       -2902.026          50.000    18728964.664    76691967.107       -2261.457          47.000  
G25  19940115.993   104786016.421        1760.151          48.000    19940118.068    81651450.000        1371.259          44.000  
G32  20532831.229   107900759.350         644.881          45.000    20532833.300    84078511.448         502.478          44.000  
G 2  22325277.378   117320138.639        1762.548          40.000                                                                  
G14  21866560.962   114909571.726        1711.890          41.000                                                                  
> 2019  5 23  8 52 33.9930000  0  9                     
G 6  21415266.521   112537985.607         889.029          43.000    21415270.216    87691950.478         692.554          40.000  
G12  17858928.236    93849295.372        -452.208          49.000    17858926.693    73129310.368        -352.421          47.000  
G17  22186262.595   116589608.459       -4073.570          41.000    22186257.591                       -3173.753          28.000  
G19  20174197.175   106016113.219       -3451.278          43.000                                                                  
G24  18729514.375    98424256.892       -2902.521          50.000    18729516.873    76694228.379       -2261.682          46.000  
G25  19939780.991   104784256.143        1759.834          48.000    19939783.066    81650078.334        1371.257          43.000  
G32  20532708.451   107900114.350         644.379          45.000    20532710.515    84078008.855         502.007          44.000  
G 2  22324941.736   117318375.456        1762.441          39.000                                                                  
G14  21866235.237   114907859.969        1711.236          41.000                                                                  
> 2019  5 23  8 52 34.9930000  0  9                     
G 6  21415097.388   112537096.931         888.220          43.000    21415101.123    87691258.000         691.985          40.000  
G12  17859014.232    93849747.932        -453.010          49.000    17859012.807    73129663.013        -353.119          47.000  
G17  22187037.823   116593682.167       -4074.491          41.000    22187032.689                       -3174.942          28.000  
G19  20174854.046   106019564.970       -3452.176          43.000                                                                  
G24  18730066.802    98427159.750       -2903.229          50.000    18730069.217    76696490.347       -2262.335          46.000  
G25  19939446.110   104782496.622        1759.124          48.000    19939448.079    81648707.277        1370.506          43.000  
G32  20532585.826   107899470.376         643.499          45.000    20532587.979    84077507.048         501.452          44.000  
G 2  22324606.410   117316612.938        1761.282          40.000                                                                  
G14  21865909.731   114906149.032        1710.406          41.000                                                                  
> 2019  5 23  8 52 35.9930000  0  9                     
G 6  21414928.508   112536209.164         887.197          43.000    21414932.182    87690566.220         691.465          40.000  
G12  17859100.429    93850201.402        -453.957          49.000    17859099.105    73130016.367        -353.841          47.000  
G17  22187813.148   116597756.498       -4075.060          40.000    22187808.069                       -3174.880          28.000  
G19  20175511.109   106023017.661       -3453.281          43.000                                                                  
G24  18730619.362    98430063.454       -2904.242          50.000    18730621.753    76698752.967       -2262.970          46.000  
G25  19939111.411   104780737.808        1758.334          48.000    19939113.384    81647336.760        1370.190          43.000  
G32  20532463.590   107898827.386         642.500          45.000    20532465.682    84077006.022         500.710          44.000  
G 2  22324271.083   117314850.955        1761.105          39.000                                                                  
G14  21865584.317   114904438.856        1709.668          41.000                                                                  
> 2019  5 23  8 52 36.9930000  0  9                     
G 6  21414759.644   112535322.570         885.844          43.000    21414763.456    87689875.384         690.120          40.000  
G12  17859187.027    93850656.053        -455.463          49.000    17859185.621    73130370.633        -354.918          47.000  
G17  22188588.649   116601831.741       -4075.818          41.000    22188583.646                       -3176.295          28.000  
G19  20176168.435   106026471.564       -3454.783          43.000                                                                  
G24  18731172.104    98432968.278       -2905.603          50.000    18731174.590    76701016.469       -2264.069          46.000  
G25  19938776.861   104778979.988        1756.961          48.000    19938778.942    81645967.040        1369.078          44.000  
G32  20532341.426   107898185.690         640.770          45.000    20532343.611    84076505.997         499.308          44.000  
G 2  22323935.919   117313089.790        1761.348          39.000                                                                  
G14  21865259.087   114902729.756        1708.099          41.000                                                                  
> 2019  5 23  8 52 37.9930000  0  9                     
G 6  21414591.147   112534436.972         885.137          43.000    21414594.913    87689185.306         689.493          40.000  
G12  17859273.634    93851111.685        -456.114          49.000    17859272.276    73130725.669        -355.393          46.000  
G17  22189364.236   116605907.718       -4076.388          41.000    22189359.301                       -3176.210          28.000  
G19  20176825.875   106029926.491       -3455.632          43.000                                                                  
G24  18731725.058    98435874.041       -2906.299          50.000    18731727.439    76703280.702       -2264.740          46.000  
G25  19938442.519   104777222.964        1756.316          48.000    19938444.582    81644597.929        1368.698          44.000  
G32  20532219.606   107897545.046         639.928          45.000    20532221.735    84076006.797         498.798          44.000  
G 2  22323600.997   117311329.362        1760.380          39.000                                                                  
G14  21864934.105   114901021.500        1707.709          41.000                                                                  
> 2019  5 23  8 52 38.9930000  0  9                     
G 6  21414422.854   112533552.396         883.906          43.000    21414426.608    87688496.013         688.815          40.000  
G12  17859360.454    93851568.331        -457.163          49.000    17859359.243    73131081.501        -356.208          46.000  
G17  22190140.053   116609984.439       -4076.952          41.000    22190135.134                       -3176.918          28.000  
G19  20177483.499   106033382.452       -3456.376          43.000                                                                  
G24  18732278.249    98438780.762       -2907.153          50.000    18732280.498    76705545.677       -2265.369          46.000  
G25  19938108.328   104775466.738        1755.756          48.000    19938110.438    81643229.444        1368.247          44.000  
G32  20532097.897   107896905.504         639.022          45.000    20532100.050    84075508.449         497.902          44.000  
G 2  22323266.083   117309569.591        1760.106          39.000                                                                  
G14  21864609.312   114899314.132        1706.866          41.000                                                                  
> 2019  5 23  8 52 39.9930000  0  9                     
G 6  21414254.705   112532668.890         882.914          43.000    21414258.440    87687807.586         687.691          40.000  
G12  17859447.651    93852026.076        -458.478          49.000    17859446.233    73131438.182        -357.269          46.000  
G17  22190915.912   116614062.005       -4078.136          41.000    22190911.004                       -3178.004          28.000  
G19  20178141.466   106036839.553       -3457.706          43.000                                                                  
G24  18732831.583    98441688.548       -2908.508          50.000    18732833.795    76707811.483       -2266.278          46.000  
G25  19937774.328   104773711.434        1754.810          48.000    19937776.374    81641861.673        1367.312          44.000  
G32  20531976.501   107896267.129         637.682          45.000    20531978.460    84075011.016         496.902          44.000  
G 2  22322931.309   117307810.591        1758.389          39.000                                                                  
G14  21864284.650   114897607.744        1705.633          41.000                                                                  
> 2019  5 23  8 52 40.9930000  0  9                     
G 6  21414086.781   112531786.697         881.663          43.000    21414090.615    87687120.169         686.777          41.000  
G12  17859534.946    93852485.122        -459.712          49.000    17859533.727    73131795.872        -358.019          47.000  
G17  22191691.921   116618140.583       -4078.981          41.000    22191687.037                       -3178.770          28.000  
G19  20178799.564   106040297.987       -3458.990          43.000                                                                  
G24  18733385.156    98444597.594       -2909.601          50.000    18733387.372    76710078.273       -2267.188          46.000  
G25  19937440.496   104771957.235        1753.660          48.000    19937442.694    81640494.765        1366.454          44.000  
G32  20531855.343   107895630.155         636.378          45.000    20531857.291    84074514.665         495.971          44.000  
G 2  22322596.794   117306052.605        1756.684          39.000                                                                  
G14  21863960.142   114895902.522        1704.541          41.000                                                                  
> 2019  5 23  8 52 41.9930000  0  9                     
G 6  21413918.940   112530905.393         880.594          43.000    21413922.885    87686433.438         686.007          41.000  
G12  17859622.427    93852945.031        -460.491          49.000    17859621.213    73132154.253        -358.919          47.000  
G17  22192468.143   116622219.790       -4079.647          41.000    22192463.305                       -3178.822          28.000  
G19  20179457.859   106043757.332       -3459.971          43.000                                                                  
G24  18733938.856    98447507.466       -2910.406          50.000    18733941.059    76712345.694       -2267.657          47.000  
G25  19937106.829   104770203.706        1753.237          48.000    19937109.054    81639128.380        1365.977          44.000  
G32  20531734.297   107894994.126         635.377          45.000    20531736.383    84074019.064         495.168          44.000  
G 2  22322262.296   117304295.128        1756.265          39.000                                                                  
G14  21863635.827   114894198.054        1703.955          41.000                                                                  
> 2019  5 23  8 52 42.9930000  0  9                     
G 6  21413751.361   112530024.915         880.164          43.000    21413755.330    87685747.342         685.791          41.000  
G12  17859710.129    93853405.796        -460.990          49.000    17859708.813    73132513.292        -359.360          47.000  
G17  22193244.457   116626299.540       -4079.770          41.000    22193239.611                       -3179.679          28.000  
G19  20180116.273   106047217.526       -3460.524          43.000                                                                  
G24  18734492.631    98450418.102       -2910.925          50.000    18734494.927    76714613.728       -2268.256          47.000  
G25  19936773.297   104768450.816        1752.776          48.000    19936775.503    81637762.489        1365.819          44.000  
G32  20531613.451   107894359.025         634.750          45.000    20531615.584    84073524.174         494.701          44.000  
G 2  22321927.997   117302538.161        1756.287          39.000                                                                  
G14  21863311.573   114892494.286        1703.552          42.000                                                                  
> 2019  5 23  8 52 43.9930000  0  9                     
G 6  21413584.099   112529145.304         879.253          43.000    21413588.021    87685061.939         684.927          41.000  
G12  17859797.921    93853867.449        -462.239          49.000    17859796.573    73132873.008        -360.082          46.000  
G17  22194020.978   116630379.918       -4080.952          41.000    22194015.871                       -3180.085          28.000  
G19  20180774.869   106050678.645       -3461.617          43.000                                                                  
G24  18735046.681    98453329.587       -2911.993          50.000    18735049.095    76716882.421       -2269.305          47.000  
G25  19936439.900   104766698.614        1751.678          48.000    19936442.162    81636397.146        1364.857          44.000  
G32  20531492.729   107893724.878         633.499          45.000    20531494.924    84073030.038         493.615          44.000  
G 2  22321593.750   117300781.731        1756.210          39.000                                                                  
G14  21862987.412   114890791.280        1702.399          41.000                                                                  
> 2019  5 23  8 52 44.9930000  0  9                     
G 6  21413416.925   112528266.748         878.037          43.000    21413420.926    87684377.329         684.424          41.000  
G12  17859886.003    93854330.121        -462.961          49.000    17859884.634    73133233.541        -360.880          46.000  
G17  22194797.437   116634461.056       -4081.353          41.000    22194792.382                       -3180.284          28.000  
G19  20181433.672   106054140.824       -3462.769          43.000                                                                  
G24  18735600.926    98456242.059       -2912.878          50.000    18735603.307    76719151.872       -2269.806          46.000  
G25  19936106.640   104764947.244        1750.996          48.000    19936108.927    81635032.440        1364.376          44.000  
G32  20531372.250   107893091.862         632.469          45.000    20531374.402    84072536.781         492.696          44.000  
G 2  22321259.673   117299026.021        1755.321          39.000                                                                  
G14  21862663.578   114889089.165        1701.904          41.000                                                                  
> 2019  5 23  8 52 45.9930000  0  9                     
G 6  21413249.795   112527388.988         877.513          43.000    21413253.938    87683693.379         683.751          41.000  
G12  17859974.276    93854793.594        -463.676          49.000    17859972.920    73133594.691        -361.338          46.000  
G17  22195574.219   116638542.744       -4081.725          41.000    22195568.992                       -3180.370          27.000  
G19  20182092.739   106057603.860       -3463.411          43.000                                                                  
G24  18736155.345    98459155.276       -2913.403          50.000    18736157.645    76721421.923       -2270.361          46.000  
G25  19935773.484   104763196.502        1750.405          48.000    19935775.822    81633668.209        1364.163          44.000  
G32  20531251.898   107892459.725         631.884          45.000    20531254.032    84072044.203         492.368          44.000  
G 2  22320925.724   117297270.798        1755.669          39.000                                                                  
G14  21862339.814   114887387.753        1701.276          41.000                                                                  
> 2019  5 23  8 52 46.9930000  0  9                     
G 6  21413082.873   112526512.010         876.500          43.000    21413087.063    87683010.023         682.822          41.000  
G12  17860062.590    93855257.852        -464.751          49.000    17860061.256    73133956.451        -362.173          46.000  
G17  22196350.989   116642624.937       -4082.511          41.000    22196345.657                       -3181.182          28.000  
G19  20182751.935   106061067.698       -3464.513          43.000                                                                  
G24  18736709.812    98462069.233       -2914.380          50.000    18736712.192    76723692.539       -2271.100          46.000  
G25  19935440.443   104761446.338        1749.505          49.000    19935442.814    81632304.460        1363.236          44.000  
G32  20531131.753   107891828.451         630.800          45.000    20531133.925    84071552.305         491.541          44.000  
G 2  22320591.735   117295515.993        1755.682          38.000                                                                  
G14  21862016.194   114885686.995        1700.287          41.000                                                                  
> 2019  5 23  8 52 47.9930000  0  9                     
G 6  21412916.419   112525636.210         874.862          43.000    21412920.399    87682327.576         681.921          41.000  
G12  17860151.076    93855723.291        -466.443          49.000    17860149.874    73134319.122        -363.179          46.000  
G17  22197128.052   116646708.061       -4083.996          41.000    22197122.584                       -3182.072          27.000  
G19  20183411.379   106064532.736       -3466.058          43.000                                                                  
G24  18737264.502    98464984.332       -2915.991          50.000    18737266.909    76725964.046       -2272.290          47.000  
G25  19935107.674   104759697.161        1748.376          49.000    19935109.965    81630941.460        1362.425          44.000  
G32  20531011.871   107891198.466         628.967          45.000    20531014.001    84071061.403         490.105          44.000  
G 2  22320258.002   117293762.144        1752.864          38.000                                                                  
G14  21861692.807   114883987.280        1699.060          41.000                                                                  
> 2019  5 23  8 52 48.9930000  0  9                     
G 6  21412750.166   112524762.018         873.281          43.000    21412754.059    87681646.380         680.762          41.000  
G12  17860239.920    93856190.307        -467.756          49.000    17860238.724    73134683.048        -364.641          46.000  
G17  22197905.322   116650792.491       -4085.107          41.000    22197899.752                       -3182.571          27.000  
G19  20184071.020   106067999.398       -3467.523          43.000                                                                  
G24  18737819.519    98467900.964       -2917.425          50.000    18737821.949    76728236.740       -2273.322          47.000  
G25  19934775.147   104757949.384        1747.281          49.000    19934777.385    81629579.558        1361.460          44.000  
G32  20530892.257   107890570.134         627.491          45.000    20530894.467    84070571.788         488.986          44.000  
G 2  22319924.384   117292009.550        1750.506          38.000                                                                  
G14  21861369.767   114882289.046        1697.449          42.000                                                                  
> 2019  5 23  8 52 49.9930000  0  9                     
G 6  21412584.164   112523889.162         872.111          43.000    21412587.882    87680966.258         679.318          41.000  
G12  17860329.133    93856658.684        -469.187          49.000    17860327.849    73135048.008        -365.551          46.000  
G17  22198682.789   116654878.042       -4086.473          41.000    22198677.075                       -3183.816          27.000  
G19  20184731.012   106071467.450       -3468.820          43.000                                                                  
G24  18738374.824    98470818.884       -2918.665          50.000    18738377.236    76730510.440       -2274.298          47.000  
G25  19934442.777   104756202.775        1746.019          48.000    19934444.870    81628218.563        1360.594          44.000  
G32  20530772.926   107889943.250         626.027          45.000    20530775.355    84070083.318         487.776          44.000  
G 2  22319591.025   117290257.902        1750.163          38.000                                                                  
G14  21861046.719   114880592.037        1696.283          42.000                                                                  
> 2019  5 23  8 52 50.9930000  0  9                     
G 6  21412418.396   112523017.685         870.984          43.000    21412422.014    87680287.170         678.390          41.000  
G12  17860418.469    93857128.426        -470.420          49.000    17860417.313    73135414.034        -366.469          46.000  
G17  22199460.509   116658964.646       -4086.877          41.000    22199454.707                       -3184.990          27.000  
G19  20185391.207   106074936.899       -3469.945          44.000                                                                  
G24  18738930.322    98473738.104       -2919.861          50.000    18738932.748    76732785.159       -2275.299          47.000  
G25  19934110.639   104754457.333        1744.770          48.000    19934112.777    81626858.481        1359.477          44.000  
G32  20530653.933   107889317.814         624.713          45.000    20530656.258    84069595.962         486.619          44.000  
G 2  22319257.899   117288507.326        1749.608          39.000                                                                  
G14  21860724.030   114878896.267        1695.141          42.000                                                                  
> 2019  5 23  8 52 51.9930000  0  9                     
G 6  21412252.872   112522147.369         869.256          43.000    21412256.369    87679608.993         677.530          41.000  
G12  17860508.056    93857599.301        -471.760          49.000    17860506.906    73135780.955        -367.532          46.000  
G17  22200238.419   116663052.164       -4088.295          41.000    22200232.452                       -3185.585          27.000  
G19  20186051.656   106078407.541       -3471.473          44.000                                                                  
G24  18739486.083    98476658.432       -2921.259          50.000    18739488.476    76735060.729       -2276.160          47.000  
G25  19933778.715   104752712.833        1743.631          48.000    19933780.770    81625499.135        1358.718          44.000  
G32  20530535.150   107888693.605         623.168          45.000    20530537.532    84069109.555         485.728          44.000  
G 2  22318924.928   117286757.534        1749.438          39.000                                                                  
G14  21860401.607   114877201.525        1693.848          42.000                                                                  
> 2019  5 23  8 52 52.9930000  0  9                     
G 6  21412087.609   112521278.267         868.785          43.000    21412090.950    87678931.779         677.014          41.000  
G12  17860597.867    93858071.419        -472.412          49.000    17860596.648    73136148.840        -368.217          46.000  
G17  22201016.365   116667140.665       -4088.857          41.000    22201009.946                3      -3187.739          27.000  
G19  20186712.310   106081879.455       -3472.464          44.000                                                                  
G24  18740042.070    98479579.941       -2921.789          50.000    18740044.369    76737337.235       -2276.697          46.000  
G25  19933446.855   104750969.380        1743.274          48.000    19933449.041    81624140.606        1358.310          44.000  
G32  20530416.644   107888070.715         622.585          45.000    20530418.962    84068624.192         485.159          44.000  
G 2  22318592.117   117285008.699        1748.329          39.000                                                                  
G14  21860079.270   114875507.899        1693.317          42.000                                                                  
> 2019  5 23  8 52 53.9930000  0  9                     
G 6  21411922.382   112520409.659         868.298          43.000    21411925.667    87678254.935         676.728          41.000  
G12  17860687.731    93858544.017        -473.020          49.000    17860686.494    73136517.094        -368.443          46.000  
G17  22201794.361   116671229.347       -4088.743          41.000    22201785.529                       -3185.669          27.000  
G19  20187373.112   106085351.857       -3472.595          43.000                                                                  
G24  18740598.090    98482501.887       -2922.174          50.000    18740600.438    76739614.074       -2276.959          46.000  
G25  19933115.114   104749226.221        1742.901          48.000    19933117.301    81622782.301        1358.013          44.000  
G32  20530298.319   107887448.401         621.940          45.000    20530300.580    84068139.274         484.651          44.000  
G 2  22318259.387   117283259.993        1748.696          39.000                                                                  
G14  21859756.994   114873814.627        1693.054          41.000                                                                  
> 2019  5 23  8 52 54.9930000  0  9                     
G 6  21411757.173   112519541.814         867.499          43.000    21411760.603    87677578.706         676.021          41.000  
G12  17860777.855    93859017.378        -473.455          49.000    17860776.571    73136885.959        -369.156          46.000  
G17  22202572.454   116675318.548       -4089.436          40.000    22202562.745                       -3186.333          27.000  
G19  20188034.085   106088825.067       -3473.439          44.000                                                                  
G24  18741154.236    98485424.524       -2922.870          50.000    18741156.680    76741891.457       -2277.570          46.000  
G25  19932783.581   104747483.627        1742.339          48.000    19932785.654    81621424.434        1357.599          44.000  
G32  20530180.035   107886826.929         621.200          45.000    20530182.299    84067655.011         484.098          44.000  
G 2  22317926.734   117281511.770        1748.072          39.000                                                                  
G14  21859434.826   114872121.990        1692.413          41.000                                                                  
> 2019  5 23  8 52 55.9930000  0  9                     
G 6  21411592.086   112518674.195         867.810          43.000    21411595.499    87676902.631         676.288          41.000  
G12  17860868.064    93859490.966        -473.375          49.000    17860866.748    73137254.986        -368.959          46.000  
G17  22203350.487   116679407.697       -4089.043          40.000    22203340.756                       -3186.327          27.000  
G19  20188695.064   106092298.541       -3473.508          44.000                                                                  
G24  18741710.435    98488347.330       -2922.644          50.000    18741712.871    76744168.967       -2277.368          46.000  
G25  19932451.999   104745741.050        1742.946          48.000    19932454.063    81620066.569        1358.216          43.000  
G32  20530061.895   107886205.770         621.123          45.000    20530064.203    84067170.982         484.180          44.000  
G 2  22317594.069   117279763.407        1748.951          39.000                                                                  
G14  21859112.779   114870429.457        1692.786          41.000                                                                  
> 2019  5 23  8 52 56.9930000  0  9                     
G 6  21411426.935   112517806.658         867.388          43.000    21411430.422    87676226.643         675.835          41.000  
G12  17860958.148    93859964.646        -473.776          49.000    17860956.851    73137624.090        -369.356          46.000  
G17  22204128.559   116683496.670       -4089.084          41.000    22204118.953                       -3185.916          27.000  
G19  20189356.086   106095772.114       -3473.624          43.000                                                                  
G24  18742266.556    98491270.179       -2923.022          50.000    18742269.036    76746446.513       -2277.728          46.000  
G25  19932120.323   104743998.391        1742.594          48.000    19932122.344    81618708.655        1357.955          44.000  
G32  20529943.661   107885584.773         620.668          45.000    20529946.003    84066687.104         483.734          44.000  
G 2  22317261.353   117278014.842        1748.210          39.000                                                                  
G14  21858790.680   114868736.884        1692.560          41.000                                                                  
> 2019  5 23  8 52 57.9930000  0  9                     
G 6  21411261.841   112516939.255         867.554          43.000    21411265.326    87675550.736         676.095          41.000  
G12  17861048.287    93860438.452        -473.647          49.000    17861047.000    73137993.274        -368.991          46.000  
G17  22204906.567   116687585.492       -4088.534          40.000    22204896.835                       -3185.810          27.000  
G19  20190017.122   106099245.841       -3473.739          43.000                                                                  
G24  18742822.681    98494193.125       -2922.760          50.000    18742825.280    76748724.127       -2277.521          46.000  
G25  19931788.597   104742255.655        1742.993          48.000    19931790.691    81617350.669        1358.242          44.000  
G32  20529825.503   107884963.987         620.995          45.000    20529827.837    84066203.369         483.776          44.000  
G 2  22316928.679   117276266.028        1749.116          39.000                                                                  
G14  21858468.601   114867044.309        1692.883          41.000                                                                  
> 2019  5 23  8 52 58.9930000  0  9                     
G 6  21411096.841   112516071.837         867.383          43.000    21411100.252    87674874.835         675.749          41.000  
G12  17861138.377    93860912.235        -473.735          49.000    17861137.071    73138362.464        -369.297          46.000  
G17  22205684.570   116691674.058       -4088.542          40.000    22205674.926                       -3185.261          27.000  
G19  20190678.273   106102719.606       -3473.815          44.000                                                                  
G24  18743379.044    98497116.013       -2922.906          50.000    18743381.479    76751001.698       -2277.600          46.000  
G25  19931457.021   104740512.710        1743.053          48.000    19931459.025    81615992.537        1358.270          44.000  
G32  20529707.442   107884343.289         620.736          45.000    20529709.788    84065719.698         483.750          44.000  
G 2  22316595.841   117274516.891        1750.199          39.000                                                                  
G14  21858146.394   114865351.616        1692.725          41.000                                                                  
> 2019  5 23  8 52 59.9930000  0  9                     
G 6  21410931.878   112515204.888         866.404          43.000    21410935.255    87674199.279         675.082          41.000  
G12  17861228.659    93861386.479        -474.795          49.000    17861227.469    73138732.003        -369.869          46.000  
G17  22206462.563   116695762.799       -4089.366          40.000    22206451.361                       -3186.768          27.000  
G19  20191339.453   106106193.858       -3474.648          44.000                                                                  
G24  18743935.259    98500039.321       -2923.792          50.000    18743937.564    76753279.600       -2278.253          46.000  
G25  19931125.457   104738770.028        1742.423          48.000    19931127.358    81614634.594        1357.816          44.000  
G32  20529589.424   107883723.136         619.645          45.000    20529591.883    84065236.465         482.907          44.000  
G 2  22316263.017   117272767.945        1748.446          39.000                                                                  
G14  21857824.462   114863659.270        1691.516          41.000                                                                  
> 2019  5 23  8 53  0.9930000  0  9                     
G 6  21410767.049   112514338.843         865.679          43.000    21410770.381    87673524.448         674.369          41.000  
G12  17861318.968    93861861.631        -475.433          49.000    17861317.800    73139102.248        -370.459          46.000  
G17  22207240.730   116699852.183       -4089.555          40.000    22207229.836                       -3187.124          27.000  
G19  20192000.823   106109669.035       -3475.418          44.000                                                                  
G24  18744491.688    98502963.483       -2924.451          50.000    18744493.916    76755558.167       -2278.778          46.000  
G25  19930793.917   104737028.068        1741.684          48.000    19930795.832    81613277.230        1357.066          44.000  
G32  20529471.471   107883103.959         618.922          45.000    20529474.015    84064754.001         482.176          44.000  
G 2  22315930.405   117271019.516        1748.375          39.000                                                                  
G14  21857502.579   114861967.682        1691.443          41.000                                                                  
> 2019  5 23  8 53  1.9930000  0  9                     
G 6  21410602.347   112513473.601         864.849          43.000    21410605.661    87672850.233         673.951          41.000  
G12  17861409.490    93862337.573        -476.456          49.000    17861408.298    73139473.116        -371.310          46.000  
G17  22208018.968   116703942.105       -4090.323          40.000    22208008.039                       -3187.163          27.000  
G19  20192662.324   106113145.035       -3476.294          43.000                                                                  
G24  18745048.316    98505888.393       -2925.421          50.000    18745050.570    76757837.316       -2279.431          46.000  
G25  19930462.512   104735286.712        1740.917          48.000    19930464.437    81611920.332        1356.646          44.000  
G32  20529353.906   107882485.689         617.931          45.000    20529356.312    84064272.222         481.566          44.000  
G 2  22315597.761   117269271.621        1747.445          39.000                                                                  
G14  21857180.801   114860276.773        1690.497          41.000                                                                  
> 2019  5 23  8 53  2.9930000  0  9                     
G 6  21410437.934   112512609.144         864.000          43.000    21410441.150    87672176.634         673.056          41.000  
G12  17861500.250    93862814.286        -477.241          49.000    17861498.929    73139844.576        -371.761          46.000  
G17  22208797.315   116708032.514       -4090.586          40.000    22208785.463                       -3186.748          27.000  
G19  20193323.873   106116621.868       -3477.434          43.000                                                                  
G24  18745605.097    98508814.015       -2926.129          50.000    18745607.238    76760117.024       -2280.035          46.000  
G25  19930131.253   104733545.932        1740.473          48.000    19930133.148    81610563.882        1356.116          44.000  
G32  20529236.366   107881868.271         616.893          45.000    20529238.778    84063791.117         480.640          44.000  
G 2  22315265.223   117267524.155        1746.449          39.000                                                                  
G14  21856859.098   114858586.520        1689.709          41.000                                                                  
> 2019  5 23  8 53  3.9930000  0  9                     
G 6  21410273.532   112511745.340         863.619          43.000    21410276.751    87671503.549         672.971          41.000  
G12  17861591.126    93863291.667        -477.651          49.000    17861589.723    73140216.559        -372.109          46.000  
G17  22209575.823   116712123.336       -4090.603          40.000    22209564.139                       -3187.914          27.000  
G19  20193985.560   106120099.374       -3477.750          43.000                                                                  
G24  18746161.985    98511740.254       -2926.422          50.000    18746163.992    76762397.213       -2280.267          46.000  
G25  19929800.053   104731805.633        1740.242          48.000    19929802.036    81609207.803        1356.060          44.000  
G32  20529118.994   107881251.601         616.361          45.000    20529121.376    84063310.609         480.096          44.000  
G 2  22314932.710   117265776.996        1747.037          39.000                                                                  
G14  21856537.686   114856896.822        1689.282          41.000                                                                  
> 2019  5 23  8 53  4.9930000  0  9                     
G 6  21410109.185   112510882.096         862.820          43.000    21410112.418    87670830.874         672.545          41.000  
G12  17861682.084    93863769.579        -478.141          49.000    17861680.720    73140588.965        -372.518          46.000  
G17  22210354.276   116716214.456       -4091.509          40.000    22210342.839                       -3187.367          27.000  
G19  20194647.477   106123577.458       -3478.375          44.000                                                                  
G24  18746719.027    98514667.003       -2927.008          50.000    18746721.006    76764677.792       -2280.695          46.000  
G25  19929469.052   104730065.687        1739.593          48.000    19929471.003    81607851.995        1355.723          44.000  
G32  20529001.812   107880635.566         615.588          45.000    20529004.190    84062830.568         479.830          44.000  
G 2  22314600.251   117264030.035        1747.347          39.000                                                                  
G14  21856216.253   114855207.524        1688.934          41.000                                                                  
> 2019  5 23  8 53  5.9930000  0  9                     
G 6  21409945.047   112510019.170         862.554          43.000    21409948.185    87670158.474         671.994          41.000  
G12  17861773.048    93864247.819        -478.608          49.000    17861771.598    73140961.619        -372.960          46.000  
G17  22211132.836   116720305.599       -4091.345          40.000    22211120.996                       -3188.135          27.000  
G19  20195309.375   106127055.911       -3478.901          43.000                                                                  
G24  18747276.015    98517594.007       -2927.460          50.000    18747278.056    76766958.576       -2281.104          46.000  
G25  19929137.924   104728325.853        1739.515          48.000    19929139.867    81606496.288        1355.449          44.000  
G32  20528884.667   107880019.928         615.146          45.000    20528886.965    84062350.851         479.331          44.000  
G 2  22314267.807   117262283.164        1746.451          39.000                                                                  
G14  21855894.856   114853518.433        1688.654          41.000                                                                  
> 2019  5 23  8 53  6.9930000  0  9                     
G 6  21409780.896   112509156.917         861.924          43.000    21409784.213    87669486.577         671.696          41.000  
G12  17861864.182    93864726.733        -479.132          49.000    17861862.764    73141334.802        -373.294          46.000  
G17  22211911.487   116724397.176       -4091.869          40.000    22211898.664                       -3188.319          27.000  
G19  20195971.458   106130535.039       -3479.362          43.000                                                                  
G24  18747833.127    98520521.613       -2927.905          50.000    18747835.072    76769239.830       -2281.464          46.000  
G25  19928806.822   104726586.510        1739.167          48.000    19928808.862    81605140.968        1355.073          44.000  
G32  20528767.623   107879405.050         614.465          45.000    20528769.877    84061871.731         478.726          44.000  
G 2  22313935.451   117260536.598        1746.258          39.000                                                                  
G14  21855573.531   114851829.889        1688.361          41.000                                                                  
> 2019  5 23  8 53  7.9930000  0  9                     
G 6  21409616.788   112508295.154         861.762          43.000    21409620.288    87668815.097         671.282          41.000  
G12  17861955.408    93865206.123        -479.483          49.000    17861954.039    73141708.348        -373.597          46.000  
G17  22212690.123   116728488.927       -4091.592          40.000    22212677.398                       -3188.123          27.000  
G19  20196633.560   106134014.694       -3479.613          43.000                                                                  
G24  18748390.292    98523449.637       -2928.052          50.000    18748392.321    76771521.406       -2281.635          46.000  
G25  19928475.892   104724847.451        1739.058          48.000    19928477.921    81603785.850        1355.144          44.000  
G32  20528650.638   107878790.743         614.098          45.000    20528652.996    84061393.040         478.649          44.000  
G 2  22313603.125   117258790.188        1746.471          39.000                                                                  
G14  21855252.364   114850141.714        1688.116          41.000                                                                  
> 2019  5 23  8 53  8.9930000  0  9                     
G 6  21409452.937   112507433.714         861.197          43.000    21409456.370    87668143.837         671.203          41.000  
G12  17862046.551    93865685.831        -479.846          49.000    17862045.395    73142082.149        -373.831          46.000  
G17  22213468.799   116732580.770       -4091.919          40.000    22213456.096                       -3188.369          27.000  
G19  20197295.764   106137494.694       -3480.052          43.000                                                                  
G24  18748947.543    98526377.952       -2928.479          50.000    18748949.480    76773803.209       -2281.854          46.000  
G25  19928144.978   104723108.512        1739.032          48.000    19928146.983    81602430.847        1354.979          44.000  
G32  20528533.839   107878176.838         613.778          45.000    20528536.124    84060914.686         478.160          44.000  
G 2  22313270.773   117257043.753        1746.456          39.000                                                                  
G14  21854931.133   114848453.718        1688.135          41.000                                                                  
> 2019  5 23  8 53  9.9930000  0  9                     
G 6  21409289.038   112506572.770         860.754          43.000    21409292.520    87667472.964         670.783          41.000  
G12  17862137.965    93866166.032        -480.509          49.000    17862136.851    73142456.336        -374.443          46.000  
G17  22214247.483   116736672.818       -4092.065          40.000    22214235.325                       -3187.996          27.000  
G19  20197958.119   106140975.224       -3480.801          43.000                                                                  
G24  18749504.812    98529306.712       -2929.163          50.000    18749506.773    76776085.355       -2282.233          46.000  
G25  19927814.097   104721369.890        1738.370          48.000    19927816.113    81601076.071        1354.524          44.000  
G32  20528417.023   107877563.516         613.084          45.000    20528419.350    84060436.772         477.621          44.000  
G 2  22312938.517   117255297.521        1746.040          39.000                                                                  
G14  21854609.963   114846766.115        1687.524          41.000                                                                  
> 2019  5 23  8 53 10.9930000  0  9                     
G 6  21409125.365   112505712.545         859.641          43.000    21409128.787    87666802.667         669.729          41.000  
G12  17862229.479    93866646.947        -481.490          49.000    17862228.385    73142831.077        -375.317          46.000  
G17  22215026.292   116740765.342       -4093.048          40.000    22215012.417                       -3189.444          27.000  
G19  20198620.543   106144456.499       -3481.830          43.000                                                                  
G24  18750062.317    98532236.134       -2929.938          50.000    18750064.269    76778368.026       -2283.081          46.000  
G25  19927483.221   104719631.781        1737.720          48.000    19927485.314    81599721.703        1354.036          44.000  
G32  20528300.435   107876951.004         611.968          45.000    20528302.735    84059959.493         476.678          44.000  
G 2  22312606.288   117253551.679        1745.276          39.000                                                                  
G14  21854289.045   114845079.103        1686.475          41.000                                                                  
> 2019  5 23  8 53 11.9930000  0  9                     
G 6  21408961.963   112504853.396         858.967          43.000    21408965.321    87666133.205         669.165          41.000  
G12  17862321.125    93867128.948        -482.397          49.000    17862319.998    73143206.660        -375.917          46.000  
G17  22215805.228   116744858.662       -4093.690          41.000    22215791.240                       -3190.161          27.000  
G19  20199283.271   106147938.880       -3482.850          43.000                                                                  
G24  18750619.954    98535166.594       -2930.835          50.000    18750621.960    76780651.504       -2283.753          46.000  
G25  19927152.683   104717894.579        1736.916          48.000    19927154.674    81598368.041        1353.366          44.000  
G32  20528184.140   107876339.656         610.911          45.000    20528186.464    84059483.105         476.114          44.000  
G 2  22312274.204   117251806.564        1745.067          39.000                                                                  
G14  21853968.097   114843393.048        1685.724          41.000                                                                  
> 2019  5 23  8 53 12.9930000  0  9                     
G 6  21408798.624   112503994.699         858.243          43.000    21408801.934    87665464.094         668.891          41.000  
G12  17862412.963    93867611.376        -482.799          49.000    17862411.737    73143582.573        -376.260          46.000  
G17  22216584.174   116748952.150       -4093.968          41.000    22216569.523                       -3190.063          27.000  
G19  20199946.046   106151421.721       -3483.309          43.000                                                                  
G24  18751177.664    98538097.448       -2931.189          50.000    18751179.764    76782935.284       -2284.015          46.000  
G25  19926822.218   104716157.602        1736.741          48.000    19926824.154    81597014.557        1353.062          44.000  
G32  20528067.945   107875728.833         610.388          45.000    20528070.371    84059007.143         475.578          44.000  
G 2  22311942.141   117250061.620        1744.495          39.000                                                                  
G14  21853647.289   114841707.296        1685.443          41.000                                                                  
> 2019  5 23  8 53 13.9930000  0  9                     
G 6  21408635.306   112503136.578         857.769          43.000    21408638.627    87664795.417         668.556          41.000  
G12  17862504.836    93868094.388        -483.408          49.000    17862503.494    73143958.944        -376.702          46.000  
G17  22217363.064   116753045.958       -4094.265          41.000    22217348.289                       -3190.173          27.000  
G19  20200608.911   106154905.190       -3484.086          43.000                                                                  
G24  18751735.403    98541028.831       -2931.744          50.000    18751737.496    76785219.481       -2284.631          46.000  
G25  19926491.776   104714421.019        1736.302          48.000    19926493.753    81595661.370        1352.818          44.000  
G32  20527951.857   107875118.672         609.487          45.000    20527954.142    84058531.692         474.908          44.000  
G 2  22311610.035   117248316.910        1744.204          39.000                                                                  
G14  21853326.518   114840022.013        1684.991          41.000                                                                  
> 2019  5 23  8 53 14.9930000  0  9                     
G 6  21408472.168   112502279.453         856.818          43.000    21408475.499    87664127.551         667.301          41.000  
G12  17862596.974    93868578.387        -484.329          49.000    17862595.632    73144336.081        -377.304          46.000  
G17  22218142.166   116757140.479       -4094.937          40.000    22218127.053                       -3191.463          27.000  
G19  20201272.003   106158389.656       -3484.968          43.000                                                                  
G24  18752293.484    98543961.139       -2932.678          50.000    18752295.467    76787504.394       -2285.211          46.000  
G25  19926161.469   104712685.241        1735.487          48.000    19926163.551    81594308.804        1352.415          44.000  
G32  20527836.002   107874509.587         608.703          45.000    20527838.122    84058057.087         474.328          44.000  
G 2  22311278.119   117246572.828        1743.896          39.000                                                                  
G14  21853006.050   114838337.588        1684.253          41.000                                                                  
> 2019  5 23  8 53 15.9930000  0  9                     
G 6  21408309.338   112501423.322         855.646          43.000    21408312.600    87663460.430         666.521          41.000  
G12  17862689.259    93869063.360        -485.587          49.000    17862687.808    73144713.988        -378.327          46.000  
G17  22218921.536   116761235.696       -4095.378          40.000    22218906.136                       -3191.661          27.000  
G19  20201935.230   106161875.163       -3485.982          43.000                                                                  
G24  18752851.550    98546894.374       -2933.880          50.000    18752853.662    76789790.027       -2285.980          46.000  
G25  19925831.396   104710950.229        1734.611          48.000    19925833.294    81592956.847        1351.598          44.000  
G32  20527720.141   107873901.562         607.405          45.000    20527722.470    84057583.310         473.079          44.000  
G 2  22310946.353   117244829.465        1742.581          39.000                                                                  
G14  21852685.726   114836654.029        1683.002          41.000                                                                  
> 2019  5 23  8 53 16.9930000  0  9                     
G 6  21408146.666   112500568.228         854.447          43.000    21408149.867    87662794.110         666.109          41.000  
G12  17862781.766    93869549.368        -486.471          49.000    17862780.339    73145092.693        -379.062          46.000  
G17  22219701.085   116765331.714       -4096.356          40.000    22219686.028                       -3191.850          27.000  
G19  20202598.654   106165361.721       -3486.917          43.000                                                                  
G24  18753409.848    98549828.601       -2934.717          50.000    18753411.856    76792076.441       -2286.688          46.000  
G25  19925501.357   104709216.076        1733.770          48.000    19925503.416    81591605.561        1350.948          44.000  
G32  20527604.635   107873294.667         606.200          45.000    20527607.029    84057110.392         472.526          44.000  
G 2  22310614.872   117243086.759        1742.544          39.000                                                                  
G14  21852365.564   114834971.379        1682.257          41.000                                                                  
> 2019  5 23  8 53 17.9930000  0  9                     
G 6  21407984.082   112499714.134         853.368          43.000    21407987.332    87662128.583         665.032          41.000  
G12  17862874.458    93870036.388        -487.803          49.000    17862873.127    73145472.190        -380.152          46.000  
G17  22220480.631   116769428.487       -4097.659          40.000    22220465.647                       -3192.427          26.000  
G19  20203262.369   106168849.325       -3488.404          43.000                                                                  
G24  18753968.369    98552763.792       -2935.883          50.000    18753970.347    76794363.604       -2287.701          46.000  
G25  19925171.468   104707482.736        1732.713          48.000    19925173.533    81590254.901        1350.148          44.000  
G32  20527489.349   107872688.872         605.025          45.000    20527491.784    84056638.342         471.526          44.000  
G 2  22310283.317   117241344.761        1741.465          39.000                                                                  
G14  21852045.509   114833289.622        1681.091          41.000                                                                  
> 2019  5 23  8 53 18.9930000  0  9                     
G 6  21407821.790   112498861.332         852.080          43.000    21407825.088    87661464.067         664.056          41.000  
G12  17862967.377    93870524.668        -488.874          49.000    17862966.056    73145852.674        -381.008          46.000  
G17  22221260.505   116773526.215       -4098.003          41.000    22221244.659                       -3194.209          26.000  
G19  20203926.261   106172338.235       -3489.821          43.000                                                                  
G24  18754527.053    98555700.206       -2936.920          50.000    18754529.023    76796651.721       -2288.708          46.000  
G25  19924841.811   104705750.483        1731.644          48.000    19924843.959    81588905.101        1349.201          44.000  
G32  20527374.320   107872084.432         603.666          45.000    20527376.719    84056167.362         470.227          44.000  
G 2  22309951.957   117239603.727        1740.482          39.000                                                                  
G14  21851725.674   114831609.014        1679.987          41.000                                                                  
> 2019  5 23  8 53 19.9930000  0  9                     
G 6  21407659.738   112498009.582         851.250          43.000    21407662.932    87660800.362         663.372          41.000  
G12  17863060.588    93871014.003        -489.796          49.000    17863059.199    73146233.972        -381.775          46.000  
G17  22222040.430   116777624.756       -4098.712          41.000    22222023.457                       -3194.281          27.000  
G19  20204590.382   106175828.206       -3490.467          43.000                                                                  
G24  18755086.035    98558637.608       -2937.835          50.000    18755088.031    76798940.594       -2289.178          46.000  
G25  19924512.330   104704019.077        1731.047          48.000    19924514.482    81587555.961        1348.863          44.000  
G32  20527259.484   107871481.129         602.955          45.000    20527261.895    84055697.254         469.785          44.000  
G 2  22309620.743   117237863.409        1740.204          39.000                                                                  
G14  21851405.983   114829929.335        1679.321          41.000                                                                  
> 2019  5 23  8 53 20.9930000  0  9                     
G 6  21407497.778   112497158.605         850.282          43.000    21407500.961    87660137.262         662.756          41.000  
G12  17863153.815    93871504.104        -490.758          49.000    17863152.483    73146615.864        -382.311          46.000  
G17  22222820.405   116781723.800       -4099.512          41.000    22222802.875                       -3194.583          27.000  
G19  20205254.633   106179318.970       -3491.347          43.000                                                                  
G24  18755645.121    98561575.700       -2938.666          50.000    18755647.069    76801230.019       -2289.783          46.000  
G25  19924182.954   104702288.261        1730.334          48.000    19924185.134    81586207.263        1348.434          44.000  
G32  20527144.821   107870878.694         601.705          45.000    20527147.252    84055227.817         468.874          44.000  
G 2  22309289.662   117236123.543        1739.066          39.000                                                                  
G14  21851086.425   114828250.302        1678.668          41.000                                                                  
> 2019  5 23  8 53 21.9930000  0  9                     
G 6  21407336.040   112496308.412         849.927          43.000    21407339.058    87659474.781         662.064          41.000  
G12  17863247.208    93871994.989        -491.144          49.000    17863245.921    73146998.370        -382.753          46.000  
G17  22223600.541   116785823.366       -4099.768          41.000    22223582.098                       -3194.463          26.000  
G19  20205918.977   106182810.565       -3491.982          43.000                                                                  
G24  18756204.449    98564514.534       -2939.081          50.000    18756206.294    76803520.020       -2290.149          46.000  
G25  19923853.670   104700558.023        1730.137          48.000    19923855.908    81584859.034        1348.188          44.000  
G32  20527030.278   107870277.118         601.321          45.000    20527032.720    84054759.058         468.304          44.000  
G 2  22308958.616   117234384.143        1739.183          39.000                                                                  
G14  21850767.030   114826571.953        1678.113          41.000                                                                  
> 2019  5 23  8 53 22.9930000  0  9                     
G 6  21407174.211   112495458.760         849.431          43.000    21407177.322    87658812.711         661.938          41.000  
G12  17863340.744    93872486.426        -491.592          49.000    17863339.425    73147381.302        -382.894          46.000  
G17  22224380.612   116789923.188       -4099.967          41.000    22224363.280                       -3194.852          26.000  
G19  20206583.618   106186302.720       -3492.198          43.000                                                                  
G24  18756763.732    98567453.869       -2939.514          50.000    18756765.659    76805810.412       -2290.643          46.000  
G25  19923524.495   104698828.146        1729.837          48.000    19923526.659    81583511.084        1347.717          44.000  
G32  20526916.035   107869676.174         600.737          45.000    20526918.367    84054290.775         468.270          44.000  
G 2  22308627.774   117232644.941        1739.216          39.000                                                                  
G14  21850447.785   114824894.008        1677.850          41.000                                                                  
> 2019  5 23  8 53 23.9930000  0  9                     
G 6  21407012.647   112494609.741         848.680          43.000    21407015.663    87658151.148         661.204          41.000  
G12  17863434.350    93872978.477        -492.469          49.000    17863433.011    73147764.732        -383.795          46.000  
G17  22225160.979   116794023.372       -4100.435          40.000    22225142.833                       -3194.587          26.000  
G19  20207248.261   106189795.549       -3493.066          43.000                                                                  
G24  18757323.213    98570393.765       -2940.277          50.000    18757324.987    76808101.239       -2291.217          46.000  
G25  19923195.357   104697098.702        1729.083          48.000    19923197.536    81582163.450        1347.498          44.000  
G32  20526801.856   107869075.943         599.864          45.000    20526804.109    84053823.077         467.237          44.000  
G 2  22308296.835   117230906.058        1738.992          39.000                                                                  
G14  21850128.637   114823216.564        1677.154          42.000                                                                  
> 2019  5 23  8 53 24.9930000  0  9                     
G 6  21406851.238   112493761.302         848.174          43.000    21406854.178    87657490.024         661.055          41.000  
G12  17863528.108    93873471.095        -492.838          49.000    17863526.729    73148148.580        -383.846          46.000  
G17  22225941.355   116798123.835       -4100.375          40.000    22225921.666                       -3195.500          26.000  
G19  20207913.079   106193288.952       -3493.652          43.000                                                                  
G24  18757882.655    98573334.172       -2940.552          50.000    18757884.433    76810392.457       -2291.248          46.000  
G25  19922866.331   104695369.628        1728.910          48.000    19922868.558    81580816.131        1347.201          44.000  
G32  20526687.664   107868476.367         599.321          45.000    20526690.049    84053355.872         466.940          44.000  
G 2  22307965.917   117229167.439        1738.352          39.000                                                                  
G14  21849809.575   114821539.586        1676.648          42.000                                                                  
> 2019  5 23  8 53 25.9930000  0  9                     
G 6  21406689.914   112492913.571         847.767          43.000    21406692.820    87656829.467         660.108          41.000  
G12  17863621.959    93873964.417        -493.321          49.000    17863620.550    73148532.998        -384.429          46.000  
G17  22226721.809   116802224.761       -4100.791          40.000    22226702.864                       -3195.543          26.000  
G19  20208577.906   106196783.097       -3494.213          43.000                                                                  
G24  18758442.411    98576275.232       -2941.028          50.000    18758444.034    76812684.198       -2291.669          46.000  
G25  19922537.471   104693641.063        1728.654          48.000    19922539.685    81579469.194        1347.063          44.000  
G32  20526573.780   107867877.592         598.594          45.000    20526576.154    84052889.294         466.480          44.000  
G 2  22307635.088   117227429.182        1738.417          39.000                                                                  
G14  21849490.525   114819863.179        1676.434          42.000                                                                  
> 2019  5 23  8 53 26.9930000  0  9                     
G 6  21406528.664   112492066.227         847.186          43.000    21406531.626    87656169.191         660.144          41.000  
G12  17863715.935    93874458.129        -493.862          49.000    17863714.409    73148917.702        -384.746          46.000  
G17  22227502.159   116806325.788       -4101.030          40.000    22227482.975                       -3195.718          26.000  
G19  20209242.919   106200277.655       -3494.694          43.000                                                                  
G24  18759002.275    98579216.635       -2941.510          50.000    18759003.825    76814976.197       -2292.053          46.000  
G25  19922208.497   104691912.699        1728.279          48.000    19922210.743    81578122.432        1346.479          44.000  
G32  20526459.915   107867279.273         598.163          45.000    20526462.230    84052423.060         466.195          44.000  
G 2  22307304.369   117225690.966        1738.374          39.000                                                                  
G14  21849171.650   114818187.032        1676.190          42.000                                                                  
> 2019  5 23  8 53 27.9930000  0  9                     
G 6  21406367.380   112491219.236         846.930          43.000    21406370.437    87655509.186         660.177          41.000  
G12  17863809.889    93874952.192        -494.238          49.000    17863808.407    73149302.685        -385.144          46.000  
G17  22228282.535   116810426.908       -4101.169          40.000    22228263.186                       -3195.508          26.000  
G19  20209907.941   106203772.590       -3495.264          43.000                                                                  
G24  18759562.069    98582158.351       -2941.882          50.000    18759563.625    76817268.445       -2292.413          46.000  
G25  19921879.654   104690184.499        1728.061          48.000    19921881.882    81576775.775        1346.426          44.000  
G32  20526346.188   107866681.410         597.690          45.000    20526348.523    84051957.206         465.577          44.000  
G 2  22306973.626   117223952.827        1738.090          40.000                                                                  
G14  21848852.615   114816511.129        1675.848          42.000                                                                  
> 2019  5 23  8 53 28.9930000  0  9                     
G 6  21406206.294   112490372.645         846.312          43.000    21406209.424    87654849.507         659.662          41.000  
G12  17863904.020    93875446.629        -494.717          49.000    17863902.549    73149687.956        -385.394          46.000  
G17  22229062.969   116814528.126       -4101.233          40.000    22229045.297                       -3195.450          26.000  
G19  20210573.111   106207267.928       -3495.542          43.000                                                                  
G24  18760121.772    98585100.381       -2942.163          50.000    18760123.515    76819560.939       -2292.651          46.000  
G25  19921550.887   104688456.483        1727.787          48.000    19921553.159    81575429.273        1346.248          44.000  
G32  20526232.600   107866083.999         597.260          45.000    20526234.805    84051491.686         465.416          44.000  
G 2  22306642.825   117222214.730        1737.945          40.000                                                                  
G14  21848533.731   114814835.499        1675.281          42.000                                                                  
> 2019  5 23  8 53 29.9930000  0  9                     
G 6  21406045.116   112489526.331         845.914          43.000    21406048.369    87654190.053         658.998          41.000  
G12  17863998.176    93875941.342        -495.014          49.000    17863996.815    73150073.447        -385.698          46.000  
G17  22229843.441   116818629.380       -4101.481          40.000    22229827.006                       -3196.207          26.000  
G19  20211238.338   106210763.591       -3495.866          43.000                                                                  
G24  18760681.768    98588042.669       -2942.523          50.000    18760683.287    76821853.629       -2292.957          46.000  
G25  19921222.052   104686728.552        1727.655          48.000    19921224.252    81574082.835        1346.206          44.000  
G32  20526118.988   107865486.979         596.537          46.000    20526121.126    84051026.478         464.762          44.000  
G 2  22306312.042   117220476.603        1737.867          40.000                                                                  
G14  21848214.942   114813160.016        1675.140          42.000                                                                  
> 2019  5 23  8 53 30.9930000  0  9                     
G 6  21405884.238   112488680.440         845.390          43.000    21405887.430    87653530.909         658.960          41.000  
G12  17864092.486    93876436.458        -495.489          49.000    17864091.008    73150459.253        -386.074          46.000  
G17  22230623.809   116822730.758       -4101.514          40.000    22230608.513                       -3195.604          26.000  
G19  20211903.624   106214259.679       -3496.348          43.000                                                                  
G24  18761241.742    98590985.325       -2942.938          50.000    18761243.197    76824146.611       -2293.231          46.000  
G25  19920893.230   104685000.832        1727.394          48.000    19920895.506    81572736.556        1346.097          44.000  
G32  20526005.446   107864890.424         596.218          46.000    20526007.616    84050561.628         464.543          44.000  
G 2  22305981.356   117218738.531        1738.368          40.000                                                                  
G14  21847896.165   114811484.806        1674.951          42.000                                                                  
> 2019  5 23  8 53 31.9930000  0  9                     
G 6  21405723.385   112487835.335         844.848          43.000    21405726.619    87652872.403         658.401          40.000  
G12  17864186.803    93876932.383        -496.210          49.000    17864185.306    73150845.690        -386.696          46.000  
G17  22231404.446   116826832.675       -4102.199          40.000    22231389.892                       -3196.247          27.000  
G19  20212569.044   106217756.606       -3497.280          43.000                                                                  
G24  18761801.833    98593928.756       -2943.677          50.000    18761803.340    76826440.194       -2293.805          46.000  
G25  19920564.495   104683273.746        1726.843          48.000    19920566.858    81571390.771        1345.695          44.000  
G32  20525892.097   107864294.780         595.235          46.000    20525894.204    84050097.499         463.851          44.000  
G 2  22305650.718   117217000.980        1737.330          40.000                                                                  
G14  21847577.497   114809810.286        1674.371          42.000                                                                  
> 2019  5 23  8 53 32.9930000  0  9                     
G 6  21405562.664   112486990.828         844.454          43.000    21405565.899    87652214.342         657.960          41.000  
G12  17864281.280    93877428.876        -496.554          49.000    17864279.785    73151232.568        -387.018          46.000  
G17  22232185.075   116830934.875       -4101.992          40.000    22232171.578                       -3196.574          27.000  
G19  20213234.725   106221254.138       -3497.683          43.000                                                                  
G24  18762361.941    98596872.681       -2943.915          50.000    18762363.663    76828734.169       -2294.147          46.000  
G25  19920235.875   104681547.029        1726.645          48.000    19920238.198    81570045.276        1345.490          44.000  
G32  20525778.836   107863699.801         594.733          45.000    20525780.860    84049633.862         463.668          44.000  
G 2  22305320.094   117215263.654        1737.954          40.000                                                                  
G14  21847259.005   114808136.233        1674.072          42.000                                                                  
> 2019  5 23  8 53 33.9930000  0  9                     
G 6  21405402.207   112486147.236         843.096          43.000    21405405.332    87651557.003         656.890          41.000  
G12  17864375.942    93877926.282        -497.913          49.000    17864374.479    73151620.159        -388.057          46.000  
G17  22232965.883   116835037.739       -4103.047          40.000    22232953.016                       -3197.038          26.000  
G19  20213900.451   106224752.611       -3499.007          43.000                                                                  
G24  18762922.422    98599817.476       -2945.367          50.000    18762924.149    76831028.806       -2295.111          46.000  
G25  19919907.416   104679821.035        1725.638          48.000    19919909.797    81568700.346        1344.552          44.000  
G32  20525665.832   107863105.818         593.365          45.000    20525667.793    84049171.032         462.304          44.000  
G 2  22304989.676   117213526.973        1735.880          40.000                                                                  
G14  21846940.657   114806462.971        1672.656          42.000                                                                  
> 2019  5 23  8 53 34.9930000  0  9                     
G 6  21405241.906   112485304.751         841.763          43.000    21405245.013    87650900.509         656.047          41.000  
G12  17864470.830    93878424.775        -499.099          49.000    17864469.269    73152008.587        -388.893          46.000  
G17  22233746.863   116839141.430       -4104.097          40.000    22233736.044                       -3197.770          27.000  
G19  20214566.404   106228252.205       -3500.179          43.000                                                                  
G24  18763482.947    98602763.306       -2946.423          50.000    18763484.676    76833324.267       -2296.045          46.000  
G25  19919579.198   104678095.934        1724.700          48.000    19919581.401    81567356.120        1343.490          44.000  
G32  20525553.073   107862513.015         592.283          45.000    20525554.991    84048709.105         461.392          44.000  
G 2  22304659.380   117211791.011        1735.599          40.000                                                                  
G14  21846622.431   114804790.677        1671.722          42.000                                                                  
> 2019  5 23  8 53 35.9930000  0  9                     
G 6  21405081.671   112484463.137         841.049          43.000    21405084.776    87650244.708         655.589          41.000  
G12  17864565.805    93878924.152        -499.825          49.000    17864564.341    73152397.714        -389.535          46.000  
G17  22234527.833   116843245.735       -4104.830          41.000    22234517.450                       -3198.055          27.000  
G19  20215232.505   106231752.693       -3500.890          43.000                                                                  
G24  18764043.694    98605709.967       -2947.119          50.000    18764045.393    76835620.353       -2296.405          46.000  
G25  19919250.973   104676371.534        1724.039          48.000    19919253.218    81566012.429        1343.230          44.000  
G32  20525440.441   107861921.186         591.252          45.000    20525442.419    84048247.933         460.673          44.000  
G 2  22304329.227   117210055.627        1735.000          40.000                                                                  
G14  21846304.357   114803119.148        1671.198          42.000                                                                  
> 2019  5 23  8 53 36.9930000  0  9                     
G 6  21404921.577   112483622.069         840.684          43.000    21404924.638    87649589.342         655.143          41.000  
G12  17864660.872    93879424.070        -500.331          49.000    17864659.494    73152787.253        -389.573          46.000  
G17  22235308.826   116847350.299       -4104.911          41.000    22235299.225                       -3198.561          27.000  
G19  20215898.726   106235253.756       -3501.484          43.000                                                                  
G24  18764604.491    98608657.090       -2947.418          50.000    18764606.145    76837916.817       -2296.826          46.000  
G25  19918922.944   104674647.474        1723.829          48.000    19918925.167    81564668.999        1343.220          44.000  
G32  20525327.866   107861329.967         590.937          45.000    20525329.898    84047787.249         460.386          44.000  
G 2  22303999.007   117208320.469        1734.681          40.000                                                                  
G14  21845986.345   114801448.024        1670.905          42.000                                                                  
> 2019  5 23  8 53 37.9930000  0  9                     
G 6  21404761.609   112482781.626         840.211          43.000    21404764.699    87648934.456         654.596          40.000  
G12  17864756.147    93879924.598        -500.828          49.000    17864754.633    73153177.286        -390.357          46.000  
G17  22236089.973   116851455.204       -4105.268          41.000    22236079.374                       -3198.811          27.000  
G19  20216565.031   106238755.466       -3502.254          43.000                                                                  
G24  18765165.395    98611604.783       -2947.968          50.000    18765167.086    76840213.716       -2297.137          46.000  
G25  19918595.044   104672923.826        1723.495          48.000    19918597.189    81563325.908        1342.865          44.000  
G32  20525215.463   107860739.476         590.164          45.000    20525217.511    84047327.130         459.451          44.000  
G 2  22303668.718   117206585.582        1734.559          40.000                                                                  
G14  21845668.381   114799777.420        1670.349          42.000                                                                  
> 2019  5 23  8 53 38.9930000  0  9                     
G 6  21404601.928   112481942.183         838.687          43.000    21404604.933    87648280.359         653.433          41.000  
G12  17864851.618    93880426.130        -502.221          49.000    17864850.209    73153568.091        -391.417          46.000  
G17  22236871.312   116855560.843       -4106.112          41.000    22236861.400                       -3199.099          27.000  
G19  20217231.588   106242258.178       -3503.300          43.000                                                                  
G24  18765726.470    98614553.425       -2949.341          50.000    18765728.117    76842511.364       -2298.297          46.000  
G25  19918267.233   104671201.022        1722.154          48.000    19918269.407    81561983.451        1341.935          44.000  
G32  20525103.220   107860150.065         588.656          45.000    20525105.286    84046867.830         458.846          44.000  
G 2  22303338.820   117204851.372        1733.800          39.000                                                                  
G14  21845350.655   114798107.685        1669.061          42.000                                                                  
> 2019  5 23  8 53 39.9930000  0  9                     
G 6  21404442.464   112481104.191         837.469          43.000    21404445.470    87647627.355         652.648          40.000  
G12  17864947.396    93880929.095        -503.524          49.000    17864945.924    73153959.999        -392.300          46.000  
G17  22237652.797   116859667.656       -4107.323          41.000    22237644.057                       -3200.067          27.000  
G19  20217898.352   106245762.377       -3504.740          43.000                                                                  
G24  18766287.864    98617503.458       -2950.500          50.000    18766289.352    76844810.077       -2299.078          46.000  
G25  19917939.536   104669479.435        1721.069          48.000    19917941.832    81560641.953        1341.024          44.000  
G32  20524991.410   107859562.157         587.334          45.000    20524993.426    84046409.737         457.568          44.000  
G 2  22303009.063   117203118.299        1732.573          39.000                                                                  
G14  21845033.069   114796439.271        1667.828          42.000                                                                  
> 2019  5 23  8 53 40.9930000  0  9                     
G 6  21404283.240   112480267.805         835.796          43.000    21404286.345    87646975.642         651.121          40.000  
G12  17865043.469    93881433.678        -505.297          49.000    17865042.027    73154353.189        -393.740          46.000  
G17  22238434.488   116863775.805       -4108.550          41.000    22238425.784                       -3201.449          27.000  
G19  20218565.436   106249268.230       -3506.581          43.000                                                                  
G24  18766849.525    98620455.066       -2952.209          50.000    18766851.124    76847110.034       -2300.378          46.000  
G25  19917612.186   104667759.279        1719.529          48.000    19917614.619    81559301.573        1340.085          44.000  
G32  20524879.923   107858975.972         585.546          45.000    20524881.835    84045952.969         456.159          44.000  
G 2  22302679.606   117201386.507        1731.213          39.000                                                                  
G14  21844715.932   114794772.359        1666.131          42.000                                                                  
> 2019  5 23  8 53 41.9930000  0  9                     
G 6  21404124.338   112479432.641         834.144          43.000    21404127.449    87646324.865         650.078          40.000  
G12  17865139.777    93881939.449        -506.637          49.000    17865138.241    73154747.291        -394.726          46.000  
G17  22239216.406   116867884.903       -4110.044          41.000    22239207.862                       -3202.520          27.000  
G19  20219232.983   106252775.281       -3507.933          43.000                                                                  
G24  18767411.464    98623407.800       -2953.619          50.000    18767413.032    76849410.871       -2301.471          46.000  
G25  19917284.961   104666040.128        1718.371          48.000    19917287.472    81557961.978        1339.032          44.000  
G32  20524768.600   107858391.068         583.936          45.000    20524770.568    84045497.199         454.902          44.000  
G 2  22302350.240   117199655.596        1730.045          39.000                                                                  
G14  21844398.899   114793106.511        1664.923          42.000                                                                  
> 2019  5 23  8 53 42.9930000  0  9                     
G 6  21403965.620   112478599.003         833.080          43.000    21403968.746    87645675.263         649.329          40.000  
G12  17865236.281    93882446.746        -507.853          49.000    17865234.753    73155142.597        -395.792          46.000  
G17  22239998.577   116871995.217       -4110.728          41.000    22239990.606                       -3202.810          27.000  
G19  20219900.713   106256283.890       -3509.138          43.000                                                                  
G24  18767973.624    98626362.016       -2954.883          50.000    18767975.203    76851712.852       -2302.441          46.000  
G25  19916958.202   104664322.329        1717.081          48.000    19916960.585    81556623.434        1338.149          44.000  
G32  20524657.594   107857807.786         582.625          45.000    20524659.459    84045042.692         453.982          44.000  
G 2  22302021.200   117197925.868        1729.685          39.000                                                                  
G14  21844082.145   114791442.075        1663.843          42.000                                                                  
> 2019  5 23  8 53 43.9930000  0  9                     
G 6  21403807.357   112477766.641         831.545          43.000    21403810.340    87645026.669         648.069          41.000  
G12  17865332.952    93882955.301        -509.298          49.000    17865331.491    73155538.869        -397.002          46.000  
G17  22240780.845   116876106.547       -4111.942          41.000    22240774.170                       -3203.583          27.000  
G19  20220568.591   106259793.787       -3510.764          43.000                                                                  
G24  18768536.108    98629317.417       -2956.091          50.000    18768537.619    76854015.759       -2303.284          46.000  
G25  19916631.478   104662605.559        1716.092          48.000    19916633.985    81555285.700        1337.022          44.000  
G32  20524546.877   107857225.841         581.006          45.000    20524548.719    84044589.213         452.817          44.000  
G 2  22301692.148   117196197.129        1727.832          39.000                                                                  
G14  21843765.787   114789778.783        1662.427          42.000                                                                  
> 2019  5 23  8 53 44.9930000  0  9                     
G 6  21403649.184   112476935.387         830.380          43.000    21403652.135    87644378.948         646.932          41.000  
G12  17865429.951    93883464.961        -510.445          49.000    17865428.408    73155936.005        -397.844          46.000  
G17  22241563.320   116880218.704       -4112.844          41.000    22241557.169                       -3205.065          27.000  
G19  20221236.678   106263304.825       -3511.836          43.000                                                                  
G24  18769098.787    98632273.895       -2957.306          50.000    18769100.232    76856319.513       -2304.462          46.000  
G25  19916304.979   104660889.731        1715.057          48.000    19916307.530    81553948.693        1336.336          44.000  
G32  20524436.392   107856645.102         579.804          45.000    20524438.172    84044136.694         451.871          44.000  
G 2  22301363.402   117194469.122        1727.568          39.000                                                                  
G14  21843449.428   114788116.467        1661.627          42.000                                                                  
> 2019  5 23  8 53 45.9930000  0  9                     
G 6  21403491.270   112476105.258         829.491          43.000    21403493.972    87643732.093         646.047          41.000  
G12  17865527.160    93883975.744        -511.516          49.000    17865525.645    73156334.018        -398.719          46.000  
G17  22242346.004   116884331.729       -4113.792          41.000    22242341.130                       -3205.615          27.000  
G19  20221905.042   106266817.000       -3512.942          43.000                                                                  
G24  18769661.661    98635231.449       -2958.325          50.000    18769663.061    76858624.092       -2305.103          46.000  
G25  19915978.608   104659174.829        1714.202          48.000    19915981.259    81552612.407        1335.535          44.000  
G32  20524326.097   107856065.560         578.693          45.000    20524327.917    84043685.099         451.006          44.000  
G 2  22301034.776   117192741.957        1726.328          39.000                                                                  
G14  21843133.240   114786455.158        1660.693          42.000                                                                  
> 2019  5 23  8 53 46.9930000  0  9                     
G 6  21403333.406   112475276.226         828.199          43.000    21403336.253    87643086.098         645.395          41.000  
G12  17865624.631    93884487.618        -512.691          49.000    17865622.921    73156732.873        -399.381          46.000  
G17  22243128.855   116888445.556       -4114.387          41.000    22243124.701                       -3205.865          27.000  
G19  20222573.615   106270330.288       -3514.034          42.000                                                                  
G24  18770224.684    98638190.049       -2959.296          50.000    18770226.071    76860929.506       -2305.884          46.000  
G25  19915652.409   104657460.822        1713.317          48.000    19915655.097    81551276.818        1334.993          44.000  
G32  20524216.028   107855487.210         577.471          45.000    20524217.903    84043234.450         450.064          44.000  
G 2  22300706.188   117191015.550        1725.675          39.000                                                                  
G14  21842817.367   114784794.809        1659.692          42.000                                                                  
> 2019  5 23  8 53 47.9930000  0  9                     
G 6  21403175.840   112474448.135         827.568          43.000    21403178.606    87642440.825         645.044          41.000  
G12  17865722.312    93885000.422        -513.411          49.000    17865720.486    73157132.472        -400.155          46.000  
G17  22243911.828   116892560.064       -4115.102          41.000    22243908.766                       -3205.844          27.000  
G19  20223242.348   106273844.538       -3514.847          42.000                                                                  
G24  18770787.831    98641149.553       -2960.089          50.000    18770789.215    76863235.603       -2306.537          46.000  
G25  19915326.479   104655747.567        1712.661          48.000    19915329.050    81549941.800        1334.621          44.000  
G32  20524106.066   107854909.872         576.679          45.000    20524108.007    84042784.576         449.404          43.000  
G 2  22300377.860   117189289.759        1724.828          39.000                                                                  
G14  21842501.490   114783135.296        1658.997          42.000                                                                  
> 2019  5 23  8 53 48.9930000  0  9                     
G 6  21403018.485   112473621.173         826.308          43.000    21403021.272    87641796.447         643.875          41.000  
G12  17865820.119    93885514.338        -514.364          49.000    17865818.407    73157532.919        -400.851          46.000  
G17  22244694.921   116896675.410       -4115.771          41.000    22244692.420                       -3206.972          27.000  
G19  20223911.323   106277359.938       -3516.054          43.000                                                                  
G24  18771351.268    98644110.089       -2961.065          50.000    18771352.507    76865542.513       -2307.282          46.000  
G25  19915000.621   104654035.226        1711.936          48.000    19915003.233    81548607.514        1333.917          44.000  
G32  20523996.405   107854333.748         575.699          45.000    20523998.390    84042335.646         448.583          43.000  
G 2  22300049.633   117187564.744        1725.039          39.000                                                                  
G14  21842185.914   114781476.770        1658.289          42.000                                                                  
> 2019  5 23  8 53 49.9930000  0  9                     
G 6  21402861.277   112472795.293         825.205          43.000    21402864.105    87641152.907         643.140          41.000  
G12  17865918.123    93886029.352        -515.638          49.000    17865916.452    73157934.226        -401.762          46.000  
G17  22245478.192   116900791.565       -4116.545          41.000    22245476.123                       -3208.014          27.000  
G19  20224580.524   106280876.436       -3517.148          43.000                                                                  
G24  18771914.863    98647071.661       -2962.127          50.000    18771916.111    76867850.235       -2308.038          46.000  
G25  19914674.886   104652323.786        1711.012          48.000    19914677.540    81547273.934        1333.235          44.000  
G32  20523886.962   107853758.810         574.200          45.000    20523888.873    84041887.651         447.242          43.000  
G 2  22299721.523   117185840.533        1723.759          40.000                                                                  
G14  21841870.332   114779819.223        1657.019          42.000                                                                  
> 2019  5 23  8 53 50.9930000  0  9                     
G 6  21402704.339   112471970.525         824.197          43.000    21402707.211    87640510.239         642.221          41.000  
G12  17866016.210    93886545.460        -516.552          49.000    17866014.648    73158336.387        -402.489          46.000  
G17  22246261.685   116904908.579       -4117.603          40.000    22246260.896                       -3207.787          27.000  
G19  20225249.798   106284394.085       -3518.580          43.000                                                                  
G24  18772478.631    98650034.283       -2963.183          50.000    18772479.826    76870158.773       -2309.039          46.000  
G25  19914349.436   104650613.268        1710.102          48.000    19914351.955    81545941.063        1332.454          44.000  
G32  20523777.759   107853185.058         573.127          45.000    20523779.697    84041440.565         446.531          43.000  
G 2  22299393.661   117184117.088        1722.997          40.000                                                                  
G14  21841555.082   114778162.660        1656.158          42.000                                                                  
