     3.00           Observation Data    M (Mixed)           RINEX VERSION / TYPE
SimGEN V6.06.00     Spirent             03-Jul-19 12:00     PGM / RUN BY / DATE 
                                                            MARKER NAME         
1                                                           MARKER NUMBER       
GROUND_CRAFT                                                MARKER TYPE         
lis4hi              Spirent                                 OBSERVER / AGENCY   
rec_num             rec_type            rec_vers            REC # / TYPE / VERS 
1                   ant_type                                ANT # / TYPE        
  1000.000                                                  INTERVAL            
  2019     7     3    12     0    0.0000000     GPS         TIME OF FIRST OBS   
  4162684.4440   664344.9880  4770530.1970                  APPROX POSITION XYZ 
        0.0000        0.0000        0.0000                  ANTENNA: DELTA H/E/N
G    8 C1C L1C D1C S1C C2C L2C D2C S2C                      SYS / # / OBS TYPES 
        0.0000        0.0000        0.0000                  ANTENNA: DELTA X/Y/Z
DBHZ                                                        SIGNAL STRENGTH UNIT
                                                            END OF HEADER       
> 2019 07 03 12 00  0.0000000  0  8       0.000000000000
G07  25371998.322 5 133330704.775 5      2213.624 5        33.351 5  25371999.005 6         0.000 6      1724.902 6        37.977 6
G10  23849385.600 6 125329311.920 6      3537.300 6        37.837 6  23849389.366 6         0.000 6      2756.338 6        37.977 6
G21  21156835.606 7 111179900.879 7     -1229.628 7        47.885 7  21156834.889 6         0.000 6      -958.152 6        37.977 6
G29  24264451.661 5 127510498.317 5     -3114.915 5        35.927 5  24264453.198 6         0.000 6     -2427.206 6        37.977 6
G27  22033085.804 7 115784620.220 7      2513.382 7        43.124 7  22033087.747 6         0.000 6      1958.479 6        37.977 6
G16  20503747.119 8 107747898.032 8       593.465 8        48.061 8  20503746.292 6         0.000 6       462.440 6        37.977 6
G26  20637929.882 7 108453031.352 7     -1448.977 7        47.694 7  20637932.692 6         0.000 6     -1129.073 6        37.977 6
G20  21973054.478 7 115469147.266 7      2591.696 7        43.267 7  21973054.816 6         0.000 6      2019.503 6        37.977 6
> 2019 07 03 12 00  1.0000000  0  8       0.000000000000
G07  25371576.882 5 133328490.096 5      2214.521 5        33.351 5  25371577.565 6         0.000 6      1725.601 6        37.977 6
G10  23848712.641 6 125325775.508 6      3536.314 6        37.837 6  23848716.406 6         0.000 6      2755.572 6        37.977 6
G21  21157069.807 7 111181131.611 7     -1230.964 7        47.885 7  21157069.090 6         0.000 6      -959.193 6        37.977 6
G29  24265044.948 5 127513616.054 5     -3117.940 5        35.927 5  24265046.486 6         0.000 6     -2429.566 6        37.977 6
G27  22032607.137 7 115782104.807 7      2515.415 7        43.124 7  22032609.079 6         0.000 6      1960.064 6        37.977 6
G16  20503634.050 8 107747303.853 8       593.929 8        48.061 8  20503633.224 6         0.000 6       462.802 6        37.977 6
G26  20638205.613 7 108454480.327 7     -1449.248 7        47.694 7  20638208.423 6         0.000 6     -1129.284 6        37.977 6
G20  21972561.592 7 115466557.138 7      2589.842 7        43.267 7  21972561.930 6         0.000 6      2018.060 6        37.977 6
> 2019 07 03 12 00  2.0000000  0  8       0.000000000000
G07  25371155.553 5 133326276.004 5      2213.614 5        33.351 5  25371156.236 6         0.000 6      1724.895 6        37.977 6
G10  23848039.690 6 125322239.136 6      3536.488 6        37.837 6  23848043.454 6         0.000 6      2755.708 6        37.977 6
G21  21157304.058 7 111182362.609 7     -1230.990 7        47.885 7  21157303.341 6         0.000 6      -959.213 6        37.977 6
G29  24265638.197 5 127516733.588 5     -3117.014 5        35.927 5  24265639.736 6         0.000 6     -2428.844 6        37.977 6
G27  22032128.556 7 115779589.853 7      2514.392 7        43.124 7  22032130.499 6         0.000 6      1959.268 6        37.977 6
G16  20503521.118 8 107746710.391 8       592.941 8        48.061 8  20503520.292 6         0.000 6       462.032 6        37.977 6
G26  20638481.459 7 108455929.905 7     -1449.930 7        47.694 7  20638484.269 6         0.000 6     -1129.816 6        37.977 6
G20  21972068.762 7 115463967.303 7      2589.900 7        43.267 7  21972069.100 6         0.000 6      2018.105 6        37.977 6
> 2019 07 03 12 00  3.0000000  0  8       0.000000000000
G07  25370734.417 5 133324062.919 5      2212.576 5        33.351 5  25370735.099 6         0.000 6      1724.086 6        37.977 6
G10  23847366.692 6 125318702.520 6      3536.752 6        37.838 6  23847370.456 6         0.000 6      2755.913 6        37.977 6
G21  21157538.300 7 111183593.556 7     -1230.917 7        47.885 7  21157537.583 6         0.000 6      -959.156 6        37.977 6
G29  24266231.226 5 127519849.967 5     -3115.792 5        35.927 5  24266232.765 6         0.000 6     -2427.892 6        37.977 6
G27  22031650.204 7 115777076.099 7      2513.142 7        43.125 7  22031652.147 6         0.000 6      1958.293 6        37.977 6
G16  20503408.390 8 107746118.002 8       591.845 8        48.061 8  20503407.564 6         0.000 6       461.178 6        37.977 6
G26  20638757.439 7 108457380.189 7     -1450.643 7        47.694 7  20638760.249 6         0.000 6     -1130.372 6        37.977 6
G20  21971575.900 7 115461377.297 7      2590.103 7        43.267 7  21971576.237 6         0.000 6      2018.264 6        37.977 6
> 2019 07 03 12 00  4.0000000  0  8       0.000000000000
G07  25370313.437 5 133321850.661 5      2212.264 5        33.352 5  25370314.120 6         0.000 6      1723.843 6        37.977 6
G10  23846693.673 6 125315165.789 6      3536.523 6        37.838 6  23846697.436 6         0.000 6      2755.735 6        37.977 6
G21  21157772.556 7 111184824.583 7     -1231.388 7        47.885 7  21157771.840 6         0.000 6      -959.523 6        37.977 6
G29  24266824.110 5 127522965.580 5     -3116.194 5        35.927 5  24266825.649 6         0.000 6     -2428.206 6        37.977 6
G27  22031172.023 7 115774563.241 7      2513.150 7        43.125 7  22031173.965 6         0.000 6      1958.300 6        37.977 6
G16  20503295.840 8 107745526.543 8       591.345 8        48.061 8  20503295.013 6         0.000 6       460.788 6        37.977 6
G26  20639033.547 7 108458831.146 7     -1451.190 7        47.694 7  20639036.358 6         0.000 6     -1130.798 6        37.977 6
G20  21971083.042 7 115458787.320 7      2589.508 7        43.267 7  21971083.379 6         0.000 6      2017.800 6        37.977 6
> 2019 07 03 12 00  5.0000000  0  8       0.000000000000
G07  25369892.456 5 133319638.396 5      2212.160 5        33.352 5  25369893.139 6         0.000 6      1723.762 6        37.977 6
G10  23846020.737 6 125311629.498 6      3536.156 6        37.838 6  23846024.499 6         0.000 6      2755.449 6        37.977 6
G21  21158006.949 7 111186056.326 7     -1232.015 7        47.884 7  21158006.233 6         0.000 6      -960.012 6        37.977 6
G29  24267417.210 5 127526082.335 5     -3117.073 5        35.926 5  24267418.751 6         0.000 6     -2428.890 6        37.977 6
G27  22030693.730 7 115772049.800 7      2513.531 7        43.125 7  22030695.672 6         0.000 6      1958.596 6        37.977 6
G16  20503183.331 8 107744935.308 8       591.025 8        48.061 8  20503182.505 6         0.000 6       460.539 6        37.977 6
G26  20639309.743 7 108460282.563 7     -1451.681 7        47.694 7  20639312.554 6         0.000 6     -1131.180 6        37.977 6
G20  21970590.365 7 115456198.290 7      2588.686 7        43.268 7  21970590.702 6         0.000 6      2017.159 6        37.977 6
> 2019 07 03 12 00  6.0000000  0  8       0.000000000000
G07  25369471.550 5 133317426.519 5      2211.543 5        33.352 5  25369472.232 6         0.000 6      1723.282 6        37.977 6
G10  23845347.835 6 125308093.384 6      3536.134 6        37.838 6  23845351.597 6         0.000 6      2755.432 6        37.977 6
G21  21158241.421 7 111187288.484 7     -1232.258 7        47.884 7  21158240.705 6         0.000 6      -960.201 6        37.977 6
G29  24268010.355 5 127529199.322 5     -3116.797 5        35.926 5  24268011.896 6         0.000 6     -2428.676 6        37.977 6
G27  22030215.461 7 115769536.482 7      2513.015 7        43.125 7  22030217.403 6         0.000 6      1958.194 6        37.977 6
G16  20503070.930 8 107744344.635 8       590.278 8        48.061 8  20503070.103 6         0.000 6       459.957 6        37.977 6
G26  20639586.046 7 108461734.545 7     -1452.295 7        47.694 7  20639588.857 6         0.000 6     -1131.659 6        37.977 6
G20  21970097.786 7 115453609.771 7      2588.426 7        43.268 7  21970098.122 6         0.000 6      2016.956 6        37.977 6
> 2019 07 03 12 00  7.0000000  0  8       0.000000000000
G07  25369050.783 5 133315215.377 5      2210.744 5        33.352 5  25369051.465 6         0.000 6      1722.659 6        37.977 6
G10  23844674.921 6 125304557.209 6      3536.239 6        37.839 6  23844678.682 6         0.000 6      2755.513 6        37.977 6
G21  21158475.923 7 111188520.801 7     -1232.376 7        47.884 7  21158475.207 6         0.000 6      -960.293 6        37.977 6
G29  24268603.400 5 127532315.786 5     -3116.141 5        35.926 5  24268604.942 6         0.000 6     -2428.164 6        37.977 6
G27  22029737.327 7 115767023.873 7      2512.199 7        43.125 7  22029739.269 6         0.000 6      1957.559 6        37.977 6
G16  20502958.688 8 107743754.799 8       589.387 8        48.061 8  20502957.861 6         0.000 6       459.263 6        37.977 6
G26  20639862.470 7 108463187.161 7     -1452.945 7        47.693 7  20639865.281 6         0.000 6     -1132.165 6        37.977 6
G20  21969605.231 7 115451021.384 7      2588.359 7        43.268 7  21969605.567 6         0.000 6      2016.904 6        37.977 6
> 2019 07 03 12 00  8.0000000  0  8       0.000000000000
G07  25368630.167 5 133313005.032 5      2209.956 5        33.352 5  25368630.849 6         0.000 6      1722.045 6        37.977 6
G10  23844001.987 6 125301020.930 6      3536.348 6        37.839 6  23844005.748 6         0.000 6      2755.599 6        37.977 6
G21  21158710.451 7 111189753.253 7     -1232.542 7        47.884 7  21158709.735 6         0.000 6      -960.422 6        37.977 6
G29  24269196.327 5 127535431.627 5     -3115.603 5        35.926 5  24269197.869 6         0.000 6     -2427.745 6        37.977 6
G27  22029259.344 7 115764512.060 7      2511.465 7        43.126 7  22029261.286 6         0.000 6      1956.986 6        37.977 6
G16  20502846.614 8 107743165.847 8       588.536 8        48.061 8  20502845.787 6         0.000 6       458.599 6        37.977 6
G26  20640139.017 7 108464640.423 7     -1453.564 7        47.693 7  20640141.828 6         0.000 6     -1132.648 6        37.977 6
G20  21969112.692 7 115448433.076 7      2588.261 7        43.268 7  21969113.028 6         0.000 6      2016.828 6        37.977 6
> 2019 07 03 12 00  9.0000000  0  8       0.000000000000
G07  25368209.705 5 133310795.491 5      2209.063 5        33.352 5  25368210.386 6         0.000 6      1721.349 6        37.977 6
G10  23843329.024 6 125297484.497 6      3536.614 6        37.839 6  23843332.784 6         0.000 6      2755.806 6        37.977 6
G21  21158945.022 7 111190985.926 7     -1232.852 7        47.884 7  21158944.305 6         0.000 6      -960.664 6        37.977 6
G29  24269789.181 5 127538547.083 5     -3115.394 5        35.926 5  24269790.724 6         0.000 6     -2427.582 6        37.977 6
G27  22028781.481 7 115762000.875 7      2510.930 7        43.126 7  22028783.423 6         0.000 6      1956.570 6        37.977 6
G16  20502734.691 8 107742577.687 8       587.792 8        48.061 8  20502733.864 6         0.000 6       458.019 6        37.977 6
G26  20640415.670 7 108466094.238 7     -1454.028 7        47.693 7  20640418.481 6         0.000 6     -1133.010 6        37.977 6
G20  21968620.173 7 115445844.876 7      2588.177 7        43.268 7  21968620.508 6         0.000 6      2016.763 6        37.977 6
> 2019 07 03 12 00 10.0000000  0  8       0.000000000000
G07  25367789.336 5 133308586.440 5      2209.974 5        33.352 5  25367790.017 6         0.000 6      1722.059 6        37.977 6
G10  23842656.083 6 125293948.179 6      3535.130 6        37.839 6  23842659.843 6         0.000 6      2754.649 6        37.977 6
G21  21159179.655 7 111192218.932 7     -1233.059 7        47.884 7  21159178.938 6         0.000 6      -960.825 6        37.977 6
G29  24270382.031 5 127541662.522 5     -3115.615 5        35.925 5  24270383.574 6         0.000 6     -2427.755 6        37.977 6
G27  22028303.679 7 115759490.007 7      2511.106 7        43.126 7  22028305.620 6         0.000 6      1956.707 6        37.977 6
G16  20502622.893 8 107741990.184 8       587.328 8        48.061 8  20502622.066 6         0.000 6       457.658 6        37.977 6
G26  20640692.436 7 108467548.653 7     -1455.194 7        47.693 7  20640695.247 6         0.000 6     -1133.918 6        37.977 6
G20  21968127.730 7 115443257.075 7      2586.783 7        43.269 7  21968128.065 6         0.000 6      2015.677 6        37.977 6
> 2019 07 03 12 00 11.0000000  0  8       0.000000000000
G07  25367368.009 5 133306372.356 5      2219.879 5        33.353 5  25367368.690 6         0.000 6      1729.777 6        37.977 6
G10  23841984.189 6 125290417.360 6      3524.968 6        37.840 6  23841987.947 6         0.000 6      2746.731 6        37.977 6
G21  21159414.273 7 111193451.860 7     -1232.888 7        47.884 7  21159413.557 6         0.000 6      -960.692 6        37.977 6
G29  24270975.087 5 127544779.045 5     -3118.306 5        35.925 5  24270976.631 6         0.000 6     -2429.851 6        37.977 6
G27  22027825.549 7 115756977.424 7      2515.029 7        43.126 7  22027827.490 6         0.000 6      1959.764 6        37.977 6
G16  20502511.069 8 107741402.545 8       588.359 8        48.061 8  20502510.242 6         0.000 6       458.461 6        37.977 6
G26  20640969.736 7 108469005.873 7     -1459.764 7        47.693 7  20640972.547 6         0.000 6     -1137.479 6        37.977 6
G20  21967636.117 7 115440673.637 7      2578.799 7        43.269 7  21967636.452 6         0.000 6      2009.455 6        37.977 6
> 2019 07 03 12 00 12.0000000  0  8       0.000000000000
G07  25366944.077 5 133304144.583 5      2235.795 5        33.353 5  25366944.758 6         0.000 6      1742.179 6        37.977 6
G10  23841314.854 6 125286899.995 6      3509.859 6        37.840 6  23841318.612 6         0.000 6      2734.958 6        37.977 6
G21  21159649.014 7 111194685.430 7     -1234.772 7        47.884 7  21159648.298 6         0.000 6      -962.160 6        37.977 6
G29  24271569.313 5 127547901.712 5     -3128.392 5        35.925 5  24271570.858 6         0.000 6     -2437.711 6        37.977 6
G27  22027346.065 7 115754457.718 7      2525.322 7        43.126 7  22027348.006 6         0.000 6      1967.784 6        37.977 6
G16  20502398.775 8 107740812.438 8       592.317 8        48.061 8  20502397.948 6         0.000 6       461.546 6        37.977 6
G26  20641248.035 7 108470468.346 7     -1464.821 7        47.693 7  20641250.847 6         0.000 6     -1141.419 6        37.977 6
G20  21967146.636 7 115438101.400 7      2565.356 7        43.269 7  21967146.970 6         0.000 6      1998.979 6        37.977 6
> 2019 07 03 12 00 13.0000000  0  8       0.000000000000
G07  25366517.456 5 133301902.678 5      2246.307 5        33.353 5  25366518.136 6         0.000 6      1750.370 6        37.977 6
G10  23840647.987 6 125283395.596 6      3500.578 6        37.840 6  23840651.745 6         0.000 6      2727.726 6        37.977 6
G21  21159884.346 7 111195922.105 7     -1238.557 7        47.884 7  21159883.629 6         0.000 6      -965.109 6        37.977 6
G29  24272165.909 5 127551036.834 5     -3141.152 5        35.925 5  24272167.454 6         0.000 6     -2447.654 6        37.977 6
G27  22026864.397 7 115751926.539 7      2536.153 7        43.126 7  22026866.338 6         0.000 6      1976.224 6        37.977 6
G16  20502285.602 8 107740217.709 8       596.766 8        48.061 8  20502284.775 6         0.000 6       465.012 6        37.977 6
G26  20641526.999 7 108471934.308 7     -1466.541 7        47.693 7  20641529.811 6         0.000 6     -1142.760 6        37.977 6
G20  21966659.564 7 115435541.823 7      2555.108 7        43.269 7  21966659.898 6         0.000 6      1990.994 6        37.977 6
> 2019 07 03 12 00 14.0000000  0  8       0.000000000000
G07  25366089.726 5 133299654.946 5      2248.201 5        33.353 5  25366090.406 6         0.000 6      1751.846 6        37.977 6
G10  23839982.088 6 125279896.282 6      3498.839 6        37.840 6  23839985.845 6         0.000 6      2726.371 6        37.977 6
G21  21160120.269 7 111197161.892 7     -1240.610 7        47.884 7  21160119.553 6         0.000 6      -966.709 6        37.977 6
G29  24272764.274 5 127554181.253 5     -3146.337 5        35.925 5  24272765.820 6         0.000 6     -2451.694 6        37.977 6
G27  22026381.320 7 115749387.954 7      2539.884 7        43.127 7  22026383.260 6         0.000 6      1979.131 6        37.977 6
G16  20502171.871 8 107739620.051 8       598.027 8        48.061 8  20502171.045 6         0.000 6       465.995 6        37.977 6
G26  20641806.083 7 108473400.904 7     -1466.628 7        47.594 7  20641808.895 6         0.000 6     -1142.827 6        37.977 6
G20  21966173.712 7 115432988.662 7      2552.135 7        43.269 7  21966174.046 6         0.000 6      1988.678 6        37.977 6
> 2019 07 03 12 00 15.0000000  0  8       0.000000000000
G07  25365662.013 5 133297407.301 5      2246.918 5        33.353 5  25365662.693 6         0.000 6      1750.846 6        37.977 6
G10  23839316.228 6 125276397.174 6      3499.520 6        37.841 6  23839319.984 6         0.000 6      2726.901 6        37.977 6
G21  21160356.402 7 111198402.778 7     -1241.040 7        47.883 7  21160355.686 6         0.000 6      -967.044 6        37.977 6
G29  24273363.033 5 127557327.741 5     -3146.279 5        35.924 5  24273364.579 6         0.000 6     -2451.648 6        37.977 6
G27  22025898.018 7 115746848.188 7      2539.351 7        43.127 7  22025899.958 6         0.000 6      1978.716 6        37.977 6
G16  20502058.127 8 107739022.321 8       597.288 8        48.061 8  20502057.300 6         0.000 6       465.419 6        37.977 6
G26  20642085.193 7 108474867.635 7     -1466.877 7        47.594 7  20642088.005 6         0.000 6     -1143.022 6        37.977 6
G20  21965688.060 7 115430436.547 7      2552.294 7        43.270 7  21965688.394 6         0.000 6      1988.802 6        37.977 6
> 2019 07 03 12 00 16.0000000  0  8       0.000000000000
G07  25365234.588 5 133295161.173 5      2245.401 5        33.353 5  25365235.268 6         0.000 6      1749.664 6        37.977 6
G10  23838650.209 6 125272897.231 6      3500.334 6        37.841 6  23838653.964 6         0.000 6      2727.535 6        37.977 6
G21  21160592.581 7 111199643.904 7     -1241.225 7        47.883 7  21160591.865 6         0.000 6      -967.189 6        37.977 6
G29  24273961.675 5 127560473.616 5     -3145.528 5        35.924 5  24273963.222 6         0.000 6     -2451.064 6        37.977 6
G27  22025414.898 7 115744309.382 7      2538.301 7        43.127 7  22025416.839 6         0.000 6      1977.898 6        37.977 6
G16  20501944.562 8 107738425.531 8       596.303 8        48.061 8  20501943.735 6         0.000 6       464.652 6        37.977 6
G26  20642364.363 7 108476334.677 7     -1467.231 7        47.594 7  20642367.174 6         0.000 6     -1143.297 6        37.977 6
G20  21965202.327 7 115427884.009 7      2552.742 7        43.270 7  21965202.661 6         0.000 6      1989.150 6        37.977 6
> 2019 07 03 12 00 17.0000000  0  8       0.000000000000
G07  25364807.413 5 133292916.355 5      2244.334 5        33.353 5  25364808.092 6         0.000 6      1748.832 6        37.977 6
G10  23837984.072 6 125269396.669 6      3500.736 6        37.841 6  23837987.827 6         0.000 6      2727.849 6        37.977 6
G21  21160828.800 7 111200885.245 7     -1241.461 7        47.883 7  21160828.084 6         0.000 6      -967.372 6        37.977 6
G29  24274560.199 5 127563618.874 5     -3145.068 5        35.924 5  24274561.747 6         0.000 6     -2450.705 6        37.977 6
G27  22024931.954 7 115741771.494 7      2537.547 7        43.127 7  22024933.894 6         0.000 6      1977.310 6        37.977 6
G16  20501831.174 8 107737829.675 8       595.445 8        48.062 8  20501830.347 6         0.000 6       463.983 6        37.977 6
G26  20642643.611 7 108477802.137 7     -1467.707 7        47.594 7  20642646.423 6         0.000 6     -1143.669 6        37.977 6
G20  21964716.543 7 115425331.197 7      2552.826 7        43.270 7  21964716.876 6         0.000 6      1989.216 6        37.977 6
> 2019 07 03 12 00 18.0000000  0  8       0.000000000000
G07  25364380.393 5 133290672.355 5      2243.737 5        33.354 5  25364381.073 6         0.000 6      1748.367 6        37.977 6
G10  23837317.900 6 125265895.922 6      3500.718 6        37.841 6  23837321.654 6         0.000 6      2727.835 6        37.977 6
G21  21161065.069 7 111202126.847 7     -1241.761 7        47.883 7  21161064.353 6         0.000 6      -967.606 6        37.977 6
G29  24275158.670 5 127566763.848 5     -3144.953 5        35.924 5  24275160.218 6         0.000 6     -2450.616 6        37.977 6
G27  22024449.118 7 115739234.177 7      2537.139 7        43.127 7  22024451.058 6         0.000 6      1976.992 6        37.977 6
G16  20501717.933 8 107737234.589 8       594.742 8        48.062 8  20501717.106 6         0.000 6       463.435 6        37.977 6
G26  20642922.960 7 108479270.124 7     -1468.290 7        47.594 7  20642925.772 6         0.000 6     -1144.122 6        37.977 6
G20  21964230.779 7 115422778.495 7      2552.528 7        43.270 7  21964231.112 6         0.000 6      1988.984 6        37.977 6
> 2019 07 03 12 00 19.0000000  0  8       0.000000000000
G07  25363953.455 5 133288428.786 5      2243.445 5        33.354 5  25363954.135 6         0.000 6      1748.140 6        37.977 6
G10  23836651.760 6 125262395.342 6      3500.435 6        37.842 6  23836655.513 6         0.000 6      2727.614 6        37.977 6
G21  21161301.404 7 111203368.792 7     -1242.131 7        47.883 7  21161300.688 6         0.000 6      -967.894 6        37.977 6
G29  24275757.148 5 127569908.863 5     -3145.124 5        35.923 5  24275758.697 6         0.000 6     -2450.749 6        37.977 6
G27  22023966.333 7 115736697.131 7      2536.991 7        43.128 7  22023968.273 6         0.000 6      1976.877 6        37.977 6
G16  20501604.815 8 107736640.150 8       594.155 8        48.062 8  20501603.988 6         0.000 6       462.978 6        37.977 6
G26  20643202.427 7 108480738.729 7     -1468.927 7        47.593 7  20643205.239 6         0.000 6     -1144.619 6        37.977 6
G20  21963745.100 7 115420226.239 7      2551.968 7        43.270 7  21963745.432 6         0.000 6      1988.548 6        37.977 6
> 2019 07 03 12 00 20.0000000  0  8       0.000000000000
G07  25363526.561 5 133286185.442 5      2243.249 5        33.354 5  25363527.239 6         0.000 6      1747.987 6        37.977 6
G10  23835985.683 6 125258895.096 6      3500.079 6        37.842 6  23835989.436 6         0.000 6      2727.337 6        37.977 6
G21  21161537.813 7 111204611.131 7     -1242.554 7        47.883 7  21161537.097 6         0.000 6      -968.224 6        37.977 6
G29  24276355.676 5 127573054.139 5     -3145.459 5        35.923 5  24276357.226 6         0.000 6     -2451.009 6        37.977 6
G27  22023483.562 7 115734160.154 7      2536.974 7        43.128 7  22023485.502 6         0.000 6      1976.863 6        37.977 6
G16  20501491.801 8 107736046.260 8       593.628 8        48.062 8  20501490.975 6         0.000 6       462.567 6        37.977 6
G26  20643482.015 7 108482207.972 7     -1469.560 7        47.593 7  20643484.827 6         0.000 6     -1145.112 6        37.977 6
G20  21963259.538 7 115417674.602 7      2551.312 7        43.271 7  21963259.871 6         0.000 6      1988.036 6        37.977 6
> 2019 07 03 12 00 21.0000000  0  8       0.000000000000
G07  25363099.709 5 133283942.323 5      2242.960 5        33.354 5  25363100.387 6         0.000 6      1747.762 6        37.977 6
G10  23835319.669 6 125255395.178 6      3499.804 6        37.842 6  23835323.421 6         0.000 6      2727.123 6        37.977 6
G21  21161774.301 7 111205853.883 7     -1242.951 7        47.883 7  21161773.585 6         0.000 6      -968.533 6        37.977 6
G29  24276954.264 5 127576199.730 5     -3145.700 5        35.923 5  24276955.814 6         0.000 6     -2451.197 6        37.977 6
G27  22023000.797 7 115731623.209 7      2536.875 7        43.128 7  22023002.736 6         0.000 6      1976.786 6        37.977 6
G16  20501378.888 8 107735452.898 8       593.065 8        48.062 8  20501378.062 6         0.000 6       462.129 6        37.977 6
G26  20643761.720 7 108483677.833 7     -1470.175 7        47.593 7  20643764.532 6         0.000 6     -1145.592 6        37.977 6
G20  21962774.097 7 115415123.594 7      2550.738 7        43.271 7  21962774.429 6         0.000 6      1987.589 6        37.977 6
> 2019 07 03 12 00 22.0000000  0  8       0.000000000000
G07  25362672.933 5 133281699.606 5      2242.448 5        33.354 5  25362673.611 6         0.000 6      1747.363 6        37.977 6
G10  23834653.691 6 125251895.450 6      3499.700 6        37.842 6  23834657.442 6         0.000 6      2727.042 6        37.977 6
G21  21162010.856 7 111207096.986 7     -1243.245 7        47.883 7  21162010.140 6         0.000 6      -968.762 6        37.977 6
G29  24277552.865 5 127579345.391 5     -3145.598 5        35.923 5  24277554.416 6         0.000 6     -2451.118 6        37.977 6
G27  22022518.079 7 115729086.509 7      2536.491 7        43.128 7  22022520.018 6         0.000 6      1976.488 6        37.977 6
G16  20501266.096 8 107734860.172 8       592.369 8        48.062 8  20501265.270 6         0.000 6       461.586 6        37.977 6
G26  20644041.545 7 108485148.319 7     -1470.797 7        47.593 7  20644044.357 6         0.000 6     -1146.076 6        37.977 6
G20  21962288.745 7 115412573.057 7      2550.377 7        43.271 7  21962289.077 6         0.000 6      1987.308 6        37.977 6
> 2019 07 03 12 00 23.0000000  0  8       0.000000000000
G07  25362246.274 5 133279457.502 5      2241.779 5        33.354 5  25362246.952 6         0.000 6      1746.842 6        37.977 6
G10  23833987.717 6 125248395.747 6      3499.722 6        37.843 6  23833991.468 6         0.000 6      2727.059 6        37.977 6
G21  21162247.457 7 111208340.333 7     -1243.466 7        47.883 7  21162246.741 6         0.000 6      -968.934 6        37.977 6
G29  24278151.416 5 127582490.788 5     -3145.263 5        35.923 5  24278152.968 6         0.000 6     -2450.857 6        37.977 6
G27  22022035.458 7 115726550.325 7      2535.919 7        43.128 7  22022037.397 6         0.000 6      1976.041 6        37.977 6
G16  20501153.448 8 107734268.203 8       591.588 8        48.062 8  20501152.622 6         0.000 6       460.977 6        37.977 6
G26  20644321.488 7 108486619.427 7     -1471.414 7        47.593 7  20644324.300 6         0.000 6     -1146.557 6        37.977 6
G20  21961803.442 7 115410022.780 7      2550.169 7        43.271 7  21961803.774 6         0.000 6      1987.146 6        37.977 6
> 2019 07 03 12 00 24.0000000  0  8       0.000000000000
G07  25361819.681 5 133277215.745 5      2242.037 5        33.354 5  25361820.359 6         0.000 6      1747.042 6        37.977 6
G10  23833321.779 6 125244896.231 6      3499.147 6        37.843 6  23833325.529 6         0.000 6      2726.611 6        37.977 6
G21  21162484.150 7 111209584.161 7     -1244.458 7        47.883 7  21162483.434 6         0.000 6      -969.708 6        37.977 6
G29  24278750.051 5 127585636.623 5     -3147.188 5        35.922 5  24278751.603 6         0.000 6     -2452.357 6        37.977 6
G27  22021552.834 7 115724014.117 7      2537.077 7        43.129 7  22021554.772 6         0.000 6      1976.944 6        37.977 6
G16  20501040.895 8 107733676.729 8       591.632 8        48.062 8  20501040.068 6         0.000 6       461.012 6        37.977 6
G26  20644601.530 7 108488091.059 7     -1471.756 7        47.593 7  20644604.343 6         0.000 6     -1146.824 6        37.977 6
G20  21961318.248 7 115407473.072 7      2548.913 7        43.271 7  21961318.579 6         0.000 6      1986.167 6        37.977 6
> 2019 07 03 12 00 25.0000000  0  8       0.000000000000
G07  25361392.875 5 133274972.867 5      2243.710 5        33.355 5  25361393.553 6         0.000 6      1748.347 6        37.977 6
G10  23832656.029 6 125241397.700 6      3498.142 6        37.843 6  23832659.778 6         0.000 6      2725.827 6        37.977 6
G21  21162721.245 7 111210830.104 7     -1247.946 7        47.882 7  21162720.529 6         0.000 6      -972.426 6        37.977 6
G29  24279349.641 5 127588787.480 5     -3155.818 5        35.922 5  24279351.194 6         0.000 6     -2459.082 6        37.977 6
G27  22021069.555 7 115721474.477 7      2543.059 7        43.129 7  22021071.494 6         0.000 6      1981.605 6        37.977 6
G16  20500928.123 8 107733084.113 8       594.028 8        48.062 8  20500927.297 6         0.000 6       462.879 6        37.977 6
G26  20644881.531 7 108489562.471 7     -1470.664 7        47.593 7  20644884.344 6         0.000 6     -1145.973 6        37.977 6
G20  21960833.514 7 115404925.782 7      2545.453 7        43.271 7  21960833.845 6         0.000 6      1983.471 6        37.977 6
> 2019 07 03 12 00 26.0000000  0  8       0.000000000000
G07  25360966.023 5 133272729.750 5      2241.212 5        33.355 5  25360966.701 6         0.000 6      1746.400 6        37.977 6
G10  23831990.119 6 125237898.331 6      3501.928 6        37.843 6  23831993.868 6         0.000 6      2728.778 6        37.977 6
G21  21162959.255 7 111212080.856 7     -1253.719 7        47.882 7  21162958.539 6         0.000 6      -976.924 6        37.977 6
G29  24279951.389 5 127591949.677 5     -3168.481 5        35.922 5  24279952.942 6         0.000 6     -2468.949 6        37.977 6
G27  22020584.857 7 115718927.372 7      2550.768 7        43.129 7  22020586.796 6         0.000 6      1987.612 6        37.977 6
G16  20500814.743 8 107732488.294 8       597.474 8        48.062 8  20500813.916 6         0.000 6       465.564 6        37.977 6
G26  20645161.035 7 108491031.273 7     -1466.365 7        47.593 7  20645163.848 6         0.000 6     -1142.623 6        37.977 6
G20  21960349.348 7 115402381.475 7      2544.087 7        43.272 7  21960349.679 6         0.000 6      1982.406 6        37.977 6
> 2019 07 03 12 00 27.0000000  0  8       0.000000000000
G07  25360540.362 5 133270492.891 5      2232.132 5        33.355 5  25360541.040 6         0.000 6      1739.324 6        37.977 6
G10  23831322.830 6 125234391.715 6      3511.482 6        37.844 6  23831326.578 6         0.000 6      2736.222 6        37.977 6
G21  21163198.309 7 111213337.092 7     -1258.193 7        47.882 7  21163197.593 6         0.000 6      -980.410 6        37.977 6
G29  24280555.136 5 127595122.379 5     -3175.407 5        35.922 5  24280556.690 6         0.000 6     -2474.346 6        37.977 6
G27  22020099.134 7 115716374.881 7      2553.100 7        43.129 7  22020101.072 6         0.000 6      1989.430 6        37.977 6
G16  20500700.896 8 107731890.023 8       598.526 8        48.062 8  20500700.069 6         0.000 6       466.384 6        37.977 6
G26  20645439.515 7 108492494.694 7     -1460.781 7        47.592 7  20645442.328 6         0.000 6     -1138.272 6        37.977 6
G20  21959864.879 7 115399835.579 7      2548.258 7        43.272 7  21959865.209 6         0.000 6      1985.657 6        37.977 6
> 2019 07 03 12 00 28.0000000  0  8       0.000000000000
G07  25360116.264 5 133268264.241 5      2226.276 5        33.355 5  25360116.941 6         0.000 6      1734.761 6        37.977 6
G10  23830653.995 6 125230876.970 6      3516.845 6        37.844 6  23830657.742 6         0.000 6      2740.402 6        37.977 6
G21  21163437.902 7 111214596.160 7     -1259.583 7        47.882 7  21163437.186 6         0.000 6      -981.493 6        37.977 6
G29  24281159.493 5 127598298.289 5     -3175.937 5        35.922 5  24281161.048 6         0.000 6     -2474.759 6        37.977 6
G27  22019613.402 7 115713822.347 7      2551.892 7        43.129 7  22019615.340 6         0.000 6      1988.488 6        37.977 6
G16  20500587.073 8 107731291.881 8       597.662 8        48.062 8  20500586.246 6         0.000 6       465.711 6        37.977 6
G26  20645717.230 7 108493954.094 7     -1458.701 7        47.592 7  20645720.043 6         0.000 6     -1136.650 6        37.977 6
G20  21959379.598 7 115397285.416 7      2551.413 7        43.272 7  21959379.929 6         0.000 6      1988.115 6        37.977 6
> 2019 07 03 12 00 29.0000000  0  8       0.000000000000
G07  25359692.754 5 133266038.685 5      2225.293 5        33.355 5  25359693.431 6         0.000 6      1733.995 6        37.977 6
G10  23829984.691 6 125227359.766 6      3517.131 6        37.844 6  23829988.438 6         0.000 6      2740.625 6        37.977 6
G21  21163677.614 7 111215855.853 7     -1259.720 7        47.882 7  21163676.898 6         0.000 6      -981.600 6        37.977 6
G29  24281763.791 5 127601473.883 5     -3175.245 5        35.921 5  24281765.346 6         0.000 6     -2474.219 6        37.977 6
G27  22019127.887 7 115711270.949 7      2550.999 7        43.130 7  22019129.825 6         0.000 6      1987.792 6        37.977 6
G16  20500473.432 8 107730694.692 8       596.743 8        48.062 8  20500472.605 6         0.000 6       464.994 6        37.977 6
G26  20645994.846 7 108495412.973 7     -1459.273 7        47.592 7  20645997.659 6         0.000 6     -1137.096 6        37.977 6
G20  21958894.046 7 115394733.825 7      2551.480 7        43.272 7  21958894.376 6         0.000 6      1988.168 6        37.977 6
> 2019 07 03 12 00 30.0000000  0  8       0.000000000000
G07  25359269.297 5 133263813.409 5      2225.234 5        33.355 5  25359269.974 6         0.000 6      1733.949 6        37.977 6
G10  23829315.468 6 125223842.985 6      3516.490 6        37.844 6  23829319.214 6         0.000 6      2740.124 6        37.977 6
G21  21163917.329 7 111217115.565 7     -1259.719 7        47.882 7  21163916.613 6         0.000 6      -981.599 6        37.977 6
G29  24282367.952 5 127604648.761 5     -3174.562 5        35.921 5  24282369.508 6         0.000 6     -2473.688 6        37.977 6
G27  22018642.513 7 115708720.296 7      2550.328 7        43.130 7  22018644.451 6         0.000 6      1987.269 6        37.977 6
G16  20500359.958 8 107730098.381 8       595.891 8        48.062 8  20500359.131 6         0.000 6       464.331 6        37.977 6
G26  20646272.634 7 108496872.760 7     -1460.276 7        47.592 7  20646275.447 6         0.000 6     -1137.878 6        37.977 6
G20  21958408.571 7 115392182.641 7      2550.916 7        43.272 7  21958408.900 6         0.000 6      1987.728 6        37.977 6
> 2019 07 03 12 00 31.0000000  0  8       0.000000000000
G07  25358845.876 5 133261588.318 5      2224.909 5        33.355 5  25358846.552 6         0.000 6      1733.696 6        37.977 6
G10  23828646.339 6 125220326.699 6      3516.159 6        37.845 6  23828650.084 6         0.000 6      2739.867 6        37.977 6
G21  21164157.058 7 111218375.348 7     -1259.890 7        47.882 7  21164156.342 6         0.000 6      -981.732 6        37.977 6
G29  24282972.010 5 127607823.096 5     -3174.196 5        35.921 5  24282973.566 6         0.000 6     -2473.402 6        37.977 6
G27  22018157.254 7 115706170.248 7      2549.803 7        43.130 7  22018159.192 6         0.000 6      1986.860 6        37.977 6
G16  20500246.637 8 107729502.880 8       595.122 8        48.062 8  20500245.811 6         0.000 6       463.732 6        37.977 6
G26  20646550.593 7 108498333.443 7     -1461.060 7        47.592 7  20646553.407 6         0.000 6     -1138.489 6        37.977 6
G20  21957923.191 7 115389631.958 7      2550.472 7        43.273 7  21957923.520 6         0.000 6      1987.382 6        37.977 6
> 2019 07 03 12 00 32.0000000  0  8       0.000000000000
G07  25358422.536 5 133259363.654 5      2224.414 5        33.356 5  25358423.212 6         0.000 6      1733.310 6        37.977 6
G10  23827977.248 6 125216810.613 6      3516.054 6        37.845 6  23827980.992 6         0.000 6      2739.785 6        37.977 6
G21  21164396.837 7 111219635.396 7     -1260.226 7        47.882 7  21164396.122 6         0.000 6      -981.995 6        37.977 6
G29  24283576.034 5 127610997.252 5     -3174.181 5        35.921 5  24283577.591 6         0.000 6     -2473.390 6        37.977 6
G27  22017672.077 7 115703620.626 7      2549.477 7        43.130 7  22017674.014 6         0.000 6      1986.606 6        37.977 6
G16  20500133.454 8 107728908.096 8       594.463 8        48.062 8  20500132.627 6         0.000 6       463.218 6        37.977 6
G26  20646828.682 7 108499794.808 7     -1461.650 7        47.592 7  20646831.495 6         0.000 6     -1138.948 6        37.977 6
G20  21957437.890 7 115387081.687 7      2550.081 7        43.273 7  21957438.219 6         0.000 6      1987.077 6        37.977 6
> 2019 07 03 12 00 33.0000000  0  8       0.000000000000
G07  25357999.289 5 133257139.480 5      2223.984 5        33.356 5  25357999.964 6         0.000 6      1732.976 6        37.977 6
G10  23827308.174 6 125213294.620 6      3515.916 6        37.845 6  23827311.918 6         0.000 6      2739.678 6        37.977 6
G21  21164636.689 7 111220895.825 7     -1260.637 7        47.882 7  21164635.973 6         0.000 6      -982.315 6        37.977 6
G29  24284180.076 5 127614171.507 5     -3174.381 5        35.920 5  24284181.634 6         0.000 6     -2473.547 6        37.977 6
G27  22017186.946 7 115701071.250 7      2549.313 7        43.130 7  22017188.884 6         0.000 6      1986.478 6        37.977 6
G16  20500020.388 8 107728313.930 8       593.885 8        48.062 8  20500019.561 6         0.000 6       462.767 6        37.977 6
G26  20647106.876 7 108501256.727 7     -1462.200 7        47.592 7  20647109.690 6         0.000 6     -1139.377 6        37.977 6
G20  21956952.668 7 115384531.832 7      2549.607 7        43.273 7  21956952.996 6         0.000 6      1986.708 6        37.977 6
> 2019 07 03 12 00 34.0000000  0  8       0.000000000000
G07  25357576.099 5 133254915.608 5      2223.811 5        33.356 5  25357576.775 6         0.000 6      1732.840 6        37.977 6
G10  23826639.151 6 125209778.887 6      3515.527 6        37.845 6  23826642.894 6         0.000 6      2739.374 6        37.977 6
G21  21164876.619 7 111222156.664 7     -1261.037 7        47.882 7  21164875.903 6         0.000 6      -982.626 6        37.977 6
G29  24284784.165 5 127617346.007 5     -3174.640 5        35.920 5  24284785.724 6         0.000 6     -2473.748 6        37.977 6
G27  22016701.836 7 115698521.980 7      2549.243 7        43.130 7  22016703.773 6         0.000 6      1986.423 6        37.977 6
G16  20499907.427 8 107727720.320 8       593.338 8        48.062 8  20499906.601 6         0.000 6       462.341 6        37.977 6
G26  20647385.185 7 108502719.244 7     -1462.858 7        47.592 7  20647387.998 6         0.000 6     -1139.890 6        37.977 6
G20  21956467.554 7 115381982.545 7      2548.945 7        43.273 7  21956467.882 6         0.000 6      1986.192 6        37.977 6
> 2019 07 03 12 00 35.0000000  0  8       0.000000000000
G07  25357152.923 5 133252691.806 5      2223.800 5        33.356 5  25357153.598 6         0.000 6      1732.832 6        37.977 6
G10  23825970.221 6 125206263.649 6      3514.966 6        37.846 6  23825973.964 6         0.000 6      2738.937 6        37.977 6
G21  21165116.620 7 111223417.878 7     -1261.392 7        47.882 7  21165115.905 6         0.000 6      -982.903 6        37.977 6
G29  24285388.300 5 127620520.747 5     -3174.851 5        35.920 5  24285389.859 6         0.000 6     -2473.913 6        37.977 6
G27  22016216.736 7 115695972.767 7      2549.179 7        43.131 7  22016218.673 6         0.000 6      1986.374 6        37.977 6
G16  20499794.571 8 107727127.254 8       592.785 8        48.062 8  20499793.744 6         0.000 6       461.911 6        37.977 6
G26  20647663.628 7 108504182.471 7     -1463.608 7        47.592 7  20647666.441 6         0.000 6     -1140.474 6        37.977 6
G20  21955982.578 7 115379433.987 7      2548.180 7        43.273 7  21955982.906 6         0.000 6      1985.596 6        37.977 6
> 2019 07 03 12 00 36.0000000  0  8       0.000000000000
G07  25356729.810 5 133250468.334 5      2222.748 5        33.356 5  25356730.485 6         0.000 6      1732.013 6        37.977 6
G10  23825301.338 6 125202748.657 6      3515.438 6        37.846 6  23825305.080 6         0.000 6      2739.305 6        37.977 6
G21  21165356.694 7 111224679.476 7     -1261.861 7        47.881 7  21165355.979 6         0.000 6      -983.269 6        37.977 6
G29  24285992.467 5 127623695.655 5     -3174.951 5        35.920 5  24285994.027 6         0.000 6     -2473.990 6        37.977 6
G27  22015731.668 7 115693423.719 7      2548.801 7        43.131 7  22015733.605 6         0.000 6      1986.079 6        37.977 6
G16  20499681.826 8 107726534.774 8       592.127 8        48.062 8  20499680.999 6         0.000 6       461.398 6        37.977 6
G26  20647942.187 7 108505646.309 7     -1463.900 7        47.591 7  20647945.001 6         0.000 6     -1140.702 6        37.977 6
G20  21955497.705 7 115376885.966 7      2548.146 7        43.274 7  21955498.033 6         0.000 6      1985.569 6        37.977 6
> 2019 07 03 12 00 37.0000000  0  8       0.000000000000
G07  25356307.296 5 133248248.016 5      2216.540 5        33.356 5  25356307.971 6         0.000 6      1727.175 6        37.977 6
G10  23824631.972 6 125199231.124 6      3520.959 6        37.846 6  23824635.713 6         0.000 6      2743.607 6        37.977 6
G21  21165596.900 7 111225941.763 7     -1262.772 7        47.881 7  21165596.184 6         0.000 6      -983.978 6        37.977 6
G29  24286596.600 5 127626870.382 5     -3174.155 5        35.920 5  24286598.160 6         0.000 6     -2473.370 6        37.977 6
G27  22015246.801 7 115690875.729 7      2546.626 7        43.131 7  22015248.738 6         0.000 6      1984.384 6        37.977 6
G16  20499569.253 8 107725943.201 8       590.807 8        48.062 8  20499568.426 6         0.000 6       460.369 6        37.977 6
G26  20648220.632 7 108507109.548 7     -1462.055 7        47.591 7  20648223.446 6         0.000 6     -1139.264 6        37.977 6
G20  21955012.558 7 115374336.504 7      2551.781 7        43.274 7  21955012.885 6         0.000 6      1988.402 6        37.977 6
> 2019 07 03 12 00 38.0000000  0  8       0.000000000000
G07  25355886.770 5 133246038.137 5      2202.152 5        33.356 5  25355887.445 6         0.000 6      1715.964 6        37.977 6
G10  23823960.804 6 125195704.126 6      3533.948 6        37.846 6  23823964.545 6         0.000 6      2753.728 6        37.977 6
G21  21165837.246 7 111227204.793 7     -1262.918 7        47.881 7  21165836.531 6         0.000 6      -984.092 6        37.977 6
G29  24287200.189 5 127630042.257 5     -3168.312 5        35.919 5  24287201.750 6         0.000 6     -2468.817 6        37.977 6
G27  22014762.798 7 115688332.279 7      2539.168 7        43.131 7  22014764.734 6         0.000 6      1978.574 6        37.977 6
G16  20499457.120 8 107725353.939 8       587.216 8        48.063 8  20499456.293 6         0.000 6       457.571 6        37.977 6
G26  20648498.473 7 108508569.607 7     -1457.959 7        47.591 7  20648501.287 6         0.000 6     -1136.073 6        37.977 6
G20  21954526.100 7 115371780.156 7      2561.898 7        43.274 7  21954526.428 6         0.000 6      1996.286 6        37.977 6
> 2019 07 03 12 00 39.0000000  0  8       0.000000000000
G07  25355469.263 5 133243844.128 5      2186.847 5        33.357 5  25355469.938 6         0.000 6      1704.038 6        37.977 6
G10  23823286.991 6 125192163.221 6      3546.820 6        37.847 6  23823290.731 6         0.000 6      2763.758 6        37.977 6
G21  21166077.365 7 111228466.625 7     -1260.386 7        47.881 7  21166076.650 6         0.000 6      -982.119 6        37.977 6
G29  24287801.932 5 127633204.427 5     -3155.511 5        35.919 5  24287803.494 6         0.000 6     -2458.842 6        37.977 6
G27  22014280.770 7 115685799.205 7      2526.843 7        43.131 7  22014282.706 6         0.000 6      1968.969 6        37.977 6
G16  20499345.935 8 107724769.657 8       581.226 8        48.063 8  20499345.108 6         0.000 6       452.903 6        37.977 6
G26  20648775.630 7 108510026.074 7     -1455.615 7        47.591 7  20648778.444 6         0.000 6     -1134.246 6        37.977 6
G20  21954037.389 7 115369211.969 7      2573.917 7        43.274 7  21954037.716 6         0.000 6      2005.650 6        37.977 6
> 2019 07 03 12 00 40.0000000  0  8       0.000000000000
G07  25355053.876 5 133241661.257 5      2180.435 5        33.357 5  25355054.550 6         0.000 6      1699.041 6        37.977 6
G10  23822611.501 6 125188613.512 6      3551.303 6        37.847 6  23822615.241 6         0.000 6      2767.252 6        37.977 6
G21  21166316.941 7 111229725.604 7     -1257.943 7        47.881 7  21166316.226 6         0.000 6      -980.216 6        37.977 6
G29  24288401.394 5 127636354.612 5     -3146.383 5        35.919 5  24288402.957 6         0.000 6     -2451.730 6        37.977 6
G27  22013800.798 7 115683276.940 7      2519.055 7        43.132 7  22013802.734 6         0.000 6      1962.901 6        37.977 6
G16  20499235.782 8 107724190.798 8       577.107 8        48.063 8  20499234.955 6         0.000 6       449.694 6        37.977 6
G26  20649052.663 7 108511481.895 7     -1456.275 7        47.591 7  20649055.478 6         0.000 6     -1134.760 6        37.977 6
G20  21953546.959 7 115366634.746 7      2579.220 7        43.274 7  21953547.286 6         0.000 6      2009.783 6        37.977 6
> 2019 07 03 12 00 41.0000000  0  8       0.000000000000
G07  25354639.046 5 133239481.313 5      2179.968 5        33.357 5  25354639.720 6         0.000 6      1698.677 6        37.977 6
G10  23821935.706 6 125185062.193 6      3550.984 6        37.847 6  23821939.445 6         0.000 6      2767.003 6        37.977 6
G21  21166556.278 7 111230983.325 7     -1257.784 7        47.881 7  21166555.562 6         0.000 6      -980.092 6        37.977 6
G29  24288999.928 5 127639499.919 5     -3145.154 5        35.919 5  24289001.491 6         0.000 6     -2450.772 6        37.977 6
G27  22013321.614 7 115680758.813 7      2517.930 7        43.132 7  22013323.550 6         0.000 6      1962.024 6        37.977 6
G16  20499126.095 8 107723614.388 8       576.055 8        48.063 8  20499125.268 6         0.000 6       448.874 6        37.977 6
G26  20649329.881 7 108512938.680 7     -1457.250 7        47.591 7  20649332.695 6         0.000 6     -1135.520 6        37.977 6
G20  21953056.120 7 115364055.373 7      2579.025 7        43.275 7  21953056.447 6         0.000 6      2009.631 6        37.977 6
> 2019 07 03 12 00 42.0000000  0  8       0.000000000000
G07  25354224.134 5 133237300.939 5      2180.766 5        33.357 5  25354224.807 6         0.000 6      1699.299 6        37.977 6
G10  23821260.095 6 125181511.846 6      3549.750 6        37.847 6  23821263.833 6         0.000 6      2766.041 6        37.977 6
G21  21166795.685 7 111232241.419 7     -1258.403 7        47.881 7  21166794.970 6         0.000 6      -980.574 6        37.977 6
G29  24289598.544 5 127642645.656 5     -3146.321 5        35.919 5  24289600.107 6         0.000 6     -2451.682 6        37.977 6
G27  22012842.392 7 115678240.490 7      2518.701 7        43.132 7  22012844.328 6         0.000 6      1962.625 6        37.977 6
G16  20499016.489 8 107723038.409 8       575.894 8        48.063 8  20499015.662 6         0.000 6       448.748 6        37.977 6
G26  20649607.264 7 108514396.337 7     -1458.067 7        47.591 7  20649610.078 6         0.000 6     -1136.156 6        37.977 6
G20  21952565.492 7 115361477.110 7      2577.527 7        43.275 7  21952565.818 6         0.000 6      2008.463 6        37.977 6
> 2019 07 03 12 00 43.0000000  0  8       0.000000000000
G07  25353809.105 5 133235119.950 5      2181.116 5        33.357 5  25353809.778 6         0.000 6      1699.572 6        37.977 6
G10  23820584.690 6 125177962.581 6      3548.890 6        37.847 6  23820588.428 6         0.000 6      2765.371 6        37.977 6
G21  21167035.199 7 111233500.071 7     -1258.877 7        47.881 7  21167034.484 6         0.000 6      -980.943 6        37.977 6
G29  24290197.341 5 127645792.342 5     -3146.969 5        35.918 5  24290198.905 6         0.000 6     -2452.186 6        37.977 6
G27  22012363.060 7 115675721.584 7      2519.023 7        43.132 7  22012364.996 6         0.000 6      1962.876 6        37.977 6
G16  20498906.931 8 107722462.676 8       575.530 8        48.063 8  20498906.104 6         0.000 6       448.465 6        37.977 6
G26  20649884.799 7 108515854.793 7     -1458.833 7        47.591 7  20649887.614 6         0.000 6     -1136.754 6        37.977 6
G20  21952075.118 7 115358900.180 7      2576.431 7        43.275 7  21952075.444 6         0.000 6      2007.610 6        37.977 6
> 2019 07 03 12 00 44.0000000  0  8       0.000000000000
G07  25353394.068 5 133232938.923 5      2180.866 5        33.357 5  25353394.742 6         0.000 6      1699.377 6        37.977 6
G10  23819909.398 6 125174413.908 6      3548.548 6        37.848 6  23819913.135 6         0.000 6      2765.105 6        37.977 6
G21  21167274.790 7 111234759.129 7     -1259.220 7        47.881 7  21167274.075 6         0.000 6      -981.210 6        37.977 6
G29  24290796.204 5 127648939.381 5     -3147.056 5        35.918 5  24290797.769 6         0.000 6     -2452.254 6        37.977 6
G27  22011883.718 7 115673202.630 7      2518.828 7        43.132 7  22011885.654 6         0.000 6      1962.724 6        37.977 6
G16  20498797.466 8 107721887.433 8       574.932 8        48.063 8  20498796.639 6         0.000 6       447.999 6        37.977 6
G26  20650162.471 7 108517313.967 7     -1459.498 7        47.590 7  20650165.286 6         0.000 6     -1137.272 6        37.977 6
G20  21951584.902 7 115356324.082 7      2575.845 7        43.275 7  21951585.228 6         0.000 6      2007.153 6        37.977 6
> 2019 07 03 12 00 45.0000000  0  8       0.000000000000
G07  25352979.121 5 133230758.363 5      2180.224 5        33.357 5  25352979.794 6         0.000 6      1698.876 6        37.977 6
G10  23819234.134 6 125170865.382 6      3548.558 6        37.848 6  23819237.871 6         0.000 6      2765.113 6        37.977 6
G21  21167514.438 7 111236018.489 7     -1259.498 7        47.881 7  21167513.723 6         0.000 6      -981.428 6        37.977 6
G29  24291395.051 5 127652086.334 5     -3146.844 5        35.918 5  24291396.617 6         0.000 6     -2452.089 6        37.977 6
G27  22011404.444 7 115670684.031 7      2518.346 7        43.133 7  22011406.380 6         0.000 6      1962.348 6        37.977 6
G16  20498688.127 8 107721312.853 8       574.213 8        48.063 8  20498687.300 6         0.000 6       447.438 6        37.977 6
G26  20650440.259 7 108518773.751 7     -1460.067 7        47.590 7  20650443.074 6         0.000 6     -1137.715 6        37.977 6
G20  21951094.763 7 115353748.388 7      2575.582 7        43.275 7  21951095.088 6         0.000 6      2006.948 6        37.977 6
> 2019 07 03 12 00 46.0000000  0  8       0.000000000000
G07  25352564.309 5 133228578.518 5      2179.477 5        33.358 5  25352564.982 6         0.000 6      1698.295 6        37.977 6
G10  23818558.856 6 125167316.782 6      3548.666 6        37.848 6  23818562.592 6         0.000 6      2765.197 6        37.977 6
G21  21167754.140 7 111237278.131 7     -1259.789 7        47.880 7  21167753.425 6         0.000 6      -981.654 6        37.977 6
G29  24291993.852 5 127655233.042 5     -3146.608 5        35.918 5  24291995.418 6         0.000 6     -2451.905 6        37.977 6
G27  22010925.271 7 115668165.960 7      2517.817 7        43.133 7  22010927.206 6         0.000 6      1961.936 6        37.977 6
G16  20498578.930 8 107720739.017 8       573.470 8        48.063 8  20498578.103 6         0.000 6       446.860 6        37.977 6
G26  20650718.153 7 108520234.089 7     -1460.602 7        47.590 7  20650720.967 6         0.000 6     -1138.132 6        37.977 6
G20  21950604.664 7 115351172.906 7      2575.390 7        43.275 7  21950604.989 6         0.000 6      2006.799 6        37.977 6
> 2019 07 03 12 00 47.0000000  0  8       0.000000000000
G07  25352149.632 5 133226399.377 5      2178.852 5        33.358 5  25352150.305 6         0.000 6      1697.808 6        37.977 6
G10  23817883.563 6 125163768.101 6      3548.684 6        37.848 6  23817887.298 6         0.000 6      2765.211 6        37.977 6
G21  21167993.902 7 111238538.089 7     -1260.145 7        47.880 7  21167993.187 6         0.000 6      -981.932 6        37.977 6
G29  24292592.624 5 127658379.601 5     -3146.586 5        35.917 5  24292594.191 6         0.000 6     -2451.887 6        37.977 6
G27  22010446.184 7 115665648.345 7      2517.463 7        43.133 7  22010448.119 6         0.000 6      1961.660 6        37.977 6
G16  20498469.866 8 107720165.886 8       572.811 8        48.063 8  20498469.040 6         0.000 6       446.346 6        37.977 6
G26  20650996.145 7 108521694.949 7     -1461.124 7        47.590 7  20650998.960 6         0.000 6     -1138.539 6        37.977 6
G20  21950114.609 7 115348597.657 7      2575.078 7        43.276 7  21950114.934 6         0.000 6      2006.556 6        37.977 6
> 2019 07 03 12 00 48.0000000  0  8       0.000000000000
G07  25351735.051 5 133224220.745 5      2178.463 5        33.358 5  25351735.724 6         0.000 6      1697.504 6        37.977 6
G10  23817208.283 6 125160219.491 6      3548.526 6        37.849 6  23817212.017 6         0.000 6      2765.088 6        37.977 6
G21  21168233.744 7 111239798.465 7     -1260.621 7        47.880 7  21168233.029 6         0.000 6      -982.302 6        37.977 6
G29  24293191.429 5 127661526.331 5     -3146.955 5        35.917 5  24293192.996 6         0.000 6     -2452.175 6        37.977 6
G27  22009967.135 7 115663130.929 7      2517.428 7        43.133 7  22009969.070 6         0.000 6      1961.632 6        37.977 6
G16  20498360.915 8 107719593.343 8       572.304 8        48.063 8  20498360.088 6         0.000 6       445.951 6        37.977 6
G26  20651274.236 7 108523156.325 7     -1461.630 7        47.590 7  20651277.051 6         0.000 6     -1138.933 6        37.977 6
G20  21949624.636 7 115346022.836 7      2574.536 7        43.276 7  21949624.961 6         0.000 6      2006.133 6        37.977 6
> 2019 07 03 12 00 49.0000000  0  8       0.000000000000
G07  25351320.524 5 133222042.393 5      2178.271 5        33.358 5  25351321.196 6         0.000 6      1697.355 6        37.977 6
G10  23816533.049 6 125156671.127 6      3548.209 6        37.849 6  23816536.783 6         0.000 6      2764.841 6        37.977 6
G21  21168473.686 7 111241059.367 7     -1261.188 7        47.880 7  21168472.971 6         0.000 6      -982.744 6        37.977 6
G29  24293790.334 5 127664673.587 5     -3147.612 5        35.917 5  24293791.902 6         0.000 6     -2452.687 6        37.977 6
G27  22009488.069 7 115660613.422 7      2517.626 7        43.133 7  22009490.004 6         0.000 6      1961.787 6        37.977 6
G16  20498252.050 8 107719021.251 8       571.901 8        48.063 8  20498251.223 6         0.000 6       445.637 6        37.977 6
G26  20651552.425 7 108524618.214 7     -1462.143 7        47.590 7  20651555.240 6         0.000 6     -1139.333 6        37.977 6
G20  21949134.787 7 115343448.662 7      2573.803 7        43.276 7  21949135.111 6         0.000 6      2005.562 6        37.977 6
> 2019 07 03 12 00 50.0000000  0  8       0.000000000000
G07  25350906.049 5 133219864.314 5      2177.727 5        33.358 5  25350906.721 6         0.000 6      1696.931 6        37.977 6
G10  23815857.866 6 125153123.027 6      3548.120 6        37.849 6  23815861.599 6         0.000 6      2764.772 6        37.977 6
G21  21168713.720 7 111242320.754 7     -1261.457 7        47.880 7  21168713.005 6         0.000 6      -982.954 6        37.977 6
G29  24294389.323 5 127667821.285 5     -3147.411 5        35.917 5  24294390.891 6         0.000 6     -2452.531 6        37.977 6
G27  22009008.995 7 115658095.874 7      2517.172 7        43.134 7  22009010.930 6         0.000 6      1961.433 6        37.977 6
G16  20498143.274 8 107718449.633 8       571.189 8        48.063 8  20498142.447 6         0.000 6       445.082 6        37.977 6
G26  20651830.715 7 108526080.639 7     -1462.757 7        47.590 7  20651833.531 6         0.000 6     -1139.811 6        37.977 6
G20  21948645.057 7 115340875.123 7      2573.470 7        43.276 7  21948645.382 6         0.000 6      2005.302 6        37.977 6
> 2019 07 03 12 00 51.0000000  0  8       0.000000000000
G07  25350491.817 5 133217687.514 5      2175.563 5        33.358 5  25350492.489 6         0.000 6      1695.245 6        37.977 6
G10  23815182.615 6 125149574.570 6      3548.959 6        37.849 6  23815186.348 6         0.000 6      2765.425 6        37.977 6
G21  21168953.677 7 111243581.737 7     -1260.078 7        47.880 7  21168952.962 6         0.000 6      -981.879 6        37.977 6
G29  24294987.904 5 127670966.842 5     -3142.539 5        35.917 5  24294989.473 6         0.000 6     -2448.734 6        37.977 6
G27  22008530.287 7 115655580.248 7      2513.221 7        43.134 7  22008532.221 6         0.000 6      1958.354 6        37.977 6
G16  20498034.769 8 107717879.431 8       568.793 8        48.063 8  20498033.942 6         0.000 6       443.215 6        37.977 6
G26  20652109.174 7 108527543.945 7     -1464.083 7        47.590 7  20652111.989 6         0.000 6     -1140.844 6        37.977 6
G20  21948155.229 7 115338301.061 7      2575.095 7        43.276 7  21948155.553 6         0.000 6      2006.568 6        37.977 6
> 2019 07 03 12 00 52.0000000  0  8       0.000000000000
G07  25350078.028 5 133215513.042 5      2174.118 5        33.358 5  25350078.700 6         0.000 6      1694.119 6        37.977 6
G10  23814507.275 6 125146025.645 6      3548.074 6        37.850 6  23814511.007 6         0.000 6      2764.736 6        37.977 6
G21  21169193.098 7 111244839.902 7     -1255.839 7        47.880 7  21169192.383 6         0.000 6      -978.576 6        37.977 6
G29  24295584.877 5 127674103.943 5     -3130.967 5        35.916 5  24295586.447 6         0.000 6     -2439.717 6        37.977 6
G27  22008052.793 7 115653071.001 7      2504.973 7        43.134 7  22008054.727 6         0.000 6      1951.928 6        37.977 6
G16  20497926.950 8 107717312.841 8       564.202 8        48.063 8  20497926.123 6         0.000 6       439.638 6        37.977 6
G26  20652388.084 7 108529009.627 7     -1467.850 7        47.590 7  20652390.900 6         0.000 6     -1143.780 6        37.977 6
G20  21947664.944 7 115335724.602 7      2577.474 7        43.277 7  21947665.268 6         0.000 6      2008.423 6        37.977 6
> 2019 07 03 12 00 53.0000000  0  8       0.000000000000
G07  25349663.892 5 133213336.749 5      2179.766 5        33.359 5  25349664.564 6         0.000 6      1698.520 6        37.977 6
G10  23813832.741 6 125142480.952 6      3540.204 6        37.850 6  23813836.472 6         0.000 6      2758.603 6        37.977 6
G21  21169431.580 7 111246093.134 7     -1250.877 7        47.880 7  21169430.866 6         0.000 6      -974.710 6        37.977 6
G29  24296179.566 5 127677229.048 5     -3120.387 5        35.916 5  24296181.137 6         0.000 6     -2431.473 6        37.977 6
G27  22007576.777 7 115650569.524 7      2499.040 7        43.134 7  22007578.711 6         0.000 6      1947.304 6        37.977 6
G16  20497819.990 8 107716750.764 8       560.420 8        48.063 8  20497819.163 6         0.000 6       436.691 6        37.977 6
G26  20652668.030 7 108530480.754 7     -1474.659 7        47.589 7  20652670.846 6         0.000 6     -1149.085 6        37.977 6
G20  21947174.613 7 115333147.899 7      2574.861 7        43.277 7  21947174.936 6         0.000 6      2006.386 6        37.977 6
> 2019 07 03 12 00 54.0000000  0  8       0.000000000000
G07  25349248.306 5 133211152.832 5      2187.345 5        33.359 5  25349248.977 6         0.000 6      1704.425 6        37.977 6
G10  23813159.969 6 125138945.522 6      3531.578 6        37.850 6  23813163.699 6         0.000 6      2751.882 6        37.977 6
G21  21169669.369 7 111247342.722 7     -1248.853 7        47.880 7  21169668.654 6         0.000 6      -973.133 6        37.977 6
G29  24296773.002 5 127680347.562 5     -3117.748 5        35.916 5  24296774.573 6         0.000 6     -2429.416 6        37.977 6
G27  22007101.297 7 115648070.862 7      2498.851 7        43.134 7  22007103.231 6         0.000 6      1947.157 6        37.977 6
G16  20497713.471 8 107716191.001 8       559.428 8        48.063 8  20497712.644 6         0.000 6       435.918 6        37.977 6
G26  20652949.212 7 108531958.372 7     -1479.888 7        47.589 7  20652952.028 6         0.000 6     -1153.160 6        37.977 6
G20  21946685.175 7 115330575.887 7      2569.471 7        43.277 7  21946685.498 6         0.000 6      2002.186 6        37.977 6
> 2019 07 03 12 00 55.0000000  0  8       0.000000000000
G07  25348831.801 5 133208964.087 5      2189.335 5        33.359 5  25348832.472 6         0.000 6      1705.976 6        37.977 6
G10  23812488.252 6 125135415.635 6      3529.060 6        37.850 6  23812491.981 6         0.000 6      2749.919 6        37.977 6
G21  21169907.017 7 111248591.571 7     -1249.041 7        47.880 7  21169906.303 6         0.000 6      -973.279 6        37.977 6
G29  24297366.334 5 127683465.533 5     -3118.365 5        35.916 5  24297367.905 6         0.000 6     -2429.897 6        37.977 6
G27  22006625.707 7 115645571.624 7      2499.540 7        43.134 7  22006627.641 6         0.000 6      1947.694 6        37.977 6
G16  20497607.040 8 107715631.704 8       559.157 8        48.063 8  20497606.213 6         0.000 6       435.707 6        37.977 6
G26  20653231.015 7 108533439.255 7     -1481.450 7        47.589 7  20653233.831 6         0.000 6     -1154.377 6        37.977 6
G20  21946196.480 7 115328007.783 7      2567.272 7        43.277 7  21946196.802 6         0.000 6      2000.472 6        37.977 6
> 2019 07 03 12 00 56.0000000  0  8       0.000000000000
G07  25348415.237 5 133206775.032 5      2188.675 5        33.359 5  25348415.908 6         0.000 6      1705.462 6        37.977 6
G10  23811816.686 6 125131886.546 6      3529.249 6        37.851 6  23811820.415 6         0.000 6      2750.066 6        37.977 6
G21  21170144.770 7 111249840.969 7     -1249.771 7        47.879 7  21170144.055 6         0.000 6      -973.848 6        37.977 6
G29  24297959.826 5 127686584.345 5     -3119.275 5        35.916 5  24297961.398 6         0.000 6     -2430.607 6        37.977 6
G27  22006150.033 7 115643071.940 7      2499.806 7        43.135 7  22006151.966 6         0.000 6      1947.902 6        37.977 6
G16  20497500.669 8 107715072.719 8       558.805 8        48.063 8  20497499.842 6         0.000 6       435.432 6        37.977 6
G26  20653512.951 7 108534920.839 7     -1481.671 7        47.589 7  20653515.767 6         0.000 6     -1154.549 6        37.977 6
G20  21945707.995 7 115325440.782 7      2566.813 7        43.277 7  21945708.317 6         0.000 6      2000.115 6        37.977 6
> 2019 07 03 12 00 57.0000000  0  8       0.000000000000
G07  25347998.817 5 133204586.734 5      2187.958 5        33.359 5  25347999.488 6         0.000 6      1704.903 6        37.977 6
G10  23811145.068 6 125128357.178 6      3529.465 6        37.851 6  23811148.796 6         0.000 6      2750.235 6        37.977 6
G21  21170382.658 7 111251091.080 7     -1250.432 7        47.879 7  21170381.944 6         0.000 6      -974.363 6        37.977 6
G29  24298553.478 5 127689703.996 5     -3119.990 5        35.915 5  24298555.051 6         0.000 6     -2431.164 6        37.977 6
G27  22005674.320 7 115640572.057 7      2499.928 7        43.135 7  22005676.253 6         0.000 6      1947.997 6        37.977 6
G16  20497394.370 8 107714514.113 8       558.382 8        48.063 8  20497393.543 6         0.000 6       435.103 6        37.977 6
G26  20653794.925 7 108536402.615 7     -1481.927 7        47.589 7  20653797.741 6         0.000 6     -1154.748 6        37.977 6
G20  21945219.582 7 115322874.159 7      2566.428 7        43.278 7  21945219.904 6         0.000 6      1999.815 6        37.977 6
> 2019 07 03 12 00 58.0000000  0  8       0.000000000000
G07  25347582.516 5 133202399.061 5      2187.421 5        33.359 5  25347583.186 6         0.000 6      1704.485 6        37.977 6
G10  23810473.431 6 125124827.715 6      3529.448 6        37.851 6  23810477.159 6         0.000 6      2750.222 6        37.977 6
G21  21170620.655 7 111252341.762 7     -1250.907 7        47.879 7  21170619.941 6         0.000 6      -974.733 6        37.977 6
G29  24299147.230 5 127692824.177 5     -3120.335 5        35.915 5  24299148.804 6         0.000 6     -2431.433 6        37.977 6
G27  22005198.604 7 115638072.153 7      2499.850 7        43.135 7  22005200.537 6         0.000 6      1947.936 6        37.977 6
G16  20497288.162 8 107713955.986 8       557.853 8        48.063 8  20497287.335 6         0.000 6       434.691 6        37.977 6
G26  20654076.966 7 108537884.750 7     -1482.378 7        47.589 7  20654079.782 6         0.000 6     -1155.100 6        37.977 6
G20  21944731.248 7 115320307.949 7      2565.993 7        43.278 7  21944731.569 6         0.000 6      1999.476 6        37.977 6
> 2019 07 03 12 00 59.0000000  0  8       0.000000000000
G07  25347166.309 5 133200211.883 5      2186.938 5        33.359 5  25347166.979 6         0.000 6      1704.108 6        37.977 6
G10  23809801.811 6 125121298.339 6      3529.328 6        37.851 6  23809805.538 6         0.000 6      2750.128 6        37.977 6
G21  21170858.730 7 111253592.855 7     -1251.263 7        47.879 7  21170858.016 6         0.000 6      -975.011 6        37.977 6
G29  24299741.019 5 127695944.546 5     -3120.391 5        35.915 5  24299742.593 6         0.000 6     -2431.476 6        37.977 6
G27  22004722.922 7 115635572.429 7      2499.585 7        43.135 7  22004724.854 6         0.000 6      1947.729 6        37.977 6
G16  20497182.065 8 107713398.446 8       557.221 8        48.063 8  20497181.238 6         0.000 6       434.198 6        37.977 6
G26  20654359.107 7 108539367.413 7     -1482.955 7        47.589 7  20654361.924 6         0.000 6     -1155.550 6        37.977 6
G20  21944242.997 7 115317742.179 7      2565.568 7        43.278 7  21944243.318 6         0.000 6      1999.145 6        37.977 6
> 2019 07 03 12 01  0.0000000  0  8       0.000000000000
G07  25346750.205 5 133198025.242 5      2186.308 5        33.360 5  25346750.875 6         0.000 6      1703.618 6        37.977 6
G10  23809130.205 6 125117769.036 6      3529.339 6        37.852 6  23809133.931 6         0.000 6      2750.137 6        37.977 6
G21  21171096.868 7 111254844.275 7     -1251.586 7        47.879 7  21171096.154 6         0.000 6      -975.262 6        37.977 6
G29  24300334.804 5 127699064.896 5     -3120.317 5        35.915 5  24300336.378 6         0.000 6     -2431.418 6        37.977 6
G27  22004247.301 7 115633073.028 7      2499.202 7        43.135 7  22004249.234 6         0.000 6      1947.431 6        37.977 6
G16  20497076.093 8 107712841.560 8       556.540 8        48.064 8  20497075.267 6         0.000 6       433.668 6        37.977 6
G26  20654641.357 7 108540850.645 7     -1483.500 7        47.589 7  20654644.174 6         0.000 6     -1155.974 6        37.977 6
G20  21943754.817 7 115315176.778 7      2565.270 7        43.278 7  21943755.138 6         0.000 6      1998.913 6        37.977 6
> 2019 07 03 12 01  1.0000000  0  8       0.000000000000
G07  25346334.240 5 133195839.339 5      2185.490 5        33.360 5  25346334.910 6         0.000 6      1702.980 6        37.977 6
G10  23808458.577 6 125114239.616 6      3529.540 6        37.852 6  23808462.303 6         0.000 6      2750.294 6        37.977 6
G21  21171335.070 7 111256096.034 7     -1251.939 7        47.879 7  21171334.356 6         0.000 6      -975.537 6        37.977 6
G29  24300928.572 5 127702185.161 5     -3120.248 5        35.914 5  24300930.148 6         0.000 6     -2431.364 6        37.977 6
G27  22003771.759 7 115630574.043 7      2498.779 7        43.136 7  22003773.692 6         0.000 6      1947.102 6        37.977 6
G16  20496970.253 8 107712285.367 8       555.850 8        48.064 8  20496969.427 6         0.000 6       433.130 6        37.977 6
G26  20654923.702 7 108542334.375 7     -1483.951 7        47.588 7  20654926.519 6         0.000 6     -1156.326 6        37.977 6
G20  21943266.679 7 115312611.602 7      2565.100 7        43.278 7  21943267.000 6         0.000 6      1998.780 6        37.977 6
> 2019 07 03 12 01  2.0000000  0  8       0.000000000000
G07  25345918.430 5 133193654.243 5      2184.849 5        33.360 5  25345919.099 6         0.000 6      1702.481 6        37.977 6
G10  23807786.911 6 125110710.001 6      3529.573 6        37.852 6  23807790.636 6         0.000 6      2750.319 6        37.977 6
G21  21171573.342 7 111257348.160 7     -1252.299 7        47.879 7  21171572.627 6         0.000 6      -975.817 6        37.977 6
G29  24301522.335 5 127705305.395 5     -3120.256 5        35.914 5  24301523.911 6         0.000 6     -2431.371 6        37.977 6
G27  22003296.293 7 115628075.454 7      2498.448 7        43.136 7  22003298.225 6         0.000 6      1946.843 6        37.977 6
G16  20496864.542 8 107711729.852 8       555.195 8        48.064 8  20496863.716 6         0.000 6       432.619 6        37.977 6
G26  20655206.132 7 108543818.551 7     -1484.466 7        47.588 7  20655208.948 6         0.000 6     -1156.727 6        37.977 6
G20  21942778.576 7 115310046.611 7      2564.793 7        43.279 7  21942778.897 6         0.000 6      1998.541 6        37.977 6
> 2019 07 03 12 01  3.0000000  0  8       0.000000000000
G07  25345502.550 5 133191468.784 5      2186.923 5        33.360 5  25345503.219 6         0.000 6      1704.097 6        37.977 6
G10  23807115.429 6 125107181.349 6      3526.919 6        37.852 6  23807119.154 6         0.000 6      2748.251 6        37.977 6
G21  21171811.658 7 111258600.522 7     -1252.337 7        47.879 7  21171810.944 6         0.000 6      -975.847 6        37.977 6
G29  24302116.116 5 127708425.728 5     -3120.544 5        35.914 5  24302117.693 6         0.000 6     -2431.595 6        37.977 6
G27  22002820.834 7 115625576.902 7      2498.935 7        43.136 7  22002822.766 6         0.000 6      1947.223 6        37.977 6
G16  20496758.938 8 107711174.896 8       554.813 8        48.064 8  20496758.111 6         0.000 6       432.322 6        37.977 6
G26  20655488.744 7 108545303.688 7     -1486.177 7        47.588 7  20655491.561 6         0.000 6     -1158.061 6        37.977 6
G20  21942290.665 7 115307482.624 7      2562.597 7        43.279 7  21942290.986 6         0.000 6      1996.830 6        37.977 6
> 2019 07 03 12 01  4.0000000  0  8       0.000000000000
G07  25345085.606 5 133189277.733 5      2196.649 5        33.360 5  25345086.275 6         0.000 6      1711.675 6        37.977 6
G10  23806445.098 6 125103658.747 6      3516.963 6        37.853 6  23806448.822 6         0.000 6      2740.493 6        37.977 6
G21  21172049.947 7 111259852.736 7     -1252.204 7        47.879 7  21172049.233 6         0.000 6      -975.744 6        37.977 6
G29  24302710.129 5 127711547.275 5     -3123.417 5        35.914 5  24302711.707 6         0.000 6     -2433.834 6        37.977 6
G27  22002345.009 7 115623076.425 7      2502.926 7        43.136 7  22002346.941 6         0.000 6      1950.332 6        37.977 6
G16  20496653.302 8 107710619.775 8       555.807 8        48.064 8  20496652.475 6         0.000 6       433.096 6        37.977 6
G26  20655771.944 7 108546791.909 7     -1490.696 7        47.588 7  20655774.761 6         0.000 6     -1161.582 6        37.977 6
G20  21941803.657 7 115304923.383 7      2554.750 7        43.279 7  21941803.977 6         0.000 6      1990.715 6        37.977 6
> 2019 07 03 12 01  5.0000000  0  8       0.000000000000
G07  25344666.140 5 133187073.425 5      2212.164 5        33.360 5  25344666.809 6         0.000 6      1723.765 6        37.977 6
G10  23805777.240 6 125100149.137 6      3502.289 6        37.853 6  23805780.963 6         0.000 6      2729.059 6        37.977 6
G21  21172288.370 7 111261105.657 7     -1254.160 7        47.879 7  21172287.656 6         0.000 6      -977.268 6        37.977 6
G29  24303305.340 5 127714675.119 5     -3133.638 5        35.914 5  24303306.918 6         0.000 6     -2441.798 6        37.977 6
G27  22001867.834 7 115620568.860 7      2513.150 7        43.136 7  22001869.766 6         0.000 6      1958.299 6        37.977 6
G16  20496547.215 8 107710062.284 8       559.640 8        48.064 8  20496546.388 6         0.000 6       436.083 6        37.977 6
G26  20656056.117 7 108548285.247 7     -1495.650 7        47.588 7  20656058.934 6         0.000 6     -1165.442 6        37.977 6
G20  21941318.717 7 115302375.009 7      2541.628 7        43.279 7  21941319.036 6         0.000 6      1980.491 6        37.977 6
> 2019 07 03 12 01  6.0000000  0  8       0.000000000000
G07  25344244.040 5 133184855.278 5      2222.410 5        33.360 5  25344244.708 6         0.000 6      1731.749 6        37.977 6
G10  23805111.787 6 125096652.172 6      3493.281 6        37.853 6  23805115.510 6         0.000 6      2722.040 6        37.977 6
G21  21172527.396 7 111262361.745 7     -1257.964 7        47.878 7  21172526.682 6         0.000 6      -980.232 6        37.977 6
G29  24303902.932 5 127717815.478 5     -3146.303 5        35.913 5  24303904.511 6         0.000 6     -2451.667 6        37.977 6
G27  22001388.499 7 115618049.937 7      2523.771 7        43.137 7  22001390.430 6         0.000 6      1966.576 6        37.977 6
G16  20496440.273 8 107709500.304 8       563.943 8        48.064 8  20496439.447 6         0.000 6       439.436 6        37.977 6
G26  20656340.945 7 108549782.025 7     -1497.337 7        47.588 7  20656343.762 6         0.000 6     -1166.757 6        37.977 6
G20  21940836.138 7 115299839.048 7      2531.624 7        43.279 7  21940836.458 6         0.000 6      1972.695 6        37.977 6
> 2019 07 03 12 01  7.0000000  0  8       0.000000000000
G07  25343820.879 5 133182631.557 5      2224.077 5        33.361 5  25343821.547 6         0.000 6      1733.048 6        37.977 6
G10  23804447.260 6 125093160.065 6      3491.709 6        37.853 6  23804450.981 6         0.000 6      2720.815 6        37.977 6
G21  21172767.003 7 111263620.891 7     -1259.899 7        47.878 7  21172766.289 6         0.000 6      -981.739 6        37.977 6
G29  24304502.241 5 127720964.858 5     -3151.058 5        35.913 5  24304503.821 6         0.000 6     -2455.372 6        37.977 6
G27  22000907.810 7 115615523.906 7      2527.130 7        43.137 7  22000909.742 6         0.000 6      1969.193 6        37.977 6
G16  20496332.805 8 107708935.552 8       565.022 8        48.064 8  20496331.978 6         0.000 6       440.277 6        37.977 6
G26  20656625.891 7 108551279.426 7     -1497.457 7        47.588 7  20656628.708 6         0.000 6     -1166.850 6        37.977 6
G20  21940354.734 7 115297309.256 7      2528.885 7        43.279 7  21940355.053 6         0.000 6      1970.561 6        37.977 6
> 2019 07 03 12 01  8.0000000  0  8       0.000000000000
G07  25343397.775 5 133180408.136 5      2222.588 5        33.361 5  25343398.443 6         0.000 6      1731.887 6        37.977 6
G10  23803782.745 6 125089668.030 6      3492.513 6        37.854 6  23803786.466 6         0.000 6      2721.441 6        37.977 6
G21  21173006.789 7 111264880.971 7     -1260.157 7        47.878 7  21173006.075 6         0.000 6      -981.941 6        37.977 6
G29  24305101.847 5 127724115.798 5     -3150.500 5        35.913 5  24305103.427 6         0.000 6     -2454.938 6        37.977 6
G27  22000426.974 7 115612997.097 7      2526.218 7        43.137 7  22000428.905 6         0.000 6      1968.483 6        37.977 6
G16  20496225.359 8 107708370.919 8       564.110 8        48.064 8  20496224.532 6         0.000 6       439.566 6        37.977 6
G26  20656910.873 7 108552777.016 7     -1497.756 7        47.588 7  20656913.690 6         0.000 6     -1167.083 6        37.977 6
G20  21939873.484 7 115294780.277 7      2529.265 7        43.280 7  21939873.804 6         0.000 6      1970.857 6        37.977 6
> 2019 07 03 12 01  9.0000000  0  8       0.000000000000
G07  25342974.987 5 133178186.370 5      2221.045 5        33.361 5  25342975.654 6         0.000 6      1730.685 6        37.977 6
G10  23803118.057 6 125086175.079 6      3493.334 6        37.854 6  23803121.777 6         0.000 6      2722.081 6        37.977 6
G21  21173246.602 7 111266141.198 7     -1260.330 7        47.878 7  21173245.888 6         0.000 6      -982.076 6        37.977 6
G29  24305701.281 5 127727265.835 5     -3149.709 5        35.913 5  24305702.862 6         0.000 6     -2454.321 6        37.977 6
G27  21999946.363 7 115610471.471 7      2525.138 7        43.137 7  21999948.294 6         0.000 6      1967.640 6        37.977 6
G16  20496118.111 8 107707807.330 8       563.114 8        48.064 8  20496117.284 6         0.000 6       438.790 6        37.977 6
G26  20657195.919 7 108554274.942 7     -1498.106 7        47.588 7  20657198.737 6         0.000 6     -1167.356 6        37.977 6
G20  21939392.130 7 115292250.746 7      2529.722 7        43.280 7  21939392.449 6         0.000 6      1971.213 6        37.977 6
> 2019 07 03 12 01 10.0000000  0  8       0.000000000000
G07  25342552.435 5 133175965.849 5      2220.114 5        33.361 5  25342553.102 6         0.000 6      1729.960 6        37.977 6
G10  23802453.260 6 125082681.556 6      3493.637 6        37.854 6  23802456.979 6         0.000 6      2722.318 6        37.977 6
G21  21173486.465 7 111267401.688 7     -1260.669 7        47.878 7  21173485.752 6         0.000 6      -982.339 6        37.977 6
G29  24306300.629 5 127730415.417 5     -3149.565 5        35.913 5  24306302.210 6         0.000 6     -2454.209 6        37.977 6
G27  21999465.901 7 115607946.632 7      2524.633 7        43.137 7  21999467.832 6         0.000 6      1967.247 6        37.977 6
G16  20496011.028 8 107707244.603 8       562.379 8        48.064 8  20496010.201 6         0.000 6       438.217 6        37.977 6
G26  20657481.038 7 108555773.252 7     -1498.538 7        47.587 7  20657483.856 6         0.000 6     -1167.693 6        37.977 6
G20  21938910.739 7 115289721.022 7      2529.646 7        43.280 7  21938911.057 6         0.000 6      1971.154 6        37.977 6
> 2019 07 03 12 01 11.0000000  0  8       0.000000000000
G07  25342130.006 5 133173745.975 5      2219.701 5        33.361 5  25342130.674 6         0.000 6      1729.638 6        37.977 6
G10  23801788.452 6 125079187.979 6      3493.484 6        37.854 6  23801792.171 6         0.000 6      2722.198 6        37.977 6
G21  21173726.403 7 111268662.569 7     -1261.108 7        47.878 7  21173725.689 6         0.000 6      -982.682 6        37.977 6
G29  24306899.994 5 127733565.094 5     -3149.859 5        35.912 5  24306901.576 6         0.000 6     -2454.438 6        37.977 6
G27  21998985.493 7 115605422.072 7      2524.535 7        43.137 7  21998987.424 6         0.000 6      1967.171 6        37.977 6
G16  20495904.066 8 107706682.513 8       561.819 8        48.064 8  20495903.239 6         0.000 6       437.781 6        37.977 6
G26  20657766.251 7 108557272.053 7     -1499.084 7        47.587 7  20657769.069 6         0.000 6     -1168.118 6        37.977 6
G20  21938429.407 7 115287191.610 7      2529.137 7        43.280 7  21938429.725 6         0.000 6      1970.757 6        37.977 6
> 2019 07 03 12 01 12.0000000  0  8       0.000000000000
G07  25341707.630 5 133171526.376 5      2219.521 5        33.361 5  25341708.297 6         0.000 6      1729.498 6        37.977 6
G10  23801123.697 6 125075694.678 6      3493.120 6        37.855 6  23801127.415 6         0.000 6      2721.914 6        37.977 6
G21  21173966.427 7 111269923.903 7     -1261.562 7        47.878 7  21173965.713 6         0.000 6      -983.036 6        37.977 6
G29  24307499.434 5 127736715.158 5     -3150.293 5        35.912 5  24307501.016 6         0.000 6     -2454.776 6        37.977 6
G27  21998505.085 7 115602897.515 7      2524.590 7        43.138 7  21998507.016 6         0.000 6      1967.214 6        37.977 6
G16  20495797.202 8 107706120.939 8       561.328 8        48.064 8  20495796.375 6         0.000 6       437.399 6        37.977 6
G26  20658051.574 7 108558771.433 7     -1499.689 7        47.587 7  20658054.392 6         0.000 6     -1168.589 6        37.977 6
G20  21937948.192 7 115284662.815 7      2528.447 7        43.280 7  21937948.510 6         0.000 6      1970.220 6        37.977 6
> 2019 07 03 12 01 13.0000000  0  8       0.000000000000
G07  25341285.286 5 133169306.950 5      2219.322 5        33.361 5  25341285.953 6         0.000 6      1729.343 6        37.977 6
G10  23800459.014 6 125072201.755 6      3492.760 6        37.855 6  23800462.732 6         0.000 6      2721.634 6        37.977 6
G21  21174206.535 7 111271185.678 7     -1261.982 7        47.878 7  21174205.821 6         0.000 6      -983.363 6        37.977 6
G29  24308098.949 5 127739865.623 5     -3150.632 5        35.912 5  24308100.532 6         0.000 6     -2455.041 6        37.977 6
G27  21998024.671 7 115600372.924 7      2524.575 7        43.138 7  21998026.602 6         0.000 6      1967.202 6        37.977 6
G16  20495690.434 8 107705559.869 8       560.801 8        48.064 8  20495689.607 6         0.000 6       436.988 6        37.977 6
G26  20658337.015 7 108560271.434 7     -1500.318 7        47.587 7  20658339.833 6         0.000 6     -1169.079 6        37.977 6
G20  21937467.109 7 115282134.710 7      2527.787 7        43.281 7  21937467.426 6         0.000 6      1969.705 6        37.977 6
> 2019 07 03 12 01 14.0000000  0  8       0.000000000000
G07  25340862.996 5 133167087.802 5      2218.932 5        33.362 5  25340863.663 6         0.000 6      1729.039 6        37.977 6
G10  23799794.388 6 125068709.132 6      3492.544 6        37.855 6  23799798.105 6         0.000 6      2721.466 6        37.977 6
G21  21174446.715 7 111272447.832 7     -1262.303 7        47.878 7  21174446.001 6         0.000 6      -983.613 6        37.977 6
G29  24308698.504 5 127743016.295 5     -3150.655 5        35.912 5  24308700.087 6         0.000 6     -2455.059 6        37.977 6
G27  21997544.280 7 115597848.455 7      2524.306 7        43.138 7  21997546.210 6         0.000 6      1966.992 6        37.977 6
G16  20495583.775 8 107704999.376 8       560.156 8        48.064 8  20495582.948 6         0.000 6       436.485 6        37.977 6
G26  20658622.577 7 108561772.069 7     -1500.956 7        47.587 7  20658625.395 6         0.000 6     -1169.576 6        37.977 6
G20  21936986.136 7 115279607.187 7      2527.314 7        43.281 7  21936986.454 6         0.000 6      1969.337 6        37.977 6
> 2019 07 03 12 01 15.0000000  0  8       0.000000000000
G07  25340440.804 5 133164869.170 5      2218.304 5        33.362 5  25340441.470 6         0.000 6      1728.549 6        37.977 6
G10  23799129.784 6 125065216.628 6      3492.511 6        37.855 6  23799133.501 6         0.000 6      2721.440 6        37.977 6
G21  21174686.944 7 111273710.244 7     -1262.510 7        47.878 7  21174686.231 6         0.000 6      -983.774 6        37.977 6
G29  24309298.025 5 127746166.791 5     -3150.308 5        35.911 5  24309299.610 6         0.000 6     -2454.788 6        37.977 6
G27  21997063.971 7 115595324.416 7      2523.735 7        43.138 7  21997065.901 6         0.000 6      1966.547 6        37.977 6
G16  20495477.254 8 107704439.603 8       559.370 8        48.064 8  20495476.427 6         0.000 6       435.873 6        37.977 6
G26  20658908.260 7 108563273.343 7     -1501.598 7        47.587 7  20658911.078 6         0.000 6     -1170.077 6        37.977 6
G20  21936505.231 7 115277080.015 7      2527.070 7        43.281 7  21936505.548 6         0.000 6      1969.147 6        37.977 6
> 2019 07 03 12 01 16.0000000  0  8       0.000000000000
G07  25340018.745 5 133162651.241 5      2217.599 5        33.362 5  25340019.411 6         0.000 6      1728.000 6        37.977 6
G10  23798465.176 6 125061724.097 6      3492.547 6        37.856 6  23798468.892 6         0.000 6      2721.468 6        37.977 6
G21  21174927.206 7 111274972.826 7     -1262.703 7        47.877 7  21174926.492 6         0.000 6      -983.925 6        37.977 6
G29  24309897.460 5 127749316.829 5     -3149.899 5        35.911 5  24309899.044 6         0.000 6     -2454.469 6        37.977 6
G27  21996583.787 7 115592801.036 7      2523.105 7        43.138 7  21996585.717 6         0.000 6      1966.057 6        37.977 6
G16  20495370.889 8 107703880.653 8       558.559 8        48.064 8  20495370.062 6         0.000 6       435.241 6        37.977 6
G26  20659194.065 7 108564775.256 7     -1502.223 7        47.587 7  20659196.883 6         0.000 6     -1170.564 6        37.977 6
G20  21936024.357 7 115274553.014 7      2526.890 7        43.281 7  21936024.674 6         0.000 6      1969.006 6        37.977 6
> 2019 07 03 12 01 17.0000000  0  8       0.000000000000
G07  25339596.748 5 133160433.634 5      2217.925 5        33.362 5  25339597.414 6         0.000 6      1728.254 6        37.977 6
G10  23797800.608 6 125058231.781 6      3491.923 6        37.856 6  23797804.323 6         0.000 6      2720.982 6        37.977 6
G21  21175167.565 7 111276235.922 7     -1263.764 7        47.877 7  21175166.852 6         0.000 6      -984.751 6        37.977 6
G29  24310496.990 5 127752467.374 5     -3151.998 5        35.911 5  24310498.576 6         0.000 6     -2456.105 6        37.977 6
G27  21996103.592 7 115590277.594 7      2524.381 7        43.139 7  21996105.521 6         0.000 6      1967.051 6        37.977 6
G16  20495264.617 8 107703322.189 8       558.657 8        48.064 8  20495263.790 6         0.000 6       435.317 6        37.977 6
G26  20659479.969 7 108566277.692 7     -1502.545 7        47.587 7  20659482.787 6         0.000 6     -1170.815 6        37.977 6
G20  21935543.601 7 115272026.625 7      2525.549 7        43.281 7  21935543.917 6         0.000 6      1967.961 6        37.977 6
> 2019 07 03 12 01 18.0000000  0  8       0.000000000000
G07  25339174.520 5 133158214.818 5      2219.654 5        33.362 5  25339175.186 6         0.000 6      1729.601 6        37.977 6
G10  23797136.237 6 125054740.496 6      3490.918 6        37.856 6  23797139.951 6         0.000 6      2720.199 6        37.977 6
G21  21175408.349 7 111277501.247 7     -1267.407 7        47.877 7  21175407.635 6         0.000 6      -987.590 6        37.977 6
G29  24311097.525 5 127755623.195 5     -3160.909 5        35.911 5  24311099.111 6         0.000 6     -2463.049 6        37.977 6
G27  21995622.712 7 115587750.560 7      2530.507 7        43.139 7  21995624.642 6         0.000 6      1971.824 6        37.977 6
G16  20495158.112 8 107702762.502 8       561.135 8        48.064 8  20495157.285 6         0.000 6       437.248 6        37.977 6
G26  20659765.823 7 108567779.864 7     -1501.375 7        47.586 7  20659768.642 6         0.000 6     -1169.903 6        37.977 6
G20  21935063.325 7 115269502.762 7      2522.001 7        43.282 7  21935063.641 6         0.000 6      1965.197 6        37.977 6
> 2019 07 03 12 01 19.0000000  0  8       0.000000000000
G07  25338752.261 5 133155995.831 5      2216.979 5        33.362 5  25338752.926 6         0.000 6      1727.517 6        37.977 6
G10  23796471.684 6 125051248.258 6      3494.905 6        37.856 6  23796475.398 6         0.000 6      2723.305 6        37.977 6
G21  21175650.076 7 111278771.532 7     -1273.314 7        47.877 7  21175649.362 6         0.000 6      -992.193 6        37.977 6
G29  24311700.247 5 127758790.509 5     -3173.557 5        35.911 5  24311701.833 6         0.000 6     -2472.904 6        37.977 6
G27  21995140.410 7 115585216.047 7      2538.083 7        43.139 7  21995142.340 6         0.000 6      1977.728 6        37.977 6
G16  20495050.989 8 107702199.565 8       564.587 8        48.064 8  20495050.162 6         0.000 6       439.938 6        37.977 6
G26  20660051.157 7 108569279.301 7     -1496.923 7        47.586 7  20660053.976 6         0.000 6     -1166.434 6        37.977 6
G20  21934583.614 7 115266981.869 7      2520.734 7        43.282 7  21934583.930 6         0.000 6      1964.209 6        37.977 6
> 2019 07 03 12 01 20.0000000  0  8       0.000000000000
G07  25338331.222 5 133153783.263 5      2207.856 5        33.362 5  25338331.888 6         0.000 6      1720.408 6        37.977 6
G10  23795805.723 6 125047748.624 6      3504.465 6        37.857 6  23795809.437 6         0.000 6      2730.754 6        37.977 6
G21  21175892.860 7 111280047.370 7     -1277.784 7        47.877 7  21175892.147 6         0.000 6      -995.676 6        37.977 6
G29  24312304.929 5 127761968.126 5     -3180.169 5        35.910 5  24312306.516 6         0.000 6     -2478.056 6        37.977 6
G27  21994657.129 7 115582676.389 7      2540.151 7        43.139 7  21994659.058 6         0.000 6      1979.339 6        37.977 6
G16  20494943.404 8 107701634.202 8       565.606 8        48.064 8  20494942.577 6         0.000 6       440.732 6        37.977 6
G26  20660335.445 7 108570773.243 7     -1491.301 7        47.586 7  20660338.264 6         0.000 6     -1162.053 6        37.977 6
G20  21934103.581 7 115264459.285 7      2524.935 7        43.282 7  21934103.897 6         0.000 6      1967.483 6        37.977 6
> 2019 07 03 12 01 21.0000000  0  8       0.000000000000
G07  25337911.722 5 133151578.777 5      2202.222 5        33.363 5  25337912.387 6         0.000 6      1716.018 6        37.977 6
G10  23795138.247 6 125044241.024 6      3509.578 6        37.857 6  23795141.960 6         0.000 6      2734.739 6        37.977 6
G21  21176136.176 7 111281326.003 7     -1279.122 7        47.877 7  21176135.463 6         0.000 6      -996.718 6        37.977 6
G29  24312910.176 5 127765148.709 5     -3180.561 5        35.910 5  24312911.764 6         0.000 6     -2478.362 6        37.977 6
G27  21994173.868 7 115580136.841 7      2538.899 7        43.139 7  21994175.797 6         0.000 6      1978.364 6        37.977 6
G16  20494835.845 8 107701068.975 8       564.758 8        48.064 8  20494835.018 6         0.000 6       440.072 6        37.977 6
G26  20660618.977 7 108572263.209 7     -1489.310 7        47.586 7  20660621.795 6         0.000 6     -1160.502 6        37.977 6
G20  21933622.754 7 115261932.527 7      2527.929 7        43.282 7  21933623.070 6         0.000 6      1969.816 6        37.977 6
> 2019 07 03 12 01 22.0000000  0  8       0.000000000000
G07  25337492.777 5 133149377.212 5      2201.320 5        33.363 5  25337493.442 6         0.000 6      1715.315 6        37.977 6
G10  23794470.339 6 125040731.154 6      3509.770 6        37.857 6  23794474.051 6         0.000 6      2734.889 6        37.977 6
G21  21176379.603 7 111282605.218 7     -1279.235 7        47.877 7  21176378.889 6         0.000 6      -996.807 6        37.977 6
G29  24313515.352 5 127768328.922 5     -3179.855 5        35.910 5  24313516.941 6         0.000 6     -2477.812 6        37.977 6
G27  21993690.822 7 115577598.419 7      2538.022 7        43.140 7  21993692.751 6         0.000 6      1977.680 6        37.977 6
G16  20494728.463 8 107700504.679 8       563.843 8        48.065 8  20494727.636 6         0.000 6       439.358 6        37.977 6
G26  20660902.421 7 108573752.720 7     -1489.923 7        47.586 7  20660905.240 6         0.000 6     -1160.979 6        37.977 6
G20  21933141.679 7 115259404.464 7      2527.934 7        43.282 7  21933141.994 6         0.000 6      1969.820 6        37.977 6
> 2019 07 03 12 01 23.0000000  0  8       0.000000000000
G07  25337073.886 5 133147175.927 5      2201.235 5        33.363 5  25337074.550 6         0.000 6      1715.249 6        37.977 6
G10  23793802.515 6 125037221.723 6      3509.143 6        37.857 6  23793806.226 6         0.000 6      2734.399 6        37.977 6
G21  21176623.031 7 111283884.443 7     -1279.231 7        47.877 7  21176622.318 6         0.000 6      -996.804 6        37.977 6
G29  24314120.391 5 127771508.412 5     -3179.182 5        35.910 5  24314121.980 6         0.000 6     -2477.287 6        37.977 6
G27  21993207.918 7 115575060.745 7      2537.353 7        43.140 7  21993209.847 6         0.000 6      1977.159 6        37.977 6
G16  20494621.250 8 107699941.273 8       562.985 8        48.065 8  20494620.423 6         0.000 6       438.690 6        37.977 6
G26  20661186.042 7 108575243.152 7     -1490.919 7        47.586 7  20661188.860 6         0.000 6     -1161.756 6        37.977 6
G20  21932660.683 7 115256876.819 7      2527.378 7        43.283 7  21932660.998 6         0.000 6      1969.387 6        37.977 6
> 2019 07 03 12 01 24.0000000  0  8       0.000000000000
G07  25336655.030 5 133144974.831 5      2200.919 5        33.363 5  25336655.695 6         0.000 6      1715.003 6        37.977 6
G10  23793134.785 6 125033712.789 6      3508.796 6        37.858 6  23793138.495 6         0.000 6      2734.129 6        37.977 6
G21  21176866.472 7 111285163.733 7     -1279.394 7        47.877 7  21176865.759 6         0.000 6      -996.930 6        37.977 6
G29  24314725.329 5 127774687.371 5     -3178.823 5        35.910 5  24314726.919 6         0.000 6     -2477.008 6        37.977 6
G27  21992725.127 7 115572523.663 7      2536.841 7        43.140 7  21992727.056 6         0.000 6      1976.760 6        37.977 6
G16  20494514.191 8 107699378.673 8       562.221 8        48.065 8  20494513.364 6         0.000 6       438.094 6        37.977 6
G26  20661469.832 7 108576734.477 7     -1491.704 7        47.586 7  20661472.651 6         0.000 6     -1162.367 6        37.977 6
G20  21932179.784 7 115254349.678 7      2526.921 7        43.283 7  21932180.098 6         0.000 6      1969.031 6        37.977 6
> 2019 07 03 12 01 25.0000000  0  8       0.000000000000
G07  25336236.253 5 133142774.144 5      2200.444 5        33.363 5  25336236.917 6         0.000 6      1714.632 6        37.977 6
G10  23792467.098 6 125030204.083 6      3508.662 6        37.858 6  23792470.808 6         0.000 6      2734.025 6        37.977 6
G21  21177109.962 7 111286443.282 7     -1279.726 7        47.877 7  21177109.249 6         0.000 6      -997.189 6        37.977 6
G29  24315330.234 5 127777866.157 5     -3178.815 5        35.909 5  24315331.824 6         0.000 6     -2477.001 6        37.977 6
G27  21992242.415 7 115569986.997 7      2536.525 7        43.140 7  21992244.344 6         0.000 6      1976.514 6        37.977 6
G16  20494407.268 8 107698816.790 8       561.565 8        48.065 8  20494406.441 6         0.000 6       437.583 6        37.977 6
G26  20661753.753 7 108578226.491 7     -1492.301 7        47.586 7  20661756.572 6         0.000 6     -1162.832 6        37.977 6
G20  21931698.966 7 115251822.971 7      2526.508 7        43.283 7  21931699.281 6         0.000 6      1968.708 6        37.977 6
> 2019 07 03 12 01 26.0000000  0  8       0.000000000000
G07  25335817.564 5 133140573.924 5      2200.029 5        33.363 5  25335818.228 6         0.000 6      1714.309 6        37.977 6
G10  23791799.435 6 125026695.502 6      3508.500 6        37.858 6  23791803.145 6         0.000 6      2733.899 6        37.977 6
G21  21177353.525 7 111287723.210 7     -1280.136 7        47.876 7  21177352.811 6         0.000 6      -997.509 6        37.977 6
G29  24315935.160 5 127781045.054 5     -3179.018 5        35.909 5  24315936.751 6         0.000 6     -2477.159 6        37.977 6
G27  21991759.748 7 115567450.565 7      2536.363 7        43.140 7  21991761.676 6         0.000 6      1976.387 6        37.977 6
G16  20494300.462 8 107698255.519 8       560.983 8        48.065 8  20494299.635 6         0.000 6       437.130 6        37.977 6
G26  20662037.781 7 108579719.066 7     -1492.860 7        47.586 7  20662040.600 6         0.000 6     -1163.268 6        37.977 6
G20  21931218.233 7 115249296.705 7      2526.014 7        43.283 7  21931218.547 6         0.000 6      1968.324 6        37.977 6
> 2019 07 03 12 01 27.0000000  0  8       0.000000000000
G07  25335398.934 5 133138374.012 5      2199.848 5        33.363 5  25335399.598 6         0.000 6      1714.168 6        37.977 6
G10  23791131.823 6 125023187.187 6      3508.109 6        37.858 6  23791135.532 6         0.000 6      2733.594 6        37.977 6
G21  21177597.165 7 111289003.550 7     -1280.536 7        47.793 7  21177596.452 6         0.000 6      -997.820 6        37.977 6
G29  24316540.131 5 127784224.191 5     -3179.282 5        35.909 5  24316541.723 6         0.000 6     -2477.365 6        37.977 6
G27  21991277.102 7 115564914.250 7      2536.292 7        43.141 7  21991279.030 6         0.000 6      1976.332 6        37.977 6
G16  20494193.764 8 107697694.817 8       560.433 8        48.065 8  20494192.937 6         0.000 6       436.701 6        37.977 6
G26  20662321.923 7 108581212.245 7     -1493.515 7        47.585 7  20662324.743 6         0.000 6     -1163.779 6        37.977 6
G20  21930737.609 7 115246771.014 7      2525.348 7        43.283 7  21930737.923 6         0.000 6      1967.805 6        37.977 6
> 2019 07 03 12 01 28.0000000  0  8       0.000000000000
G07  25334980.322 5 133136174.194 5      2199.809 5        33.364 5  25334980.986 6         0.000 6      1714.138 6        37.977 6
G10  23790464.302 6 125019679.350 6      3507.570 6        37.858 6  23790468.010 6         0.000 6      2733.174 6        37.977 6
G21  21177840.876 7 111290284.260 7     -1280.881 7        47.793 7  21177840.163 6         0.000 6      -998.089 6        37.977 6
G29  24317145.149 5 127787403.570 5     -3179.485 5        35.909 5  24317146.741 6         0.000 6     -2477.523 6        37.977 6
G27  21990794.468 7 115562377.992 7      2536.220 7        43.141 7  21990796.396 6         0.000 6      1976.276 6        37.977 6
G16  20494087.169 8 107697134.657 8       559.878 8        48.065 8  20494086.342 6         0.000 6       436.268 6        37.977 6
G26  20662606.199 7 108582706.119 7     -1494.251 7        47.585 7  20662609.018 6         0.000 6     -1164.352 6        37.977 6
G20  21930257.121 7 115244246.038 7      2524.603 7        43.283 7  21930257.435 6         0.000 6      1967.224 6        37.977 6
> 2019 07 03 12 01 29.0000000  0  8       0.000000000000
G07  25334561.777 5 133133974.730 5      2198.696 5        33.364 5  25334562.441 6         0.000 6      1713.270 6        37.977 6
G10  23789796.825 6 125016171.743 6      3508.091 6        37.859 6  23789800.532 6         0.000 6      2733.580 6        37.977 6
G21  21178084.661 7 111291565.354 7     -1281.364 7        47.793 7  21178083.947 6         0.000 6      -998.466 6        37.977 6
G29  24317750.198 5 127790583.113 5     -3179.583 5        35.908 5  24317751.791 6         0.000 6     -2477.599 6        37.977 6
G27  21990311.867 7 115559841.910 7      2535.823 7        43.141 7  21990313.795 6         0.000 6      1975.967 6        37.977 6
G16  20493980.687 8 107696575.091 8       559.214 8        48.065 8  20493979.860 6         0.000 6       435.752 6        37.977 6
G26  20662890.588 7 108584200.594 7     -1494.512 7        47.585 7  20662893.408 6         0.000 6     -1164.555 6        37.977 6
G20  21929776.734 7 115241721.591 7      2524.597 7        43.284 7  21929777.047 6         0.000 6      1967.219 6        37.977 6
> 2019 07 03 12 01 30.0000000  0  8       0.000000000000
G07  25334143.863 5 133131778.581 5      2192.230 5        33.364 5  25334144.527 6         0.000 6      1708.232 6        37.977 6
G10  23789128.836 6 125012661.451 6      3513.844 6        38.136 6  23789132.543 6         0.000 6      2738.063 6        37.977 6
G21  21178328.580 7 111292847.159 7     -1282.310 7        47.793 7  21178327.867 6         0.000 6      -999.203 6        37.977 6
G29  24318355.204 5 127793762.431 5     -3178.681 5        35.908 5  24318356.797 6         0.000 6     -2476.897 6        37.977 6
G27  21989829.480 7 115557306.951 7      2533.521 7        43.141 7  21989831.407 6         0.000 6      1974.173 6        37.977 6
G16  20493874.378 8 107696016.432 8       557.889 8        48.065 8  20493873.551 6         0.000 6       434.719 6        37.977 6
G26  20663174.846 7 108585694.380 7     -1492.524 7        47.585 7  20663177.666 6         0.000 6     -1163.006 6        37.977 6
G20  21929296.055 7 115239195.607 7      2528.384 7        43.284 7  21929296.368 6         0.000 6      1970.171 6        37.977 6
> 2019 07 03 12 01 31.0000000  0  8       0.000000000000
G07  25333727.988 5 133129593.144 5      2177.617 5        33.364 5  25333728.651 6         0.000 6      1696.845 6        37.977 6
G10  23788459.003 6 125009141.462 6      3526.990 6        38.136 6  23788462.709 6         0.000 6      2748.306 6        37.977 6
G21  21178572.642 7 111294129.712 7     -1282.417 7        47.793 7  21178571.929 6         0.000 6      -999.287 6        37.977 6
G29  24318959.627 5 127796938.686 5     -3172.519 5        35.908 5  24318961.221 6         0.000 6     -2472.095 6        37.977 6
G27  21989347.991 7 115554776.711 7      2525.838 7        43.141 7  21989349.918 6         0.000 6      1968.186 6        37.977 6
G16  20493768.508 8 107695460.081 8       554.298 8        48.065 8  20493767.681 6         0.000 6       431.921 6        37.977 6
G26  20663458.469 7 108587184.825 7     -1488.300 7        47.585 7  20663461.289 6         0.000 6     -1159.715 6        37.977 6
G20  21928814.033 7 115236662.573 7      2538.632 7        43.284 7  21928814.346 6         0.000 6      1978.156 6        37.977 6
> 2019 07 03 12 01 32.0000000  0  8       0.000000000000
G07  25333315.143 5 133127423.633 5      2162.467 5        33.364 5  25333315.806 6         0.000 6      1685.040 6        37.977 6
G10  23787786.527 6 125005607.592 6      3539.644 6        38.136 6  23787790.233 6         0.000 6      2758.167 6        37.977 6
G21  21178816.462 7 111295410.996 7     -1279.800 7        47.793 7  21178815.750 6         0.000 6      -997.247 6        37.977 6
G29  24319562.147 5 127800104.939 5     -3159.567 5        35.908 5  24319563.742 6         0.000 6     -2462.003 6        37.977 6
G27  21988868.506 7 115552257.003 7      2513.535 7        43.141 7  21988870.433 6         0.000 6      1958.599 6        37.977 6
G16  20493663.581 8 107694908.690 8       548.397 8        48.065 8  20493662.754 6         0.000 6       427.322 6        37.977 6
G26  20663741.400 7 108588671.635 7     -1485.973 7        47.585 7  20663744.220 6         0.000 6     -1157.901 6        37.977 6
G20  21928329.759 7 115234117.698 7      2550.494 7        43.284 7  21928330.072 6         0.000 6      1987.399 6        37.977 6
> 2019 07 03 12 01 33.0000000  0  8       0.000000000000
G07  25332904.368 5 133125264.998 5      2156.313 5        33.364 5  25332905.030 6         0.000 6      1680.245 6        37.977 6
G10  23787112.431 6 125002065.201 6      3543.875 6        38.136 6  23787116.136 6         0.000 6      2761.463 6        37.977 6
G21  21179059.734 7 111296689.398 7     -1277.397 7        47.793 7  21179059.021 6         0.000 6      -995.375 6        37.977 6
G29  24320162.404 5 127803259.301 5     -3150.707 5        35.908 5  24320164.000 6         0.000 6     -2455.099 6        37.977 6
G27  21988391.038 7 115549747.897 7      2506.041 7        43.142 7  21988392.965 6         0.000 6      1952.760 6        37.977 6
G16  20493559.659 8 107694362.576 8       544.430 8        48.065 8  20493558.832 6         0.000 6       424.231 6        37.977 6
G26  20664024.213 7 108590157.824 7     -1486.650 7        47.585 7  20664027.033 6         0.000 6     -1158.429 6        37.977 6
G20  21927843.813 7 115231564.038 7      2555.536 7        43.284 7  21927844.125 6         0.000 6      1991.328 6        37.977 6
> 2019 07 03 12 01 34.0000000  0  8       0.000000000000
G07  25332494.116 5 133123109.115 5      2155.932 5        33.364 5  25332494.779 6         0.000 6      1679.948 6        37.977 6
G10  23786438.059 6 124998521.363 6      3543.482 6        38.137 6  23786441.763 6         0.000 6      2761.158 6        37.977 6
G21  21179302.777 7 111297966.597 7     -1277.280 7        47.793 7  21179302.065 6         0.000 6      -995.283 6        37.977 6
G29  24320761.781 5 127806409.037 5     -3149.647 5        35.907 5  24320763.377 6         0.000 6     -2454.273 6        37.977 6
G27  21987914.313 7 115547242.691 7      2505.057 7        43.142 7  21987916.240 6         0.000 6      1951.993 6        37.977 6
G16  20493456.183 8 107693818.803 8       543.438 8        48.065 8  20493455.356 6         0.000 6       423.458 6        37.977 6
G26  20664307.210 7 108591644.981 7     -1487.616 7        47.585 7  20664310.030 6         0.000 6     -1159.182 6        37.977 6
G20  21927357.493 7 115229008.415 7      2555.244 7        43.285 7  21927357.805 6         0.000 6      1991.100 6        37.977 6
> 2019 07 03 12 01 35.0000000  0  8       0.000000000000
G07  25332083.778 5 133120952.778 5      2156.728 5        33.365 5  25332084.440 6         0.000 6      1680.568 6        37.977 6
G10  23785763.876 6 124994978.517 6      3542.244 6        38.137 6  23785767.579 6         0.000 6      2760.193 6        37.977 6
G21  21179545.895 7 111299244.186 7     -1277.896 7        47.793 7  21179545.182 6         0.000 6      -995.763 6        37.977 6
G29  24321361.253 5 127809559.273 5     -3150.817 5        35.907 5  24321362.850 6         0.000 6     -2455.185 6        37.977 6
G27  21987437.541 7 115544737.239 7      2505.823 7        43.142 7  21987439.467 6         0.000 6      1952.590 6        37.977 6
G16  20493352.784 8 107693275.441 8       543.266 8        48.065 8  20493351.957 6         0.000 6       423.324 6        37.977 6
G26  20664590.371 7 108593133.004 7     -1488.440 7        47.584 7  20664593.191 6         0.000 6     -1159.824 6        37.977 6
G20  21926871.390 7 115226453.932 7      2553.745 7        43.285 7  21926871.702 6         0.000 6      1989.932 6        37.977 6
> 2019 07 03 12 01 36.0000000  0  8       0.000000000000
G07  25331673.326 5 133118795.838 5      2157.051 5        33.365 5  25331673.988 6         0.000 6      1680.820 6        37.977 6
G10  23785089.899 6 124991436.754 6      3541.398 6        38.137 6  23785093.601 6         0.000 6      2759.534 6        37.977 6
G21  21179789.117 7 111300522.329 7     -1278.362 7        47.792 7  21179788.405 6         0.000 6      -996.126 6        37.977 6
G29  24321960.903 5 127812710.447 5     -3151.443 5        35.907 5  24321962.501 6         0.000 6     -2455.672 6        37.977 6
G27  21986960.661 7 115542231.224 7      2506.119 7        43.142 7  21986962.588 6         0.000 6      1952.820 6        37.977 6
G16  20493249.437 8 107692732.347 8       542.883 8        48.065 8  20493248.610 6         0.000 6       423.026 6        37.977 6
G26  20664873.687 7 108594621.837 7     -1489.208 7        47.584 7  20664876.507 6         0.000 6     -1160.422 6        37.977 6
G20  21926385.541 7 115223900.779 7      2552.667 7        43.285 7  21926385.852 6         0.000 6      1989.092 6        37.977 6
> 2019 07 03 12 01 37.0000000  0  8       0.000000000000
G07  25331262.870 5 133116638.881 5      2156.779 5        33.365 5  25331263.531 6         0.000 6      1680.608 6        37.977 6
G10  23784416.032 6 124987895.570 6      3541.069 6        38.137 6  23784419.734 6         0.000 6      2759.277 6        37.977 6
G21  21180032.414 7 111301800.862 7     -1278.694 7        47.792 7  21180031.701 6         0.000 6      -996.385 6        37.977 6
G29  24322560.617 5 127815861.953 5     -3151.514 5        35.907 5  24322562.215 6         0.000 6     -2455.728 6        37.977 6
G27  21986483.775 7 115539725.173 7      2505.911 7        43.142 7  21986485.702 6         0.000 6      1952.658 6        37.977 6
G16  20493146.184 8 107692189.747 8       542.281 8        48.065 8  20493145.357 6         0.000 6       422.556 6        37.977 6
G26  20665157.138 7 108596111.378 7     -1489.864 7        47.584 7  20665159.958 6         0.000 6     -1160.934 6        37.977 6
G20  21925899.846 7 115221348.439 7      2552.094 7        43.285 7  21925900.157 6         0.000 6      1988.646 6        37.977 6
> 2019 07 03 12 01 38.0000000  0  8       0.000000000000
G07  25330852.507 5 133114482.416 5      2156.125 5        33.365 5  25330853.169 6         0.000 6      1680.098 6        37.977 6
G10  23783742.191 6 124984354.522 6      3541.078 6        38.138 6  23783745.892 6         0.000 6      2759.284 6        37.977 6
G21  21180275.768 7 111303079.696 7     -1278.971 7        47.792 7  21180275.056 6         0.000 6      -996.601 6        37.977 6
G29  24323160.312 5 127819013.359 5     -3151.296 5        35.907 5  24323161.910 6         0.000 6     -2455.558 6        37.977 6
G27  21986006.961 7 115537219.499 7      2505.421 7        43.143 7  21986008.887 6         0.000 6      1952.277 6        37.977 6
G16  20493043.059 8 107691647.824 8       541.555 8        48.065 8  20493042.232 6         0.000 6       421.991 6        37.977 6
G26  20665440.704 7 108597601.529 7     -1490.432 7        47.584 7  20665443.525 6         0.000 6     -1161.376 6        37.977 6
G20  21925414.226 7 115218796.496 7      2551.829 7        43.285 7  21925414.537 6         0.000 6      1988.439 6        37.977 6
> 2019 07 03 12 01 39.0000000  0  8       0.000000000000
G07  25330442.281 5 133112326.665 5      2155.376 5        33.365 5  25330442.942 6         0.000 6      1679.515 6        37.977 6
G10  23783068.337 6 124980813.409 6      3541.177 6        38.138 6  23783072.038 6         0.000 6      2759.362 6        37.977 6
G21  21180519.175 7 111304358.807 7     -1279.260 7        47.792 7  21180518.463 6         0.000 6      -996.826 6        37.977 6
G29  24323759.960 5 127822164.522 5     -3151.063 5        35.906 5  24323761.559 6         0.000 6     -2455.376 6        37.977 6
G27  21985530.245 7 115534714.345 7      2504.896 7        43.143 7  21985532.172 6         0.000 6      1951.867 6        37.977 6
G16  20492940.075 8 107691106.641 8       540.814 8        48.065 8  20492939.248 6         0.000 6       421.413 6        37.977 6
G26  20665724.375 7 108599092.228 7     -1490.964 7        47.584 7  20665727.196 6         0.000 6     -1161.791 6        37.977 6
G20  21924928.648 7 115216244.772 7      2551.628 7        43.286 7  21924928.959 6         0.000 6      1988.283 6        37.977 6
> 2019 07 03 12 01 40.0000000  0  8       0.000000000000
G07  25330032.190 5 133110171.624 5      2154.750 5        33.365 5  25330032.851 6         0.000 6      1679.027 6        37.977 6
G10  23782394.470 6 124977272.222 6      3541.190 6        38.138 6  23782398.170 6         0.000 6      2759.371 6        37.977 6
G21  21180762.643 7 111305638.236 7     -1279.615 7        47.792 7  21180761.930 6         0.000 6      -997.103 6        37.977 6
G29  24324359.581 5 127825315.540 5     -3151.049 5        35.906 5  24324361.181 6         0.000 6     -2455.365 6        37.977 6
G27  21985053.617 7 115532209.649 7      2504.549 7        43.143 7  21985055.543 6         0.000 6      1951.597 6        37.977 6
G16  20492837.226 8 107690566.165 8       540.160 8        48.065 8  20492836.399 6         0.000 6       420.904 6        37.977 6
G26  20666008.145 7 108600583.448 7     -1491.478 7        47.584 7  20666010.966 6         0.000 6     -1162.191 6        37.977 6
G20  21924443.117 7 115213693.292 7      2551.308 7        43.286 7  21924443.427 6         0.000 6      1988.033 6        37.977 6
> 2019 07 03 12 01 41.0000000  0  8       0.000000000000
G07  25329622.194 5 133108017.089 5      2154.370 5        33.365 5  25329622.855 6         0.000 6      1678.730 6        37.977 6
G10  23781720.617 6 124973731.113 6      3541.014 6        38.138 6  23781724.317 6         0.000 6      2759.234 6        37.977 6
G21  21181006.189 7 111306918.079 7     -1280.098 7        47.792 7  21181005.476 6         0.000 6      -997.479 6        37.977 6
G29  24324959.235 5 127828466.737 5     -3151.432 5        35.906 5  24324960.836 6         0.000 6     -2455.664 6        37.977 6
G27  21984577.025 7 115529705.143 7      2504.519 7        43.143 7  21984578.951 6         0.000 6      1951.574 6        37.977 6
G16  20492734.487 8 107690026.269 8       539.651 8        48.065 8  20492733.660 6         0.000 6       420.508 6        37.977 6
G26  20666292.012 7 108602075.176 7     -1491.988 7        47.584 7  20666294.833 6         0.000 6     -1162.588 6        37.977 6
G20  21923957.668 7 115211142.246 7      2550.746 7        43.286 7  21923957.978 6         0.000 6      1987.596 6        37.977 6
> 2019 07 03 12 01 42.0000000  0  8       0.000000000000
G07  25329212.252 5 133105862.828 5      2154.180 5        33.366 5  25329212.912 6         0.000 6      1678.583 6        37.977 6
G10  23781046.814 6 124970190.263 6      3540.691 6        38.139 6  23781050.513 6         0.000 6      2758.983 6        37.977 6
G21  21181249.836 7 111308198.453 7     -1280.660 7        47.792 7  21181249.123 6         0.000 6      -997.917 6        37.977 6
G29  24325558.993 5 127831618.474 5     -3152.093 5        35.906 5  24325560.594 6         0.000 6     -2456.179 6        37.977 6
G27  21984100.414 7 115527200.538 7      2504.721 7        43.143 7  21984102.339 6         0.000 6      1951.732 6        37.977 6
G16  20492631.834 8 107689486.822 8       539.253 8        48.065 8  20492631.007 6         0.000 6       420.197 6        37.977 6
G26  20666575.976 7 108603567.415 7     -1492.494 7        47.584 7  20666578.797 6         0.000 6     -1162.983 6        37.977 6
G20  21923472.346 7 115208591.864 7      2550.009 7        43.286 7  21923472.656 6         0.000 6      1987.021 6        37.977 6
> 2019 07 03 12 01 43.0000000  0  8       0.000000000000
G07  25328802.364 5 133103708.855 5      2153.597 5        33.366 5  25328803.024 6         0.000 6      1678.128 6        37.977 6
G10  23780373.061 6 124966649.677 6      3540.616 6        38.139 6  23780376.759 6         0.000 6      2758.924 6        37.977 6
G21  21181493.574 7 111309479.301 7     -1280.900 7        47.792 7  21181492.861 6         0.000 6      -998.104 6        37.977 6
G29  24326158.828 5 127834770.616 5     -3151.808 5        35.905 5  24326160.430 6         0.000 6     -2455.957 6        37.977 6
G27  21983623.801 7 115524695.925 7      2504.201 7        43.144 7  21983625.727 6         0.000 6      1951.326 6        37.977 6
G16  20492529.275 8 107688947.869 8       538.505 8        48.065 8  20492528.448 6         0.000 6       419.614 6        37.977 6
G26  20666860.044 7 108605060.198 7     -1493.121 7        47.583 7  20666862.865 6         0.000 6     -1163.472 6        37.977 6
G20  21922987.142 7 115206042.107 7      2549.706 7        43.286 7  21922987.452 6         0.000 6      1986.785 6        37.977 6
> 2019 07 03 12 01 44.0000000  0  8       0.000000000000
G07  25328392.731 5 133101556.228 5      2151.351 5        33.366 5  25328393.392 6         0.000 6      1676.378 6        37.977 6
G10  23779699.234 6 124963108.705 6      3541.481 6        38.139 6  23779702.932 6         0.000 6      2759.599 6        37.977 6
G21  21181737.221 7 111310759.679 7     -1279.399 7        47.792 7  21181736.509 6         0.000 6      -996.935 6        37.977 6
G29  24326758.226 5 127837920.467 5     -3146.697 5        35.905 5  24326759.829 6         0.000 6     -2451.974 6        37.977 6
G27  21983147.574 7 115522193.334 7      2500.110 7        43.144 7  21983149.499 6         0.000 6      1948.138 6        37.977 6
G16  20492426.995 8 107688410.383 8       536.043 8        48.066 8  20492426.168 6         0.000 6       417.696 6        37.977 6
G26  20667144.282 7 108606553.880 7     -1494.479 7        47.583 7  20667147.103 6         0.000 6     -1164.529 6        37.977 6
G20  21922501.828 7 115203491.768 7      2551.420 7        43.287 7  21922502.137 6         0.000 6      1988.120 6        37.977 6
> 2019 07 03 12 01 45.0000000  0  8       0.000000000000
G07  25327983.547 5 133099405.952 5      2149.988 5        33.366 5  25327984.207 6         0.000 6      1675.316 6        37.977 6
G10  23779025.326 6 124959567.307 6      3540.452 6        38.139 6  23779029.023 6         0.000 6      2758.797 6        37.977 6
G21  21181980.304 7 111312037.087 7     -1275.005 7        47.792 7  21181979.592 6         0.000 6      -993.511 6        37.977 6
G29  24327355.973 5 127841061.635 5     -3134.994 5        35.601 5  24327357.576 6         0.000 6     -2442.855 6        37.977 6
G27  21982672.579 7 115519697.221 7      2491.869 7        43.144 7  21982674.504 6         0.000 6      1941.717 6        37.977 6
G16  20492325.413 8 107687876.569 8       531.412 8        48.066 8  20492324.586 6         0.000 6       414.088 6        37.977 6
G26  20667428.987 7 108608050.010 7     -1498.369 7        47.583 7  20667431.808 6         0.000 6     -1167.561 6        37.977 6
G20  21922016.049 7 115200938.985 7      2553.758 7        43.287 7  21922016.358 6         0.000 6      1989.942 6        37.977 6
> 2019 07 03 12 01 46.0000000  0  8       0.000000000000
G07  25327573.983 5 133097253.684 5      2155.801 5        33.366 5  25327574.643 6         0.000 6      1679.846 6        37.977 6
G10  23778352.263 6 124956030.347 6      3532.415 6        38.140 6  23778355.960 6         0.000 6      2752.534 6        37.977 6
G21  21182222.426 7 111313309.443 7     -1269.990 7        47.791 7  21182221.713 6         0.000 6      -989.602 6        37.977 6
G29  24327951.448 5 127844190.869 5     -3124.674 5        35.601 5  24327953.052 6         0.000 6     -2434.814 6        37.977 6
G27  21982199.031 7 115517208.717 7      2486.215 7        43.144 7  21982200.956 6         0.000 6      1937.311 6        37.977 6
G16  20492224.690 8 107687347.264 8       527.667 8        48.066 8  20492223.863 6         0.000 6       411.169 6        37.977 6
G26  20667714.753 7 108609551.722 7     -1505.283 7        47.583 7  20667717.574 6         0.000 6     -1172.948 6        37.977 6
G20  21921530.246 7 115198386.076 7      2551.013 7        43.287 7  21921530.554 6         0.000 6      1987.804 6        37.977 6
> 2019 07 03 12 01 47.0000000  0  8       0.000000000000
G07  25327162.971 5 133095093.802 5      2163.206 5        33.366 5  25327163.630 6         0.000 6      1685.616 6        37.977 6
G10  23777680.958 6 124952502.624 6      3523.983 6        38.140 6  23777684.654 6         0.000 6      2745.963 6        37.977 6
G21  21182463.855 7 111314578.161 7     -1268.008 7        47.791 7  21182463.143 6         0.000 6      -988.059 6        37.977 6
G29  24328545.726 5 127847313.811 5     -3122.279 5        35.600 5  24328547.331 6         0.000 6     -2432.947 6        37.977 6
G27  21981725.975 7 115514722.789 7      2486.166 7        43.144 7  21981727.899 6         0.000 6      1937.273 6        37.977 6
G16  20492124.402 8 107686820.250 8       526.674 8        48.066 8  20492123.575 6         0.000 6       410.395 6        37.977 6
G26  20668001.757 7 108611059.938 7     -1510.444 7        47.583 7  20668004.579 6         0.000 6     -1176.970 6        37.977 6
G20  21921045.337 7 115195837.870 7      2545.732 7        43.287 7  21921045.646 6         0.000 6      1983.688 6        37.977 6
> 2019 07 03 12 01 48.0000000  0  8       0.000000000000
G07  25326751.078 5 133092929.292 5      2165.027 5        33.366 5  25326751.737 6         0.000 6      1687.035 6        37.977 6
G10  23777010.668 6 124948980.236 6      3521.632 6        38.140 6  23777014.363 6         0.000 6      2744.131 6        37.977 6
G21  21182705.152 7 111315846.186 7     -1268.223 7        47.791 7  21182704.440 6         0.000 6      -988.226 6        37.977 6
G29  24329139.927 5 127850436.346 5     -3122.935 5        35.600 5  24329141.532 6         0.000 6     -2433.458 6        37.977 6
G27  21981252.799 7 115512236.239 7      2486.837 7        43.145 7  21981254.724 6         0.000 6      1937.796 6        37.977 6
G16  20492024.207 8 107686293.720 8       526.382 8        48.066 8  20492023.380 6         0.000 6       410.168 6        37.977 6
G26  20668289.368 7 108612571.338 7     -1511.936 7        47.583 7  20668292.189 6         0.000 6     -1178.133 6        37.977 6
G20  21920561.148 7 115193293.443 7      2543.644 7        43.287 7  21920561.456 6         0.000 6      1982.061 6        37.977 6
> 2019 07 03 12 01 49.0000000  0  8       0.000000000000
G07  25326339.143 5 133090764.564 5      2164.346 5        33.367 5  25326339.802 6         0.000 6      1686.504 6        37.977 6
G10  23776340.513 6 124945458.560 6      3521.833 6        38.140 6  23776344.207 6         0.000 6      2744.288 6        37.977 6
G21  21182946.556 7 111317114.773 7     -1268.960 7        47.791 7  21182945.844 6         0.000 6      -988.800 6        37.977 6
G29  24329734.289 5 127853559.729 5     -3123.839 5        35.600 5  24329735.895 6         0.000 6     -2434.163 6        37.977 6
G27  21980779.543 7 115509749.265 7      2487.089 7        43.145 7  21980781.468 6         0.000 6      1937.992 6        37.977 6
G16  20491924.073 8 107685767.512 8       526.027 8        48.066 8  20491923.246 6         0.000 6       409.891 6        37.977 6
G26  20668577.103 7 108614083.398 7     -1512.144 7        47.583 7  20668579.925 6         0.000 6     -1178.294 6        37.977 6
G20  21920077.158 7 115190750.063 7      2543.190 7        43.287 7  21920077.466 6         0.000 6      1981.708 6        37.977 6
> 2019 07 03 12 01 50.0000000  0  8       0.000000000000
G07  25325927.352 5 133088600.594 5      2163.636 5        33.367 5  25325928.011 6         0.000 6      1685.951 6        37.977 6
G10  23775670.307 6 124941936.612 6      3522.034 6        38.140 6  23775674.000 6         0.000 6      2744.444 6        37.977 6
G21  21183188.095 7 111318384.069 7     -1269.616 7        47.791 7  21183187.383 6         0.000 6      -989.311 6        37.977 6
G29  24330328.808 5 127856683.936 5     -3124.539 5        35.600 5  24330330.414 6         0.000 6     -2434.709 6        37.977 6
G27  21980306.252 7 115507262.103 7      2487.200 7        43.145 7  21980308.176 6         0.000 6      1938.078 6        37.977 6
G16  20491824.011 8 107685241.681 8       525.602 8        48.066 8  20491823.184 6         0.000 6       409.560 6        37.977 6
G26  20668864.874 7 108615595.643 7     -1512.400 7        47.583 7  20668867.696 6         0.000 6     -1178.494 6        37.977 6
G20  21919593.241 7 115188207.063 7      2542.795 7        43.288 7  21919593.548 6         0.000 6      1981.400 6        37.977 6
> 2019 07 03 12 01 51.0000000  0  8       0.000000000000
G07  25325515.680 5 133086437.247 5      2163.096 5        33.367 5  25325516.339 6         0.000 6      1685.530 6        37.977 6
G10  23775000.085 6 124938414.584 6      3522.005 6        38.141 6  23775003.778 6         0.000 6      2744.422 6        37.977 6
G21  21183429.744 7 111319653.939 7     -1270.091 7        47.791 7  21183429.032 6         0.000 6      -989.681 6        37.977 6
G29  24330923.425 5 127859808.661 5     -3124.872 5        35.600 5  24330925.032 6         0.000 6     -2434.968 6        37.977 6
G27  21979832.960 7 115504774.939 7      2487.107 7        43.145 7  21979834.884 6         0.000 6      1938.006 6        37.977 6
G16  20491724.042 8 107684716.343 8       525.063 8        48.149 8  20491723.215 6         0.000 6       409.140 6        37.977 6
G26  20669152.715 7 108617108.256 7     -1512.857 7        47.583 7  20669155.537 6         0.000 6     -1178.850 6        37.977 6
G20  21919109.404 7 115185664.491 7      2542.352 7        43.288 7  21919109.712 6         0.000 6      1981.055 6        37.977 6
> 2019 07 03 12 01 52.0000000  0  8       0.000000000000
G07  25325104.101 5 133084274.388 5      2162.610 5        33.367 5  25325104.760 6         0.000 6      1685.152 6        37.977 6
G10  23774329.882 6 124934892.656 6      3521.881 6        38.141 6  23774333.575 6         0.000 6      2744.325 6        37.977 6
G21  21183671.468 7 111320924.205 7     -1270.438 7        47.791 7  21183670.756 6         0.000 6      -989.952 6        37.977 6
G29  24331518.076 5 127862933.565 5     -3124.921 5        35.599 5  24331519.684 6         0.000 6     -2435.006 6        37.977 6
G27  21979359.702 7 115502287.953 7      2486.839 7        43.145 7  21979361.625 6         0.000 6      1937.797 6        37.977 6
G16  20491624.184 8 107684191.586 8       524.431 8        48.149 8  20491623.357 6         0.000 6       408.648 6        37.977 6
G26  20669440.656 7 108618621.393 7     -1513.431 7        47.582 7  20669443.478 6         0.000 6     -1179.297 6        37.977 6
G20  21918625.653 7 115183122.364 7      2541.926 7        43.288 7  21918625.960 6         0.000 6      1980.722 6        37.977 6
> 2019 07 03 12 01 53.0000000  0  8       0.000000000000
G07  25324692.627 5 133082112.081 5      2161.970 5        33.367 5  25324693.285 6         0.000 6      1684.653 6        37.977 6
G10  23773659.694 6 124931370.802 6      3521.892 6        38.141 6  23773663.386 6         0.000 6      2744.334 6        37.977 6
G21  21183913.254 7 111322194.803 7     -1270.759 7        47.791 7  21183912.542 6         0.000 6      -990.202 6        37.977 6
G29  24332112.723 5 127866058.443 5     -3124.845 5        35.599 5  24332114.331 6         0.000 6     -2434.947 6        37.977 6
G27  21978886.507 7 115499801.302 7      2486.453 7        43.145 7  21978888.431 6         0.000 6      1937.497 6        37.977 6
G16  20491524.453 8 107683667.494 8       523.749 8        48.149 8  20491523.626 6         0.000 6       408.116 6        37.977 6
G26  20669728.705 7 108620135.100 7     -1513.969 7        47.582 7  20669731.528 6         0.000 6     -1179.717 6        37.977 6
G20  21918141.972 7 115180580.609 7      2541.626 7        43.288 7  21918142.279 6         0.000 6      1980.489 6        37.977 6
> 2019 07 03 12 01 54.0000000  0  8       0.000000000000
G07  25324281.295 5 133079950.518 5      2161.141 5        33.367 5  25324281.953 6         0.000 6      1684.007 6        37.977 6
G10  23772989.483 6 124927848.832 6      3522.093 6        38.141 6  23772993.174 6         0.000 6      2744.491 6        37.977 6
G21  21184155.105 7 111323465.733 7     -1271.112 7        47.791 7  21184154.393 6         0.000 6      -990.477 6        37.977 6
G29  24332707.353 5 127869183.236 5     -3124.774 5        35.599 5  24332708.962 6         0.000 6     -2434.891 6        37.977 6
G27  21978413.392 7 115497315.066 7      2486.027 7        43.146 7  21978415.315 6         0.000 6      1937.165 6        37.977 6
G16  20491424.853 8 107683144.091 8       523.059 8        48.149 8  20491424.026 6         0.000 6       407.578 6        37.977 6
G26  20670016.848 7 108621649.298 7     -1514.414 7        47.582 7  20670019.670 6         0.000 6     -1180.063 6        37.977 6
G20  21917658.334 7 115178039.080 7      2541.453 7        43.288 7  21917658.641 6         0.000 6      1980.354 6        37.977 6
> 2019 07 03 12 01 55.0000000  0  8       0.000000000000
G07  25323870.116 5 133077789.764 5      2160.530 5        33.367 5  25323870.774 6         0.000 6      1683.531 6        37.977 6
G10  23772319.237 6 124924326.675 6      3522.087 6        38.142 6  23772322.928 6         0.000 6      2744.486 6        37.977 6
G21  21184397.025 7 111324737.032 7     -1271.462 7        47.791 7  21184396.313 6         0.000 6      -990.750 6        37.977 6
G29  24333301.978 5 127872307.999 5     -3124.782 5        35.599 5  24333303.587 6         0.000 6     -2434.898 6        37.977 6
G27  21977940.351 7 115494829.225 7      2485.704 7        43.146 7  21977942.275 6         0.000 6      1936.913 6        37.977 6
G16  20491325.381 8 107682621.365 8       522.408 8        48.149 8  20491324.554 6         0.000 6       407.071 6        37.977 6
G26  20670305.075 7 108623163.937 7     -1514.939 7        47.582 7  20670307.897 6         0.000 6     -1180.472 6        37.977 6
G20  21917174.734 7 115175497.746 7      2541.118 7        43.289 7  21917175.040 6         0.000 6      1980.093 6        37.977 6
> 2019 07 03 12 01 56.0000000  0  8       0.000000000000
G07  25323458.852 5 133075628.560 5      2162.768 5        33.368 5  25323459.510 6         0.000 6      1685.275 6        37.977 6
G10  23771649.192 6 124920805.576 6      3519.264 6        38.142 6  23771652.882 6         0.000 6      2742.287 6        37.977 6
G21  21184638.986 7 111326008.544 7     -1271.468 7        47.790 7  21184638.274 6         0.000 6      -990.755 6        37.977 6
G29  24333896.623 5 127875432.869 5     -3125.110 5        35.599 5  24333898.233 6         0.000 6     -2435.153 6        37.977 6
G27  21977467.313 7 115492343.395 7      2486.254 7        43.146 7  21977469.236 6         0.000 6      1937.342 6        37.977 6
G16  20491226.016 8 107682099.197 8       522.025 8        48.149 8  20491225.189 6         0.000 6       406.773 6        37.977 6
G26  20670593.493 7 108624679.583 7     -1516.742 7        47.582 7  20670596.315 6         0.000 6     -1181.877 6        37.977 6
G20  21916691.336 7 115172957.479 7      2538.810 7        43.289 7  21916691.642 6         0.000 6      1978.295 6        37.977 6
> 2019 07 03 12 01 57.0000000  0  8       0.000000000000
G07  25323046.478 5 133073461.524 5      2172.761 5        33.368 5  25323047.136 6         0.000 6      1693.062 6        37.977 6
G10  23770980.343 6 124917290.758 6      3509.068 6        38.142 6  23770984.032 6         0.000 6      2734.341 6        37.977 6
G21  21184880.912 7 111327279.874 7     -1271.326 7        47.790 7  21184880.200 6         0.000 6      -990.643 6        37.977 6
G29  24334491.520 5 127878559.067 5     -3128.201 5        35.598 5  24334493.131 6         0.000 6     -2437.562 6        37.977 6
G27  21976993.885 7 115489855.517 7      2490.433 7        43.146 7  21976995.808 6         0.000 6      1940.597 6        37.977 6
G16  20491126.620 8 107681576.867 8       523.014 8        48.149 8  20491125.793 6         0.000 6       407.544 6        37.977 6
G26  20670882.524 7 108626198.450 7     -1521.417 7        47.582 7  20670885.347 6         0.000 6     -1185.520 6        37.977 6
G20  21916208.871 7 115170422.113 7      2530.788 7        43.289 7  21916209.177 6         0.000 6      1972.044 6        37.977 6
> 2019 07 03 12 01 58.0000000  0  8       0.000000000000
G07  25322631.548 5 133071281.053 5      2188.313 5        33.368 5  25322632.205 6         0.000 6      1705.180 6        37.977 6
G10  23770313.990 6 124913789.065 6      3494.418 6        38.142 6  23770317.679 6         0.000 6      2722.926 6        37.977 6
G21  21185122.981 7 111328551.955 7     -1273.365 7        47.790 7  21185122.269 6         0.000 6      -992.233 6        37.977 6
G29  24335087.675 5 127881691.869 5     -3138.739 5        35.598 5  24335089.286 6         0.000 6     -2445.773 6        37.977 6
G27  21976519.070 7 115487360.348 7      2500.807 7        43.146 7  21976520.993 6         0.000 6      1948.682 6        37.977 6
G16  20491026.775 8 107681052.178 8       526.815 8        48.149 8  20491025.948 6         0.000 6       410.505 6        37.977 6
G26  20671172.550 7 108627722.544 7     -1526.412 7        47.582 7  20671175.372 6         0.000 6     -1189.413 6        37.977 6
G20  21915728.497 7 115167897.733 7      2517.656 7        43.289 7  21915728.802 6         0.000 6      1961.811 6        37.977 6
> 2019 07 03 12 01 59.0000000  0  8       0.000000000000
G07  25322214.015 5 133069086.904 5      2198.267 5        33.368 5  25322214.671 6         0.000 6      1712.936 6        37.977 6
G10  23769650.006 6 124910299.813 6      3485.709 6        38.143 6  23769653.694 6         0.000 6      2716.140 6        37.977 6
G21  21185365.664 7 111329827.265 7     -1277.182 7        47.790 7  21185364.953 6         0.000 6      -995.207 6        37.977 6
G29  24335686.233 5 127884837.303 5     -3151.286 5        35.598 5  24335687.845 6         0.000 6     -2455.550 6        37.977 6
G27  21976042.100 7 115484853.861 7      2511.204 7        43.147 7  21976044.023 6         0.000 6      1956.783 6        37.977 6
G16  20490926.093 8 107680523.091 8       530.973 8        48.149 8  20490925.266 6         0.000 6       413.745 6        37.977 6
G26  20671463.225 7 108629250.054 7     -1528.051 7        47.582 7  20671466.048 6         0.000 6     -1190.689 6        37.977 6
G20  21915250.455 7 115165385.611 7      2507.916 7        43.289 7  21915250.760 6         0.000 6      1954.221 6        37.977 6
