     3.00           Observation Data    M (Mixed)           RINEX VERSION / TYPE
SimGEN V6.06.00     Spirent             03-Jul-19 12:00     PGM / RUN BY / DATE 
                                                            MARKER NAME         
1                                                           MARKER NUMBER       
GROUND_CRAFT                                                MARKER TYPE         
lis4hi              Spirent                                 OBSERVER / AGENCY   
rec_num             rec_type            rec_vers            REC # / TYPE / VERS 
1                   ant_type                                ANT # / TYPE        
  1000.000                                                  INTERVAL            
  2019     7     3    12     0    0.0000000     GPS         TIME OF FIRST OBS   
  4162679.7170   664374.6070  4770530.1970                  APPROX POSITION XYZ 
        0.0000        0.0000        0.0000                  ANTENNA: DELTA H/E/N
G    8 C1C L1C D1C S1C C2C L2C D2C S2C                      SYS / # / OBS TYPES 
        0.0000        0.0000        0.0000                  ANTENNA: DELTA X/Y/Z
DBHZ                                                        SIGNAL STRENGTH UNIT
                                                            END OF HEADER       
> 2019 07 03 12 00  0.0000000  0  8       0.000000000000
G07  25372011.300 5 133330772.977 5      2219.927 5        33.351 5  25372011.984 6         0.000 6      1729.814 6        37.977 6
G10  23849376.842 6 125329265.896 6      3533.043 6        37.837 6  23849380.608 6         0.000 6      2753.020 6        37.977 6
G21  21156825.885 7 111179849.793 7     -1234.346 7        47.885 7  21156825.168 6         0.000 6      -961.828 6        37.977 6
G29  24264422.512 5 127510345.142 5     -3129.096 5        35.928 5  24264424.050 6         0.000 6     -2438.257 6        37.977 6
G27  22033108.461 7 115784739.280 7      2524.422 7        43.124 7  22033110.404 6         0.000 6      1967.082 6        37.977 6
G16  20503757.901 8 107747954.692 8       598.722 8        48.061 8  20503757.074 6         0.000 6       466.536 6        37.977 6
G26  20637932.957 7 108453047.512 7     -1447.473 7        47.694 7  20637935.767 6         0.000 6     -1127.901 6        37.977 6
G20  21973040.237 7 115469072.430 7      2584.769 7        43.267 7  21973040.575 6         0.000 6      2014.106 6        37.977 6
> 2019 07 03 12 00  1.0000000  0  8       0.000000000000
G07  25371589.066 5 133328554.123 5      2217.552 5        33.351 5  25371589.749 6         0.000 6      1727.963 6        37.977 6
G10  23848704.420 6 125325732.306 6      3534.265 6        37.837 6  23848708.185 6         0.000 6      2753.976 6        37.977 6
G21  21157060.680 7 111181083.649 7     -1233.231 7        47.885 7  21157059.963 6         0.000 6      -960.959 6        37.977 6
G29  24265017.588 5 127513472.277 5     -3124.769 5        35.927 5  24265019.126 6         0.000 6     -2434.887 6        37.977 6
G27  22032628.400 7 115782216.547 7      2520.737 7        43.124 7  22032630.343 6         0.000 6      1964.212 6        37.977 6
G16  20503644.169 8 107747357.027 8       596.464 8        48.061 8  20503643.343 6         0.000 6       464.777 6        37.977 6
G26  20638208.499 7 108454495.490 7     -1448.521 7        47.694 7  20638211.309 6         0.000 6     -1128.718 6        37.977 6
G20  21972548.225 7 115466486.894 7      2586.507 7        43.267 7  21972548.563 6         0.000 6      2015.461 6        37.977 6
> 2019 07 03 12 00  2.0000000  0  8       0.000000000000
G07  25371167.250 5 133326337.470 5      2215.991 5        33.351 5  25371167.933 6         0.000 6      1726.747 6        37.977 6
G10  23848031.798 6 125322197.665 6      3534.883 6        37.837 6  23848035.563 6         0.000 6      2754.457 6        37.977 6
G21  21157295.295 7 111182316.561 7     -1232.767 7        47.885 7  21157294.579 6         0.000 6      -960.598 6        37.977 6
G29  24265611.935 5 127516595.579 5     -3122.373 5        35.927 5  24265613.473 6         0.000 6     -2433.021 6        37.977 6
G27  22032148.964 7 115779697.096 7      2518.573 7        43.124 7  22032150.906 6         0.000 6      1962.525 6        37.977 6
G16  20503530.830 8 107746761.424 8       594.934 8        48.061 8  20503530.003 6         0.000 6       463.585 6        37.977 6
G26  20638484.228 7 108455944.455 7     -1449.357 7        47.694 7  20638487.038 6         0.000 6     -1129.369 6        37.977 6
G20  21972055.931 7 115463899.876 7      2587.285 7        43.267 7  21972056.269 6         0.000 6      2016.067 6        37.977 6
> 2019 07 03 12 00  3.0000000  0  8       0.000000000000
G07  25370745.675 5 133324122.080 5      2214.825 5        33.351 5  25370746.357 6         0.000 6      1725.838 6        37.977 6
G10  23847359.098 6 125318662.610 6      3535.231 6        37.838 6  23847362.862 6         0.000 6      2754.728 6        37.977 6
G21  21157529.865 7 111183549.233 7     -1232.598 7        47.885 7  21157529.148 6         0.000 6      -960.466 6        37.977 6
G29  24266205.953 5 127519717.153 5     -3120.857 5        35.927 5  24266207.492 6         0.000 6     -2431.839 6        37.977 6
G27  22031669.841 7 115777179.291 7      2517.091 7        43.125 7  22031671.783 6         0.000 6      1961.370 6        37.977 6
G16  20503417.735 8 107746167.107 8       593.725 8        48.061 8  20503416.908 6         0.000 6       462.643 6        37.977 6
G26  20638760.103 7 108457394.188 7     -1450.106 7        47.694 7  20638762.913 6         0.000 6     -1129.953 6        37.977 6
G20  21971563.552 7 115461312.410 7      2587.628 7        43.267 7  21971563.889 6         0.000 6      2016.334 6        37.977 6
> 2019 07 03 12 00  4.0000000  0  8       0.000000000000
G07  25370324.308 5 133321907.785 5      2213.830 5        33.352 5  25370324.990 6         0.000 6      1725.064 6        37.977 6
G10  23846686.339 6 125315127.253 6      3535.464 6        37.838 6  23846690.103 6         0.000 6      2754.910 6        37.977 6
G21  21157764.413 7 111184781.788 7     -1232.558 7        47.885 7  21157763.696 6         0.000 6      -960.435 6        37.977 6
G29  24266799.713 5 127522837.377 5     -3119.734 5        35.927 5  24266801.253 6         0.000 6     -2430.964 6        37.977 6
G27  22031190.975 7 115774662.838 7      2515.915 7        43.125 7  22031192.918 6         0.000 6      1960.454 6        37.977 6
G16  20503304.858 8 107745573.934 8       592.664 8        48.061 8  20503304.031 6         0.000 6       461.816 6        37.977 6
G26  20639036.117 7 108458844.648 7     -1450.809 7        47.694 7  20639038.927 6         0.000 6     -1130.501 6        37.977 6
G20  21971071.122 7 115458724.677 7      2587.782 7        43.267 7  21971071.459 6         0.000 6      2016.455 6        37.977 6
> 2019 07 03 12 00  5.0000000  0  8       0.000000000000
G07  25369903.108 5 133319694.371 5      2212.992 5        33.352 5  25369903.791 6         0.000 6      1724.410 6        37.977 6
G10  23846013.552 6 125311591.742 6      3535.591 6        37.838 6  23846017.315 6         0.000 6      2755.009 6        37.977 6
G21  21157998.969 7 111186014.389 7     -1232.635 7        47.884 7  21157998.252 6         0.000 6      -960.495 6        37.977 6
G29  24267393.307 5 127525956.720 5     -3118.957 5        35.926 5  24267394.847 6         0.000 6     -2430.359 6        37.977 6
G27  22030712.298 7 115772147.374 7      2515.008 7        43.125 7  22030714.240 6         0.000 6      1959.747 6        37.977 6
G16  20503192.166 8 107744981.737 8       591.729 8        48.061 8  20503191.340 6         0.000 6       461.088 6        37.977 6
G26  20639312.261 7 108460295.792 7     -1451.478 7        47.694 7  20639315.071 6         0.000 6     -1131.022 6        37.977 6
G20  21970578.686 7 115456136.915 7      2587.765 7        43.268 7  21970579.023 6         0.000 6      2016.441 6        37.977 6
> 2019 07 03 12 00  6.0000000  0  8       0.000000000000
G07  25369482.017 5 133317481.527 5      2214.992 5        33.352 5  25369482.699 6         0.000 6      1725.969 6        37.977 6
G10  23845340.792 6 125308056.373 6      3532.897 6        37.838 6  23845344.554 6         0.000 6      2752.909 6        37.977 6
G21  21158233.532 7 111187247.025 7     -1232.365 7        47.884 7  21158232.815 6         0.000 6      -960.285 6        37.977 6
G29  24267986.753 5 127529075.293 5     -3118.394 5        35.926 5  24267988.294 6         0.000 6     -2429.920 6        37.977 6
G27  22030233.780 7 115769632.749 7      2514.906 7        43.125 7  22030235.722 6         0.000 6      1959.668 6        37.977 6
G16  20503079.648 8 107744390.450 8       591.082 8        48.061 8  20503078.821 6         0.000 6       460.584 6        37.977 6
G26  20639588.555 7 108461747.726 7     -1453.393 7        47.694 7  20639591.366 6         0.000 6     -1132.514 6        37.977 6
G20  21970086.289 7 115453549.354 7      2585.772 7        43.268 7  21970086.625 6         0.000 6      2014.888 6        37.977 6
> 2019 07 03 12 00  7.0000000  0  8       0.000000000000
G07  25369059.362 5 133315260.460 5      2227.465 5        33.352 5  25369060.044 6         0.000 6      1735.688 6        37.977 6
G10  23844669.683 6 125304529.683 6      3520.349 6        37.839 6  23844673.444 6         0.000 6      2743.132 6        37.977 6
G21  21158468.001 7 111188479.170 7     -1232.328 7        47.884 7  21158467.285 6         0.000 6      -960.256 6        37.977 6
G29  24268580.437 5 127532195.113 5     -3122.386 5        35.926 5  24268581.979 6         0.000 6     -2433.030 6        37.977 6
G27  22029754.774 7 115767115.558 7      2520.305 7        43.125 7  22029756.716 6         0.000 6      1963.875 6        37.977 6
G16  20502967.048 8 107743798.730 8       592.752 8        48.061 8  20502966.221 6         0.000 6       461.885 6        37.977 6
G26  20639865.654 7 108463203.889 7     -1458.737 7        47.693 7  20639868.464 6         0.000 6     -1136.679 6        37.977 6
G20  21969595.142 7 115450968.364 7      2575.795 7        43.268 7  21969595.478 6         0.000 6      2007.114 6        37.977 6
> 2019 07 03 12 00  8.0000000  0  8       0.000000000000
G07  25368634.229 5 133313026.376 5      2241.361 5        33.352 5  25368634.910 6         0.000 6      1746.516 6        37.977 6
G10  23844000.969 6 125301015.581 6      3507.538 6        37.839 6  23844004.730 6         0.000 6      2733.150 6        37.977 6
G21  21158702.712 7 111189712.584 7     -1235.257 7        47.884 7  21158701.996 6         0.000 6      -962.538 6        37.977 6
G29  24269175.539 5 127535322.383 5     -3134.297 5        35.926 5  24269177.081 6         0.000 6     -2442.312 6        37.977 6
G27  22029274.274 7 115764590.518 7      2531.360 7        43.126 7  22029276.216 6         0.000 6      1972.489 6        37.977 6
G16  20502853.902 8 107743204.144 8       597.181 8        48.061 8  20502853.075 6         0.000 6       465.336 6        37.977 6
G26  20640143.614 7 108464664.576 7     -1462.281 7        47.693 7  20640146.425 6         0.000 6     -1139.441 6        37.977 6
G20  21969106.086 7 115448398.360 7      2563.388 7        43.268 7  21969106.421 6         0.000 6      1997.446 6        37.977 6
> 2019 07 03 12 00  9.0000000  0  8       0.000000000000
G07  25368206.958 5 133310781.057 5      2246.996 5        33.352 5  25368207.640 6         0.000 6      1750.907 6        37.977 6
G10  23843334.159 6 125297511.480 6      3502.572 6        37.839 6  23843337.919 6         0.000 6      2729.279 6        37.977 6
G21  21158938.125 7 111190949.687 7     -1238.194 7        47.884 7  21158937.409 6         0.000 6      -964.826 6        37.977 6
G29  24269773.076 5 127538462.451 5     -3143.096 5        35.926 5  24269774.619 6         0.000 6     -2449.168 6        37.977 6
G27  22028791.675 7 115762054.444 7      2538.395 7        43.126 7  22028793.617 6         0.000 6      1977.971 6        37.977 6
G16  20502739.894 8 107742605.031 8       599.938 8        48.061 8  20502739.068 6         0.000 6       467.484 6        37.977 6
G26  20640421.961 7 108466127.298 7     -1462.975 7        47.693 7  20640424.772 6         0.000 6     -1139.981 6        37.977 6
G20  21968619.075 7 115445839.107 7      2557.193 7        43.268 7  21968619.411 6         0.000 6      1992.619 6        37.977 6
> 2019 07 03 12 00 10.0000000  0  8       0.000000000000
G07  25367779.310 5 133308533.755 5      2247.385 5        33.352 5  25367779.991 6         0.000 6      1751.210 6        37.977 6
G10  23842667.733 6 125294009.397 6      3501.785 6        37.839 6  23842671.492 6         0.000 6      2728.666 6        37.977 6
G21  21159173.830 7 111192188.323 7     -1238.946 7        47.884 7  21159173.114 6         0.000 6      -965.413 6        37.977 6
G29  24270371.359 5 127541606.440 5     -3144.477 5        35.925 5  24270372.902 6         0.000 6     -2450.244 6        37.977 6
G27  22028308.524 7 115759515.469 7      2539.220 7        43.126 7  22028310.465 6         0.000 6      1978.614 6        37.977 6
G16  20502625.727 8 107742005.076 8       599.810 8        48.061 8  20502624.900 6         0.000 6       467.384 6        37.977 6
G26  20640700.408 7 108467590.545 7     -1463.550 7        47.693 7  20640703.219 6         0.000 6     -1140.429 6        37.977 6
G20  21968132.598 7 115443282.658 7      2555.948 7        43.269 7  21968132.933 6         0.000 6      1991.649 6        37.977 6
> 2019 07 03 12 00 11.0000000  0  8       0.000000000000
G07  25367351.666 5 133306286.473 5      2247.146 5        33.353 5  25367352.347 6         0.000 6      1751.024 6        37.977 6
G10  23842001.399 6 125290507.801 6      3501.459 6        37.840 6  23842005.158 6         0.000 6      2728.412 6        37.977 6
G21  21159409.632 7 111193427.470 7     -1239.337 7        47.884 7  21159408.916 6         0.000 6      -965.717 6        37.977 6
G29  24270969.760 5 127544751.052 5     -3144.713 5        35.925 5  24270971.304 6         0.000 6     -2450.428 6        37.977 6
G27  22027825.330 7 115756976.273 7      2539.127 7        43.126 7  22027827.271 6         0.000 6      1978.541 6        37.977 6
G16  20502511.638 8 107741405.535 8       599.247 8        48.061 8  20502510.811 6         0.000 6       466.946 6        37.977 6
G26  20640978.973 7 108469054.413 7     -1464.193 7        47.693 7  20640981.784 6         0.000 6     -1140.930 6        37.977 6
G20  21967646.278 7 115440727.036 7      2555.340 7        43.269 7  21967646.613 6         0.000 6      1991.175 6        37.977 6
> 2019 07 03 12 00 12.0000000  0  8       0.000000000000
G07  25366924.080 5 133304039.499 5      2246.797 5        33.353 5  25366924.761 6         0.000 6      1750.752 6        37.977 6
G10  23841335.117 6 125287006.475 6      3501.226 6        37.840 6  23841338.875 6         0.000 6      2728.231 6        37.977 6
G21  21159645.503 7 111194666.980 7     -1239.689 7        47.884 7  21159644.787 6         0.000 6      -965.991 6        37.977 6
G29  24271568.190 5 127547895.810 5     -3144.820 5        35.925 5  24271569.735 6         0.000 6     -2450.511 6        37.977 6
G27  22027342.169 7 115754437.246 7      2538.924 7        43.126 7  22027344.110 6         0.000 6      1978.383 6        37.977 6
G16  20502397.662 8 107740806.590 8       598.636 8        48.061 8  20502396.836 6         0.000 6       466.470 6        37.977 6
G26  20641257.659 7 108470518.919 7     -1464.822 7        47.693 7  20641260.471 6         0.000 6     -1141.420 6        37.977 6
G20  21967160.062 7 115438171.957 7      2554.833 7        43.269 7  21967160.397 6         0.000 6      1990.780 6        37.977 6
> 2019 07 03 12 00 13.0000000  0  8       0.000000000000
G07  25366496.566 5 133301792.901 5      2246.408 5        33.353 5  25366497.247 6         0.000 6      1750.449 6        37.977 6
G10  23840668.874 6 125283505.356 6      3501.031 6        37.840 6  23840672.631 6         0.000 6      2728.078 6        37.977 6
G21  21159881.441 7 111195906.841 7     -1240.043 7        47.884 7  21159880.725 6         0.000 6      -966.267 6        37.977 6
G29  24272166.637 5 127551040.662 5     -3144.915 5        35.925 5  24272168.183 6         0.000 6     -2450.586 6        37.977 6
G27  22026859.049 7 115751898.437 7      2538.704 7        43.126 7  22026860.990 6         0.000 6      1978.212 6        37.977 6
G16  20502283.804 8 107740208.263 8       598.018 8        48.061 8  20502282.978 6         0.000 6       465.988 6        37.977 6
G26  20641536.464 7 108471984.045 7     -1465.437 7        47.693 7  20641539.275 6         0.000 6     -1141.899 6        37.977 6
G20  21966673.939 7 115435617.365 7      2554.355 7        43.269 7  21966674.273 6         0.000 6      1990.407 6        37.977 6
> 2019 07 03 12 00 14.0000000  0  8       0.000000000000
G07  25366069.128 5 133299546.702 5      2245.995 5        33.353 5  25366069.808 6         0.000 6      1750.127 6        37.977 6
G10  23840002.666 6 125280004.422 6      3500.860 6        37.840 6  23840006.423 6         0.000 6      2727.946 6        37.977 6
G21  21160117.447 7 111197147.062 7     -1240.398 7        47.884 7  21160116.731 6         0.000 6      -966.544 6        37.977 6
G29  24272765.104 5 127554185.616 5     -3145.008 5        35.925 5  24272766.650 6         0.000 6     -2450.658 6        37.977 6
G27  22026375.971 7 115749359.847 7      2538.478 7        43.127 7  22026377.911 6         0.000 6      1978.035 6        37.977 6
G16  20502170.064 8 107739610.554 8       597.398 8        48.061 8  20502169.237 6         0.000 6       465.505 6        37.977 6
G26  20641815.384 7 108473449.782 7     -1466.039 7        47.594 7  20641818.196 6         0.000 6     -1142.368 6        37.977 6
G20  21966187.905 7 115433063.246 7      2553.895 7        43.269 7  21966188.239 6         0.000 6      1990.049 6        37.977 6
> 2019 07 03 12 00 15.0000000  0  8       0.000000000000
G07  25365641.770 5 133297300.925 5      2245.569 5        33.353 5  25365642.450 6         0.000 6      1749.795 6        37.977 6
G10  23839336.490 6 125276503.650 6      3500.703 6        37.841 6  23839340.246 6         0.000 6      2727.823 6        37.977 6
G21  21160353.521 7 111198387.637 7     -1240.756 7        47.883 7  21160352.805 6         0.000 6      -966.823 6        37.977 6
G29  24273363.588 5 127557330.659 5     -3145.103 5        35.924 5  24273365.134 6         0.000 6     -2450.732 6        37.977 6
G27  22025892.937 7 115746821.488 7      2538.249 7        43.127 7  22025894.877 6         0.000 6      1977.857 6        37.977 6
G16  20502056.442 8 107739013.467 8       596.778 8        48.061 8  20502055.615 6         0.000 6       465.022 6        37.977 6
G26  20642094.419 7 108474916.117 7     -1466.636 7        47.594 7  20642097.231 6         0.000 6     -1142.834 6        37.977 6
G20  21965701.958 7 115430509.580 7      2553.443 7        43.270 7  21965702.292 6         0.000 6      1989.697 6        37.977 6
> 2019 07 03 12 00 16.0000000  0  8       0.000000000000
G07  25365214.494 5 133295055.578 5      2245.130 5        33.353 5  25365215.174 6         0.000 6      1749.453 6        37.977 6
G10  23838670.343 6 125273003.034 6      3500.555 6        37.841 6  23838674.098 6         0.000 6      2727.708 6        37.977 6
G21  21160589.664 7 111199628.575 7     -1241.118 7        47.883 7  21160588.948 6         0.000 6      -967.105 6        37.977 6
G29  24273962.089 5 127560475.797 5     -3145.193 5        35.924 5  24273963.637 6         0.000 6     -2450.803 6        37.977 6
G27  22025409.947 7 115744283.361 7      2538.012 7        43.127 7  22025411.887 6         0.000 6      1977.672 6        37.977 6
G16  20501942.939 8 107738417.004 8       596.151 8        48.061 8  20501942.112 6         0.000 6       464.534 6        37.977 6
G26  20642373.568 7 108476383.052 7     -1467.232 7        47.594 7  20642376.380 6         0.000 6     -1143.298 6        37.977 6
G20  21965216.097 7 115427956.366 7      2552.997 7        43.270 7  21965216.430 6         0.000 6      1989.350 6        37.977 6
> 2019 07 03 12 00 17.0000000  0  8       0.000000000000
G07  25364787.302 5 133292810.673 5      2244.689 5        33.353 5  25364787.982 6         0.000 6      1749.109 6        37.977 6
G10  23838004.223 6 125269502.562 6      3500.412 6        37.841 6  23838007.977 6         0.000 6      2727.596 6        37.977 6
G21  21160825.875 7 111200869.872 7     -1241.478 7        47.883 7  21160825.159 6         0.000 6      -967.385 6        37.977 6
G29  24274560.609 5 127563621.026 5     -3145.284 5        35.924 5  24274562.156 6         0.000 6     -2450.873 6        37.977 6
G27  22024927.002 7 115741745.470 7      2537.776 7        43.127 7  22024928.942 6         0.000 6      1977.489 6        37.977 6
G16  20501829.555 8 107737821.165 8       595.528 8        48.062 8  20501828.728 6         0.000 6       464.048 6        37.977 6
G26  20642652.829 7 108477850.578 7     -1467.823 7        47.594 7  20642655.641 6         0.000 6     -1143.759 6        37.977 6
G20  21964730.319 7 115425403.594 7      2552.556 7        43.270 7  21964730.653 6         0.000 6      1989.006 6        37.977 6
> 2019 07 03 12 00 18.0000000  0  8       0.000000000000
G07  25364360.194 5 133290566.206 5      2244.244 5        33.354 5  25364360.873 6         0.000 6      1748.762 6        37.977 6
G10  23837338.131 6 125266002.235 6      3500.272 6        37.841 6  23837341.885 6         0.000 6      2727.487 6        37.977 6
G21  21161062.155 7 111202111.531 7     -1241.841 7        47.883 7  21161061.439 6         0.000 6      -967.668 6        37.977 6
G29  24275159.146 5 127566766.350 5     -3145.381 5        35.924 5  24275160.694 6         0.000 6     -2450.949 6        37.977 6
G27  22024444.100 7 115739207.811 7      2537.544 7        43.127 7  22024446.040 6         0.000 6      1977.307 6        37.977 6
G16  20501716.288 8 107737225.947 8       594.905 8        48.062 8  20501715.462 6         0.000 6       463.562 6        37.977 6
G26  20642932.203 7 108479318.695 7     -1468.412 7        47.594 7  20642935.015 6         0.000 6     -1144.218 6        37.977 6
G20  21964244.627 7 115422851.267 7      2552.115 7        43.270 7  21964244.960 6         0.000 6      1988.662 6        37.977 6
> 2019 07 03 12 00 19.0000000  0  8       0.000000000000
G07  25363933.171 5 133288322.193 5      2243.792 5        33.354 5  25363933.851 6         0.000 6      1748.410 6        37.977 6
G10  23836672.064 6 125262502.040 6      3500.136 6        37.842 6  23836675.817 6         0.000 6      2727.382 6        37.977 6
G21  21161298.504 7 111203353.553 7     -1242.206 7        47.883 7  21161297.788 6         0.000 6      -967.953 6        37.977 6
G29  24275757.701 5 127569911.767 5     -3145.473 5        35.923 5  24275759.250 6         0.000 6     -2451.021 6        37.977 6
G27  22023961.245 7 115736670.389 7      2537.304 7        43.128 7  22023963.184 6         0.000 6      1977.120 6        37.977 6
G16  20501603.141 8 107736631.355 8       594.277 8        48.062 8  20501602.314 6         0.000 6       463.073 6        37.977 6
G26  20643211.688 7 108480787.398 7     -1469.003 7        47.593 7  20643214.500 6         0.000 6     -1144.678 6        37.977 6
G20  21963759.017 7 115420299.374 7      2551.676 7        43.270 7  21963759.349 6         0.000 6      1988.320 6        37.977 6
> 2019 07 03 12 00 20.0000000  0  8       0.000000000000
G07  25363506.243 5 133286078.672 5      2242.973 5        33.354 5  25363506.922 6         0.000 6      1747.772 6        37.977 6
G10  23836006.017 6 125259001.951 6      3500.257 6        37.842 6  23836009.769 6         0.000 6      2727.476 6        37.977 6
G21  21161534.918 7 111204595.917 7     -1242.308 7        47.883 7  21161534.202 6         0.000 6      -968.032 6        37.977 6
G29  24276356.260 5 127573057.205 5     -3144.786 5        35.923 5  24276357.809 6         0.000 6     -2450.485 6        37.977 6
G27  22023478.445 7 115734133.264 7      2536.459 7        43.128 7  22023480.385 6         0.000 6      1976.463 6        37.977 6
G16  20501490.119 8 107736037.417 8       593.366 8        48.062 8  20501489.292 6         0.000 6       462.363 6        37.977 6
G26  20643491.287 7 108482256.696 7     -1469.660 7        47.593 7  20643494.099 6         0.000 6     -1145.190 6        37.977 6
G20  21963273.483 7 115417747.880 7      2551.636 7        43.270 7  21963273.815 6         0.000 6      1988.289 6        37.977 6
> 2019 07 03 12 00 21.0000000  0  8       0.000000000000
G07  25363079.141 5 133283834.239 5      2245.703 5        33.354 5  25363079.819 6         0.000 6      1749.899 6        37.977 6
G10  23835340.133 6 125255502.719 6      3498.699 6        37.842 6  23835343.885 6         0.000 6      2726.261 6        37.977 6
G21  21161771.696 7 111205840.192 7     -1247.015 7        47.883 7  21161770.980 6         0.000 6      -971.700 6        37.977 6
G29  24276955.666 5 127576207.095 5     -3156.848 5        35.923 5  24276957.216 6         0.000 6     -2459.884 6        37.977 6
G27  22022995.074 7 115731593.131 7      2544.995 7        43.128 7  22022997.013 6         0.000 6      1983.114 6        37.977 6
G16  20501376.917 8 107735442.537 8       596.995 8        48.062 8  20501376.090 6         0.000 6       465.191 6        37.977 6
G26  20643770.858 7 108483725.850 7     -1467.986 7        47.593 7  20643773.670 6         0.000 6     -1143.886 6        37.977 6
G20  21962788.361 7 115415198.552 7      2546.825 7        43.271 7  21962788.693 6         0.000 6      1984.540 6        37.977 6
> 2019 07 03 12 00 22.0000000  0  8       0.000000000000
G07  25362652.037 5 133281589.798 5      2241.775 5        33.354 5  25362652.716 6         0.000 6      1746.838 6        37.977 6
G10  23834673.993 6 125252002.138 6      3503.775 6        37.842 6  23834677.744 6         0.000 6      2730.217 6        37.977 6
G21  21162009.537 7 111207090.058 7     -1252.607 7        47.883 7  21162008.821 6         0.000 6      -976.058 6        37.977 6
G29  24277557.585 5 127579370.195 5     -3168.538 5        35.923 5  24277559.136 6         0.000 6     -2468.993 6        37.977 6
G27  22022510.052 7 115729044.326 7      2551.726 7        43.128 7  22022511.991 6         0.000 6      1988.358 6        37.977 6
G16  20501262.988 8 107734843.840 8       600.009 8        48.062 8  20501262.162 6         0.000 6       467.540 6        37.977 6
G26  20644049.800 7 108485191.701 7     -1463.331 7        47.593 7  20644052.612 6         0.000 6     -1140.258 6        37.977 6
G20  21962303.842 7 115412652.392 7      2546.613 7        43.271 7  21962304.174 6         0.000 6      1984.375 6        37.977 6
> 2019 07 03 12 00 23.0000000  0  8       0.000000000000
G07  25362226.594 5 133279354.083 5      2231.026 5        33.354 5  25362227.272 6         0.000 6      1738.463 6        37.977 6
G10  23834006.044 6 125248492.055 6      3514.738 6        37.843 6  23834009.795 6         0.000 6      2738.759 6        37.977 6
G21  21162248.379 7 111208345.177 7     -1256.598 7        47.883 7  21162247.663 6         0.000 6      -979.167 6        37.977 6
G29  24278161.219 5 127582542.302 5     -3173.654 5        35.923 5  24278162.771 6         0.000 6     -2472.980 6        37.977 6
G27  22022024.304 7 115726491.709 7      2552.460 7        43.128 7  22022026.243 6         0.000 6      1988.930 6        37.977 6
G16  20501148.724 8 107734243.378 8       600.327 8        48.062 8  20501147.897 6         0.000 6       467.788 6        37.977 6
G26  20644327.591 7 108486651.499 7     -1457.542 7        47.593 7  20644330.403 6         0.000 6     -1135.747 6        37.977 6
G20  21961818.648 7 115410102.684 7      2552.259 7        43.271 7  21961818.979 6         0.000 6      1988.774 6        37.977 6
> 2019 07 03 12 00 24.0000000  0  8       0.000000000000
G07  25361802.359 5 133277124.716 5      2228.398 5        33.354 5  25361803.037 6         0.000 6      1736.415 6        37.977 6
G10  23833336.949 6 125244975.947 6      3516.806 6        37.843 6  23833340.699 6         0.000 6      2740.371 6        37.977 6
G21  21162487.585 7 111209602.216 7     -1257.348 7        47.883 7  21162486.870 6         0.000 6      -979.752 6        37.977 6
G29  24278765.170 5 127585716.075 5     -3173.840 5        35.922 5  24278766.722 6         0.000 6     -2473.125 6        37.977 6
G27  22021538.663 7 115723939.653 7      2551.770 7        43.129 7  22021540.602 6         0.000 6      1988.393 6        37.977 6
G16  20501034.560 8 107733643.438 8       599.578 8        48.062 8  20501033.733 6         0.000 6       467.204 6        37.977 6
G26  20644604.875 7 108488108.638 7     -1457.079 7        47.593 7  20644607.688 6         0.000 6     -1135.387 6        37.977 6
G20  21961332.829 7 115407549.693 7      2553.282 7        43.271 7  21961333.160 6         0.000 6      1989.571 6        37.977 6
> 2019 07 03 12 00 25.0000000  0  8       0.000000000000
G07  25361378.384 5 133274896.715 5      2227.706 5        33.355 5  25361379.061 6         0.000 6      1735.876 6        37.977 6
G10  23832667.703 6 125241459.049 6      3516.915 6        37.843 6  23832671.453 6         0.000 6      2740.456 6        37.977 6
G21  21162726.891 7 111210859.775 7     -1257.754 7        47.882 7  21162726.175 6         0.000 6      -980.068 6        37.977 6
G29  24279369.140 5 127588889.947 5     -3173.925 5        35.922 5  24279370.693 6         0.000 6     -2473.191 6        37.977 6
G27  22021053.109 7 115721388.049 7      2551.467 7        43.129 7  22021055.047 6         0.000 6      1988.157 6        37.977 6
G16  20500920.525 8 107733044.184 8       598.940 8        48.062 8  20500919.698 6         0.000 6       466.707 6        37.977 6
G26  20644882.189 7 108489565.928 7     -1457.545 7        47.593 7  20644885.001 6         0.000 6     -1135.750 6        37.977 6
G20  21960846.975 7 115404996.521 7      2553.008 7        43.271 7  21960847.306 6         0.000 6      1989.358 6        37.977 6
> 2019 07 03 12 00 26.0000000  0  8       0.000000000000
G07  25360954.511 5 133272669.252 5      2227.237 5        33.355 5  25360955.188 6         0.000 6      1735.510 6        37.977 6
G10  23831998.466 6 125237942.196 6      3516.802 6        37.843 6  23832002.215 6         0.000 6      2740.368 6        37.977 6
G21  21162966.269 7 111212117.716 7     -1258.129 7        47.882 7  21162965.554 6         0.000 6      -980.361 6        37.977 6
G29  24279973.126 5 127592063.908 5     -3174.016 5        35.922 5  24279974.680 6         0.000 6     -2473.262 6        37.977 6
G27  22020567.604 7 115718836.708 7      2551.219 7        43.129 7  22020569.543 6         0.000 6      1987.964 6        37.977 6
G16  20500806.609 8 107732445.553 8       598.320 8        48.062 8  20500805.783 6         0.000 6       466.224 6        37.977 6
G26  20645159.603 7 108491023.751 7     -1458.113 7        47.593 7  20645162.416 6         0.000 6     -1136.192 6        37.977 6
G20  21960361.194 7 115402443.727 7      2552.582 7        43.272 7  21960361.525 6         0.000 6      1989.026 6        37.977 6
> 2019 07 03 12 00 27.0000000  0  8       0.000000000000
G07  25360530.725 5 133270442.246 5      2226.785 5        33.355 5  25360531.402 6         0.000 6      1735.158 6        37.977 6
G10  23831329.254 6 125234425.471 6      3516.667 6        37.844 6  23831333.002 6         0.000 6      2740.263 6        37.977 6
G21  21163205.720 7 111213376.034 7     -1258.506 7        47.882 7  21163205.004 6         0.000 6      -980.654 6        37.977 6
G29  24280577.130 5 127595237.960 5     -3174.106 5        35.922 5  24280578.684 6         0.000 6     -2473.332 6        37.977 6
G27  22020082.147 7 115716285.618 7      2550.970 7        43.129 7  22020084.086 6         0.000 6      1987.770 6        37.977 6
G16  20500692.813 8 107731847.547 8       597.695 8        48.062 8  20500691.986 6         0.000 6       465.737 6        37.977 6
G26  20645437.129 7 108492482.154 7     -1458.695 7        47.592 7  20645439.942 6         0.000 6     -1136.646 6        37.977 6
G20  21959875.496 7 115399891.371 7      2552.139 7        43.272 7  21959875.826 6         0.000 6      1988.681 6        37.977 6
> 2019 07 03 12 00 28.0000000  0  8       0.000000000000
G07  25360107.024 5 133268215.685 5      2226.337 5        33.355 5  25360107.701 6         0.000 6      1734.809 6        37.977 6
G10  23830660.068 6 125230908.885 6      3516.530 6        37.844 6  23830663.815 6         0.000 6      2740.156 6        37.977 6
G21  21163445.240 7 111214634.721 7     -1258.878 7        47.882 7  21163444.524 6         0.000 6      -980.944 6        37.977 6
G29  24281181.151 5 127598412.099 5     -3174.195 5        35.922 5  24281182.706 6         0.000 6     -2473.401 6        37.977 6
G27  22019596.737 7 115713734.770 7      2550.724 7        43.129 7  22019598.675 6         0.000 6      1987.578 6        37.977 6
G16  20500579.133 8 107731250.158 8       597.074 8        48.062 8  20500578.307 6         0.000 6       465.253 6        37.977 6
G26  20645714.764 7 108493941.136 7     -1459.276 7        47.592 7  20645717.577 6         0.000 6     -1137.098 6        37.977 6
G20  21959389.882 7 115397339.457 7      2551.697 7        43.272 7  21959390.212 6         0.000 6      1988.337 6        37.977 6
> 2019 07 03 12 00 29.0000000  0  8       0.000000000000
G07  25359683.409 5 133265989.578 5      2225.889 5        33.355 5  25359684.086 6         0.000 6      1734.460 6        37.977 6
G10  23829990.906 6 125227392.429 6      3516.394 6        37.844 6  23829994.653 6         0.000 6      2740.050 6        37.977 6
G21  21163684.831 7 111215893.782 7     -1259.250 7        47.882 7  21163684.116 6         0.000 6      -981.234 6        37.977 6
G29  24281785.189 5 127601586.328 5     -3174.284 5        35.921 5  24281786.744 6         0.000 6     -2473.471 6        37.977 6
G27  22019111.373 7 115711184.170 7      2550.479 7        43.130 7  22019113.311 6         0.000 6      1987.387 6        37.977 6
G16  20500465.573 8 107730653.392 8       596.453 8        48.062 8  20500464.746 6         0.000 6       464.768 6        37.977 6
G26  20645992.509 7 108495400.695 7     -1459.856 7        47.592 7  20645995.322 6         0.000 6     -1137.550 6        37.977 6
G20  21958904.351 7 115394787.981 7      2551.255 7        43.272 7  21958904.681 6         0.000 6      1987.992 6        37.977 6
> 2019 07 03 12 00 30.0000000  0  8       0.000000000000
G07  25359259.879 5 133263763.917 5      2225.441 5        33.355 5  25359260.556 6         0.000 6      1734.111 6        37.977 6
G10  23829321.772 6 125223876.115 6      3516.257 6        37.844 6  23829325.518 6         0.000 6      2739.943 6        37.977 6
G21  21163924.494 7 111217153.217 7     -1259.622 7        47.882 7  21163923.778 6         0.000 6      -981.524 6        37.977 6
G29  24282389.243 5 127604760.647 5     -3174.373 5        35.921 5  24282390.799 6         0.000 6     -2473.540 6        37.977 6
G27  22018626.056 7 115708633.817 7      2550.233 7        43.130 7  22018627.994 6         0.000 6      1987.195 6        37.977 6
G16  20500352.130 8 107730057.250 8       595.832 8        48.062 8  20500351.304 6         0.000 6       464.284 6        37.977 6
G26  20646270.366 7 108496860.839 7     -1460.436 7        47.592 7  20646273.179 6         0.000 6     -1138.003 6        37.977 6
G20  21958418.906 7 115392236.952 7      2550.813 7        43.272 7  21958419.235 6         0.000 6      1987.647 6        37.977 6
> 2019 07 03 12 00 31.0000000  0  8       0.000000000000
G07  25358836.435 5 133261538.706 5      2224.990 5        33.355 5  25358837.111 6         0.000 6      1733.759 6        37.977 6
G10  23828652.663 6 125220359.933 6      3516.124 6        37.845 6  23828656.408 6         0.000 6      2739.840 6        37.977 6
G21  21164164.227 7 111218413.022 7     -1259.991 7        47.882 7  21164163.511 6         0.000 6      -981.812 6        37.977 6
G29  24282993.315 5 127607935.054 5     -3174.462 5        35.921 5  24282994.871 6         0.000 6     -2473.609 6        37.977 6
G27  22018140.786 7 115706083.708 7      2549.989 7        43.130 7  22018142.724 6         0.000 6      1987.005 6        37.977 6
G16  20500238.806 8 107729461.726 8       595.213 8        48.062 8  20500237.979 6         0.000 6       463.803 6        37.977 6
G26  20646548.332 7 108498321.559 7     -1461.012 7        47.592 7  20646551.145 6         0.000 6     -1138.451 6        37.977 6
G20  21957933.544 7 115389686.361 7      2550.374 7        43.273 7  21957933.873 6         0.000 6      1987.306 6        37.977 6
> 2019 07 03 12 00 32.0000000  0  8       0.000000000000
G07  25358413.078 5 133259313.952 5      2224.498 5        33.356 5  25358413.754 6         0.000 6      1733.376 6        37.977 6
G10  23827983.579 6 125216843.885 6      3516.017 6        37.845 6  23827987.324 6         0.000 6      2739.756 6        37.977 6
G21  21164404.030 7 111219673.193 7     -1260.330 7        47.882 7  21164403.314 6         0.000 6      -982.076 6        37.977 6
G29  24283597.398 5 127611109.524 5     -3174.452 5        35.921 5  24283598.955 6         0.000 6     -2473.602 6        37.977 6
G27  22017655.567 7 115703533.867 7      2549.667 7        43.130 7  22017657.505 6         0.000 6      1986.754 6        37.977 6
G16  20500125.602 8 107728866.836 8       594.556 8        48.062 8  20500124.775 6         0.000 6       463.290 6        37.977 6
G26  20646826.410 7 108499782.868 7     -1461.602 7        47.592 7  20646829.223 6         0.000 6     -1138.911 6        37.977 6
G20  21957448.264 7 115387136.205 7      2549.980 7        43.273 7  21957448.593 6         0.000 6      1986.999 6        37.977 6
> 2019 07 03 12 00 33.0000000  0  8       0.000000000000
G07  25357989.935 5 133257090.328 5      2219.550 5        33.356 5  25357990.611 6         0.000 6      1729.520 6        37.977 6
G10  23827314.397 6 125213327.318 6      3520.314 6        37.845 6  23827318.141 6         0.000 6      2743.104 6        37.977 6
G21  21164643.907 7 111220933.755 7     -1261.163 7        47.882 7  21164643.191 6         0.000 6      -982.724 6        37.977 6
G29  24284201.460 5 127614283.879 5     -3173.945 5        35.920 5  24284203.018 6         0.000 6     -2473.207 6        37.977 6
G27  22017170.450 7 115700984.564 7      2547.975 7        43.130 7  22017172.388 6         0.000 6      1985.436 6        37.977 6
G16  20500012.538 8 107728272.680 8       593.414 8        48.062 8  20500011.711 6         0.000 6       462.401 6        37.977 6
G26  20647104.549 7 108501244.496 7     -1460.264 7        47.592 7  20647107.362 6         0.000 6     -1137.869 6        37.977 6
G20  21956962.973 7 115384585.987 7      2552.705 7        43.273 7  21956963.302 6         0.000 6      1989.122 6        37.977 6
> 2019 07 03 12 00 34.0000000  0  8       0.000000000000
G07  25357569.066 5 133254878.646 5      2203.918 5        33.356 5  25357569.741 6         0.000 6      1717.339 6        37.977 6
G10  23826643.130 6 125209799.798 6      3534.481 6        37.845 6  23826646.873 6         0.000 6      2754.144 6        37.977 6
G21  21164883.957 7 111222195.228 7     -1261.301 7        47.882 7  21164883.242 6         0.000 6      -982.832 6        37.977 6
G29  24284804.948 5 127617455.220 5     -3167.611 5        35.920 5  24284806.506 6         0.000 6     -2468.271 6        37.977 6
G27  22016686.285 7 115698440.261 7      2539.895 7        43.130 7  22016688.222 6         0.000 6      1979.140 6        37.977 6
G16  20499899.946 8 107727681.007 8       589.560 8        48.062 8  20499899.120 6         0.000 6       459.397 6        37.977 6
G26  20647381.961 7 108502702.303 7     -1455.751 7        47.592 7  20647384.774 6         0.000 6     -1134.352 6        37.977 6
G20  21956476.171 7 115382027.831 7      2563.764 7        43.273 7  21956476.500 6         0.000 6      1997.739 6        37.977 6
> 2019 07 03 12 00 35.0000000  0  8       0.000000000000
G07  25357151.168 5 133252682.583 5      2188.191 5        33.356 5  25357151.843 6         0.000 6      1705.085 6        37.977 6
G10  23825969.282 6 125206258.717 6      3547.446 6        37.846 6  23825973.025 6         0.000 6      2764.246 6        37.977 6
G21  21165123.724 7 111223455.211 7     -1257.912 7        47.882 7  21165123.009 6         0.000 6      -980.192 6        37.977 6
G29  24285406.471 5 127620616.233 5     -3152.553 5        35.920 5  24285408.030 6         0.000 6     -2456.538 6        37.977 6
G27  22016204.164 7 115695906.701 7      2525.959 7        43.131 7  22016206.101 6         0.000 6      1968.281 6        37.977 6
G16  20499788.341 8 107727094.518 8       582.778 8        48.062 8  20499787.514 6         0.000 6       454.112 6        37.977 6
G26  20647658.751 7 108504156.845 7     -1453.920 7        47.592 7  20647661.565 6         0.000 6     -1132.925 6        37.977 6
G20  21955987.126 7 115379457.886 7      2576.495 7        43.273 7  21955987.454 6         0.000 6      2007.660 6        37.977 6
> 2019 07 03 12 00 36.0000000  0  8       0.000000000000
G07  25356735.241 5 133250496.877 5      2184.398 5        33.356 5  25356735.916 6         0.000 6      1702.129 6        37.977 6
G10  23825293.914 6 125202709.642 6      3549.808 6        37.846 6  23825297.656 6         0.000 6      2766.087 6        37.977 6
G21  21165362.910 7 111224712.139 7     -1256.459 7        47.881 7  21165362.194 6         0.000 6      -979.059 6        37.977 6
G29  24286005.675 5 127623765.063 5     -3146.857 5        35.920 5  24286007.235 6         0.000 6     -2452.099 6        37.977 6
G27  22015724.092 7 115693383.907 7      2521.070 7        43.131 7  22015726.029 6         0.000 6      1964.471 6        37.977 6
G16  20499677.772 8 107726513.470 8       579.990 8        48.062 8  20499676.945 6         0.000 6       451.940 6        37.977 6
G26  20647935.501 7 108505611.171 7     -1454.736 7        47.591 7  20647938.314 6         0.000 6     -1133.561 6        37.977 6
G20  21955496.455 7 115376879.394 7      2579.386 7        43.274 7  21955496.783 6         0.000 6      2009.913 6        37.977 6
> 2019 07 03 12 00 37.0000000  0  8       0.000000000000
G07  25356319.655 5 133248312.960 5      2183.575 5        33.356 5  25356320.330 6         0.000 6      1701.488 6        37.977 6
G10  23824618.388 6 125199159.738 6      3549.927 6        37.846 6  23824622.129 6         0.000 6      2766.179 6        37.977 6
G21  21165602.008 7 111225968.606 7     -1256.577 7        47.881 7  21165601.292 6         0.000 6      -979.151 6        37.977 6
G29  24286604.410 5 127626911.425 5     -3146.167 5        35.920 5  24286605.970 6         0.000 6     -2451.561 6        37.977 6
G27  22015244.449 7 115690863.370 7      2520.221 7        43.131 7  22015246.386 6         0.000 6      1963.809 6        37.977 6
G16  20499567.498 8 107725933.977 8       579.090 8        48.062 8  20499566.671 6         0.000 6       451.239 6        37.977 6
G26  20648212.390 7 108507066.234 7     -1455.377 7        47.591 7  20648215.204 6         0.000 6     -1134.060 6        37.977 6
G20  21955005.605 7 115374299.965 7      2579.333 7        43.274 7  21955005.932 6         0.000 6      2009.871 6        37.977 6
> 2019 07 03 12 00 38.0000000  0  8       0.000000000000
G07  25355904.183 5 133246129.645 5      2183.080 5        33.356 5  25355904.858 6         0.000 6      1701.102 6        37.977 6
G10  23823942.868 6 125195609.867 6      3549.823 6        37.846 6  23823946.608 6         0.000 6      2766.099 6        37.977 6
G21  21165841.158 7 111227225.351 7     -1256.921 7        47.881 7  21165840.443 6         0.000 6      -979.419 6        37.977 6
G29  24287203.104 5 127630057.571 5     -3146.173 5        35.919 5  24287204.664 6         0.000 6     -2451.566 6        37.977 6
G27  22014764.898 7 115688343.313 7      2519.919 7        43.131 7  22014766.834 6         0.000 6      1963.574 6        37.977 6
G16  20499457.362 8 107725355.210 8       578.454 8        48.063 8  20499456.535 6         0.000 6       450.744 6        37.977 6
G26  20648489.393 7 108508521.895 7     -1455.946 7        47.591 7  20648492.208 6         0.000 6     -1134.504 6        37.977 6
G20  21954514.811 7 115371720.830 7      2578.932 7        43.274 7  21954515.138 6         0.000 6      2009.559 6        37.977 6
> 2019 07 03 12 00 39.0000000  0  8       0.000000000000
G07  25355488.801 5 133243946.800 5      2182.623 5        33.357 5  25355489.476 6         0.000 6      1700.746 6        37.977 6
G10  23823267.371 6 125192060.121 6      3549.688 6        37.847 6  23823271.111 6         0.000 6      2765.993 6        37.977 6
G21  21166080.378 7 111228482.459 7     -1257.295 7        47.881 7  21166079.663 6         0.000 6      -979.710 6        37.977 6
G29  24287801.807 5 127633203.771 5     -3146.251 5        35.919 5  24287803.369 6         0.000 6     -2451.627 6        37.977 6
G27  22014285.398 7 115685823.526 7      2519.668 7        43.131 7  22014287.334 6         0.000 6      1963.379 6        37.977 6
G16  20499347.345 8 107724777.067 8       577.838 8        48.063 8  20499346.518 6         0.000 6       450.263 6        37.977 6
G26  20648766.505 7 108509978.126 7     -1456.518 7        47.591 7  20648769.320 6         0.000 6     -1134.950 6        37.977 6
G20  21954024.098 7 115369142.124 7      2578.486 7        43.274 7  21954024.425 6         0.000 6      2009.211 6        37.977 6
> 2019 07 03 12 00 40.0000000  0  8       0.000000000000
G07  25355073.505 5 133241764.406 5      2182.163 5        33.357 5  25355074.179 6         0.000 6      1700.388 6        37.977 6
G10  23822591.901 6 125188510.513 6      3549.557 6        37.847 6  23822595.641 6         0.000 6      2765.891 6        37.977 6
G21  21166319.669 7 111229739.939 7     -1257.666 7        47.881 7  21166318.954 6         0.000 6      -980.000 6        37.977 6
G29  24288400.527 5 127636350.053 5     -3146.329 5        35.919 5  24288402.089 6         0.000 6     -2451.688 6        37.977 6
G27  22013805.944 7 115683303.982 7      2519.420 7        43.132 7  22013807.880 6         0.000 6      1963.185 6        37.977 6
G16  20499237.444 8 107724199.534 8       577.225 8        48.063 8  20499236.617 6         0.000 6       449.786 6        37.977 6
G26  20649043.726 7 108511434.927 7     -1457.086 7        47.591 7  20649046.540 6         0.000 6     -1135.392 6        37.977 6
G20  21953533.471 7 115366563.866 7      2578.045 7        43.274 7  21953533.798 6         0.000 6      2008.867 6        37.977 6
> 2019 07 03 12 00 41.0000000  0  8       0.000000000000
G07  25354658.296 5 133239582.475 5      2181.712 5        33.357 5  25354658.970 6         0.000 6      1700.037 6        37.977 6
G10  23821916.456 6 125184961.033 6      3549.417 6        37.847 6  23821920.194 6         0.000 6      2765.782 6        37.977 6
G21  21166559.030 7 111230997.788 7     -1258.038 7        47.881 7  21166558.315 6         0.000 6      -980.290 6        37.977 6
G29  24288999.261 5 127639496.413 5     -3146.412 5        35.919 5  24289000.824 6         0.000 6     -2451.752 6        37.977 6
G27  22013326.537 7 115680784.684 7      2519.176 7        43.132 7  22013328.473 6         0.000 6      1962.995 6        37.977 6
G16  20499127.659 8 107723622.612 8       576.614 8        48.063 8  20499126.833 6         0.000 6       449.309 6        37.977 6
G26  20649321.053 7 108512892.291 7     -1457.656 7        47.591 7  20649323.868 6         0.000 6     -1135.836 6        37.977 6
G20  21953042.928 7 115363986.046 7      2577.597 7        43.275 7  21953043.254 6         0.000 6      2008.518 6        37.977 6
> 2019 07 03 12 00 42.0000000  0  8       0.000000000000
G07  25354243.173 5 133237400.991 5      2181.259 5        33.357 5  25354243.847 6         0.000 6      1699.683 6        37.977 6
G10  23821241.037 6 125181411.696 6      3549.282 6        37.847 6  23821244.775 6         0.000 6      2765.677 6        37.977 6
G21  21166798.462 7 111232256.011 7     -1258.407 7        47.881 7  21166797.747 6         0.000 6      -980.577 6        37.977 6
G29  24289598.012 5 127642642.857 5     -3146.495 5        35.919 5  24289599.575 6         0.000 6     -2451.817 6        37.977 6
G27  22012847.177 7 115678265.633 7      2518.935 7        43.132 7  22012849.113 6         0.000 6      1962.807 6        37.977 6
G16  20499017.992 8 107723046.303 8       576.006 8        48.063 8  20499017.165 6         0.000 6       448.836 6        37.977 6
G26  20649598.490 7 108514350.231 7     -1458.221 7        47.591 7  20649601.305 6         0.000 6     -1136.277 6        37.977 6
G20  21952552.470 7 115361408.678 7      2577.152 7        43.275 7  21952552.796 6         0.000 6      2008.172 6        37.977 6
> 2019 07 03 12 00 43.0000000  0  8       0.000000000000
G07  25353828.137 5 133235219.965 5      2180.808 5        33.357 5  25353828.810 6         0.000 6      1699.332 6        37.977 6
G10  23820565.644 6 125177862.493 6      3549.142 6        37.847 6  23820569.382 6         0.000 6      2765.568 6        37.977 6
G21  21167037.965 7 111233514.607 7     -1258.779 7        47.881 7  21167037.250 6         0.000 6      -980.867 6        37.977 6
G29  24290196.778 5 127645789.384 5     -3146.578 5        35.918 5  24290198.342 6         0.000 6     -2451.881 6        37.977 6
G27  22012367.863 7 115675746.826 7      2518.691 7        43.132 7  22012369.799 6         0.000 6      1962.617 6        37.977 6
G16  20498908.440 8 107722470.607 8       575.395 8        48.063 8  20498907.613 6         0.000 6       448.360 6        37.977 6
G26  20649876.035 7 108515808.737 7     -1458.791 7        47.591 7  20649878.850 6         0.000 6     -1136.721 6        37.977 6
G20  21952062.097 7 115358831.755 7      2576.703 7        43.275 7  21952062.423 6         0.000 6      2007.822 6        37.977 6
> 2019 07 03 12 00 44.0000000  0  8       0.000000000000
G07  25353413.186 5 133233039.386 5      2180.353 5        33.357 5  25353413.859 6         0.000 6      1698.977 6        37.977 6
G10  23819890.278 6 125174313.431 6      3549.004 6        37.848 6  23819894.015 6         0.000 6      2765.460 6        37.977 6
G21  21167277.538 7 111234773.571 7     -1259.155 7        47.881 7  21167276.823 6         0.000 6      -981.160 6        37.977 6
G29  24290795.559 5 127648935.992 5     -3146.661 5        35.918 5  24290797.124 6         0.000 6     -2451.946 6        37.977 6
G27  22011888.596 7 115673228.260 7      2518.444 7        43.132 7  22011890.531 6         0.000 6      1962.425 6        37.977 6
G16  20498799.004 8 107721895.518 8       574.780 8        48.063 8  20498798.178 6         0.000 6       447.880 6        37.977 6
G26  20650153.688 7 108517267.812 7     -1459.363 7        47.590 7  20650156.503 6         0.000 6     -1137.167 6        37.977 6
G20  21951571.809 7 115356255.281 7      2576.254 7        43.275 7  21951572.135 6         0.000 6      2007.472 6        37.977 6
> 2019 07 03 12 00 45.0000000  0  8       0.000000000000
G07  25352998.321 5 133230859.262 5      2179.902 5        33.357 5  25352998.994 6         0.000 6      1698.626 6        37.977 6
G10  23819214.939 6 125170764.508 6      3548.864 6        37.848 6  23819218.675 6         0.000 6      2765.351 6        37.977 6
G21  21167517.182 7 111236032.911 7     -1259.526 7        47.881 7  21167516.467 6         0.000 6      -981.449 6        37.977 6
G29  24291394.357 5 127652082.684 5     -3146.744 5        35.918 5  24291395.922 6         0.000 6     -2452.011 6        37.977 6
G27  22011409.375 7 115670709.940 7      2518.200 7        43.133 7  22011411.310 6         0.000 6      1962.235 6        37.977 6
G16  20498689.686 8 107721321.044 8       574.168 8        48.063 8  20498688.859 6         0.000 6       447.404 6        37.977 6
G26  20650431.450 7 108518727.458 7     -1459.934 7        47.590 7  20650434.265 6         0.000 6     -1137.611 6        37.977 6
G20  21951081.607 7 115353679.255 7      2575.805 7        43.275 7  21951081.933 6         0.000 6      2007.122 6        37.977 6
> 2019 07 03 12 00 46.0000000  0  8       0.000000000000
G07  25352583.541 5 133228679.579 5      2179.516 5        33.358 5  25352584.214 6         0.000 6      1698.325 6        37.977 6
G10  23818539.627 6 125167215.733 6      3548.659 6        37.848 6  23818543.363 6         0.000 6      2765.192 6        37.977 6
G21  21167756.896 7 111237292.616 7     -1259.889 7        47.880 7  21167756.182 6         0.000 6      -981.731 6        37.977 6
G29  24291993.170 5 127655229.457 5     -3146.830 5        35.918 5  24291994.736 6         0.000 6     -2452.078 6        37.977 6
G27  22010930.200 7 115668191.860 7      2517.974 7        43.133 7  22010932.135 6         0.000 6      1962.058 6        37.977 6
G16  20498580.482 8 107720747.177 8       573.563 8        48.063 8  20498579.656 6         0.000 6       446.932 6        37.977 6
G26  20650709.320 7 108520187.676 7     -1460.533 7        47.590 7  20650712.135 6         0.000 6     -1138.078 6        37.977 6
G20  21950591.491 7 115351103.682 7      2575.312 7        43.275 7  21950591.816 6         0.000 6      2006.738 6        37.977 6
> 2019 07 03 12 00 47.0000000  0  8       0.000000000000
G07  25352168.809 5 133226500.153 5      2178.775 5        33.358 5  25352169.482 6         0.000 6      1697.747 6        37.977 6
G10  23817864.377 6 125163667.280 6      3548.644 6        37.848 6  23817868.112 6         0.000 6      2765.180 6        37.977 6
G21  21167996.685 7 111238552.711 7     -1259.850 7        47.880 7  21167995.970 6         0.000 6      -981.701 6        37.977 6
G29  24292592.019 5 127658376.422 5     -3145.796 5        35.917 5  24292593.586 6         0.000 6     -2451.272 6        37.977 6
G27  22010451.049 7 115665673.911 7      2516.918 7        43.133 7  22010452.984 6         0.000 6      1961.235 6        37.977 6
G16  20498471.387 8 107720173.877 8       572.557 8        48.063 8  20498470.560 6         0.000 6       446.149 6        37.977 6
G26  20650987.311 7 108521648.526 7     -1461.316 7        47.590 7  20650990.126 6         0.000 6     -1138.689 6        37.977 6
G20  21950101.490 7 115348528.714 7      2575.266 7        43.276 7  21950101.815 6         0.000 6      2006.702 6        37.977 6
> 2019 07 03 12 00 48.0000000  0  8       0.000000000000
G07  25351754.579 5 133224323.364 5      2175.996 5        33.358 5  25351755.252 6         0.000 6      1695.582 6        37.977 6
G10  23817188.968 6 125160117.990 6      3548.786 6        37.849 6  23817192.702 6         0.000 6      2765.290 6        37.977 6
G21  21168235.973 7 111239810.182 7     -1254.963 7        47.880 7  21168235.259 6         0.000 6      -977.893 6        37.977 6
G29  24293189.328 5 127661515.289 5     -3132.098 5        35.917 5  24293190.895 6         0.000 6     -2440.598 6        37.977 6
G27  22009973.081 7 115663162.172 7      2506.932 7        43.133 7  22009975.016 6         0.000 6      1953.455 6        37.977 6
G16  20498362.959 8 107719604.082 8       567.158 8        48.063 8  20498362.132 6         0.000 6       441.941 6        37.977 6
G26  20651265.704 7 108523111.487 7     -1465.124 7        47.590 7  20651268.519 6         0.000 6     -1141.655 6        37.977 6
G20  21949611.004 7 115345951.199 7      2578.943 7        43.276 7  21949611.329 6         0.000 6      2009.567 6        37.977 6
> 2019 07 03 12 00 49.0000000  0  8       0.000000000000
G07  25351340.124 5 133222145.393 5      2181.886 5        33.358 5  25351340.797 6         0.000 6      1700.172 6        37.977 6
G10  23816514.248 6 125156572.327 6      3540.713 6        37.849 6  23816517.982 6         0.000 6      2759.000 6        37.977 6
G21  21168474.327 7 111241062.735 7     -1250.084 7        47.880 7  21168473.612 6         0.000 6      -974.092 6        37.977 6
G29  24293784.306 5 127664641.912 5     -3121.782 5        35.917 5  24293785.874 6         0.000 6     -2432.560 6        37.977 6
G27  22009496.653 7 115660658.529 7      2501.223 7        43.133 7  22009498.587 6         0.000 6      1949.006 6        37.977 6
G16  20498255.415 8 107719038.934 8       563.482 8        48.063 8  20498254.588 6         0.000 6       439.077 6        37.977 6
G26  20651545.090 7 108524579.670 7     -1471.958 7        47.590 7  20651547.905 6         0.000 6     -1146.981 6        37.977 6
G20  21949120.382 7 115343372.966 7      2576.112 7        43.276 7  21949120.706 6         0.000 6      2007.361 6        37.977 6
> 2019 07 03 12 00 50.0000000  0  8       0.000000000000
G07  25350923.955 5 133219958.413 5      2189.598 5        33.358 5  25350924.627 6         0.000 6      1706.181 6        37.977 6
G10  23815841.561 6 125153037.342 6      3531.991 6        37.849 6  23815845.294 6         0.000 6      2752.204 6        37.977 6
G21  21168711.930 7 111242311.348 7     -1248.137 7        47.880 7  21168711.215 6         0.000 6      -972.575 6        37.977 6
G29  24294377.993 5 127667761.747 5     -3119.375 5        35.917 5  24294379.561 6         0.000 6     -2430.684 6        37.977 6
G27  22009020.724 7 115658157.510 7      2501.221 7        43.134 7  22009022.659 6         0.000 6      1949.004 6        37.977 6
G16  20498148.303 8 107718476.059 8       562.587 8        48.063 8  20498147.476 6         0.000 6       438.379 6        37.977 6
G26  20651825.845 7 108526055.044 7     -1477.166 7        47.590 7  20651828.660 6         0.000 6     -1151.039 6        37.977 6
G20  21948630.824 7 115340800.325 7      2570.589 7        43.276 7  21948631.148 6         0.000 6      2003.058 6        37.977 6
> 2019 07 03 12 00 51.0000000  0  8       0.000000000000
G07  25350507.173 5 133217768.212 5      2190.381 5        33.358 5  25350507.845 6         0.000 6      1706.791 6        37.977 6
G10  23815169.618 6 125149506.271 6      3530.602 6        37.849 6  23815173.351 6         0.000 6      2751.121 6        37.977 6
G21  21168949.449 7 111243559.517 7     -1248.284 7        47.880 7  21168948.734 6         0.000 6      -972.689 6        37.977 6
G29  24294971.593 5 127670881.127 5     -3119.419 5        35.917 5  24294973.162 6         0.000 6     -2430.719 6        37.977 6
G27  22008544.746 7 115655656.229 7      2501.247 7        43.134 7  22008546.680 6         0.000 6      1949.024 6        37.977 6
G16  20498041.295 8 107717913.728 8       562.043 8        48.063 8  20498040.468 6         0.000 6       437.956 6        37.977 6
G26  20652107.070 7 108527532.893 7     -1478.337 7        47.590 7  20652109.886 6         0.000 6     -1151.952 6        37.977 6
G20  21948141.805 7 115338230.520 7      2569.314 7        43.276 7  21948142.129 6         0.000 6      2002.064 6        37.977 6
> 2019 07 03 12 00 52.0000000  0  8       0.000000000000
G07  25350090.386 5 133215577.984 5      2190.040 5        33.358 5  25350091.057 6         0.000 6      1706.526 6        37.977 6
G10  23814497.796 6 125145975.830 6      3530.346 6        37.850 6  23814501.528 6         0.000 6      2750.922 6        37.977 6
G21  21169187.020 7 111244807.964 7     -1248.618 7        47.880 7  21169186.306 6         0.000 6      -972.949 6        37.977 6
G29  24295565.205 5 127674000.569 5     -3119.490 5        35.916 5  24295566.775 6         0.000 6     -2430.774 6        37.977 6
G27  22008068.795 7 115653155.091 7      2501.030 7        43.134 7  22008070.729 6         0.000 6      1948.855 6        37.977 6
G16  20497934.400 8 107717351.990 8       561.434 8        48.063 8  20497933.573 6         0.000 6       437.481 6        37.977 6
G26  20652388.451 7 108529011.557 7     -1478.970 7        47.590 7  20652391.267 6         0.000 6     -1152.445 6        37.977 6
G20  21947652.933 7 115335661.485 7      2568.796 7        43.277 7  21947653.257 6         0.000 6      2001.660 6        37.977 6
> 2019 07 03 12 00 53.0000000  0  8       0.000000000000
G07  25349673.678 5 133213388.173 5      2189.592 5        33.359 5  25349674.349 6         0.000 6      1706.176 6        37.977 6
G10  23813826.007 6 125142445.567 6      3530.198 6        37.850 6  23813829.738 6         0.000 6      2750.806 6        37.977 6
G21  21169424.658 7 111246056.759 7     -1248.974 7        47.880 7  21169423.944 6         0.000 6      -973.227 6        37.977 6
G29  24296158.832 5 127677120.086 5     -3119.564 5        35.916 5  24296160.402 6         0.000 6     -2430.832 6        37.977 6
G27  22007592.887 7 115650654.184 7      2500.787 7        43.134 7  22007594.821 6         0.000 6      1948.666 6        37.977 6
G16  20497827.621 8 107716790.865 8       560.813 8        48.063 8  20497826.794 6         0.000 6       436.997 6        37.977 6
G26  20652669.945 7 108530490.816 7     -1479.555 7        47.589 7  20652672.761 6         0.000 6     -1152.900 6        37.977 6
G20  21947164.150 7 115333092.915 7      2568.348 7        43.277 7  21947164.473 6         0.000 6      2001.311 6        37.977 6
> 2019 07 03 12 00 54.0000000  0  8       0.000000000000
G07  25349257.056 5 133211198.814 5      2189.130 5        33.359 5  25349257.727 6         0.000 6      1705.817 6        37.977 6
G10  23813154.246 6 125138915.448 6      3530.063 6        37.850 6  23813157.976 6         0.000 6      2750.701 6        37.977 6
G21  21169662.364 7 111247305.913 7     -1249.333 7        47.880 7  21169661.650 6         0.000 6      -973.507 6        37.977 6
G29  24296752.473 5 127680239.683 5     -3119.645 5        35.916 5  24296754.044 6         0.000 6     -2430.895 6        37.977 6
G27  22007117.026 7 115648153.518 7      2500.547 7        43.134 7  22007118.960 6         0.000 6      1948.479 6        37.977 6
G16  20497720.961 8 107716230.360 8       560.196 8        48.063 8  20497720.134 6         0.000 6       436.516 6        37.977 6
G26  20652951.550 7 108531970.656 7     -1480.129 7        47.589 7  20652954.366 6         0.000 6     -1153.348 6        37.977 6
G20  21946675.452 7 115330524.793 7      2567.909 7        43.277 7  21946675.775 6         0.000 6      2000.969 6        37.977 6
> 2019 07 03 12 00 55.0000000  0  8       0.000000000000
G07  25348840.522 5 133209009.917 5      2188.669 5        33.359 5  25348841.193 6         0.000 6      1705.457 6        37.977 6
G10  23812482.510 6 125135385.464 6      3529.929 6        37.850 6  23812486.240 6         0.000 6      2750.597 6        37.977 6
G21  21169900.139 7 111248555.426 7     -1249.692 7        47.880 7  21169899.424 6         0.000 6      -973.786 6        37.977 6
G29  24297346.130 5 127683359.360 5     -3119.725 5        35.916 5  24297347.701 6         0.000 6     -2430.957 6        37.977 6
G27  22006641.210 7 115645653.093 7      2500.306 7        43.134 7  22006643.144 6         0.000 6      1948.291 6        37.977 6
G16  20497614.418 8 107715670.472 8       559.579 8        48.063 8  20497613.591 6         0.000 6       436.035 6        37.977 6
G26  20653233.264 7 108533451.071 7     -1480.704 7        47.589 7  20653236.080 6         0.000 6     -1153.796 6        37.977 6
G20  21946186.837 7 115327957.110 7      2567.469 7        43.277 7  21946187.160 6         0.000 6      2000.626 6        37.977 6
> 2019 07 03 12 00 56.0000000  0  8       0.000000000000
G07  25348424.076 5 133206821.479 5      2188.210 5        33.359 5  25348424.746 6         0.000 6      1705.099 6        37.977 6
G10  23811810.801 6 125131855.618 6      3529.792 6        37.851 6  23811814.530 6         0.000 6      2750.490 6        37.977 6
G21  21170137.982 7 111249805.300 7     -1250.053 7        47.879 7  21170137.268 6         0.000 6      -974.068 6        37.977 6
G29  24297939.802 5 127686479.118 5     -3119.811 5        35.916 5  24297941.374 6         0.000 6     -2431.024 6        37.977 6
G27  22006165.441 7 115643152.909 7      2500.070 7        43.135 7  22006167.374 6         0.000 6      1948.107 6        37.977 6
G16  20497507.992 8 107715111.204 8       558.963 8        48.063 8  20497507.166 6         0.000 6       435.556 6        37.977 6
G26  20653515.088 7 108534932.066 7     -1481.279 7        47.589 7  20653517.904 6         0.000 6     -1154.244 6        37.977 6
G20  21945698.307 7 115325389.871 7      2567.026 7        43.277 7  21945698.629 6         0.000 6      2000.281 6        37.977 6
> 2019 07 03 12 00 57.0000000  0  8       0.000000000000
G07  25348007.717 5 133204633.505 5      2187.751 5        33.359 5  25348008.388 6         0.000 6      1704.742 6        37.977 6
G10  23811139.116 6 125128325.903 6      3529.655 6        37.851 6  23811142.845 6         0.000 6      2750.384 6        37.977 6
G21  21170375.895 7 111251055.537 7     -1250.414 7        47.879 7  21170375.180 6         0.000 6      -974.349 6        37.977 6
G29  24298533.490 5 127689598.962 5     -3119.896 5        35.915 5  24298535.063 6         0.000 6     -2431.091 6        37.977 6
G27  22005689.716 7 115640652.964 7      2499.833 7        43.135 7  22005691.649 6         0.000 6      1947.923 6        37.977 6
G16  20497401.685 8 107714552.553 8       558.347 8        48.063 8  20497400.858 6         0.000 6       435.076 6        37.977 6
G26  20653797.021 7 108536413.633 7     -1481.854 7        47.589 7  20653799.837 6         0.000 6     -1154.692 6        37.977 6
G20  21945209.860 7 115322823.071 7      2566.583 7        43.278 7  21945210.182 6         0.000 6      1999.936 6        37.977 6
> 2019 07 03 12 00 58.0000000  0  8       0.000000000000
G07  25347591.446 5 133202445.990 5      2187.289 5        33.359 5  25347592.117 6         0.000 6      1704.382 6        37.977 6
G10  23810467.458 6 125124796.325 6      3529.521 6        37.851 6  23810471.185 6         0.000 6      2750.279 6        37.977 6
G21  21170613.875 7 111252306.129 7     -1250.773 7        47.879 7  21170613.160 6         0.000 6      -974.629 6        37.977 6
G29  24299127.194 5 127692718.886 5     -3119.977 5        35.915 5  24299128.768 6         0.000 6     -2431.153 6        37.977 6
G27  22005214.037 7 115638153.255 7      2499.593 7        43.135 7  22005215.970 6         0.000 6      1947.735 6        37.977 6
G16  20497295.494 8 107713994.516 8       557.730 8        48.063 8  20497294.667 6         0.000 6       434.595 6        37.977 6
G26  20654079.063 7 108537895.773 7     -1482.429 7        47.589 7  20654081.880 6         0.000 6     -1155.140 6        37.977 6
G20  21944721.497 7 115320256.711 7      2566.144 7        43.278 7  21944721.819 6         0.000 6      1999.593 6        37.977 6
> 2019 07 03 12 00 59.0000000  0  8       0.000000000000
G07  25347175.256 5 133200258.899 5      2186.910 5        33.359 5  25347175.926 6         0.000 6      1704.087 6        37.977 6
G10  23809795.830 6 125121266.908 6      3529.329 6        37.851 6  23809799.557 6         0.000 6      2750.129 6        37.977 6
G21  21170851.928 7 111253557.109 7     -1251.195 7        47.879 7  21170851.214 6         0.000 6      -974.957 6        37.977 6
G29  24299720.929 5 127695838.973 5     -3120.238 5        35.915 5  24299722.503 6         0.000 6     -2431.357 6        37.977 6
G27  22004738.392 7 115635653.725 7      2499.491 7        43.135 7  22004740.325 6         0.000 6      1947.656 6        37.977 6
G16  20497189.415 8 107713437.067 8       557.177 8        48.063 8  20497188.588 6         0.000 6       434.164 6        37.977 6
G26  20654361.214 7 108539378.481 7     -1482.988 7        47.589 7  20654364.030 6         0.000 6     -1155.575 6        37.977 6
G20  21944233.226 7 115317690.833 7      2565.613 7        43.278 7  21944233.548 6         0.000 6      1999.180 6        37.977 6
> 2019 07 03 12 01  0.0000000  0  8       0.000000000000
G07  25346758.687 5 133198069.818 5      2194.975 5        33.360 5  25346759.357 6         0.000 6      1710.371 6        37.977 6
G10  23809124.682 6 125117740.013 6      3520.865 6        37.852 6  23809128.409 6         0.000 6      2743.534 6        37.977 6
G21  21171090.015 7 111254808.262 7     -1250.855 7        47.879 7  21171089.301 6         0.000 6      -974.692 6        37.977 6
G29  24300314.775 5 127698959.646 5     -3121.939 5        35.915 5  24300316.350 6         0.000 6     -2432.682 6        37.977 6
G27  22004262.619 7 115633153.527 7      2502.313 7        43.135 7  22004264.552 6         0.000 6      1949.855 6        37.977 6
G16  20497083.390 8 107712879.901 8       557.670 8        48.064 8  20497082.563 6         0.000 6       434.548 6        37.977 6
G26  20654643.663 7 108540862.762 7     -1487.086 7        47.589 7  20654646.480 6         0.000 6     -1158.769 6        37.977 6
G20  21943745.372 7 115315127.146 7      2559.101 7        43.278 7  21943745.693 6         0.000 6      1994.105 6        37.977 6
> 2019 07 03 12 01  1.0000000  0  8       0.000000000000
G07  25346339.588 5 133195867.441 5      2209.539 5        33.360 5  25346340.258 6         0.000 6      1721.720 6        37.977 6
G10  23808456.055 6 125114226.361 6      3506.870 6        37.852 6  23808459.780 6         0.000 6      2732.629 6        37.977 6
G21  21171328.129 7 111256059.558 7     -1252.206 7        47.879 7  21171327.415 6         0.000 6      -975.745 6        37.977 6
G29  24300909.557 5 127702085.233 5     -3130.308 5        35.914 5  24300911.132 6         0.000 6     -2439.204 6        37.977 6
G27  22003785.671 7 115630647.152 7      2511.089 7        43.136 7  22003787.604 6         0.000 6      1956.694 6        37.977 6
G16  20496977.000 8 107712320.821 8       560.832 8        48.064 8  20496976.173 6         0.000 6       437.012 6        37.977 6
G26  20654927.172 7 108542352.611 7     -1492.161 7        47.588 7  20654929.989 6         0.000 6     -1162.723 6        37.977 6
G20  21943259.544 7 115312574.109 7      2546.960 7        43.278 7  21943259.865 6         0.000 6      1984.645 6        37.977 6
> 2019 07 03 12 01  2.0000000  0  8       0.000000000000
G07  25345917.744 5 133193650.639 5      2222.133 5        33.360 5  25345918.413 6         0.000 6      1731.533 6        37.977 6
G10  23807789.944 6 125110725.935 6      3495.856 6        37.852 6  23807793.669 6         0.000 6      2724.047 6        37.977 6
G21  21171566.832 7 111257313.949 7     -1256.601 7        47.879 7  21171566.117 6         0.000 6      -979.170 6        37.977 6
G29  24301506.729 5 127705223.387 5     -3145.340 5        35.914 5  24301508.305 6         0.000 6     -2450.917 6        37.977 6
G27  22003306.528 7 115628129.240 7      2523.842 7        43.136 7  22003308.461 6         0.000 6      1966.631 6        37.977 6
G16  20496869.743 8 107711757.183 8       566.096 8        48.064 8  20496868.916 6         0.000 6       441.114 6        37.977 6
G26  20655211.383 7 108543846.148 7     -1494.205 7        47.588 7  20655214.200 6         0.000 6     -1164.316 6        37.977 6
G20  21942776.156 7 115310033.893 7      2534.926 7        43.279 7  21942776.477 6         0.000 6      1975.268 6        37.977 6
> 2019 07 03 12 01  3.0000000  0  8       0.000000000000
G07  25345494.694 5 133191427.500 5      2223.538 5        33.360 5  25345495.363 6         0.000 6      1732.628 6        37.977 6
G10  23807124.889 6 125107231.061 6      3494.370 6        37.852 6  23807128.613 6         0.000 6      2722.889 6        37.977 6
G21  21171806.129 7 111258571.463 7     -1258.101 7        47.879 7  21171805.414 6         0.000 6      -980.338 6        37.977 6
G29  24302105.708 5 127708371.032 5     -3148.926 5        35.914 5  24302107.285 6         0.000 6     -2453.711 6        37.977 6
G27  22002825.937 7 115625603.720 7      2526.360 7        43.136 7  22002827.870 6         0.000 6      1968.593 6        37.977 6
G16  20496761.918 8 107711190.555 8       566.763 8        48.064 8  20496761.091 6         0.000 6       441.634 6        37.977 6
G26  20655495.752 7 108545340.513 7     -1494.573 7        47.588 7  20655498.569 6         0.000 6     -1164.603 6        37.977 6
G20  21942294.057 7 115307500.448 7      2532.578 7        43.279 7  21942294.377 6         0.000 6      1973.439 6        37.977 6
> 2019 07 03 12 01  4.0000000  0  8       0.000000000000
G07  25345071.586 5 133189204.058 5      2223.287 5        33.360 5  25345072.255 6         0.000 6      1732.433 6        37.977 6
G10  23806459.964 6 125103736.864 6      3494.090 6        37.853 6  23806463.687 6         0.000 6      2722.670 6        37.977 6
G21  21172045.590 7 111259829.839 7     -1258.597 7        47.879 7  21172044.876 6         0.000 6      -980.725 6        37.977 6
G29  24302704.992 5 127711520.278 5     -3149.434 5        35.914 5  24302706.569 6         0.000 6     -2454.107 6        37.977 6
G27  22002345.168 7 115623077.263 7      2526.448 7        43.136 7  22002347.100 6         0.000 6      1968.661 6        37.977 6
G16  20496654.106 8 107710624.002 8       566.292 8        48.064 8  20496653.279 6         0.000 6       441.267 6        37.977 6
G26  20655780.211 7 108546835.353 7     -1495.122 7        47.588 7  20655783.028 6         0.000 6     -1165.030 6        37.977 6
G20  21941812.193 7 115304968.240 7      2531.924 7        43.279 7  21941812.513 6         0.000 6      1972.929 6        37.977 6
> 2019 07 03 12 01  5.0000000  0  8       0.000000000000
G07  25344648.547 5 133186980.977 5      2222.861 5        33.360 5  25344649.216 6         0.000 6      1732.101 6        37.977 6
G10  23805795.077 6 125100242.875 6      3493.928 6        37.853 6  23805798.801 6         0.000 6      2722.544 6        37.977 6
G21  21172285.128 7 111261088.623 7     -1258.969 7        47.879 7  21172284.414 6         0.000 6      -981.015 6        37.977 6
G29  24303304.323 5 127714669.777 5     -3149.566 5        35.914 5  24303305.901 6         0.000 6     -2454.209 6        37.977 6
G27  22001864.419 7 115620550.912 7      2526.242 7        43.136 7  22001866.351 6         0.000 6      1968.501 6        37.977 6
G16  20496546.402 8 107710058.011 8       565.681 8        48.064 8  20496545.575 6         0.000 6       440.790 6        37.977 6
G26  20656064.779 7 108548330.767 7     -1495.708 7        47.588 7  20656067.596 6         0.000 6     -1165.487 6        37.977 6
G20  21941330.430 7 115302436.562 7      2531.456 7        43.279 7  21941330.750 6         0.000 6      1972.565 6        37.977 6
> 2019 07 03 12 01  6.0000000  0  8       0.000000000000
G07  25344225.593 5 133184758.339 5      2222.415 5        33.360 5  25344226.261 6         0.000 6      1731.753 6        37.977 6
G10  23805130.220 6 125096749.034 6      3493.779 6        37.853 6  23805133.942 6         0.000 6      2722.428 6        37.977 6
G21  21172524.737 7 111262347.772 7     -1259.332 7        47.878 7  21172524.023 6         0.000 6      -981.298 6        37.977 6
G29  24303903.675 5 127717819.382 5     -3149.661 5        35.913 5  24303905.254 6         0.000 6     -2454.284 6        37.977 6
G27  22001383.713 7 115618024.787 7      2526.005 7        43.137 7  22001385.644 6         0.000 6      1968.317 6        37.977 6
G16  20496438.815 8 107709492.641 8       565.053 8        48.064 8  20496437.988 6         0.000 6       440.301 6        37.977 6
G26  20656349.459 7 108549826.769 7     -1496.300 7        47.588 7  20656352.276 6         0.000 6     -1165.949 6        37.977 6
G20  21940848.753 7 115299905.337 7      2531.007 7        43.279 7  21940849.072 6         0.000 6      1972.214 6        37.977 6
> 2019 07 03 12 01  7.0000000  0  8       0.000000000000
G07  25343802.724 5 133182536.153 5      2221.966 5        33.361 5  25343803.392 6         0.000 6      1731.403 6        37.977 6
G10  23804465.389 6 125093255.336 6      3493.634 6        37.853 6  23804469.111 6         0.000 6      2722.315 6        37.977 6
G21  21172764.413 7 111263607.279 7     -1259.693 7        47.878 7  21172763.699 6         0.000 6      -981.579 6        37.977 6
G29  24304503.044 5 127720969.078 5     -3149.757 5        35.913 5  24304504.624 6         0.000 6     -2454.358 6        37.977 6
G27  22000903.052 7 115615498.901 7      2525.771 7        43.137 7  22000904.984 6         0.000 6      1968.134 6        37.977 6
G16  20496331.348 8 107708927.898 8       564.428 8        48.064 8  20496330.521 6         0.000 6       439.814 6        37.977 6
G26  20656634.251 7 108551323.357 7     -1496.888 7        47.588 7  20656637.068 6         0.000 6     -1166.406 6        37.977 6
G20  21940367.160 7 115297374.554 7      2530.561 7        43.279 7  21940367.479 6         0.000 6      1971.867 6        37.977 6
> 2019 07 03 12 01  8.0000000  0  8       0.000000000000
G07  25343379.942 5 133180314.419 5      2221.512 5        33.361 5  25343380.610 6         0.000 6      1731.049 6        37.977 6
G10  23803800.585 6 125089761.780 6      3493.496 6        37.854 6  23803804.307 6         0.000 6      2722.207 6        37.977 6
G21  21173004.159 7 111264867.151 7     -1260.049 7        47.878 7  21173003.445 6         0.000 6      -981.856 6        37.977 6
G29  24305102.432 5 127724118.871 5     -3149.847 5        35.913 5  24305104.012 6         0.000 6     -2454.429 6        37.977 6
G27  22000422.437 7 115612973.254 7      2525.534 7        43.137 7  22000424.368 6         0.000 6      1967.949 6        37.977 6
G16  20496224.001 8 107708363.783 8       563.805 8        48.064 8  20496223.174 6         0.000 6       439.329 6        37.977 6
G26  20656919.155 7 108552820.535 7     -1497.470 7        47.588 7  20656921.972 6         0.000 6     -1166.860 6        37.977 6
G20  21939885.652 7 115294844.216 7      2530.123 7        43.280 7  21939885.971 6         0.000 6      1971.525 6        37.977 6
> 2019 07 03 12 01  9.0000000  0  8       0.000000000000
G07  25342957.246 5 133178093.140 5      2221.054 5        33.361 5  25342957.913 6         0.000 6      1730.692 6        37.977 6
G10  23803135.808 6 125086268.363 6      3493.360 6        37.854 6  23803139.529 6         0.000 6      2722.101 6        37.977 6
G21  21173243.972 7 111266127.379 7     -1260.409 7        47.878 7  21173243.258 6         0.000 6      -982.137 6        37.977 6
G29  24305701.837 5 127727268.753 5     -3149.938 5        35.913 5  24305703.417 6         0.000 6     -2454.500 6        37.977 6
G27  21999941.866 7 115610447.843 7      2525.294 7        43.137 7  21999943.798 6         0.000 6      1967.762 6        37.977 6
G16  20496116.772 8 107707800.292 8       563.178 8        48.064 8  20496115.945 6         0.000 6       438.840 6        37.977 6
G26  20657204.169 7 108554318.295 7     -1498.054 7        47.588 7  20657206.986 6         0.000 6     -1167.315 6        37.977 6
G20  21939404.227 7 115292314.318 7      2529.684 7        43.280 7  21939404.546 6         0.000 6      1971.183 6        37.977 6
> 2019 07 03 12 01 10.0000000  0  8       0.000000000000
G07  25342534.636 5 133175872.316 5      2220.598 5        33.361 5  25342535.304 6         0.000 6      1730.337 6        37.977 6
G10  23802471.058 6 125082775.087 6      3493.219 6        37.854 6  23802474.778 6         0.000 6      2721.991 6        37.977 6
G21  21173483.855 7 111267387.969 7     -1260.771 7        47.878 7  21173483.141 6         0.000 6      -982.419 6        37.977 6
G29  24306301.259 5 127730418.727 5     -3150.029 5        35.913 5  24306302.840 6         0.000 6     -2454.571 6        37.977 6
G27  21999461.342 7 115607922.674 7      2525.052 7        43.137 7  21999463.273 6         0.000 6      1967.574 6        37.977 6
G16  20496009.663 8 107707237.431 8       562.548 8        48.064 8  20496008.836 6         0.000 6       438.349 6        37.977 6
G26  20657489.296 7 108555816.645 7     -1498.643 7        47.587 7  20657492.113 6         0.000 6     -1167.774 6        37.977 6
G20  21938922.887 7 115289784.862 7      2529.241 7        43.280 7  21938923.205 6         0.000 6      1970.838 6        37.977 6
> 2019 07 03 12 01 11.0000000  0  8       0.000000000000
G07  25342112.113 5 133173651.947 5      2220.144 5        33.361 5  25342112.781 6         0.000 6      1729.983 6        37.977 6
G10  23801806.334 6 125079281.949 6      3493.080 6        37.854 6  23801810.053 6         0.000 6      2721.883 6        37.977 6
G21  21173723.805 7 111268648.916 7     -1261.127 7        47.878 7  21173723.091 6         0.000 6      -982.696 6        37.977 6
G29  24306900.698 5 127733568.791 5     -3150.120 5        35.912 5  24306902.279 6         0.000 6     -2454.641 6        37.977 6
G27  21998980.863 7 115605397.741 7      2524.815 7        43.137 7  21998982.794 6         0.000 6      1967.389 6        37.977 6
G16  20495902.673 8 107706675.193 8       561.925 8        48.064 8  20495901.846 6         0.000 6       437.863 6        37.977 6
G26  20657774.533 7 108557315.576 7     -1499.225 7        47.587 7  20657777.351 6         0.000 6     -1168.228 6        37.977 6
G20  21938441.630 7 115287255.845 7      2528.802 7        43.280 7  21938441.948 6         0.000 6      1970.496 6        37.977 6
> 2019 07 03 12 01 12.0000000  0  8       0.000000000000
G07  25341689.678 5 133171432.040 5      2219.685 5        33.361 5  25341690.345 6         0.000 6      1729.626 6        37.977 6
G10  23801141.635 6 125075788.945 6      3492.944 6        37.855 6  23801145.354 6         0.000 6      2721.777 6        37.977 6
G21  21173963.825 7 111269910.226 7     -1261.487 7        47.878 7  21173963.111 6         0.000 6      -982.977 6        37.977 6
G29  24307500.154 5 127736718.947 5     -3150.211 5        35.912 5  24307501.737 6         0.000 6     -2454.712 6        37.977 6
G27  21998500.430 7 115602873.052 7      2524.575 7        43.138 7  21998502.361 6         0.000 6      1967.202 6        37.977 6
G16  20495795.802 8 107706113.585 8       561.298 8        48.064 8  20495794.975 6         0.000 6       437.375 6        37.977 6
G26  20658059.882 7 108558815.093 7     -1499.809 7        47.587 7  20658062.700 6         0.000 6     -1168.683 6        37.977 6
G20  21937960.457 7 115284727.268 7      2528.363 7        43.280 7  21937960.775 6         0.000 6      1970.154 6        37.977 6
> 2019 07 03 12 01 13.0000000  0  8       0.000000000000
G07  25341267.336 5 133169212.618 5      2219.131 5        33.361 5  25341268.003 6         0.000 6      1729.194 6        37.977 6
G10  23800476.957 6 125072296.050 6      3492.902 6        37.855 6  23800480.675 6         0.000 6      2721.744 6        37.977 6
G21  21174203.912 7 111271171.895 7     -1261.865 7        47.878 7  21174203.198 6         0.000 6      -983.271 6        37.977 6
G29  24308099.628 5 127739869.191 5     -3150.302 5        35.912 5  24308101.211 6         0.000 6     -2454.784 6        37.977 6
G27  21998020.044 7 115600348.607 7      2524.311 7        43.138 7  21998021.974 6         0.000 6      1966.996 6        37.977 6
G16  20495689.051 8 107705552.602 8       560.662 8        48.064 8  20495688.224 6         0.000 6       436.879 6        37.977 6
G26  20658345.339 7 108560315.176 7     -1500.350 7        47.587 7  20658348.157 6         0.000 6     -1169.104 6        37.977 6
G20  21937479.363 7 115282199.107 7      2527.986 7        43.281 7  21937479.681 6         0.000 6      1969.861 6        37.977 6
> 2019 07 03 12 01 14.0000000  0  8       0.000000000000
G07  25340845.061 5 133166993.552 5      2220.274 5        33.362 5  25340845.727 6         0.000 6      1730.084 6        37.977 6
G10  23799812.307 6 125068803.297 6      3491.857 6        37.855 6  23799816.024 6         0.000 6      2720.931 6        37.977 6
G21  21174444.116 7 111272434.175 7     -1263.881 7        47.878 7  21174443.403 6         0.000 6      -984.843 6        37.977 6
G29  24308699.242 5 127743020.173 5     -3155.047 5        35.912 5  24308700.825 6         0.000 6     -2458.481 6        37.977 6
G27  21997539.617 7 115597823.949 7      2527.537 7        43.138 7  21997541.547 6         0.000 6      1969.510 6        37.977 6
G16  20495582.376 8 107704992.023 8       561.704 8        48.064 8  20495581.549 6         0.000 6       437.691 6        37.977 6
G26  20658630.877 7 108561815.690 7     -1500.221 7        47.587 7  20658633.695 6         0.000 6     -1169.004 6        37.977 6
G20  21936998.389 7 115279671.576 7      2525.606 7        43.281 7  21936998.706 6         0.000 6      1968.006 6        37.977 6
> 2019 07 03 12 01 15.0000000  0  8       0.000000000000
G07  25340422.430 5 133164772.619 5      2220.242 5        33.362 5  25340423.097 6         0.000 6      1730.060 6        37.977 6
G10  23799147.810 6 125065311.357 6      3493.309 6        37.855 6  23799151.527 6         0.000 6      2722.062 6        37.977 6
G21  21174685.184 7 111273700.993 7     -1269.685 7        47.878 7  21174684.470 6         0.000 6      -989.365 6        37.977 6
G29  24309300.975 5 127746182.291 5     -3168.514 5        35.911 5  24309302.559 6         0.000 6     -2468.975 6        37.977 6
G27  21997057.737 7 115595291.655 7      2536.283 7        43.138 7  21997059.667 6         0.000 6      1976.325 6        37.977 6
G16  20495475.087 8 107704428.214 8       565.602 8        48.064 8  20495474.260 6         0.000 6       440.729 6        37.977 6
G26  20658916.073 7 108563314.401 7     -1496.770 7        47.587 7  20658918.891 6         0.000 6     -1166.315 6        37.977 6
G20  21936518.187 7 115277148.100 7      2522.405 7        43.281 7  21936518.504 6         0.000 6      1965.512 6        37.977 6
> 2019 07 03 12 01 16.0000000  0  8       0.000000000000
G07  25340000.674 5 133162556.280 5      2210.288 5        33.362 5  25340001.341 6         0.000 6      1722.303 6        37.977 6
G10  23798482.224 6 125061813.686 6      3504.081 6        37.856 6  23798485.940 6         0.000 6      2730.456 6        37.977 6
G21  21174927.336 7 111274973.512 7     -1275.313 7        47.877 7  21174926.623 6         0.000 6      -993.751 6        37.977 6
G29  24309904.880 5 127749355.823 5     -3177.634 5        35.911 5  24309906.465 6         0.000 6     -2476.081 6        37.977 6
G27  21996574.654 7 115592753.044 7      2539.826 7        43.138 7  21996576.584 6         0.000 6      1979.086 6        37.977 6
G16  20495367.242 8 107703861.488 8       567.404 8        48.064 8  20495366.415 6         0.000 6       442.133 6        37.977 6
G26  20659200.322 7 108564808.137 7     -1489.969 7        47.587 7  20659203.140 6         0.000 6     -1161.015 6        37.977 6
G20  21936037.935 7 115274624.364 7      2526.708 7        43.281 7  21936038.252 6         0.000 6      1968.865 6        37.977 6
> 2019 07 03 12 01 17.0000000  0  8       0.000000000000
G07  25339580.712 5 133160349.368 5      2204.929 5        33.362 5  25339581.378 6         0.000 6      1718.127 6        37.977 6
G10  23797814.814 6 125058306.437 6      3508.982 6        37.856 6  23797818.530 6         0.000 6      2734.274 6        37.977 6
G21  21175170.196 7 111276249.745 7     -1276.773 7        47.877 7  21175169.482 6         0.000 6      -994.888 6        37.977 6
G29  24310509.678 5 127752534.047 5     -3178.437 5        35.911 5  24310511.263 6         0.000 6     -2476.707 6        37.977 6
G27  21996091.434 7 115590213.703 7      2538.913 7        43.139 7  21996093.363 6         0.000 6      1978.375 6        37.977 6
G16  20495259.330 8 107703294.405 8       566.709 8        48.064 8  20495258.503 6         0.000 6       441.592 6        37.977 6
G26  20659483.589 7 108566296.715 7     -1487.984 7        47.587 7  20659486.407 6         0.000 6     -1159.468 6        37.977 6
G20  21935556.775 7 115272095.858 7      2529.444 7        43.281 7  21935557.092 6         0.000 6      1970.997 6        37.977 6
> 2019 07 03 12 01 18.0000000  0  8       0.000000000000
G07  25339161.262 5 133158145.145 5      2203.782 5        33.362 5  25339161.928 6         0.000 6      1717.234 6        37.977 6
G10  23797147.000 6 125054797.059 6      3509.540 6        37.856 6  23797150.715 6         0.000 6      2734.709 6        37.977 6
G21  21175413.209 7 111277526.788 7     -1277.262 7        47.877 7  21175412.495 6         0.000 6      -995.269 6        37.977 6
G29  24311114.525 5 127755712.530 5     -3178.540 5        35.911 5  24311116.111 6         0.000 6     -2476.787 6        37.977 6
G27  21995608.338 7 115587675.023 7      2538.512 7        43.139 7  21995610.268 6         0.000 6      1978.062 6        37.977 6
G16  20495151.554 8 107702728.039 8       566.045 8        48.064 8  20495150.727 6         0.000 6       441.074 6        37.977 6
G26  20659766.755 7 108567784.761 7     -1488.228 7        47.586 7  20659769.574 6         0.000 6     -1159.659 6        37.977 6
G20  21935075.421 7 115269566.326 7      2529.463 7        43.282 7  21935075.737 6         0.000 6      1971.011 6        37.977 6
> 2019 07 03 12 01 19.0000000  0  8       0.000000000000
G07  25338741.947 5 133155941.636 5      2203.267 5        33.362 5  25338742.613 6         0.000 6      1716.833 6        37.977 6
G10  23796479.162 6 125051287.554 6      3509.462 6        37.856 6  23796482.875 6         0.000 6      2734.648 6        37.977 6
G21  21175656.300 7 111278804.239 7     -1277.649 7        47.877 7  21175655.586 6         0.000 6      -995.571 6        37.977 6
G29  24311719.390 5 127758891.107 5     -3178.640 5        35.911 5  24311720.977 6         0.000 6     -2476.865 6        37.977 6
G27  21995125.300 7 115585136.642 7      2538.257 7        43.139 7  21995127.229 6         0.000 6      1977.863 6        37.977 6
G16  20495043.898 8 107702162.303 8       565.420 8        48.064 8  20495043.071 6         0.000 6       440.587 6        37.977 6
G26  20660050.006 7 108569273.251 7     -1488.775 7        47.586 7  20660052.824 6         0.000 6     -1160.085 6        37.977 6
G20  21934594.116 7 115267037.060 7      2529.054 7        43.282 7  21934594.432 6         0.000 6      1970.693 6        37.977 6
> 2019 07 03 12 01 20.0000000  0  8       0.000000000000
G07  25338322.723 5 133153738.601 5      2202.809 5        33.362 5  25338323.389 6         0.000 6      1716.476 6        37.977 6
G10  23795811.346 6 125047778.171 6      3509.328 6        37.857 6  23795815.059 6         0.000 6      2734.544 6        37.977 6
G21  21175899.464 7 111280082.076 7     -1278.019 7        47.877 7  21175898.751 6         0.000 6      -995.859 6        37.977 6
G29  24312324.275 5 127762069.787 5     -3178.734 5        35.910 5  24312325.862 6         0.000 6     -2476.938 6        37.977 6
G27  21994642.309 7 115582598.510 7      2538.013 7        43.139 7  21994644.238 6         0.000 6      1977.673 6        37.977 6
G16  20494936.361 8 107701597.194 8       564.801 8        48.064 8  20494935.535 6         0.000 6       440.104 6        37.977 6
G26  20660333.365 7 108570762.311 7     -1489.347 7        47.586 7  20660336.183 6         0.000 6     -1160.530 6        37.977 6
G20  21934112.896 7 115264508.234 7      2528.612 7        43.282 7  21934113.212 6         0.000 6      1970.348 6        37.977 6
> 2019 07 03 12 01 21.0000000  0  8       0.000000000000
G07  25337903.585 5 133151536.019 5      2202.360 5        33.363 5  25337904.250 6         0.000 6      1716.125 6        37.977 6
G10  23795143.557 6 125044268.927 6      3509.184 6        37.857 6  23795147.270 6         0.000 6      2734.431 6        37.977 6
G21  21176142.699 7 111281360.281 7     -1278.391 7        47.877 7  21176141.985 6         0.000 6      -996.149 6        37.977 6
G29  24312929.177 5 127765248.559 5     -3178.826 5        35.910 5  24312930.765 6         0.000 6     -2477.010 6        37.977 6
G27  21994159.364 7 115580060.620 7      2537.769 7        43.139 7  21994161.293 6         0.000 6      1977.483 6        37.977 6
G16  20494828.943 8 107701032.704 8       564.179 8        48.064 8  20494828.116 6         0.000 6       439.620 6        37.977 6
G26  20660616.833 7 108572251.945 7     -1489.925 7        47.586 7  20660619.652 6         0.000 6     -1160.981 6        37.977 6
G20  21933631.760 7 115261979.853 7      2528.161 7        43.282 7  21933632.076 6         0.000 6      1969.997 6        37.977 6
> 2019 07 03 12 01 22.0000000  0  8       0.000000000000
G07  25337484.532 5 133149333.885 5      2201.910 5        33.363 5  25337485.197 6         0.000 6      1715.775 6        37.977 6
G10  23794475.795 6 125040759.827 6      3509.039 6        37.857 6  23794479.507 6         0.000 6      2734.319 6        37.977 6
G21  21176386.003 7 111282638.852 7     -1278.762 7        47.877 7  21176385.289 6         0.000 6      -996.438 6        37.977 6
G29  24313534.095 5 127768427.418 5     -3178.919 5        35.910 5  24313535.684 6         0.000 6     -2477.082 6        37.977 6
G27  21993676.466 7 115577522.975 7      2537.524 7        43.140 7  21993678.394 6         0.000 6      1977.292 6        37.977 6
G16  20494721.641 8 107700468.833 8       563.557 8        48.065 8  20494720.814 6         0.000 6       439.135 6        37.977 6
G26  20660900.411 7 108573742.156 7     -1490.504 7        47.586 7  20660903.230 6         0.000 6     -1161.432 6        37.977 6
G20  21933150.710 7 115259451.919 7      2527.711 7        43.282 7  21933151.025 6         0.000 6      1969.646 6        37.977 6
> 2019 07 03 12 01 23.0000000  0  8       0.000000000000
G07  25337065.566 5 133147132.205 5      2201.458 5        33.363 5  25337066.230 6         0.000 6      1715.423 6        37.977 6
G10  23793808.061 6 125037250.869 6      3508.897 6        37.857 6  23793811.772 6         0.000 6      2734.208 6        37.977 6
G21  21176629.378 7 111283917.798 7     -1279.131 7        47.877 7  21176628.665 6         0.000 6      -996.726 6        37.977 6
G29  24314139.032 5 127771606.371 5     -3179.007 5        35.910 5  24314140.621 6         0.000 6     -2477.151 6        37.977 6
G27  21993193.614 7 115574985.577 7      2537.276 7        43.140 7  21993195.543 6         0.000 6      1977.099 6        37.977 6
G16  20494614.459 8 107699905.588 8       562.934 8        48.065 8  20494613.632 6         0.000 6       438.650 6        37.977 6
G26  20661184.100 7 108575232.948 7     -1491.082 7        47.586 7  20661186.919 6         0.000 6     -1161.883 6        37.977 6
G20  21932669.745 7 115256924.436 7      2527.264 7        43.283 7  21932670.060 6         0.000 6      1969.297 6        37.977 6
> 2019 07 03 12 01 24.0000000  0  8       0.000000000000
G07  25336646.685 5 133144930.977 5      2201.009 5        33.363 5  25336647.350 6         0.000 6      1715.073 6        37.977 6
G10  23793140.353 6 125033742.052 6      3508.752 6        37.858 6  23793144.064 6         0.000 6      2734.095 6        37.977 6
G21  21176872.824 7 111285197.113 7     -1279.502 7        47.877 7  21176872.111 6         0.000 6      -997.015 6        37.977 6
G29  24314743.986 5 127774785.416 5     -3179.099 5        35.910 5  24314745.576 6         0.000 6     -2477.223 6        37.977 6
G27  21992710.809 7 115572448.422 7      2537.032 7        43.140 7  21992712.738 6         0.000 6      1976.909 6        37.977 6
G16  20494507.395 8 107699342.961 8       562.312 8        48.065 8  20494506.568 6         0.000 6       438.165 6        37.977 6
G26  20661467.897 7 108576724.313 7     -1491.661 7        47.586 7  20661470.716 6         0.000 6     -1162.334 6        37.977 6
G20  21932188.865 7 115254397.400 7      2526.813 7        43.283 7  21932189.179 6         0.000 6      1968.946 6        37.977 6
> 2019 07 03 12 01 25.0000000  0  8       0.000000000000
G07  25336227.891 5 133142730.201 5      2200.551 5        33.363 5  25336228.555 6         0.000 6      1714.716 6        37.977 6
G10  23792472.673 6 125030233.380 6      3508.614 6        37.858 6  23792476.383 6         0.000 6      2733.988 6        37.977 6
G21  21177116.340 7 111286476.797 7     -1279.867 7        47.877 7  21177115.627 6         0.000 6      -997.299 6        37.977 6
G29  24315348.956 5 127777964.543 5     -3179.176 5        35.909 5  24315350.546 6         0.000 6     -2477.283 6        37.977 6
G27  21992228.052 7 115569911.521 7      2536.777 7        43.140 7  21992229.981 6         0.000 6      1976.710 6        37.977 6
G16  20494400.450 8 107698780.963 8       561.685 8        48.065 8  20494399.623 6         0.000 6       437.677 6        37.977 6
G26  20661751.806 7 108578216.261 7     -1492.239 7        47.586 7  20661754.625 6         0.000 6     -1162.784 6        37.977 6
G20  21931708.070 7 115251870.812 7      2526.372 7        43.283 7  21931708.385 6         0.000 6      1968.603 6        37.977 6
> 2019 07 03 12 01 26.0000000  0  8       0.000000000000
G07  25335809.167 5 133140529.796 5      2200.581 5        33.363 5  25335809.831 6         0.000 6      1714.739 6        37.977 6
G10  23791805.038 6 125026724.945 6      3507.962 6        37.858 6  23791808.748 6         0.000 6      2733.480 6        37.977 6
G21  21177359.917 7 111287756.802 7     -1280.091 7        47.876 7  21177359.204 6         0.000 6      -997.474 6        37.977 6
G29  24315953.926 5 127781143.673 5     -3179.105 5        35.909 5  24315955.517 6         0.000 6     -2477.227 6        37.977 6
G27  21991745.350 7 115567374.905 7      2536.536 7        43.140 7  21991747.278 6         0.000 6      1976.522 6        37.977 6
G16  20494293.629 8 107698219.612 8       561.039 8        48.065 8  20494292.802 6         0.000 6       437.173 6        37.977 6
G26  20662035.837 7 108579708.854 7     -1493.098 7        47.586 7  20662038.657 6         0.000 6     -1163.453 6        37.977 6
G20  21931227.368 7 115249344.711 7      2525.628 7        43.283 7  21931227.682 6         0.000 6      1968.023 6        37.977 6
> 2019 07 03 12 01 27.0000000  0  8       0.000000000000
G07  25335391.578 5 133138335.354 5      2186.908 5        33.363 5  25335392.242 6         0.000 6      1704.085 6        37.977 6
G10  23791136.407 6 125023211.274 6      3520.630 6        37.858 6  23791140.116 6         0.000 6      2743.351 6        37.977 6
G21  21177603.651 7 111289037.634 7     -1281.311 7        47.793 7  21177602.938 6         0.000 6      -998.424 6        37.977 6
G29  24316558.710 5 127784321.823 5     -3176.018 5        35.909 5  24316560.302 6         0.000 6     -2474.822 6        37.977 6
G27  21991263.073 7 115564840.526 7      2531.108 7        43.141 7  21991265.001 6         0.000 6      1972.292 6        37.977 6
G16  20494187.059 8 107697659.583 8       558.530 8        48.065 8  20494186.232 6         0.000 6       435.218 6        37.977 6
G26  20662319.541 7 108581199.726 7     -1488.359 7        47.585 7  20662322.361 6         0.000 6     -1159.760 6        37.977 6
G20  21930746.007 7 115246815.143 7      2534.682 7        43.283 7  21930746.321 6         0.000 6      1975.078 6        37.977 6
> 2019 07 03 12 01 28.0000000  0  8       0.000000000000
G07  25334976.902 5 133136156.219 5      2171.538 5        33.364 5  25334977.565 6         0.000 6      1692.109 6        37.977 6
G10  23790465.155 6 125019683.834 6      3533.922 6        37.858 6  23790468.863 6         0.000 6      2753.708 6        37.977 6
G21  21177847.387 7 111290318.474 7     -1279.854 7        47.793 7  21177846.674 6         0.000 6      -997.289 6        37.977 6
G29  24317162.225 5 127787493.306 5     -3165.788 5        35.909 5  24317163.817 6         0.000 6     -2466.851 6        37.977 6
G27  21990782.353 7 115562314.328 7      2520.552 7        43.141 7  21990784.281 6         0.000 6      1964.067 6        37.977 6
G16  20494081.214 8 107697103.366 8       553.521 8        48.065 8  20494080.387 6         0.000 6       431.315 6        37.977 6
G26  20662602.410 7 108582686.212 7     -1485.069 7        47.585 7  20662605.230 6         0.000 6     -1157.197 6        37.977 6
G20  21930262.587 7 115244274.761 7      2546.196 7        43.283 7  21930262.901 6         0.000 6      1984.050 6        37.977 6
> 2019 07 03 12 01 29.0000000  0  8       0.000000000000
G07  25334564.979 5 133133991.552 5      2161.099 5        33.364 5  25334565.642 6         0.000 6      1683.974 6        37.977 6
G10  23789791.649 6 125016144.546 6      3541.837 6        37.859 6  23789795.357 6         0.000 6      2759.876 6        37.977 6
G21  21178090.537 7 111291596.236 7     -1276.451 7        47.793 7  21178089.824 6         0.000 6      -994.637 6        37.977 6
G29  24317763.117 5 127790651.006 5     -3152.804 5        35.908 5  24317764.710 6         0.000 6     -2456.733 6        37.977 6
G27  21990304.049 7 115559800.827 7      2509.320 7        43.141 7  21990305.977 6         0.000 6      1955.315 6        37.977 6
G16  20493976.538 8 107696553.291 8       547.893 8        48.065 8  20493975.711 6         0.000 6       426.930 6        37.977 6
G26  20662884.949 7 108584170.962 7     -1485.012 7        47.585 7  20662887.769 6         0.000 6     -1157.153 6        37.977 6
G20  21929776.967 7 115241722.814 7      2554.891 7        43.284 7  21929777.280 6         0.000 6      1990.826 6        37.977 6
> 2019 07 03 12 01 30.0000000  0  8       0.000000000000
G07  25334153.912 5 133131831.386 5      2159.600 5        33.364 5  25334154.575 6         0.000 6      1682.806 6        37.977 6
G10  23789117.579 6 125012602.294 6      3542.428 6        38.136 6  23789121.286 6         0.000 6      2760.336 6        37.977 6
G21  21178333.386 7 111292872.411 7     -1276.128 7        47.793 7  21178332.673 6         0.000 6      -994.386 6        37.977 6
G29  24318362.820 5 127793802.455 5     -3150.804 5        35.908 5  24318364.414 6         0.000 6     -2455.174 6        37.977 6
G27  21989826.771 7 115557292.714 7      2507.452 7        43.141 7  21989828.698 6         0.000 6      1953.859 6        37.977 6
G16  20493872.433 8 107696006.212 8       546.516 8        48.065 8  20493871.606 6         0.000 6       425.857 6        37.977 6
G26  20663167.611 7 108585656.359 7     -1485.741 7        47.585 7  20663170.431 6         0.000 6     -1157.721 6        37.977 6
G20  21929290.692 7 115239167.423 7      2555.528 7        43.284 7  21929291.004 6         0.000 6      1991.322 6        37.977 6
> 2019 07 03 12 01 31.0000000  0  8       0.000000000000
G07  25333743.012 5 133129672.093 5      2159.032 5        33.364 5  25333743.675 6         0.000 6      1682.364 6        37.977 6
G10  23788443.481 6 125009059.895 6      3542.362 6        38.136 6  23788447.187 6         0.000 6      2760.285 6        37.977 6
G21  21178576.250 7 111294148.672 7     -1276.425 7        47.793 7  21178575.537 6         0.000 6      -994.617 6        37.977 6
G29  24318962.377 5 127796953.139 5     -3150.664 5        35.908 5  24318963.972 6         0.000 6     -2455.065 6        37.977 6
G27  21989349.664 7 115554785.503 7      2507.032 7        43.141 7  21989351.591 6         0.000 6      1953.532 6        37.977 6
G16  20493768.503 8 107695460.056 8       545.820 8        48.065 8  20493767.676 6         0.000 6       425.314 6        37.977 6
G26  20663450.394 7 108587142.393 7     -1486.328 7        47.585 7  20663453.214 6         0.000 6     -1158.178 6        37.977 6
G20  21928804.419 7 115236612.046 7      2555.191 7        43.284 7  21928804.731 6         0.000 6      1991.059 6        37.977 6
> 2019 07 03 12 01 32.0000000  0  8       0.000000000000
G07  25333332.206 5 133127513.297 5      2158.560 5        33.364 5  25333332.868 6         0.000 6      1681.996 6        37.977 6
G10  23787769.405 6 125005517.612 6      3542.232 6        38.136 6  23787773.110 6         0.000 6      2760.184 6        37.977 6
G21  21178819.180 7 111295425.277 7     -1276.787 7        47.793 7  21178818.467 6         0.000 6      -994.899 6        37.977 6
G29  24319561.935 5 127800103.823 5     -3150.725 5        35.908 5  24319563.530 6         0.000 6     -2455.113 6        37.977 6
G27  21988872.616 7 115552278.604 7      2506.771 7        43.141 7  21988874.544 6         0.000 6      1953.328 6        37.977 6
G16  20493664.696 8 107694914.545 8       545.201 8        48.065 8  20493663.869 6         0.000 6       424.832 6        37.977 6
G26  20663733.287 7 108588629.003 7     -1486.893 7        47.585 7  20663736.107 6         0.000 6     -1158.618 6        37.977 6
G20  21928318.224 7 115234057.080 7      2554.754 7        43.284 7  21928318.536 6         0.000 6      1990.719 6        37.977 6
> 2019 07 03 12 01 33.0000000  0  8       0.000000000000
G07  25332921.490 5 133125354.973 5      2158.100 5        33.364 5  25332922.152 6         0.000 6      1681.637 6        37.977 6
G10  23787095.353 6 125001975.456 6      3542.094 6        38.136 6  23787099.058 6         0.000 6      2760.076 6        37.977 6
G21  21179062.179 7 111296702.243 7     -1277.151 7        47.793 7  21179061.466 6         0.000 6      -995.183 6        37.977 6
G29  24320161.504 5 127803254.573 5     -3150.802 5        35.908 5  24320163.100 6         0.000 6     -2455.173 6        37.977 6
G27  21988395.617 7 115549771.960 7      2506.523 7        43.142 7  21988397.544 6         0.000 6      1953.136 6        37.977 6
G16  20493561.005 8 107694369.649 8       544.590 8        48.065 8  20493560.178 6         0.000 6       424.356 6        37.977 6
G26  20664016.287 7 108590116.173 7     -1487.456 7        47.585 7  20664019.107 6         0.000 6     -1159.057 6        37.977 6
G20  21927832.112 7 115231502.550 7      2554.308 7        43.284 7  21927832.424 6         0.000 6      1990.371 6        37.977 6
> 2019 07 03 12 01 34.0000000  0  8       0.000000000000
G07  25332510.860 5 133123197.105 5      2157.642 5        33.364 5  25332511.522 6         0.000 6      1681.280 6        37.977 6
G10  23786421.329 6 124998433.445 6      3541.951 6        38.137 6  23786425.033 6         0.000 6      2759.964 6        37.977 6
G21  21179305.249 7 111297979.584 7     -1277.524 7        47.793 7  21179304.536 6         0.000 6      -995.474 6        37.977 6
G29  24320761.091 5 127806405.411 5     -3150.884 5        35.907 5  24320762.687 6         0.000 6     -2455.237 6        37.977 6
G27  21987918.665 7 115547265.562 7      2506.274 7        43.142 7  21987920.592 6         0.000 6      1952.942 6        37.977 6
G16  20493457.432 8 107693825.368 8       543.973 8        48.065 8  20493456.605 6         0.000 6       423.875 6        37.977 6
G26  20664299.395 7 108591603.913 7     -1488.026 7        47.585 7  20664302.215 6         0.000 6     -1159.502 6        37.977 6
G20  21927346.087 7 115228948.477 7      2553.854 7        43.285 7  21927346.399 6         0.000 6      1990.017 6        37.977 6
> 2019 07 03 12 01 35.0000000  0  8       0.000000000000
G07  25332100.318 5 133121039.694 5      2157.184 5        33.365 5  25332100.980 6         0.000 6      1680.924 6        37.977 6
G10  23785747.332 6 124994891.578 6      3541.810 6        38.137 6  23785751.035 6         0.000 6      2759.854 6        37.977 6
G21  21179548.389 7 111299257.292 7     -1277.891 7        47.793 7  21179547.676 6         0.000 6      -995.759 6        37.977 6
G29  24321360.692 5 127809556.325 5     -3150.965 5        35.907 5  24321362.289 6         0.000 6     -2455.300 6        37.977 6
G27  21987441.760 7 115544759.413 7      2506.031 7        43.142 7  21987443.687 6         0.000 6      1952.752 6        37.977 6
G16  20493353.976 8 107693281.702 8       543.363 8        48.065 8  20493353.149 6         0.000 6       423.400 6        37.977 6
G26  20664582.611 7 108593092.222 7     -1488.590 7        47.584 7  20664585.431 6         0.000 6     -1159.941 6        37.977 6
G20  21926860.148 7 115226394.854 7      2553.404 7        43.285 7  21926860.460 6         0.000 6      1989.667 6        37.977 6
> 2019 07 03 12 01 36.0000000  0  8       0.000000000000
G07  25331689.863 5 133118882.741 5      2156.729 5        33.365 5  25331690.525 6         0.000 6      1680.569 6        37.977 6
G10  23785073.362 6 124991349.852 6      3541.664 6        38.137 6  23785077.064 6         0.000 6      2759.741 6        37.977 6
G21  21179791.598 7 111300535.366 7     -1278.259 7        47.792 7  21179790.885 6         0.000 6      -996.046 6        37.977 6
G29  24321960.308 5 127812707.321 5     -3151.047 5        35.907 5  24321961.906 6         0.000 6     -2455.364 6        37.977 6
G27  21986964.902 7 115542253.508 7      2505.785 7        43.142 7  21986966.829 6         0.000 6      1952.560 6        37.977 6
G16  20493250.636 8 107692738.646 8       542.750 8        48.065 8  20493249.809 6         0.000 6       422.922 6        37.977 6
G26  20664865.934 7 108594581.094 7     -1489.158 7        47.584 7  20664868.754 6         0.000 6     -1160.383 6        37.977 6
G20  21926374.295 7 115223841.681 7      2552.951 7        43.285 7  21926374.606 6         0.000 6      1989.313 6        37.977 6
> 2019 07 03 12 01 37.0000000  0  8       0.000000000000
G07  25331279.495 5 133116726.246 5      2156.271 5        33.365 5  25331280.156 6         0.000 6      1680.212 6        37.977 6
G10  23784399.419 6 124987808.269 6      3541.521 6        38.137 6  23784403.121 6         0.000 6      2759.629 6        37.977 6
G21  21180034.879 7 111301813.813 7     -1278.632 7        47.792 7  21180034.166 6         0.000 6      -996.337 6        37.977 6
G29  24322559.941 5 127815858.398 5     -3151.129 5        35.907 5  24322561.539 6         0.000 6     -2455.428 6        37.977 6
G27  21986488.091 7 115539747.852 7      2505.536 7        43.142 7  21986490.017 6         0.000 6      1952.366 6        37.977 6
G16  20493147.413 8 107692196.207 8       542.132 8        48.065 8  20493146.586 6         0.000 6       422.441 6        37.977 6
G26  20665149.366 7 108596070.537 7     -1489.729 7        47.584 7  20665152.186 6         0.000 6     -1160.828 6        37.977 6
G20  21925888.528 7 115221288.962 7      2552.496 7        43.285 7  21925888.839 6         0.000 6      1988.959 6        37.977 6
> 2019 07 03 12 01 38.0000000  0  8       0.000000000000
G07  25330869.213 5 133114570.203 5      2155.816 5        33.365 5  25330869.874 6         0.000 6      1679.857 6        37.977 6
G10  23783725.504 6 124984266.834 6      3541.375 6        38.138 6  23783729.206 6         0.000 6      2759.516 6        37.977 6
G21  21180278.228 7 111303092.624 7     -1279.000 7        47.792 7  21180277.516 6         0.000 6      -996.624 6        37.977 6
G29  24323159.588 5 127819009.557 5     -3151.210 5        35.907 5  24323161.187 6         0.000 6     -2455.491 6        37.977 6
G27  21986011.326 7 115537242.438 7      2505.290 7        43.143 7  21986013.252 6         0.000 6      1952.175 6        37.977 6
G16  20493044.306 8 107691654.377 8       541.519 8        48.065 8  20493043.479 6         0.000 6       421.963 6        37.977 6
G26  20665432.905 7 108597560.546 7     -1490.297 7        47.584 7  20665435.726 6         0.000 6     -1161.271 6        37.977 6
G20  21925402.847 7 115218736.697 7      2552.043 7        43.285 7  21925403.158 6         0.000 6      1988.606 6        37.977 6
> 2019 07 03 12 01 39.0000000  0  8       0.000000000000
G07  25330459.018 5 133112414.618 5      2155.360 5        33.365 5  25330459.679 6         0.000 6      1679.502 6        37.977 6
G10  23783051.617 6 124980725.542 6      3541.229 6        38.138 6  23783055.318 6         0.000 6      2759.402 6        37.977 6
G21  21180521.649 7 111304371.808 7     -1279.369 7        47.792 7  21180520.937 6         0.000 6      -996.911 6        37.977 6
G29  24323759.251 5 127822160.797 5     -3151.291 5        35.906 5  24323760.851 6         0.000 6     -2455.554 6        37.977 6
G27  21985534.608 7 115534737.273 7      2505.045 7        43.143 7  21985536.535 6         0.000 6      1951.983 6        37.977 6
G16  20492941.317 8 107691113.164 8       540.906 8        48.065 8  20492940.490 6         0.000 6       421.485 6        37.977 6
G26  20665716.554 7 108599051.125 7     -1490.865 7        47.584 7  20665719.374 6         0.000 6     -1161.713 6        37.977 6
G20  21924917.252 7 115216184.886 7      2551.588 7        43.286 7  21924917.563 6         0.000 6      1988.252 6        37.977 6
> 2019 07 03 12 01 40.0000000  0  8       0.000000000000
G07  25330048.902 5 133110259.446 5      2155.006 5        33.365 5  25330049.563 6         0.000 6      1679.227 6        37.977 6
G10  23782377.765 6 124977184.440 6      3540.982 6        38.138 6  23782381.466 6         0.000 6      2759.209 6        37.977 6
G21  21180765.139 7 111305651.354 7     -1279.723 7        47.792 7  21180764.426 6         0.000 6      -997.187 6        37.977 6
G29  24324358.930 5 127825312.119 5     -3151.378 5        35.906 5  24324360.530 6         0.000 6     -2455.622 6        37.977 6
G27  21985057.936 7 115532232.344 7      2504.825 7        43.143 7  21985059.862 6         0.000 6      1951.812 6        37.977 6
G16  20492838.444 8 107690572.563 8       540.299 8        48.065 8  20492837.617 6         0.000 6       421.012 6        37.977 6
G26  20666000.314 7 108600542.293 7     -1491.481 7        47.584 7  20666003.135 6         0.000 6     -1162.194 6        37.977 6
G20  21924431.750 7 115213633.558 7      2551.064 7        43.286 7  21924432.060 6         0.000 6      1987.844 6        37.977 6
> 2019 07 03 12 01 41.0000000  0  8       0.000000000000
G07  25329639.018 5 133108105.499 5      2151.935 5        33.365 5  25329639.679 6         0.000 6      1676.834 6        37.977 6
G10  23781703.867 6 124973643.090 6      3542.139 6        38.138 6  23781707.566 6         0.000 6      2760.111 6        37.977 6
G21  21181008.523 7 111306930.344 7     -1276.890 7        47.792 7  21181007.810 6         0.000 6      -994.979 6        37.977 6
G29  24324958.145 5 127828461.005 5     -3142.727 5        35.906 5  24324959.746 6         0.000 6     -2448.881 6        37.977 6
G27  21984581.660 7 115529729.501 7      2498.198 7        43.143 7  21984583.586 6         0.000 6      1946.649 6        37.977 6
G16  20492735.857 8 107690033.463 8       536.594 8        48.065 8  20492735.030 6         0.000 6       418.125 6        37.977 6
G26  20666284.263 7 108602034.457 7     -1493.572 7        47.584 7  20666287.084 6         0.000 6     -1163.823 6        37.977 6
G20  21923946.146 7 115211081.698 7      2553.988 7        43.286 7  21923946.456 6         0.000 6      1990.122 6        37.977 6
> 2019 07 03 12 01 42.0000000  0  8       0.000000000000
G07  25329229.516 5 133105953.551 5      2153.314 5        33.366 5  25329230.176 6         0.000 6      1677.908 6        37.977 6
G10  23781030.071 6 124970102.279 6      3538.278 6        38.139 6  23781033.770 6         0.000 6      2757.103 6        37.977 6
G21  21181251.014 7 111308204.644 7     -1271.836 7        47.792 7  21181250.302 6         0.000 6      -991.041 6        37.977 6
G29  24325554.944 5 127831597.198 5     -3130.519 5        35.906 5  24325556.546 6         0.000 6     -2439.368 6        37.977 6
G27  21984107.107 7 115527235.711 7      2490.257 7        43.143 7  21984109.033 6         0.000 6      1940.461 6        37.977 6
G16  20492634.222 8 107689499.370 8       531.956 8        48.065 8  20492633.395 6         0.000 6       414.511 6        37.977 6
G26  20666568.956 7 108603530.522 7     -1498.942 7        47.584 7  20666571.777 6         0.000 6     -1168.007 6        37.977 6
G20  21923459.982 7 115208526.890 7      2554.575 7        43.286 7  21923460.291 6         0.000 6      1990.579 6        37.977 6
> 2019 07 03 12 01 43.0000000  0  8       0.000000000000
G07  25328818.815 5 133103795.306 5      2163.297 5        33.366 5  25328819.475 6         0.000 6      1685.687 6        37.977 6
G10  23780357.882 6 124966569.913 6      3526.640 6        38.139 6  23780361.580 6         0.000 6      2748.034 6        37.977 6
G21  21181492.577 7 111309474.064 7     -1267.749 7        47.792 7  21181491.864 6         0.000 6      -987.857 6        37.977 6
G29  24326149.875 5 127834723.571 5     -3124.076 5        35.905 5  24326151.477 6         0.000 6     -2434.348 6        37.977 6
G27  21983633.547 7 115524747.137 7      2488.132 7        43.144 7  21983635.472 6         0.000 6      1938.805 6        37.977 6
G16  20492533.262 8 107688968.820 8       529.762 8        48.065 8  20492532.435 6         0.000 6       412.802 6        37.977 6
G26  20666854.976 7 108605033.567 7     -1506.625 7        47.583 7  20666857.797 6         0.000 6     -1173.994 6        37.977 6
G20  21922974.419 7 115205975.246 7      2548.307 7        43.286 7  21922974.729 6         0.000 6      1985.695 6        37.977 6
> 2019 07 03 12 01 44.0000000  0  8       0.000000000000
G07  25328406.829 5 133101630.313 5      2165.815 5        33.366 5  25328407.490 6         0.000 6      1687.649 6        37.977 6
G10  23779687.172 6 124963045.319 6      3523.470 6        38.139 6  23779690.870 6         0.000 6      2745.564 6        37.977 6
G21  21181733.780 7 111310741.596 7     -1267.523 7        47.792 7  21181733.068 6         0.000 6      -987.680 6        37.977 6
G29  24326744.343 5 127837847.510 5     -3123.950 5        35.905 5  24326745.946 6         0.000 6     -2434.249 6        37.977 6
G27  21983160.029 7 115522258.785 7      2488.450 7        43.144 7  21983161.954 6         0.000 6      1939.052 6        37.977 6
G16  20492432.498 8 107688439.303 8       529.253 8        48.066 8  20492431.671 6         0.000 6       412.405 6        37.977 6
G26  20667141.918 7 108606541.455 7     -1508.698 7        47.583 7  20667144.739 6         0.000 6     -1175.609 6        37.977 6
G20  21922489.776 7 115203428.431 7      2545.895 7        43.287 7  21922490.085 6         0.000 6      1983.816 6        37.977 6
> 2019 07 03 12 01 45.0000000  0  8       0.000000000000
G07  25327994.685 5 133099464.483 5      2165.716 5        33.366 5  25327995.345 6         0.000 6      1687.572 6        37.977 6
G10  23779016.739 6 124959522.182 6      3522.960 6        38.139 6  23779020.436 6         0.000 6      2745.166 6        37.977 6
G21  21181975.008 7 111312009.254 7     -1267.820 7        47.792 7  21181974.295 6         0.000 6      -987.912 6        37.977 6
G29  24327338.818 5 127840971.486 5     -3124.027 5        35.601 5  24327340.421 6         0.000 6     -2434.309 6        37.977 6
G27  21982686.505 7 115519770.404 7      2488.288 7        43.144 7  21982688.430 6         0.000 6      1938.926 6        37.977 6
G16  20492331.841 8 107687910.346 8       528.651 8        48.066 8  20492331.014 6         0.000 6       411.936 6        37.977 6
G26  20667429.091 7 108608050.560 7     -1509.452 7        47.583 7  20667431.912 6         0.000 6     -1176.197 6        37.977 6
G20  21922005.382 7 115200882.931 7      2545.202 7        43.287 7  21922005.691 6         0.000 6      1983.276 6        37.977 6
> 2019 07 03 12 01 46.0000000  0  8       0.000000000000
G07  25327582.603 5 133097298.981 5      2165.282 5        33.366 5  25327583.263 6         0.000 6      1687.233 6        37.977 6
G10  23778346.360 6 124955999.326 6      3522.790 6        38.140 6  23778350.057 6         0.000 6      2745.034 6        37.977 6
G21  21182216.299 7 111313277.250 7     -1268.168 7        47.791 7  21182215.587 6         0.000 6      -988.183 6        37.977 6
G29  24327933.308 5 127844095.542 5     -3124.102 5        35.601 5  24327934.912 6         0.000 6     -2434.368 6        37.977 6
G27  21982213.022 7 115517282.236 7      2488.052 7        43.144 7  21982214.947 6         0.000 6      1938.743 6        37.977 6
G16  20492231.301 8 107687382.005 8       528.035 8        48.066 8  20492230.474 6         0.000 6       411.456 6        37.977 6
G26  20667716.387 7 108609560.310 7     -1510.039 7        47.583 7  20667719.209 6         0.000 6     -1176.654 6        37.977 6
G20  21921521.092 7 115198337.972 7      2544.740 7        43.287 7  21921521.400 6         0.000 6      1982.915 6        37.977 6
> 2019 07 03 12 01 47.0000000  0  8       0.000000000000
G07  25327170.607 5 133095133.930 5      2164.825 5        33.366 5  25327171.266 6         0.000 6      1686.878 6        37.977 6
G10  23777676.009 6 124952476.620 6      3522.642 6        38.140 6  23777679.705 6         0.000 6      2744.918 6        37.977 6
G21  21182457.657 7 111314545.591 7     -1268.524 7        47.791 7  21182456.945 6         0.000 6      -988.460 6        37.977 6
G29  24328527.813 5 127847219.676 5     -3124.186 5        35.600 5  24328529.417 6         0.000 6     -2434.433 6        37.977 6
G27  21981739.583 7 115514794.302 7      2487.815 7        43.144 7  21981741.508 6         0.000 6      1938.558 6        37.977 6
G16  20492130.877 8 107686854.275 8       527.418 8        48.066 8  20492130.050 6         0.000 6       410.975 6        37.977 6
G26  20668003.792 7 108611070.631 7     -1510.614 7        47.583 7  20668006.614 6         0.000 6     -1177.103 6        37.977 6
G20  21921036.886 7 115195793.461 7      2544.288 7        43.287 7  21921037.195 6         0.000 6      1982.563 6        37.977 6
> 2019 07 03 12 01 48.0000000  0  8       0.000000000000
G07  25326758.698 5 133092969.338 5      2164.359 5        33.366 5  25326759.357 6         0.000 6      1686.515 6        37.977 6
G10  23777005.687 6 124948954.064 6      3522.502 6        38.140 6  23777009.382 6         0.000 6      2744.809 6        37.977 6
G21  21182699.084 7 111315814.296 7     -1268.880 7        47.791 7  21182698.371 6         0.000 6      -988.738 6        37.977 6
G29  24329122.334 5 127850343.894 5     -3124.265 5        35.600 5  24329123.939 6         0.000 6     -2434.495 6        37.977 6
G27  21981266.191 7 115512306.611 7      2487.573 7        43.145 7  21981268.115 6         0.000 6      1938.369 6        37.977 6
G16  20492030.572 8 107686327.170 8       526.799 8        48.066 8  20492029.745 6         0.000 6       410.492 6        37.977 6
G26  20668291.308 7 108612581.535 7     -1511.187 7        47.583 7  20668294.130 6         0.000 6     -1177.549 6        37.977 6
G20  21920552.768 7 115193249.405 7      2543.844 7        43.287 7  21920553.076 6         0.000 6      1982.217 6        37.977 6
> 2019 07 03 12 01 49.0000000  0  8       0.000000000000
G07  25326346.879 5 133090805.216 5      2163.896 5        33.367 5  25326347.538 6         0.000 6      1686.154 6        37.977 6
G10  23776335.391 6 124945431.642 6      3522.359 6        38.140 6  23776339.085 6         0.000 6      2744.698 6        37.977 6
G21  21182940.577 7 111317083.352 7     -1269.238 7        47.791 7  21182939.865 6         0.000 6      -989.017 6        37.977 6
G29  24329716.869 5 127853468.185 5     -3124.350 5        35.600 5  24329718.474 6         0.000 6     -2434.561 6        37.977 6
G27  21980792.845 7 115509819.164 7      2487.334 7        43.145 7  21980794.769 6         0.000 6      1938.183 6        37.977 6
G16  20491930.385 8 107685800.681 8       526.181 8        48.066 8  20491929.558 6         0.000 6       410.011 6        37.977 6
G26  20668578.932 7 108614093.007 7     -1511.760 7        47.583 7  20668581.754 6         0.000 6     -1177.996 6        37.977 6
G20  21920068.733 7 115190705.786 7      2543.396 7        43.287 7  21920069.040 6         0.000 6      1981.868 6        37.977 6
> 2019 07 03 12 01 50.0000000  0  8       0.000000000000
G07  25325935.147 5 133088641.554 5      2163.431 5        33.367 5  25325935.806 6         0.000 6      1685.791 6        37.977 6
G10  23775665.122 6 124941909.364 6      3522.219 6        38.140 6  23775668.815 6         0.000 6      2744.589 6        37.977 6
G21  21183182.139 7 111318352.769 7     -1269.594 7        47.791 7  21183181.427 6         0.000 6      -989.294 6        37.977 6
G29  24330311.421 5 127856592.567 5     -3124.429 5        35.600 5  24330313.027 6         0.000 6     -2434.622 6        37.977 6
G27  21980319.544 7 115507331.952 7      2487.092 7        43.145 7  21980321.468 6         0.000 6      1937.994 6        37.977 6
G16  20491830.315 8 107685274.809 8       525.561 8        48.066 8  20491829.488 6         0.000 6       409.528 6        37.977 6
G26  20668866.665 7 108615605.052 7     -1512.333 7        47.583 7  20668869.487 6         0.000 6     -1178.442 6        37.977 6
G20  21919584.783 7 115188162.619 7      2542.951 7        43.288 7  21919585.091 6         0.000 6      1981.522 6        37.977 6
> 2019 07 03 12 01 51.0000000  0  8       0.000000000000
G07  25325523.504 5 133086478.360 5      2162.968 5        33.367 5  25325524.162 6         0.000 6      1685.430 6        37.977 6
G10  23774994.880 6 124938387.229 6      3522.077 6        38.141 6  23774998.573 6         0.000 6      2744.478 6        37.977 6
G21  21183423.770 7 111319622.548 7     -1269.952 7        47.791 7  21183423.058 6         0.000 6      -989.573 6        37.977 6
G29  24330905.988 5 127859717.028 5     -3124.513 5        35.600 5  24330907.595 6         0.000 6     -2434.688 6        37.977 6
G27  21979846.289 7 115504844.987 7      2486.853 7        43.145 7  21979848.214 6         0.000 6      1937.808 6        37.977 6
G16  20491730.364 8 107684749.564 8       524.943 8        48.149 8  20491729.537 6         0.000 6       409.047 6        37.977 6
G26  20669154.508 7 108617117.677 7     -1512.906 7        47.583 7  20669157.330 6         0.000 6     -1178.888 6        37.977 6
G20  21919100.919 7 115185619.901 7      2542.503 7        43.288 7  21919101.226 6         0.000 6      1981.172 6        37.977 6
> 2019 07 03 12 01 52.0000000  0  8       0.000000000000
G07  25325111.948 5 133084315.621 5      2162.524 5        33.367 5  25325112.606 6         0.000 6      1685.085 6        37.977 6
G10  23774324.665 6 124934865.239 6      3521.921 6        38.141 6  23774328.358 6         0.000 6      2744.356 6        37.977 6
G21  21183665.469 7 111320892.682 7     -1270.325 7        47.791 7  21183664.757 6         0.000 6      -989.864 6        37.977 6
G29  24331500.573 5 127862841.583 5     -3124.639 5        35.599 5  24331502.181 6         0.000 6     -2434.786 6        37.977 6
G27  21979373.078 7 115502358.249 7      2486.645 7        43.145 7  21979375.002 6         0.000 6      1937.646 6        37.977 6
G16  20491630.529 8 107684224.927 8       524.339 8        48.149 8  20491629.702 6         0.000 6       408.576 6        37.977 6
G26  20669442.459 7 108618630.869 7     -1513.476 7        47.582 7  20669445.281 6         0.000 6     -1179.333 6        37.977 6
G20  21918617.141 7 115183077.632 7      2542.034 7        43.288 7  21918617.448 6         0.000 6      1980.807 6        37.977 6
> 2019 07 03 12 01 53.0000000  0  8       0.000000000000
G07  25324700.465 5 133082153.268 5      2164.143 5        33.367 5  25324701.123 6         0.000 6      1686.346 6        37.977 6
G10  23773654.490 6 124931343.454 6      3519.726 6        38.141 6  23773658.181 6         0.000 6      2742.646 6        37.977 6
G21  21183907.241 7 111322163.202 7     -1270.445 7        47.791 7  21183906.529 6         0.000 6      -989.958 6        37.977 6
G29  24332095.193 5 127865966.323 5     -3124.991 5        35.599 5  24332096.801 6         0.000 6     -2435.061 6        37.977 6
G27  21978899.897 7 115499871.664 7      2487.069 7        43.145 7  21978901.820 6         0.000 6      1937.976 6        37.977 6
G16  20491530.804 8 107683700.868 8       523.933 8        48.149 8  20491529.977 6         0.000 6       408.259 6        37.977 6
G26  20669730.520 7 108620144.637 7     -1514.969 7        47.582 7  20669733.343 6         0.000 6     -1180.496 6        37.977 6
G20  21918133.461 7 115180535.882 7      2540.138 7        43.288 7  21918133.767 6         0.000 6      1979.330 6        37.977 6
> 2019 07 03 12 01 54.0000000  0  8       0.000000000000
G07  25324287.281 5 133079981.974 5      2178.666 5        33.367 5  25324287.939 6         0.000 6      1697.662 6        37.977 6
G10  23772986.076 6 124927830.929 6      3505.319 6        38.141 6  23772989.768 6         0.000 6      2731.420 6        37.977 6
G21  21184148.958 7 111323433.432 7     -1270.494 7        47.791 7  21184148.246 6         0.000 6      -989.995 6        37.977 6
G29  24332690.251 5 127869093.365 5     -3130.348 5        35.599 5  24332691.860 6         0.000 6     -2439.235 6        37.977 6
G27  21978426.065 7 115497381.668 7      2493.795 7        43.146 7  21978427.989 6         0.000 6      1943.218 6        37.977 6
G16  20491430.952 8 107683176.142 8       525.948 8        48.149 8  20491430.125 6         0.000 6       409.829 6        37.977 6
G26  20670019.421 7 108621662.820 7     -1521.108 7        47.582 7  20670022.244 6         0.000 6     -1185.279 6        37.977 6
G20  21917651.146 7 115178001.307 7      2528.651 7        43.288 7  21917651.453 6         0.000 6      1970.379 6        37.977 6
> 2019 07 03 12 01 55.0000000  0  8       0.000000000000
G07  25323871.306 5 133077796.016 5      2193.912 5        33.367 5  25323871.964 6         0.000 6      1709.543 6        37.977 6
G10  23772320.324 6 124924332.386 6      3491.494 6        38.142 6  23772324.014 6         0.000 6      2720.648 6        37.977 6
G21  21184390.976 7 111324705.246 7     -1274.005 7        47.791 7  21184390.264 6         0.000 6      -992.731 6        37.977 6
G29  24333287.037 5 127872229.487 5     -3144.277 5        35.599 5  24333288.647 6         0.000 6     -2450.089 6        37.977 6
G27  21977950.482 7 115494882.462 7      2506.339 7        43.146 7  21977952.405 6         0.000 6      1952.992 6        37.977 6
G16  20491330.478 8 107682648.149 8       530.879 8        48.149 8  20491329.651 6         0.000 6       413.672 6        37.977 6
G26  20670309.278 7 108623186.028 7     -1524.864 7        47.582 7  20670312.101 6         0.000 6     -1188.206 6        37.977 6
G20  21917171.167 7 115175479.004 7      2515.092 7        43.289 7  21917171.473 6         0.000 6      1959.813 6        37.977 6
> 2019 07 03 12 01 56.0000000  0  8       0.000000000000
G07  25323453.141 5 133075598.547 5      2198.880 5        33.368 5  25323453.799 6         0.000 6      1713.414 6        37.977 6
G10  23771656.490 6 124920843.927 6      3487.183 6        38.142 6  23771660.180 6         0.000 6      2717.288 6        37.977 6
G21  21184633.769 7 111325981.129 7     -1276.978 7        47.790 7  21184633.057 6         0.000 6      -995.048 6        37.977 6
G29  24333886.447 5 127875379.394 5     -3152.803 5        35.599 5  24333888.057 6         0.000 6     -2456.732 6        37.977 6
G27  21977472.694 7 115492371.670 7      2512.926 7        43.146 7  21977474.617 6         0.000 6      1958.125 6        37.977 6
G16  20491229.114 8 107682115.480 8       533.402 8        48.149 8  20491228.287 6         0.000 6       415.638 6        37.977 6
G26  20670599.513 7 108624711.221 7     -1525.374 7        47.582 7  20670602.336 6         0.000 6     -1188.604 6        37.977 6
G20  21916693.284 7 115172967.717 7      2509.442 7        43.289 7  21916693.590 6         0.000 6      1955.410 6        37.977 6
> 2019 07 03 12 01 57.0000000  0  8       0.000000000000
G07  25323034.680 5 133073399.525 5      2198.975 5        33.368 5  25323035.338 6         0.000 6      1713.488 6        37.977 6
G10  23770992.965 6 124917357.087 6      3486.657 6        38.142 6  23770996.654 6         0.000 6      2716.878 6        37.977 6
G21  21184876.854 7 111327258.550 7     -1277.724 7        47.790 7  21184876.142 6         0.000 6      -995.629 6        37.977 6
G29  24334486.561 5 127878533.007 5     -3154.040 5        35.598 5  24334488.172 6         0.000 6     -2457.696 6        37.977 6
G27  21976994.409 7 115489858.273 7      2513.569 7        43.146 7  21976996.332 6         0.000 6      1958.626 6        37.977 6
G16  20491127.618 8 107681582.114 8       533.189 8        48.149 8  20491126.791 6         0.000 6       415.472 6        37.977 6
G26  20670889.826 7 108626236.824 7     -1525.861 7        47.582 7  20670892.649 6         0.000 6     -1188.983 6        37.977 6
G20  21916215.872 7 115170458.901 7      2508.411 7        43.289 7  21916216.177 6         0.000 6      1954.607 6        37.977 6
> 2019 07 03 12 01 58.0000000  0  8       0.000000000000
G07  25322616.267 5 133071200.751 5      2198.570 5        33.368 5  25322616.924 6         0.000 6      1713.172 6        37.977 6
G10  23770329.494 6 124913870.535 6      3486.474 6        38.142 6  23770333.182 6         0.000 6      2716.736 6        37.977 6
G21  21185120.036 7 111328536.478 7     -1278.118 7        47.790 7  21185119.324 6         0.000 6      -995.936 6        37.977 6
G29  24335086.778 5 127881687.154 5     -3154.238 5        35.598 5  24335088.389 6         0.000 6     -2457.851 6        37.977 6
G27  21976516.106 7 115487344.773 7      2513.411 7        43.146 7  21976518.029 6         0.000 6      1958.502 6        37.977 6
G16  20491026.211 8 107681049.214 8       532.599 8        48.149 8  20491025.384 6         0.000 6       415.012 6        37.977 6
G26  20671180.242 7 108627762.968 7     -1526.437 7        47.582 7  20671183.065 6         0.000 6     -1189.432 6        37.977 6
G20  21915738.586 7 115167950.753 7      2507.909 7        43.289 7  21915738.891 6         0.000 6      1954.216 6        37.977 6
> 2019 07 03 12 01 59.0000000  0  8       0.000000000000
G07  25322197.935 5 133069002.407 5      2198.117 5        33.368 5  25322198.592 6         0.000 6      1712.819 6        37.977 6
G10  23769666.054 6 124910384.148 6      3486.327 6        38.143 6  23769669.742 6         0.000 6      2716.621 6        37.977 6
G21  21185363.287 7 111329814.773 7     -1278.475 7        47.790 7  21185362.576 6         0.000 6      -996.215 6        37.977 6
G29  24335687.020 5 127884841.437 5     -3154.338 5        35.598 5  24335688.632 6         0.000 6     -2457.928 6        37.977 6
G27  21976037.841 7 115484831.475 7      2513.179 7        43.147 7  21976039.763 6         0.000 6      1958.322 6        37.977 6
G16  20490924.919 8 107680516.923 8       531.977 8        48.149 8  20490924.092 6         0.000 6       414.527 6        37.977 6
G26  20671470.769 7 108629289.693 7     -1527.018 7        47.582 7  20671473.591 6         0.000 6     -1189.884 6        37.977 6
G20  21915261.390 7 115165443.077 7      2507.459 7        43.289 7  21915261.695 6         0.000 6      1953.865 6        37.977 6
