     3.00           Observation Data    M (Mixed)           RINEX VERSION / TYPE
SimGEN V6.06.00     Spirent             03-Jul-19 12:00     PGM / RUN BY / DATE 
                                                            MARKER NAME         
1                                                           MARKER NUMBER       
GROUND_CRAFT                                                MARKER TYPE         
                    Spirent                                 OBSERVER / AGENCY   
rec_num             rec_type            rec_vers            REC # / TYPE / VERS 
1                   ant_type                                ANT # / TYPE        
  1000.000                                                  INTERVAL            
  2019     7     3    12     0    0.0000000     GPS         TIME OF FIRST OBS   
  4162641.8530   663985.6010  4770616.8250                  APPROX POSITION XYZ 
        0.0000        0.0000        0.0000                  ANTENNA: DELTA H/E/N
G    8 C1C L1C D1C S1C C2C L2C D2C S2C                      SYS / # / OBS TYPES 
        0.0000        0.0000        0.0000                  ANTENNA: DELTA X/Y/Z
DBHZ                                                        SIGNAL STRENGTH UNIT
                                                            END OF HEADER       
> 2019 07 03 12 00  0.0000000  0  8       0.000000000000
G07  25371730.150 9 133329295.524 9      2226.398 9        54.123 9  25371730.833 6         0.000 6      1734.855 6        37.977 6
G10  23849605.080 9 125330465.295 9      3528.738 9        54.655 9  23849608.846 6         0.000 6      2749.666 6        37.977 6
G21  21156931.450 9 111180404.544 9     -1239.186 9        55.715 9  21156930.733 6         0.000 6      -965.600 6        37.977 6
G29  24264791.938 9 127512286.488 9     -3143.425 9        54.487 9  24264793.476 6         0.000 6     -2449.422 6        37.977 6
G27  22032794.183 9 115783087.743 9      2535.345 9        55.363 9  22032796.126 6         0.000 6      1975.594 6        37.977 6
G16  20503612.326 9 107747189.692 9       603.795 9        55.974 9  20503611.499 6         0.000 6       470.489 6        37.977 6
G26  20637947.814 9 108453125.586 9     -1446.141 9        55.880 9  20637950.624 6         0.000 6     -1126.863 6        37.977 6
G20  21973300.405 9 115470439.623 9      2577.846 9        55.304 9  21973300.743 6         0.000 6      2008.711 6        37.977 6
> 2019 07 03 12 00  1.0000000  0  8       0.000000000000
G07  25371305.856 9 133327065.849 9      2233.329 9        54.123 9  25371306.539 6         0.000 6      1740.257 6        37.977 6
G10  23848934.136 9 125326939.472 9      3522.560 9        54.655 9  23848937.902 6         0.000 6      2744.855 6        37.977 6
G21  21157167.514 9 111181645.067 9     -1241.995 9        55.715 9  21157166.797 6         0.000 6      -967.789 6        37.977 6
G29  24265390.919 9 127515434.142 9     -3152.380 9        54.487 9  24265392.457 6         0.000 6     -2456.403 6        37.977 6
G27  22032311.058 9 115780548.909 9      2542.765 9        55.363 9  22032313.001 6         0.000 6      1981.376 6        37.977 6
G16  20503497.171 9 107746584.547 9       606.702 9        55.974 9  20503496.344 6         0.000 6       472.755 6        37.977 6
G26  20638223.118 9 108454572.318 9     -1447.359 9        55.880 9  20638225.928 6         0.000 6     -1127.812 6        37.977 6
G20  21972810.494 9 115467865.124 9      2570.776 9        55.304 9  21972810.832 6         0.000 6      2003.204 6        37.977 6
> 2019 07 03 12 00  2.0000000  0  8       0.000000000000
G07  25370880.160 9 133324828.804 9      2240.717 9        54.123 9  25370880.843 6         0.000 6      1746.014 6        37.977 6
G10  23848264.449 9 125323420.254 9      3515.940 9        54.655 9  23848268.214 6         0.000 6      2739.697 6        37.977 6
G21  21157404.142 9 111182888.555 9     -1244.964 9        55.715 9  21157403.425 6         0.000 6      -970.102 6        37.977 6
G29  24265991.710 9 127518591.308 9     -3161.911 9        54.487 9  24265993.248 6         0.000 6     -2463.829 6        37.977 6
G27  22031826.425 9 115778002.149 9      2550.705 9        55.364 9  22031828.368 6         0.000 6      1987.563 6        37.977 6
G16  20503381.417 9 107745976.257 9       609.851 9        55.974 9  20503380.590 6         0.000 6       475.208 6        37.977 6
G26  20638498.662 9 108456020.308 9     -1448.621 9        55.880 9  20638501.472 6         0.000 6     -1128.796 6        37.977 6
G20  21972322.012 9 115465298.141 9      2563.246 9        55.304 9  21972322.350 6         0.000 6      1997.335 6        37.977 6
> 2019 07 03 12 00  3.0000000  0  8       0.000000000000
G07  25370453.177 9 133322584.996 9      2246.443 9        54.123 9  25370453.859 6         0.000 6      1750.476 6        37.977 6
G10  23847595.923 9 125319907.137 9      3510.693 9        54.655 9  23847599.687 6         0.000 6      2735.607 6        37.977 6
G21  21157641.294 9 111184134.799 9     -1247.369 9        55.715 9  21157640.578 6         0.000 6      -971.976 6        37.977 6
G29  24266594.169 9 127521757.243 9     -3169.405 9        54.487 9  24266595.708 6         0.000 6     -2469.669 6        37.977 6
G27  22031340.407 9 115775448.108 9      2556.885 9        55.364 9  22031342.349 6         0.000 6      1992.378 6        37.977 6
G16  20503265.122 9 107745365.123 9       612.186 9        55.974 9  20503264.295 6         0.000 6       477.028 6        37.977 6
G26  20638774.436 9 108457469.508 9     -1449.752 9        55.880 9  20638777.246 6         0.000 6     -1129.677 6        37.977 6
G20  21971834.855 9 115462738.119 9      2557.228 9        55.305 9  21971835.192 6         0.000 6      1992.646 6        37.977 6
> 2019 07 03 12 00  4.0000000  0  8       0.000000000000
G07  25370025.320 9 133320336.599 9      2250.059 9        54.124 9  25370026.003 6         0.000 6      1753.294 6        37.977 6
G10  23846928.219 9 125316398.336 9      3507.179 9        54.656 9  23846931.982 6         0.000 6      2732.869 6        37.977 6
G21  21157878.830 9 111185383.058 9     -1249.040 9        55.715 9  21157878.113 6         0.000 6      -973.278 6        37.977 6
G29  24267197.786 9 127524929.260 9     -3174.271 9        54.487 9  24267199.325 6         0.000 6     -2473.460 6        37.977 6
G27  22030853.445 9 115772889.108 9      2560.800 9        55.364 9  22030855.387 6         0.000 6      1995.429 6        37.977 6
G16  20503148.490 9 107744752.220 9       613.474 9        55.974 9  20503147.664 6         0.000 6       478.032 6        37.977 6
G26  20639050.410 9 108458919.759 9     -1450.729 9        55.880 9  20639053.220 6         0.000 6     -1130.439 6        37.977 6
G20  21971348.647 9 115460183.080 9      2553.136 9        55.305 9  21971348.984 6         0.000 6      1989.457 6        37.977 6
> 2019 07 03 12 00  5.0000000  0  8       0.000000000000
G07  25369596.913 9 133318085.309 9      2252.343 9        54.124 9  25369597.595 6         0.000 6      1755.074 6        37.977 6
G10  23846261.070 9 125312892.458 9      3504.749 9        54.656 9  23846264.833 6         0.000 6      2730.976 6        37.977 6
G21  21158116.634 9 111186632.725 9     -1250.221 9        55.714 9  21158115.917 6         0.000 6      -974.198 6        37.977 6
G29  24267802.152 9 127528105.215 9     -3177.408 9        54.486 9  24267803.692 6         0.000 6     -2475.905 6        37.977 6
G27  22030365.889 9 115770326.985 9      2563.239 9        55.364 9  22030367.830 6         0.000 6      1997.330 6        37.977 6
G16  20503031.683 9 107744138.396 9       614.078 9        55.974 9  20503030.857 6         0.000 6       478.502 6        37.977 6
G26  20639326.561 9 108460370.941 9     -1451.630 9        55.879 9  20639329.371 6         0.000 6     -1131.141 6        37.977 6
G20  21970863.090 9 115457631.468 9      2550.272 9        55.305 9  21970863.427 6         0.000 6      1987.226 6        37.977 6
> 2019 07 03 12 00  6.0000000  0  8       0.000000000000
G07  25369168.157 9 133315832.184 9      2253.790 9        54.124 9  25369168.839 6         0.000 6      1756.201 6        37.977 6
G10  23845594.315 9 125309388.647 9      3502.993 9        54.656 9  23845598.077 6         0.000 6      2729.608 6        37.977 6
G21  21158354.629 9 111187883.394 9     -1251.068 9        55.714 9  21158353.912 6         0.000 6      -974.858 6        37.977 6
G29  24268406.998 9 127531283.696 9     -3179.402 9        54.486 9  24268408.539 6         0.000 6     -2477.458 6        37.977 6
G27  22029877.966 9 115767762.938 9      2564.716 9        55.364 9  22029879.908 6         0.000 6      1998.481 6        37.977 6
G16  20502914.807 9 107743524.205 9       614.236 9        55.974 9  20502913.980 6         0.000 6       478.626 6        37.977 6
G26  20639602.880 9 108461823.005 9     -1452.498 9        55.879 9  20639605.690 6         0.000 6     -1131.817 6        37.977 6
G20  21970377.998 9 115455082.298 9      2548.192 9        55.305 9  21970378.335 6         0.000 6      1985.605 6        37.977 6
> 2019 07 03 12 00  7.0000000  0  8       0.000000000000
G07  25368739.179 9 133313577.889 9      2254.738 9        54.124 9  25368739.860 6         0.000 6      1756.939 6        37.977 6
G10  23844927.852 9 125305886.373 9      3501.627 9        54.656 9  23844931.614 6         0.000 6      2728.543 6        37.977 6
G21  21158592.760 9 111189134.785 9     -1251.685 9        55.714 9  21158592.044 6         0.000 6      -975.339 6        37.977 6
G29  24269012.145 9 127534463.755 9     -3180.632 9        54.486 9  24269013.687 6         0.000 6     -2478.417 6        37.977 6
G27  22029389.828 9 115765197.759 9      2565.561 9        55.364 9  22029391.770 6         0.000 6      1999.139 6        37.977 6
G16  20502797.931 9 107742910.017 9       614.098 9        55.974 9  20502797.104 6         0.000 6       478.518 6        37.977 6
G26  20639879.364 9 108463275.939 9     -1453.375 9        55.879 9  20639882.175 6         0.000 6     -1132.501 6        37.977 6
G20  21969893.252 9 115452534.942 9      2546.594 9        55.305 9  21969893.588 6         0.000 6      1984.360 6        37.977 6
> 2019 07 03 12 00  8.0000000  0  8       0.000000000000
G07  25368310.052 9 133311322.816 9      2255.374 9        54.124 9  25368310.733 6         0.000 6      1757.435 6        37.977 6
G10  23844261.626 9 125302385.338 9      3500.495 9        54.657 9  23844265.386 6         0.000 6      2727.661 6        37.977 6
G21  21158830.994 9 111190386.708 9     -1252.140 9        55.714 9  21158830.277 6         0.000 6      -975.694 6        37.977 6
G29  24269617.474 9 127537644.768 9     -3181.339 9        54.486 9  24269619.016 6         0.000 6     -2478.968 6        37.977 6
G27  22028901.572 9 115762631.960 9      2565.979 9        55.365 9  22028903.514 6         0.000 6      1999.465 6        37.977 6
G16  20502681.101 9 107742296.074 9       613.758 9        55.974 9  20502680.274 6         0.000 6       478.253 6        37.977 6
G26  20640156.017 9 108464729.758 9     -1454.273 9        55.879 9  20640158.828 6         0.000 6     -1133.200 6        37.977 6
G20  21969408.778 9 115449989.019 9      2545.304 9        55.306 9  21969409.114 6         0.000 6      1983.355 6        37.977 6
> 2019 07 03 12 00  9.0000000  0  8       0.000000000000
G07  25367880.821 9 133309067.199 9      2255.842 9        54.124 9  25367881.503 6         0.000 6      1757.800 6        37.977 6
G10  23843595.602 9 125298885.372 9      3499.480 9        54.657 9  23843599.362 6         0.000 6      2726.871 6        37.977 6
G21  21159069.302 9 111191639.024 9     -1252.472 9        55.714 9  21159068.585 6         0.000 6      -975.953 6        37.977 6
G29  24270222.901 9 127540826.296 9     -3181.684 9        54.485 9  24270224.443 6         0.000 6     -2479.237 6        37.977 6
G27  22028413.266 9 115760065.895 9      2566.118 9        55.365 9  22028415.207 6         0.000 6      1999.573 6        37.977 6
G16  20502564.350 9 107741682.543 9       613.287 9        55.974 9  20502563.523 6         0.000 6       477.886 6        37.977 6
G26  20640432.844 9 108466184.494 9     -1455.203 9        55.879 9  20640435.655 6         0.000 6     -1133.925 6        37.977 6
G20  21968924.531 9 115447444.288 9      2544.197 9        55.306 9  21968924.866 6         0.000 6      1982.492 6        37.977 6
> 2019 07 03 12 00 10.0000000  0  8       0.000000000000
G07  25367451.512 9 133306811.167 9      2256.218 9        54.125 9  25367452.193 6         0.000 6      1758.093 6        37.977 6
G10  23842929.765 9 125295386.387 9      3498.517 9        54.657 9  23842933.525 6         0.000 6      2726.120 6        37.977 6
G21  21159307.663 9 111192891.621 9     -1252.712 9        55.714 9  21159306.946 6         0.000 6      -976.140 6        37.977 6
G29  24270828.366 9 127544008.026 9     -3181.761 9        54.485 9  24270829.909 6         0.000 6     -2479.297 6        37.977 6
G27  22027924.953 9 115757499.799 9      2566.053 9        55.365 9  22027926.894 6         0.000 6      1999.523 6        37.977 6
G16  20502447.699 9 107741069.535 9       612.716 9        55.974 9  20502446.872 6         0.000 6       477.441 6        37.977 6
G26  20640709.852 9 108467640.179 9     -1456.177 9        55.879 9  20640712.663 6         0.000 6     -1134.684 6        37.977 6
G20  21968440.482 9 115444900.600 9      2543.201 9        55.306 9  21968440.817 6         0.000 6      1981.716 6        37.977 6
> 2019 07 03 12 00 11.0000000  0  8       0.000000000000
G07  25367022.135 9 133304554.780 9      2256.559 9        54.125 9  25367022.816 6         0.000 6      1758.359 6        37.977 6
G10  23842264.110 9 125291888.357 9      3497.561 9        54.657 9  23842267.869 6         0.000 6      2725.375 6        37.977 6
G21  21159546.062 9 111194144.417 9     -1252.875 9        55.714 9  21159545.346 6         0.000 6      -976.266 6        37.977 6
G29  24271433.826 9 127547189.732 9     -3181.639 9        54.485 9  24271435.370 6         0.000 6     -2479.202 6        37.977 6
G27  22027436.667 9 115754933.837 9      2565.848 9        55.365 9  22027438.607 6         0.000 6      1999.363 6        37.977 6
G16  20502331.162 9 107740457.129 9       612.078 9        55.974 9  20502330.335 6         0.000 6       476.944 6        37.977 6
G26  20640987.049 9 108469096.856 9     -1457.194 9        55.879 9  20640989.860 6         0.000 6     -1135.476 6        37.977 6
G20  21967956.616 9 115442357.873 9      2542.268 9        55.306 9  21967956.951 6         0.000 6      1980.989 6        37.977 6
> 2019 07 03 12 00 12.0000000  0  8       0.000000000000
G07  25366592.695 9 133302298.061 9      2256.885 9        54.125 9  25366593.376 6         0.000 6      1758.613 6        37.977 6
G10  23841598.638 9 125288391.290 9      3496.596 9        54.658 9  23841602.396 6         0.000 6      2724.623 6        37.977 6
G21  21159784.487 9 111195397.349 9     -1252.975 9        55.714 9  21159783.771 6         0.000 6      -976.344 6        37.977 6
G29  24272039.247 9 127550371.230 9     -3181.356 9        54.485 9  24272040.792 6         0.000 6     -2478.981 6        37.977 6
G27  22026948.431 9 115752368.146 9      2565.531 9        55.365 9  22026950.372 6         0.000 6      1999.116 6        37.977 6
G16  20502214.753 9 107739845.399 9       611.383 9        55.974 9  20502213.926 6         0.000 6       476.403 6        37.977 6
G26  20641264.445 9 108470554.580 9     -1458.256 9        55.879 9  20641267.256 6         0.000 6     -1136.304 6        37.977 6
G20  21967472.925 9 115439816.061 9      2541.374 9        55.306 9  21967473.259 6         0.000 6      1980.293 6        37.977 6
> 2019 07 03 12 00 13.0000000  0  8       0.000000000000
G07  25366163.193 9 133300041.015 9      2257.213 9        54.125 9  25366163.873 6         0.000 6      1758.868 6        37.977 6
G10  23840933.353 9 125284895.200 9      3495.604 9        54.658 9  23840937.110 6         0.000 6      2723.850 6        37.977 6
G21  21160022.925 9 111196650.348 9     -1253.016 9        55.714 9  21160022.209 6         0.000 6      -976.377 6        37.977 6
G29  24272644.599 9 127553552.369 9     -3180.922 9        54.485 9  24272646.145 6         0.000 6     -2478.643 6        37.977 6
G27  22026460.266 9 115749802.821 9      2565.111 9        55.366 9  22026462.206 6         0.000 6      1998.788 6        37.977 6
G16  20502098.481 9 107739234.385 9       610.635 9        55.975 9  20502097.654 6         0.000 6       475.820 6        37.977 6
G26  20641542.047 9 108472013.388 9     -1459.370 9        55.878 9  20641544.858 6         0.000 6     -1137.172 6        37.977 6
G20  21966989.400 9 115437275.128 9      2540.505 9        55.307 9  21966989.735 6         0.000 6      1979.615 6        37.977 6
> 2019 07 03 12 00 14.0000000  0  8       0.000000000000
G07  25365733.626 9 133297783.632 9      2257.547 9        54.125 9  25365734.306 6         0.000 6      1759.129 6        37.977 6
G10  23840268.259 9 125281400.120 9      3494.588 9        54.658 9  23840272.016 6         0.000 6      2723.058 6        37.977 6
G21  21160261.365 9 111197903.358 9     -1253.000 9        55.714 9  21160260.649 6         0.000 6      -976.364 6        37.977 6
G29  24273249.857 9 127556733.007 9     -3180.356 9        54.484 9  24273251.403 6         0.000 6     -2478.202 6        37.977 6
G27  22025972.188 9 115747237.958 9      2564.605 9        55.366 9  22025974.128 6         0.000 6      1998.394 6        37.977 6
G16  20501982.356 9 107738624.142 9       609.845 9        55.975 9  20501981.529 6         0.000 6       475.204 6        37.977 6
G26  20641819.866 9 108473473.334 9     -1460.525 9        55.878 9  20641822.677 6         0.000 6     -1138.072 6        37.977 6
G20  21966506.040 9 115434735.057 9      2539.658 9        55.307 9  21966506.374 6         0.000 6      1978.956 6        37.977 6
> 2019 07 03 12 00 15.0000000  0  8       0.000000000000
G07  25365303.998 9 133295525.921 9      2257.883 9        54.125 9  25365304.677 6         0.000 6      1759.390 6        37.977 6
G10  23839603.359 9 125277906.059 9      3493.551 9        54.658 9  23839607.115 6         0.000 6      2722.250 6        37.977 6
G21  21160499.798 9 111199156.329 9     -1252.934 9        55.714 9  21160499.082 6         0.000 6      -976.312 6        37.977 6
G29  24273854.994 9 127559913.017 9     -3179.664 9        54.484 9  24273856.541 6         0.000 6     -2477.663 6        37.977 6
G27  22025484.215 9 115744673.644 9      2564.015 9        55.366 9  22025486.155 6         0.000 6      1997.935 6        37.977 6
G16  20501866.385 9 107738014.710 9       609.011 9        55.975 9  20501865.558 6         0.000 6       474.554 6        37.977 6
G26  20642097.908 9 108474934.452 9     -1461.722 9        55.878 9  20642100.719 6         0.000 6     -1139.005 6        37.977 6
G20  21966022.838 9 115432195.818 9      2538.832 9        55.307 9  21966023.172 6         0.000 6      1978.312 6        37.977 6
> 2019 07 03 12 00 16.0000000  0  8       0.000000000000
G07  25364874.305 9 133293267.877 9      2258.214 9        54.125 9  25364874.985 6         0.000 6      1759.648 6        37.977 6
G10  23838938.658 9 125274413.043 9      3492.499 9        54.659 9  23838942.414 6         0.000 6      2721.431 6        37.977 6
G21  21160738.213 9 111200409.208 9     -1252.815 9        55.713 9  21160737.497 6         0.000 6      -976.220 6        37.977 6
G29  24274459.988 9 127563092.270 9     -3178.843 9        54.484 9  24274461.535 6         0.000 6     -2477.023 6        37.977 6
G27  22024996.362 9 115742109.965 9      2563.338 9        55.366 9  22024998.302 6         0.000 6      1997.407 6        37.977 6
G16  20501750.577 9 107737406.136 9       608.134 9        55.975 9  20501749.750 6         0.000 6       473.870 6        37.977 6
G26  20642376.181 9 108476396.788 9     -1462.958 9        55.878 9  20642378.993 6         0.000 6     -1139.968 6        37.977 6
G20  21965539.791 9 115429657.391 9      2538.034 9        55.307 9  21965540.124 6         0.000 6      1977.690 6        37.977 6
> 2019 07 03 12 00 17.0000000  0  8       0.000000000000
G07  25364444.550 9 133291009.503 9      2258.530 9        54.126 9  25364445.230 6         0.000 6      1759.895 6        37.977 6
G10  23838274.159 9 125270921.088 9      3491.441 9        54.659 9  23838277.914 6         0.000 6      2720.606 6        37.977 6
G21  21160976.599 9 111201661.937 9     -1252.639 9        55.713 9  21160975.883 6         0.000 6      -976.082 6        37.977 6
G29  24275064.811 9 127566270.629 9     -3177.877 9        54.484 9  24275066.359 6         0.000 6     -2476.271 6        37.977 6
G27  22024508.648 9 115739547.013 9      2562.560 9        55.366 9  22024510.588 6         0.000 6      1996.801 6        37.977 6
G16  20501634.940 9 107736798.463 9       607.206 9        55.975 9  20501634.114 6         0.000 6       473.148 6        37.977 6
G26  20642654.694 9 108477860.382 9     -1464.232 9        55.878 9  20642657.506 6         0.000 6     -1140.961 6        37.977 6
G20  21965056.892 9 115427119.748 9      2537.273 9        55.307 9  21965057.226 6         0.000 6      1977.097 6        37.977 6
> 2019 07 03 12 00 18.0000000  0  8       0.000000000000
G07  25364014.736 9 133288750.819 9      2258.830 9        54.126 9  25364015.415 6         0.000 6      1760.128 6        37.977 6
G10  23837609.862 9 125267430.194 9      3490.378 9        54.659 9  23837613.616 6         0.000 6      2719.777 6        37.977 6
G21  21161214.947 9 111202914.460 9     -1252.408 9        55.713 9  21161214.231 6         0.000 6      -975.903 6        37.977 6
G29  24275669.438 9 127569447.953 9     -3176.770 9        54.483 9  24275670.986 6         0.000 6     -2475.408 6        37.977 6
G27  22024021.090 9 115736984.882 9      2561.683 9        55.367 9  22024023.030 6         0.000 6      1996.118 6        37.977 6
G16  20501519.485 9 107736191.739 9       606.228 9        55.975 9  20501518.658 6         0.000 6       472.386 6        37.977 6
G26  20642933.453 9 108479325.266 9     -1465.545 9        55.878 9  20642936.265 6         0.000 6     -1141.983 6        37.977 6
G20  21964574.135 9 115424582.847 9      2536.548 9        55.307 9  21964574.468 6         0.000 6      1976.532 6        37.977 6
> 2019 07 03 12 00 19.0000000  0  8       0.000000000000
G07  25363584.869 9 133286491.856 9      2259.090 9        54.126 9  25363585.548 6         0.000 6      1760.330 6        37.977 6
G10  23836945.766 9 125263940.357 9      3489.331 9        54.659 9  23836949.520 6         0.000 6      2718.962 6        37.977 6
G21  21161453.245 9 111204166.726 9     -1252.116 9        55.713 9  21161452.529 6         0.000 6      -975.675 6        37.977 6
G29  24276273.838 9 127572624.086 9     -3175.502 9        54.483 9  24276275.387 6         0.000 6     -2474.420 6        37.977 6
G27  22023533.712 9 115734423.694 9      2560.691 9        55.367 9  22023535.651 6         0.000 6      1995.344 6        37.977 6
G16  20501404.222 9 107735586.027 9       605.195 9        55.975 9  20501403.395 6         0.000 6       471.581 6        37.977 6
G26  20643212.465 9 108480791.484 9     -1466.888 9        55.878 9  20643215.277 6         0.000 6     -1143.030 6        37.977 6
G20  21964091.511 9 115422046.644 9      2535.882 9        55.308 9  21964091.844 6         0.000 6      1976.013 6        37.977 6
> 2019 07 03 12 00 20.0000000  0  8       0.000000000000
G07  25363154.958 9 133284232.662 9      2259.286 9        54.126 9  25363155.637 6         0.000 6      1760.484 6        37.977 6
G10  23836281.866 9 125260451.548 9      3488.323 9        54.660 9  23836285.619 6         0.000 6      2718.177 6        37.977 6
G21  21161691.482 9 111205418.670 9     -1251.770 9        55.713 9  21161690.766 6         0.000 6      -975.406 6        37.977 6
G29  24276877.982 9 127575798.875 9     -3174.074 9        54.483 9  24276879.532 6         0.000 6     -2473.307 6        37.977 6
G27  22023046.532 9 115731863.552 9      2559.576 9        55.367 9  22023048.472 6         0.000 6      1994.475 6        37.977 6
G16  20501289.160 9 107734981.373 9       604.101 9        55.975 9  20501288.333 6         0.000 6       470.728 6        37.977 6
G26  20643491.734 9 108482259.052 9     -1468.254 9        55.878 9  20643494.546 6         0.000 6     -1144.094 6        37.977 6
G20  21963609.007 9 115419511.071 9      2535.287 9        55.308 9  21963609.339 6         0.000 6      1975.550 6        37.977 6
> 2019 07 03 12 00 21.0000000  0  8       0.000000000000
G07  25362725.017 9 133281973.308 9      2259.408 9        54.126 9  25362725.695 6         0.000 6      1760.579 6        37.977 6
G10  23835618.153 9 125256963.721 9      3487.367 9        54.660 9  23835621.905 6         0.000 6      2717.431 6        37.977 6
G21  21161929.648 9 111206670.237 9     -1251.363 9        55.713 9  21161928.932 6         0.000 6      -975.088 6        37.977 6
G29  24277481.839 9 127578972.151 9     -3172.478 9        54.483 9  24277483.389 6         0.000 6     -2472.064 6        37.977 6
G27  22022559.578 9 115729304.590 9      2558.335 9        55.367 9  22022561.517 6         0.000 6      1993.508 6        37.977 6
G16  20501174.311 9 107734377.841 9       602.950 9        55.975 9  20501173.484 6         0.000 6       469.831 6        37.977 6
G26  20643771.265 9 108483727.994 9     -1469.634 9        55.878 9  20643774.077 6         0.000 6     -1145.170 6        37.977 6
G20  21963126.608 9 115416976.051 9      2534.777 9        55.308 9  21963126.940 6         0.000 6      1975.152 6        37.977 6
> 2019 07 03 12 00 22.0000000  0  8       0.000000000000
G07  25362295.062 9 133279713.883 9      2259.432 9        54.126 9  25362295.740 6         0.000 6      1760.597 6        37.977 6
G10  23834954.615 9 125253476.817 9      3486.479 9        54.660 9  23834958.366 6         0.000 6      2716.740 6        37.977 6
G21  21162167.731 9 111207921.374 9     -1250.901 9        55.713 9  21162167.015 6         0.000 6      -974.728 6        37.977 6
G29  24278085.374 9 127582143.742 9     -3170.700 9        54.483 9  24278086.925 6         0.000 6     -2470.678 6        37.977 6
G27  22022072.874 9 115726746.946 9      2556.944 9        55.367 9  22022074.812 6         0.000 6      1992.425 6        37.977 6
G16  20501059.690 9 107733775.504 9       601.724 9        55.975 9  20501058.863 6         0.000 6       468.876 6        37.977 6
G26  20644051.061 9 108485198.329 9     -1471.032 9        55.877 9  20644053.873 6         0.000 6     -1146.259 6        37.977 6
G20  21962644.297 9 115414441.494 9      2534.364 9        55.308 9  21962644.628 6         0.000 6      1974.830 6        37.977 6
> 2019 07 03 12 00 23.0000000  0  8       0.000000000000
G07  25361865.113 9 133277454.493 9      2259.335 9        54.126 9  25361865.791 6         0.000 6      1760.521 6        37.977 6
G10  23834291.237 9 125249990.754 9      3485.688 9        54.660 9  23834294.988 6         0.000 6      2716.123 6        37.977 6
G21  21162405.720 9 111209172.014 9     -1250.378 9        55.713 9  21162405.004 6         0.000 6      -974.321 6        37.977 6
G29  24278688.553 9 127585313.457 9     -3168.738 9        54.482 9  24278690.104 6         0.000 6     -2469.149 6        37.977 6
G27  22021586.448 9 115724190.767 9      2555.407 9        55.368 9  22021588.387 6         0.000 6      1991.227 6        37.977 6
G16  20500945.308 9 107733174.423 9       600.431 9        55.975 9  20500944.481 6         0.000 6       467.868 6        37.977 6
G26  20644331.122 9 108486670.060 9     -1472.427 9        55.877 9  20644333.935 6         0.000 6     -1147.346 6        37.977 6
G20  21962162.053 9 115411907.290 9      2534.070 9        55.308 9  21962162.384 6         0.000 6      1974.601 6        37.977 6
> 2019 07 03 12 00 24.0000000  0  8       0.000000000000
G07  25361435.197 9 133275195.272 9      2259.089 9        54.127 9  25361435.875 6         0.000 6      1760.330 6        37.977 6
G10  23833627.999 9 125246505.427 9      3485.015 9        54.661 9  23833631.749 6         0.000 6      2715.599 6        37.977 6
G21  21162643.606 9 111210422.112 9     -1249.807 9        55.713 9  21162642.890 6         0.000 6      -973.876 6        37.977 6
G29  24279291.342 9 127588481.124 9     -3166.592 9        54.482 9  24279292.894 6         0.000 6     -2467.477 6        37.977 6
G27  22021100.331 9 115721636.204 9      2553.708 9        55.368 9  22021102.269 6         0.000 6      1989.903 6        37.977 6
G16  20500831.180 9 107732574.676 9       599.061 9        55.975 9  20500830.353 6         0.000 6       466.801 6        37.977 6
G26  20644611.449 9 108488143.186 9     -1473.816 9        55.877 9  20644614.262 6         0.000 6     -1148.429 6        37.977 6
G20  21961679.853 9 115409373.319 9      2533.908 9        55.309 9  21961680.184 6         0.000 6      1974.475 6        37.977 6
> 2019 07 03 12 00 25.0000000  0  8       0.000000000000
G07  25361005.343 9 133272936.375 9      2258.681 9        54.127 9  25361006.020 6         0.000 6      1760.012 6        37.977 6
G10  23832964.877 9 125243020.705 9      3484.477 9        54.661 9  23832968.626 6         0.000 6      2715.179 6        37.977 6
G21  21162881.376 9 111211671.602 9     -1249.174 9        55.713 9  21162880.660 6         0.000 6      -973.383 6        37.977 6
G29  24279893.702 9 127591646.537 9     -3164.241 9        54.482 9  24279895.254 6         0.000 6     -2465.645 6        37.977 6
G27  22020614.552 9 115719083.425 9      2551.838 9        55.368 9  22020616.491 6         0.000 6      1988.446 6        37.977 6
G16  20500717.320 9 107731976.334 9       597.614 9        55.975 9  20500716.493 6         0.000 6       465.673 6        37.977 6
G26  20644892.039 9 108489617.692 9     -1475.191 9        55.877 9  20644894.851 6         0.000 6     -1149.500 6        37.977 6
G20  21961197.670 9 115406839.432 9      2533.896 9        55.309 9  21961198.001 6         0.000 6      1974.466 6        37.977 6
> 2019 07 03 12 00 26.0000000  0  8       0.000000000000
G07  25360575.585 9 133270677.984 9      2258.075 9        54.127 9  25360576.262 6         0.000 6      1759.540 6        37.977 6
G10  23832301.841 9 125239536.440 9      3484.107 9        54.661 9  23832305.590 6         0.000 6      2714.891 6        37.977 6
G21  21163119.023 9 111212920.442 9     -1248.495 9        55.712 9  21163118.307 6         0.000 6      -972.854 6        37.977 6
G29  24280495.597 9 127594809.510 9     -3161.698 9        54.482 9  24280497.151 6         0.000 6     -2463.663 6        37.977 6
G27  22020129.146 9 115716532.602 9      2549.792 9        55.368 9  22020131.085 6         0.000 6      1986.852 6        37.977 6
G16  20500603.742 9 107731379.482 9       596.085 9        55.975 9  20500602.915 6         0.000 6       464.482 6        37.977 6
G26  20645172.887 9 108491093.560 9     -1476.536 9        55.877 9  20645175.700 6         0.000 6     -1150.548 6        37.977 6
G20  21960715.473 9 115404305.477 9      2534.053 9        55.309 9  21960715.804 6         0.000 6      1974.588 6        37.977 6
> 2019 07 03 12 00 27.0000000  0  8       0.000000000000
G07  25360145.963 9 133268420.312 9      2257.247 9        54.127 9  25360146.640 6         0.000 6      1758.895 6        37.977 6
G10  23831638.857 9 125236052.443 9      3483.932 9        54.661 9  23831642.605 6         0.000 6      2714.755 6        37.977 6
G21  21163356.534 9 111214168.573 9     -1247.769 9        55.712 9  21163355.818 6         0.000 6      -972.288 6        37.977 6
G29  24281096.990 9 127597969.839 9     -3158.963 9        54.482 9  24281098.544 6         0.000 6     -2461.532 6        37.977 6
G27  22019644.147 9 115713983.914 9      2547.569 9        55.368 9  22019646.085 6         0.000 6      1985.119 6        37.977 6
G16  20500490.463 9 107730784.194 9       594.479 9        55.975 9  20500489.636 6         0.000 6       463.230 6        37.977 6
G26  20645453.987 9 108492570.747 9     -1477.836 9        55.877 9  20645456.800 6         0.000 6     -1151.561 6        37.977 6
G20  21960233.228 9 115401771.266 9      2534.398 9        55.309 9  21960233.558 6         0.000 6      1974.857 6        37.977 6
> 2019 07 03 12 00 28.0000000  0  8       0.000000000000
G07  25359716.521 9 133266163.584 9      2256.171 9        54.127 9  25359717.198 6         0.000 6      1758.057 6        37.977 6
G10  23830975.886 9 125232568.521 9      3483.977 9        54.662 9  23830979.634 6         0.000 6      2714.790 6        37.977 6
G21  21163593.904 9 111215415.956 9     -1247.004 9        55.712 9  21163593.188 6         0.000 6      -971.691 6        37.977 6
G29  24281697.843 9 127601127.334 9     -3156.034 9        54.481 9  24281699.398 6         0.000 6     -2459.250 6        37.977 6
G27  22019159.588 9 115711437.543 9      2545.158 9        55.369 9  22019161.525 6         0.000 6      1983.241 6        37.977 6
G16  20500377.497 9 107730190.556 9       592.789 9        55.975 9  20500376.670 6         0.000 6       461.913 6        37.977 6
G26  20645735.330 9 108494049.211 9     -1479.082 9        55.877 9  20645738.143 6         0.000 6     -1152.532 6        37.977 6
G20  21959750.899 9 115399236.614 9      2534.946 9        55.309 9  21959751.229 6         0.000 6      1975.284 6        37.977 6
> 2019 07 03 12 00 29.0000000  0  8       0.000000000000
G07  25359287.310 9 133263908.067 9      2254.833 9        54.127 9  25359287.987 6         0.000 6      1757.014 6        37.977 6
G10  23830312.884 9 125229084.430 9      3484.259 9        54.662 9  23830316.630 6         0.000 6      2715.010 6        37.977 6
G21  21163831.124 9 111216662.559 9     -1246.205 9        55.712 9  21163830.409 6         0.000 6      -971.069 6        37.977 6
G29  24282298.122 9 127604281.810 9     -3152.930 9        54.481 9  24282299.677 6         0.000 6     -2456.831 6        37.977 6
G27  22018675.505 9 115708893.674 9      2542.571 9        55.369 9  22018677.443 6         0.000 6      1981.225 6        37.977 6
G16  20500264.861 9 107729598.648 9       591.022 9        55.975 9  20500264.034 6         0.000 6       460.536 6        37.977 6
G26  20646016.903 9 108495528.887 9     -1480.260 9        55.877 9  20646019.716 6         0.000 6     -1153.450 6        37.977 6
G20  21959268.445 9 115396701.305 9      2535.706 9        55.310 9  21959268.775 6         0.000 6      1975.876 6        37.977 6
> 2019 07 03 12 00 30.0000000  0  8       0.000000000000
G07  25358858.380 9 133261654.029 9      2253.197 9        54.127 9  25358859.056 6         0.000 6      1755.739 6        37.977 6
G10  23829649.803 9 125225599.929 9      3484.814 9        54.662 9  23829653.549 6         0.000 6      2715.442 6        37.977 6
G21  21164068.191 9 111217908.353 9     -1245.386 9        55.712 9  21164067.475 6         0.000 6      -970.431 6        37.977 6
G29  24282897.795 9 127607433.104 9     -3149.657 9        54.481 9  24282899.351 6         0.000 6     -2454.280 6        37.977 6
G27  22018191.931 9 115706352.477 9      2539.800 9        55.369 9  22018193.868 6         0.000 6      1979.066 6        37.977 6
G16  20500152.568 9 107729008.543 9       589.174 9        55.975 9  20500151.741 6         0.000 6       459.097 6        37.977 6
G26  20646298.693 9 108497009.701 9     -1481.355 9        55.877 9  20646301.506 6         0.000 6     -1154.303 6        37.977 6
G20  21958785.825 9 115394165.128 9      2536.697 9        55.310 9  21958786.155 6         0.000 6      1976.648 6        37.977 6
> 2019 07 03 12 00 31.0000000  0  8       0.000000000000
G07  25358429.792 9 133259401.788 9      2251.247 9        54.128 9  25358430.468 6         0.000 6      1754.219 6        37.977 6
G10  23828986.589 9 125222114.726 9      3485.663 9        54.662 9  23828990.334 6         0.000 6      2716.104 6        37.977 6
G21  21164305.101 9 111219153.322 9     -1244.551 9        55.712 9  21164304.385 6         0.000 6      -969.780 6        37.977 6
G29  24283496.830 9 127610581.044 9     -3146.234 9        54.481 9  24283498.386 6         0.000 6     -2451.613 6        37.977 6
G27  22017708.902 9 115703814.145 9      2536.860 9        55.369 9  22017710.839 6         0.000 6      1976.775 6        37.977 6
G16  20500040.634 9 107728420.328 9       587.258 9        55.975 9  20500039.807 6         0.000 6       457.604 6        37.977 6
G26  20646580.682 9 108498491.563 9     -1482.346 9        55.876 9  20646583.495 6         0.000 6     -1155.075 6        37.977 6
G20  21958302.994 9 115391627.838 9      2537.931 9        55.310 9  21958303.324 6         0.000 6      1977.610 6        37.977 6
> 2019 07 03 12 00 32.0000000  0  8       0.000000000000
G07  25358001.607 9 133257151.666 9      2248.962 9        54.128 9  25358002.283 6         0.000 6      1752.439 6        37.977 6
G10  23828323.182 9 125218628.512 9      3486.828 9        54.662 9  23828326.927 6         0.000 6      2717.012 6        37.977 6
G21  21164541.851 9 111220397.450 9     -1243.722 9        55.712 9  21164541.135 6         0.000 6      -969.134 6        37.977 6
G29  24284095.200 9 127613725.491 9     -3142.690 9        54.480 9  24284096.757 6         0.000 6     -2448.852 6        37.977 6
G27  22017226.447 9 115701278.834 9      2533.759 9        55.369 9  22017228.385 6         0.000 6      1974.358 6        37.977 6
G16  20499929.071 9 107727834.059 9       585.274 9        55.975 9  20499928.244 6         0.000 6       456.058 6        37.977 6
G26  20646862.848 9 108499974.354 9     -1483.223 9        55.876 9  20646865.661 6         0.000 6     -1155.758 6        37.977 6
G20  21957819.903 9 115389089.182 9      2539.412 9        55.310 9  21957820.232 6         0.000 6      1978.764 6        37.977 6
> 2019 07 03 12 00 33.0000000  0  8       0.000000000000
G07  25357573.890 9 133254904.001 9      2246.326 9        54.128 9  25357574.566 6         0.000 6      1750.384 6        37.977 6
G10  23827659.523 9 125215140.969 9      3488.332 9        54.663 9  23827663.267 6         0.000 6      2718.184 6        37.977 6
G21  21164778.444 9 111221640.757 9     -1242.896 9        55.712 9  21164777.729 6         0.000 6      -968.491 6        37.977 6
G29  24284692.886 9 127616866.343 9     -3139.037 9        54.480 9  24284694.444 6         0.000 6     -2446.006 6        37.977 6
G27  22016744.598 9 115698746.700 9      2530.510 9        55.369 9  22016746.535 6         0.000 6      1971.826 6        37.977 6
G16  20499817.891 9 107727249.805 9       583.236 9        55.975 9  20499817.064 6         0.000 6       454.470 6        37.977 6
G26  20647145.169 9 108501457.960 9     -1483.962 9        55.876 9  20647147.983 6         0.000 6     -1156.335 6        37.977 6
G20  21957336.507 9 115386548.922 9      2541.155 9        55.310 9  21957336.836 6         0.000 6      1980.122 6        37.977 6
> 2019 07 03 12 00 34.0000000  0  8       0.000000000000
G07  25357146.709 9 133252659.151 9      2243.332 9        54.128 9  25357147.384 6         0.000 6      1748.052 6        37.977 6
G10  23826995.544 9 125211651.747 9      3490.182 9        54.663 9  23826999.288 6         0.000 6      2719.625 6        37.977 6
G21  21165014.883 9 111222883.249 9     -1242.110 9        55.712 9  21165014.167 6         0.000 6      -967.878 6        37.977 6
G29  24285289.871 9 127620003.507 9     -3135.326 9        54.480 9  24285291.429 6         0.000 6     -2443.113 6        37.977 6
G27  22016263.379 9 115696217.878 9      2527.132 9        55.370 9  22016265.315 6         0.000 6      1969.195 6        37.977 6
G16  20499707.103 9 107726667.612 9       581.145 9        55.976 9  20499706.276 6         0.000 6       452.840 6        37.977 6
G26  20647427.617 9 108502942.230 9     -1484.562 9        55.876 9  20647430.430 6         0.000 6     -1156.802 6        37.977 6
G20  21956852.755 9 115384006.790 9      2543.145 9        55.311 9  21956853.083 6         0.000 6      1981.673 6        37.977 6
> 2019 07 03 12 00 35.0000000  0  8       0.000000000000
G07  25356720.134 9 133250417.487 9      2239.966 9        54.128 9  25356720.809 6         0.000 6      1745.429 6        37.977 6
G10  23826331.177 9 125208160.486 9      3492.404 9        54.663 9  23826334.920 6         0.000 6      2721.357 6        37.977 6
G21  21165251.176 9 111224124.975 9     -1241.361 9        55.712 9  21165250.460 6         0.000 6      -967.295 6        37.977 6
G29  24285886.145 9 127623136.937 9     -3131.583 9        54.480 9  24285887.704 6         0.000 6     -2440.197 6        37.977 6
G27  22015782.813 9 115693692.492 9      2523.655 9        55.370 9  22015784.750 6         0.000 6      1966.485 6        37.977 6
G16  20499596.717 9 107726087.529 9       579.027 9        55.976 9  20499595.890 6         0.000 6       451.190 6        37.977 6
G26  20647710.163 9 108504427.017 9     -1484.987 9        55.876 9  20647712.976 6         0.000 6     -1157.133 6        37.977 6
G20  21956368.598 9 115381462.533 9      2545.399 9        55.311 9  21956368.926 6         0.000 6      1983.429 6        37.977 6
> 2019 07 03 12 00 36.0000000  0  8       0.000000000000
G07  25356294.232 9 133248179.362 9      2236.238 9        54.128 9  25356294.907 6         0.000 6      1742.524 6        37.977 6
G10  23825666.354 9 125204666.826 9      3494.992 9        54.663 9  23825670.096 6         0.000 6      2723.373 6        37.977 6
G21  21165487.332 9 111225365.986 9     -1240.679 9        55.711 9  21165486.617 6         0.000 6      -966.763 6        37.977 6
G29  24286481.709 9 127626266.639 9     -3127.862 9        54.480 9  24286483.269 6         0.000 6     -2437.298 6        37.977 6
G27  22015302.915 9 115691170.613 9      2520.109 9        55.370 9  22015304.851 6         0.000 6      1963.722 6        37.977 6
G16  20499486.735 9 107725509.572 9       576.890 9        55.976 9  20499485.908 6         0.000 6       449.525 6        37.977 6
G26  20647992.773 9 108505912.142 9     -1485.238 9        55.876 9  20647995.586 6         0.000 6     -1157.328 6        37.977 6
G20  21955883.990 9 115378915.907 9      2547.892 9        55.311 9  21955884.318 6         0.000 6      1985.371 6        37.977 6
> 2019 07 03 12 00 37.0000000  0  8       0.000000000000
G07  25355869.075 9 133245945.151 9      2232.147 9        54.128 9  25355869.750 6         0.000 6      1739.336 6        37.977 6
G10  23825001.002 9 125201170.390 9      3497.953 9        54.664 9  23825004.744 6         0.000 6      2725.681 6        37.977 6
G21  21165723.367 9 111226606.358 9     -1240.085 9        55.711 9  21165722.652 6         0.000 6      -966.300 6        37.977 6
G29  24287076.571 9 127629392.649 9     -3124.213 9        54.479 9  24287078.131 6         0.000 6     -2434.454 6        37.977 6
G27  22014823.697 9 115688652.308 9      2516.525 9        55.370 9  22014825.633 6         0.000 6      1960.929 6        37.977 6
G16  20499377.162 9 107724933.759 9       574.750 9        55.976 9  20499376.335 6         0.000 6       447.857 6        37.977 6
G26  20648275.413 9 108507397.427 9     -1485.297 9        55.876 9  20648278.227 6         0.000 6     -1157.375 6        37.977 6
G20  21955398.886 9 115376366.671 9      2550.616 9        55.311 9  21955399.213 6         0.000 6      1987.494 6        37.977 6
> 2019 07 03 12 00 38.0000000  0  8       0.000000000000
G07  25355444.730 9 133243715.204 9      2227.714 9        54.129 9  25355445.404 6         0.000 6      1735.882 6        37.977 6
G10  23824335.052 9 125197670.809 9      3501.278 9        54.664 9  23824338.793 6         0.000 6      2728.271 6        37.977 6
G21  21165959.299 9 111227846.185 9     -1239.594 9        55.711 9  21165958.583 6         0.000 6      -965.918 6        37.977 6
G29  24287670.749 9 127632515.069 9     -3120.689 9        54.479 9  24287672.310 6         0.000 6     -2431.708 6        37.977 6
G27  22014345.160 9 115686137.584 9      2512.948 9        55.370 9  22014347.096 6         0.000 6      1958.142 6        37.977 6
G16  20499267.993 9 107724360.074 9       572.632 9        55.976 9  20499267.166 6         0.000 6       446.206 6        37.977 6
G26  20648558.046 9 108508882.667 9     -1485.154 9        55.876 9  20648560.859 6         0.000 6     -1157.264 6        37.977 6
G20  21954913.242 9 115373814.603 9      2553.549 9        55.311 9  21954913.570 6         0.000 6      1989.779 6        37.977 6
> 2019 07 03 12 00 39.0000000  0  8       0.000000000000
G07  25355021.260 9 133241489.861 9      2222.959 9        54.129 9  25355021.934 6         0.000 6      1732.177 6        37.977 6
G10  23823668.434 9 125194167.719 9      3504.954 9        54.664 9  23823672.174 6         0.000 6      2731.135 6        37.977 6
G21  21166195.148 9 111229085.581 9     -1239.226 9        55.711 9  21166194.433 6         0.000 6      -965.631 6        37.977 6
G29  24288264.273 9 127635634.046 9     -3117.349 9        54.479 9  24288265.834 6         0.000 6     -2429.106 6        37.977 6
G27  22013867.301 9 115683626.421 9      2509.423 9        55.371 9  22013869.237 6         0.000 6      1955.395 6        37.977 6
G16  20499159.224 9 107723788.490 9       570.558 9        55.976 9  20499158.397 6         0.000 6       444.591 6        37.977 6
G26  20648840.630 9 108510367.656 9     -1484.797 9        55.875 9  20648843.444 6         0.000 6     -1156.985 6        37.977 6
G20  21954427.022 9 115371259.501 9      2556.667 9        55.311 9  21954427.349 6         0.000 6      1992.209 6        37.977 6
> 2019 07 03 12 00 40.0000000  0  8       0.000000000000
G07  25354598.711 9 133239269.355 9      2218.582 9        54.129 9  25354599.385 6         0.000 6      1728.766 6        37.977 6
G10  23823001.097 9 125190660.850 9      3508.345 9        54.664 9  23823004.837 6         0.000 6      2733.778 6        37.977 6
G21  21166430.944 9 111230324.697 9     -1239.088 9        55.711 9  21166430.229 6         0.000 6      -965.523 6        37.977 6
G29  24288857.193 9 127638749.854 9     -3114.703 9        54.479 9  24288858.756 6         0.000 6     -2427.044 6        37.977 6
G27  22013390.096 9 115681118.693 9      2506.443 9        55.371 9  22013392.032 6         0.000 6      1953.073 6        37.977 6
G16  20499050.842 9 107723218.936 9       568.736 9        55.976 9  20499050.015 6         0.000 6       443.171 6        37.977 6
G26  20649123.131 9 108511852.205 9     -1484.410 9        55.875 9  20649125.945 6         0.000 6     -1156.683 6        37.977 6
G20  21953940.205 9 115368701.264 9      2559.391 9        55.312 9  21953940.531 6         0.000 6      1994.332 6        37.977 6
> 2019 07 03 12 00 41.0000000  0  8       0.000000000000
G07  25354176.675 9 133237051.544 9      2217.181 9        54.129 9  25354177.349 6         0.000 6      1727.675 6        37.977 6
G10  23822333.400 9 125187152.090 9      3509.069 9        54.665 9  23822337.139 6         0.000 6      2734.342 6        37.977 6
G21  21166666.757 9 111231563.900 9     -1239.344 9        55.711 9  21166666.041 6         0.000 6      -965.723 6        37.977 6
G29  24289449.844 9 127641864.242 9     -3114.184 9        54.479 9  24289451.406 6         0.000 6     -2426.640 6        37.977 6
G27  22012913.225 9 115678612.724 9      2505.586 9        55.371 9  22012915.161 6         0.000 6      1952.405 6        37.977 6
G16  20498942.703 9 107722650.661 9       567.845 9        55.976 9  20498941.876 6         0.000 6       442.477 6        37.977 6
G26  20649405.632 9 108513336.756 9     -1484.740 9        55.875 9  20649408.446 6         0.000 6     -1156.941 6        37.977 6
G20  21953453.128 9 115366141.661 9      2559.708 9        55.312 9  21953453.454 6         0.000 6      1994.579 6        37.977 6
> 2019 07 03 12 00 42.0000000  0  8       0.000000000000
G07  25353754.867 9 133234834.931 9      2216.059 9        54.129 9  25353755.541 6         0.000 6      1726.800 6        37.977 6
G10  23821665.601 9 125183642.792 9      3509.541 9        54.665 9  23821669.339 6         0.000 6      2734.710 6        37.977 6
G21  21166902.624 9 111232803.390 9     -1239.634 9        55.711 9  21166901.909 6         0.000 6      -965.949 6        37.977 6
G29  24290042.422 9 127644978.252 9     -3113.858 9        54.478 9  24290043.985 6         0.000 6     -2426.386 6        37.977 6
G27  22012436.492 9 115676107.474 9      2504.921 9        55.371 9  22012438.427 6         0.000 6      1951.887 6        37.977 6
G16  20498834.722 9 107722083.220 9       567.039 9        55.976 9  20498833.895 6         0.000 6       441.848 6        37.977 6
G26  20649688.206 9 108514821.693 9     -1485.141 9        55.875 9  20649691.020 6         0.000 6     -1157.253 6        37.977 6
G20  21952966.022 9 115363581.910 9      2559.799 9        55.312 9  21952966.348 6         0.000 6      1994.649 6        37.977 6
> 2019 07 03 12 00 43.0000000  0  8       0.000000000000
G07  25353333.272 9 133232619.438 9      2214.941 9        54.129 9  25353333.945 6         0.000 6      1725.929 6        37.977 6
G10  23820997.712 9 125180133.025 9      3510.008 9        54.665 9  23821001.450 6         0.000 6      2735.074 6        37.977 6
G21  21167138.546 9 111234043.169 9     -1239.931 9        55.711 9  21167137.831 6         0.000 6      -966.180 6        37.977 6
G29  24290634.939 9 127648091.941 9     -3113.544 9        54.478 9  24290636.503 6         0.000 6     -2426.140 6        37.977 6
G27  22011959.884 9 115673602.885 9      2504.264 9        55.371 9  22011961.819 6         0.000 6      1951.375 6        37.977 6
G16  20498726.895 9 107721516.582 9       566.234 9        55.976 9  20498726.068 6         0.000 6       441.222 6        37.977 6
G26  20649970.857 9 108516307.031 9     -1485.543 9        55.875 9  20649973.671 6         0.000 6     -1157.566 6        37.977 6
G20  21952478.900 9 115361022.070 9      2559.883 9        55.312 9  21952479.226 6         0.000 6      1994.715 6        37.977 6
> 2019 07 03 12 00 44.0000000  0  8       0.000000000000
G07  25352911.888 9 133230405.054 9      2213.828 9        54.129 9  25352912.561 6         0.000 6      1725.062 6        37.977 6
G10  23820329.736 9 125176622.797 9      3510.473 9        54.665 9  23820333.473 6         0.000 6      2735.436 6        37.977 6
G21  21167374.525 9 111235283.247 9     -1240.229 9        55.711 9  21167373.810 6         0.000 6      -966.412 6        37.977 6
G29  24291227.399 9 127651205.325 9     -3113.242 9        54.478 9  24291228.963 6         0.000 6     -2425.905 6        37.977 6
G27  22011483.399 9 115671098.943 9      2503.619 9        55.372 9  22011485.334 6         0.000 6      1950.872 6        37.977 6
G16  20498619.219 9 107720950.743 9       565.438 9        55.976 9  20498618.392 6         0.000 6       440.601 6        37.977 6
G26  20650253.584 9 108517792.769 9     -1485.939 9        55.875 9  20650256.398 6         0.000 6     -1157.875 6        37.977 6
G20  21951991.763 9 115358462.153 9      2559.962 9        55.312 9  21951992.089 6         0.000 6      1994.777 6        37.977 6
> 2019 07 03 12 00 45.0000000  0  8       0.000000000000
G07  25352490.716 9 133228191.785 9      2212.723 9        54.130 9  25352491.389 6         0.000 6      1724.201 6        37.977 6
G10  23819661.671 9 125173112.102 9      3510.931 9        54.666 9  23819665.407 6         0.000 6      2735.793 6        37.977 6
G21  21167610.561 9 111236523.623 9     -1240.533 9        55.711 9  21167609.846 6         0.000 6      -966.650 6        37.977 6
G29  24291819.800 9 127654318.408 9     -3112.955 9        54.478 9  24291821.366 6         0.000 6     -2425.682 6        37.977 6
G27  22011007.037 9 115668595.646 9      2502.984 9        55.372 9  22011008.972 6         0.000 6      1950.378 6        37.977 6
G16  20498511.695 9 107720385.700 9       564.646 9        55.976 9  20498510.868 6         0.000 6       439.984 6        37.977 6
G26  20650536.386 9 108519278.902 9     -1486.337 9        55.875 9  20650539.200 6         0.000 6     -1158.185 6        37.977 6
G20  21951504.611 9 115355902.156 9      2560.032 9        55.313 9  21951504.936 6         0.000 6      1994.831 6        37.977 6
> 2019 07 03 12 00 46.0000000  0  8       0.000000000000
G07  25352069.754 9 133225979.619 9      2211.616 9        54.130 9  25352070.427 6         0.000 6      1723.338 6        37.977 6
G10  23818993.519 9 125169600.950 9      3511.393 9        54.666 9  23818997.255 6         0.000 6      2736.153 6        37.977 6
G21  21167846.656 9 111237764.309 9     -1240.838 9        55.710 9  21167845.941 6         0.000 6      -966.887 6        37.977 6
G29  24292412.149 9 127657431.213 9     -3112.672 9        54.478 9  24292413.715 6         0.000 6     -2425.461 6        37.977 6
G27  22010530.794 9 115666092.979 9      2502.353 9        55.372 9  22010532.729 6         0.000 6      1949.886 6        37.977 6
G16  20498404.321 9 107719821.448 9       563.857 9        55.976 9  20498403.494 6         0.000 6       439.369 6        37.977 6
G26  20650819.263 9 108520765.432 9     -1486.729 9        55.875 9  20650822.078 6         0.000 6     -1158.491 6        37.977 6
G20  21951017.446 9 115353342.092 9      2560.104 9        55.313 9  21951017.771 6         0.000 6      1994.887 6        37.977 6
> 2019 07 03 12 00 47.0000000  0  8       0.000000000000
G07  25351649.003 9 133223768.560 9      2210.519 9        54.130 9  25351649.676 6         0.000 6      1722.483 6        37.977 6
G10  23818325.280 9 125166089.339 9      3511.846 9        54.666 9  23818329.015 6         0.000 6      2736.506 6        37.977 6
G21  21168082.809 9 111239005.301 9     -1241.149 9        55.710 9  21168082.094 6         0.000 6      -967.129 6        37.977 6
G29  24293004.445 9 127660543.737 9     -3112.405 9        54.477 9  24293006.011 6         0.000 6     -2425.253 6        37.977 6
G27  22010054.672 9 115663590.943 9      2501.736 9        55.372 9  22010056.607 6         0.000 6      1949.405 6        37.977 6
G16  20498297.098 9 107719257.987 9       563.074 9        55.976 9  20498296.271 6         0.000 6       438.759 6        37.977 6
G26  20651102.216 9 108522252.357 9     -1487.122 9        55.874 9  20651105.031 6         0.000 6     -1158.797 6        37.977 6
G20  21950530.268 9 115350781.959 9      2560.165 9        55.313 9  21950530.593 6         0.000 6      1994.935 6        37.977 6
> 2019 07 03 12 00 48.0000000  0  8       0.000000000000
G07  25351228.459 9 133221558.588 9      2209.427 9        54.130 9  25351229.131 6         0.000 6      1721.632 6        37.977 6
G10  23817656.956 9 125162577.282 9      3512.294 9        54.666 9  23817660.690 6         0.000 6      2736.856 6        37.977 6
G21  21168319.022 9 111240246.607 9     -1241.463 9        55.710 9  21168318.307 6         0.000 6      -967.374 6        37.977 6
G29  24293596.691 9 127663656.002 9     -3112.148 9        54.477 9  24293598.258 6         0.000 6     -2425.053 6        37.977 6
G27  22009578.666 9 115661089.517 9      2501.124 9        55.372 9  22009580.601 6         0.000 6      1948.929 6        37.977 6
G16  20498190.023 9 107718695.305 9       562.293 9        55.976 9  20498189.196 6         0.000 6       438.151 6        37.977 6
G26  20651385.244 9 108523739.677 9     -1487.515 9        55.874 9  20651388.059 6         0.000 6     -1159.103 6        37.977 6
G20  21950043.080 9 115348221.774 9      2560.219 9        55.313 9  21950043.405 6         0.000 6      1994.977 6        37.977 6
> 2019 07 03 12 00 49.0000000  0  8       0.000000000000
G07  25350808.123 9 133219349.714 9      2208.340 9        54.130 9  25350808.795 6         0.000 6      1720.785 6        37.977 6
G10  23816988.545 9 125159064.771 9      3512.740 9        54.667 9  23816992.279 6         0.000 6      2737.202 6        37.977 6
G21  21168555.296 9 111241488.233 9     -1241.783 9        55.710 9  21168554.581 6         0.000 6      -967.623 6        37.977 6
G29  24294188.889 9 127666768.014 9     -3111.902 9        54.477 9  24294190.457 6         0.000 6     -2424.861 6        37.977 6
G27  22009102.777 9 115658588.703 9      2500.521 9        55.372 9  22009104.711 6         0.000 6      1948.458 6        37.977 6
G16  20498083.097 9 107718133.406 9       561.516 9        55.976 9  20498082.270 6         0.000 6       437.545 6        37.977 6
G26  20651668.346 9 108525227.388 9     -1487.908 9        55.874 9  20651671.161 6         0.000 6     -1159.409 6        37.977 6
G20  21949555.882 9 115345661.533 9      2560.268 9        55.313 9  21949556.206 6         0.000 6      1995.015 6        37.977 6
> 2019 07 03 12 00 50.0000000  0  8       0.000000000000
G07  25350387.994 9 133217141.921 9      2207.257 9        54.130 9  25350388.665 6         0.000 6      1719.941 6        37.977 6
G10  23816320.050 9 125155551.817 9      3513.183 9        54.667 9  23816323.783 6         0.000 6      2737.548 6        37.977 6
G21  21168791.629 9 111242730.171 9     -1242.103 9        55.710 9  21168790.914 6         0.000 6      -967.873 6        37.977 6
G29  24294781.041 9 127669879.784 9     -3111.664 9        54.477 9  24294782.610 6         0.000 6     -2424.676 6        37.977 6
G27  22008627.000 9 115656088.483 9      2499.926 9        55.373 9  22008628.934 6         0.000 6      1947.995 6        37.977 6
G16  20497976.317 9 107717572.273 9       560.745 9        55.976 9  20497975.490 6         0.000 6       436.944 6        37.977 6
G26  20651951.522 9 108526715.485 9     -1488.296 9        55.874 9  20651954.337 6         0.000 6     -1159.712 6        37.977 6
G20  21949068.674 9 115343101.242 9      2560.313 9        55.314 9  21949068.998 6         0.000 6      1995.051 6        37.977 6
> 2019 07 03 12 00 51.0000000  0  8       0.000000000000
G07  25349968.070 9 133214935.211 9      2206.178 9        54.130 9  25349968.742 6         0.000 6      1719.101 6        37.977 6
G10  23815651.471 9 125152038.422 9      3513.623 9        54.667 9  23815655.203 6         0.000 6      2737.891 6        37.977 6
G21  21169028.025 9 111243972.439 9     -1242.430 9        55.710 9  21169027.310 6         0.000 6      -968.127 6        37.977 6
G29  24295373.150 9 127672991.324 9     -3111.440 9        54.476 9  24295374.719 6         0.000 6     -2424.501 6        37.977 6
G27  22008151.336 9 115653588.856 9      2499.339 9        55.373 9  22008153.270 6         0.000 6      1947.538 6        37.977 6
G16  20497869.685 9 107717011.916 9       559.976 9        55.976 9  20497868.858 6         0.000 6       436.345 6        37.977 6
G26  20652234.773 9 108528203.975 9     -1488.685 9        55.874 9  20652237.588 6         0.000 6     -1160.015 6        37.977 6
G20  21948581.459 9 115340540.913 9      2560.352 9        55.314 9  21948581.782 6         0.000 6      1995.080 6        37.977 6
> 2019 07 03 12 00 52.0000000  0  8       0.000000000000
G07  25349548.350 9 133212729.574 9      2205.108 9        54.131 9  25349549.022 6         0.000 6      1718.267 6        37.977 6
G10  23814982.810 9 125148524.594 9      3514.055 9        54.667 9  23814986.541 6         0.000 6      2738.228 6        37.977 6
G21  21169264.483 9 111245215.036 9     -1242.761 9        55.710 9  21169263.768 6         0.000 6      -968.385 6        37.977 6
G29  24295965.216 9 127676102.645 9     -3111.228 9        54.476 9  24295966.786 6         0.000 6     -2424.336 6        37.977 6
G27  22007675.784 9 115651089.813 9      2498.763 9        55.373 9  22007677.717 6         0.000 6      1947.089 6        37.977 6
G16  20497763.199 9 107716452.326 9       559.212 9        55.976 9  20497762.371 6         0.000 6       435.750 6        37.977 6
G26  20652518.098 9 108529692.856 9     -1489.074 9        55.874 9  20652520.913 6         0.000 6     -1160.318 6        37.977 6
G20  21948094.237 9 115337980.552 9      2560.381 9        55.314 9  21948094.560 6         0.000 6      1995.103 6        37.977 6
> 2019 07 03 12 00 53.0000000  0  8       0.000000000000
G07  25349128.833 9 133210525.000 9      2204.047 9        54.131 9  25349129.505 6         0.000 6      1717.440 6        37.977 6
G10  23814314.067 9 125145010.336 9      3514.480 9        54.668 9  23814317.798 6         0.000 6      2738.558 6        37.977 6
G21  21169501.003 9 111246457.956 9     -1243.092 9        55.710 9  21169500.288 6         0.000 6      -968.643 6        37.977 6
G29  24296557.243 9 127679213.754 9     -3111.019 9        54.476 9  24296558.813 6         0.000 6     -2424.173 6        37.977 6
G27  22007200.339 9 115648591.338 9      2498.191 9        55.373 9  22007202.273 6         0.000 6      1946.643 6        37.977 6
G16  20497656.856 9 107715893.491 9       558.450 9        55.976 9  20497656.029 6         0.000 6       435.156 6        37.977 6
G26  20652801.496 9 108531182.121 9     -1489.466 9        55.874 9  20652804.311 6         0.000 6     -1160.623 6        37.977 6
G20  21947607.010 9 115335420.160 9      2560.404 9        55.314 9  21947607.333 6         0.000 6      1995.121 6        37.977 6
> 2019 07 03 12 00 54.0000000  0  8       0.000000000000
G07  25348709.518 9 133208321.486 9      2202.988 9        54.131 9  25348710.189 6         0.000 6      1716.615 6        37.977 6
G10  23813645.243 9 125141495.656 9      3514.903 9        54.668 9  23813648.974 6         0.000 6      2738.888 6        37.977 6
G21  21169737.588 9 111247701.218 9     -1243.428 9        55.710 9  21169736.873 6         0.000 6      -968.905 6        37.977 6
G29  24297149.232 9 127682324.669 9     -3110.826 9        54.476 9  24297150.803 6         0.000 6     -2424.022 6        37.977 6
G27  22006725.002 9 115646093.429 9      2497.631 9        55.373 9  22006726.936 6         0.000 6      1946.206 6        37.977 6
G16  20497550.658 9 107715335.419 9       557.695 9        55.976 9  20497549.831 6         0.000 6       434.568 6        37.977 6
G26  20653084.969 9 108532671.780 9     -1489.853 9        55.874 9  20653087.784 6         0.000 6     -1160.925 6        37.977 6
G20  21947119.780 9 115332859.754 9      2560.422 9        55.314 9  21947120.103 6         0.000 6      1995.135 6        37.977 6
> 2019 07 03 12 00 55.0000000  0  8       0.000000000000
G07  25348290.403 9 133206119.025 9      2201.941 9        54.131 9  25348291.074 6         0.000 6      1715.799 6        37.977 6
G10  23812976.340 9 125137980.555 9      3515.318 9        54.668 9  23812980.069 6         0.000 6      2739.211 6        37.977 6
G21  21169974.235 9 111248944.809 9     -1243.763 9        55.710 9  21169973.521 6         0.000 6      -969.166 6        37.977 6
G29  24297741.185 9 127685435.393 9     -3110.642 9        54.476 9  24297742.756 6         0.000 6     -2423.879 6        37.977 6
G27  22006249.771 9 115643596.072 9      2497.082 9        55.374 9  22006251.704 6         0.000 6      1945.779 6        37.977 6
G16  20497444.603 9 107714778.093 9       556.948 9        55.976 9  20497443.776 6         0.000 6       433.985 6        37.977 6
G26  20653368.514 9 108534161.820 9     -1490.239 9        55.874 9  20653371.330 6         0.000 6     -1161.225 6        37.977 6
G20  21946632.546 9 115330299.328 9      2560.433 9        55.315 9  21946632.869 6         0.000 6      1995.143 6        37.977 6
> 2019 07 03 12 00 56.0000000  0  8       0.000000000000
G07  25347871.487 9 133203917.612 9      2200.898 9        54.131 9  25347872.158 6         0.000 6      1714.986 6        37.977 6
G10  23812307.358 9 125134465.041 9      3515.728 9        54.668 9  23812311.087 6         0.000 6      2739.531 6        37.977 6
G21  21170210.949 9 111250188.746 9     -1244.109 9        55.710 9  21170210.234 6         0.000 6      -969.435 6        37.977 6
G29  24298333.104 9 127688545.941 9     -3110.474 9        54.475 9  24298334.677 6         0.000 6     -2423.748 6        37.977 6
G27  22005774.644 9 115641099.265 9      2496.541 9        55.374 9  22005776.577 6         0.000 6      1945.357 6        37.977 6
G16  20497338.690 9 107714221.521 9       556.200 9        55.977 9  20497337.863 6         0.000 6       433.403 6        37.977 6
G26  20653652.134 9 108535652.252 9     -1490.627 9        55.873 9  20653654.950 6         0.000 6     -1161.528 6        37.977 6
G20  21946145.312 9 115327738.900 9      2560.434 9        55.315 9  21946145.634 6         0.000 6      1995.144 6        37.977 6
> 2019 07 03 12 00 57.0000000  0  8       0.000000000000
G07  25347452.769 9 133201717.237 9      2199.864 9        54.131 9  25347453.439 6         0.000 6      1714.181 6        37.977 6
G10  23811638.298 9 125130949.120 9      3516.131 9        54.669 9  23811642.027 6         0.000 6      2739.845 6        37.977 6
G21  21170447.727 9 111251433.023 9     -1244.449 9        55.709 9  21170447.012 6         0.000 6      -969.701 6        37.977 6
G29  24298924.991 9 127691656.317 9     -3110.305 9        54.475 9  24298926.564 6         0.000 6     -2423.617 6        37.977 6
G27  22005299.619 9 115638602.997 9      2496.004 9        55.374 9  22005301.552 6         0.000 6      1944.939 6        37.977 6
G16  20497232.920 9 107713665.692 9       555.458 9        55.977 9  20497232.092 6         0.000 6       432.825 6        37.977 6
G26  20653935.828 9 108537143.069 9     -1491.015 9        55.873 9  20653938.644 6         0.000 6     -1161.830 6        37.977 6
G20  21945658.077 9 115325178.469 9      2560.431 9        55.315 9  21945658.399 6         0.000 6      1995.142 6        37.977 6
> 2019 07 03 12 00 58.0000000  0  8       0.000000000000
G07  25347034.247 9 133199517.891 9      2198.838 9        54.132 9  25347034.917 6         0.000 6      1713.381 6        37.977 6
G10  23810969.163 9 125127432.801 9      3516.526 9        54.669 9  23810972.890 6         0.000 6      2740.152 6        37.977 6
G21  21170684.571 9 111252677.646 9     -1244.802 9        55.709 9  21170683.856 6         0.000 6      -969.975 6        37.977 6
G29  24299516.848 9 127694766.537 9     -3110.156 9        54.475 9  24299518.422 6         0.000 6     -2423.501 6        37.977 6
G27  22004824.695 9 115636107.257 9      2495.479 9        55.374 9  22004826.628 6         0.000 6      1944.530 6        37.977 6
G16  20497127.290 9 107713110.602 9       554.717 9        55.977 9  20497126.463 6         0.000 6       432.247 6        37.977 6
G26  20654219.595 9 108538634.276 9     -1491.406 9        55.873 9  20654222.411 6         0.000 6     -1162.135 6        37.977 6
G20  21945170.845 9 115322618.048 9      2560.415 9        55.315 9  21945171.166 6         0.000 6      1995.130 6        37.977 6
> 2019 07 03 12 00 59.0000000  0  8       0.000000000000
G07  25346615.920 9 133197319.572 9      2197.819 9        54.132 9  25346616.590 6         0.000 6      1712.587 6        37.977 6
G10  23810299.952 9 125123916.084 9      3516.916 9        54.669 9  23810303.679 6         0.000 6      2740.457 6        37.977 6
G21  21170921.482 9 111253922.619 9     -1245.147 9        55.709 9  21170920.767 6         0.000 6      -970.244 6        37.977 6
G29  24300108.676 9 127697876.604 9     -3110.008 9        54.475 9  24300110.250 6         0.000 6     -2423.385 6        37.977 6
G27  22004349.871 9 115633612.045 9      2494.961 9        55.374 9  22004351.804 6         0.000 6      1944.126 6        37.977 6
G16  20497021.801 9 107712556.254 9       553.985 9        55.977 9  20497020.973 6         0.000 6       431.677 6        37.977 6
G26  20654503.437 9 108540125.871 9     -1491.792 9        55.873 9  20654506.253 6         0.000 6     -1162.436 6        37.977 6
G20  21944683.614 9 115320057.641 9      2560.399 9        55.315 9  21944683.936 6         0.000 6      1995.117 6        37.977 6
> 2019 07 03 12 01  0.0000000  0  8       0.000000000000
G07  25346197.786 9 133195122.266 9      2196.805 9        54.132 9  25346198.455 6         0.000 6      1711.797 6        37.977 6
G10  23809630.668 9 125120398.983 9      3517.303 9        54.669 9  23809634.394 6         0.000 6      2740.758 6        37.977 6
G21  21171158.459 9 111255167.943 9     -1245.501 9        55.709 9  21171157.745 6         0.000 6      -970.521 6        37.977 6
G29  24300700.478 9 127700986.534 9     -3109.873 9        54.475 9  24300702.053 6         0.000 6     -2423.280 6        37.977 6
G27  22003875.145 9 115631117.343 9      2494.450 9        55.375 9  22003877.077 6         0.000 6      1943.728 6        37.977 6
G16  20496916.451 9 107712002.635 9       553.252 9        55.977 9  20496915.623 6         0.000 6       431.106 6        37.977 6
G26  20654787.352 9 108541617.855 9     -1492.181 9        55.873 9  20654790.168 6         0.000 6     -1162.739 6        37.977 6
G20  21944196.389 9 115317497.257 9      2560.374 9        55.315 9  21944196.710 6         0.000 6      1995.097 6        37.977 6
> 2019 07 03 12 01  1.0000000  0  8       0.000000000000
G07  25345779.843 9 133192925.967 9      2195.800 9        54.132 9  25345780.512 6         0.000 6      1711.014 6        37.977 6
G10  23808961.311 9 125116881.500 9      3517.683 9        54.670 9  23808965.037 6         0.000 6      2741.054 6        37.977 6
G21  21171395.503 9 111256413.617 9     -1245.856 9        55.709 9  21171394.789 6         0.000 6      -970.797 6        37.977 6
G29  24301292.256 9 127704096.334 9     -3109.746 9        54.474 9  24301293.831 6         0.000 6     -2423.181 6        37.977 6
G27  22003400.514 9 115628623.142 9      2493.948 9        55.375 9  22003402.446 6         0.000 6      1943.337 6        37.977 6
G16  20496811.238 9 107711449.740 9       552.527 9        55.977 9  20496810.411 6         0.000 6       430.540 6        37.977 6
G26  20655071.341 9 108543110.224 9     -1492.568 9        55.873 9  20655074.157 6         0.000 6     -1163.041 6        37.977 6
G20  21943709.168 9 115314936.901 9      2560.343 9        55.316 9  21943709.489 6         0.000 6      1995.073 6        37.977 6
> 2019 07 03 12 01  2.0000000  0  8       0.000000000000
G07  25345362.092 9 133190730.675 9      2194.804 9        54.132 9  25345362.761 6         0.000 6      1710.238 6        37.977 6
G10  23808291.882 9 125113363.639 9      3518.053 9        54.670 9  23808295.607 6         0.000 6      2741.342 6        37.977 6
G21  21171632.616 9 111257659.652 9     -1246.213 9        55.709 9  21171631.901 6         0.000 6      -971.075 6        37.977 6
G29  24301884.009 9 127707206.007 9     -3109.630 9        54.474 9  24301885.584 6         0.000 6     -2423.091 6        37.977 6
G27  22002925.979 9 115626129.451 9      2493.455 9        55.375 9  22002927.911 6         0.000 6      1942.952 6        37.977 6
G16  20496706.166 9 107710897.580 9       551.804 9        55.977 9  20496705.338 6         0.000 6       429.977 6        37.977 6
G26  20655355.405 9 108544602.987 9     -1492.958 9        55.873 9  20655358.221 6         0.000 6     -1163.345 6        37.977 6
G20  21943221.955 9 115312376.581 9      2560.302 9        55.316 9  21943222.275 6         0.000 6      1995.041 6        37.977 6
> 2019 07 03 12 01  3.0000000  0  8       0.000000000000
G07  25344944.529 9 133188536.367 9      2193.812 9        54.132 9  25344945.198 6         0.000 6      1709.465 6        37.977 6
G10  23807622.385 9 125109845.418 9      3518.420 9        54.670 9  23807626.109 6         0.000 6      2741.628 6        37.977 6
G21  21171869.797 9 111258906.045 9     -1246.572 9        55.709 9  21171869.082 6         0.000 6      -971.355 6        37.977 6
G29  24302475.741 9 127710315.571 9     -3109.518 9        54.474 9  24302477.317 6         0.000 6     -2423.003 6        37.977 6
G27  22002451.538 9 115623636.244 9      2492.965 9        55.375 9  22002453.469 6         0.000 6      1942.571 6        37.977 6
G16  20496601.230 9 107710346.138 9       551.083 9        55.977 9  20496600.402 6         0.000 6       429.416 6        37.977 6
G26  20655639.543 9 108546096.143 9     -1493.348 9        55.873 9  20655642.359 6         0.000 6     -1163.648 6        37.977 6
G20  21942734.750 9 115309816.310 9      2560.257 9        55.316 9  21942735.071 6         0.000 6      1995.007 6        37.977 6
> 2019 07 03 12 01  4.0000000  0  8       0.000000000000
G07  25344527.153 9 133186343.048 9      2192.835 9        54.132 9  25344527.822 6         0.000 6      1708.703 6        37.977 6
G10  23806952.818 9 125106326.832 9      3518.774 9        54.670 9  23806956.542 6         0.000 6      2741.904 6        37.977 6
G21  21172107.046 9 111260152.796 9     -1246.936 9        55.709 9  21172106.331 6         0.000 6      -971.638 6        37.977 6
G29  24303067.453 9 127713425.028 9     -3109.420 9        54.474 9  24303069.030 6         0.000 6     -2422.927 6        37.977 6
G27  22001977.187 9 115621143.520 9      2492.488 9        55.375 9  22001979.119 6         0.000 6      1942.199 6        37.977 6
G16  20496496.430 9 107709795.412 9       550.367 9        55.977 9  20496495.603 6         0.000 6       428.858 6        37.977 6
G26  20655923.755 9 108547589.685 9     -1493.742 9        55.872 9  20655926.572 6         0.000 6     -1163.955 6        37.977 6
G20  21942247.555 9 115307256.085 9      2560.199 9        55.316 9  21942247.875 6         0.000 6      1994.961 6        37.977 6
> 2019 07 03 12 01  5.0000000  0  8       0.000000000000
G07  25344109.964 9 133184150.707 9      2191.857 9        54.133 9  25344110.633 6         0.000 6      1707.942 6        37.977 6
G10  23806283.184 9 125102807.890 9      3519.127 9        54.671 9  23806286.907 6         0.000 6      2742.180 6        37.977 6
G21  21172344.364 9 111261399.910 9     -1247.300 9        55.709 9  21172343.649 6         0.000 6      -971.922 6        37.977 6
G29  24303659.146 9 127716534.385 9     -3109.324 9        54.474 9  24303660.723 6         0.000 6     -2422.852 6        37.977 6
G27  22001502.929 9 115618651.276 9      2492.011 9        55.375 9  22001504.860 6         0.000 6      1941.828 6        37.977 6
G16  20496391.767 9 107709245.403 9       549.652 9        55.977 9  20496390.939 6         0.000 6       428.301 6        37.977 6
G26  20656208.042 9 108549083.620 9     -1494.134 9        55.872 9  20656210.858 6         0.000 6     -1164.261 6        37.977 6
G20  21941760.370 9 115304695.917 9      2560.140 9        55.316 9  21941760.690 6         0.000 6      1994.916 6        37.977 6
> 2019 07 03 12 01  6.0000000  0  8       0.000000000000
G07  25343692.959 9 133181959.337 9      2190.891 9        54.133 9  25343693.628 6         0.000 6      1707.189 6        37.977 6
G10  23805613.483 9 125099288.601 9      3519.473 9        54.671 9  23805617.206 6         0.000 6      2742.449 6        37.977 6
G21  21172581.752 9 111262647.394 9     -1247.665 9        55.709 9  21172581.038 6         0.000 6      -972.207 6        37.977 6
G29  24304250.823 9 127719643.659 9     -3109.240 9        54.473 9  24304252.401 6         0.000 6     -2422.787 6        37.977 6
G27  22001028.759 9 115616159.499 9      2491.548 9        55.376 9  22001030.690 6         0.000 6      1941.467 6        37.977 6
G16  20496287.239 9 107708696.105 9       548.945 9        55.977 9  20496286.412 6         0.000 6       427.749 6        37.977 6
G26  20656492.403 9 108550577.949 9     -1494.525 9        55.872 9  20656495.220 6         0.000 6     -1164.566 6        37.977 6
G20  21941273.198 9 115302135.816 9      2560.073 9        55.317 9  21941273.518 6         0.000 6      1994.863 6        37.977 6
> 2019 07 03 12 01  7.0000000  0  8       0.000000000000
G07  25343276.138 9 133179768.928 9      2189.936 9        54.133 9  25343276.806 6         0.000 6      1706.444 6        37.977 6
G10  23804943.718 9 125095768.968 9      3519.808 9        54.671 9  23804947.439 6         0.000 6      2742.710 6        37.977 6
G21  21172819.209 9 111263895.239 9     -1248.032 9        55.708 9  21172818.495 6         0.000 6      -972.493 6        37.977 6
G29  24304842.484 9 127722752.849 9     -3109.163 9        54.473 9  24304844.063 6         0.000 6     -2422.727 6        37.977 6
G27  22000554.676 9 115613668.180 9      2491.091 9        55.376 9  22000556.607 6         0.000 6      1941.111 6        37.977 6
G16  20496182.844 9 107708147.509 9       548.240 9        55.977 9  20496182.017 6         0.000 6       427.200 6        37.977 6
G26  20656776.839 9 108552072.665 9     -1494.919 9        55.872 9  20656779.656 6         0.000 6     -1164.873 6        37.977 6
G20  21940786.039 9 115299575.782 9      2559.997 9        55.317 9  21940786.359 6         0.000 6      1994.804 6        37.977 6
> 2019 07 03 12 01  8.0000000  0  8       0.000000000000
G07  25342859.497 9 133177579.471 9      2188.986 9        54.133 9  25342860.165 6         0.000 6      1705.705 6        37.977 6
G10  23804273.889 9 125092249.006 9      3520.136 9        54.671 9  23804277.610 6         0.000 6      2742.966 6        37.977 6
G21  21173056.737 9 111265143.456 9     -1248.405 9        55.708 9  21173056.023 6         0.000 6      -972.783 6        37.977 6
G29  24305434.131 9 127725861.966 9     -3109.094 9        54.473 9  24305435.711 6         0.000 6     -2422.673 6        37.977 6
G27  22000080.680 9 115611177.319 9      2490.638 9        55.376 9  22000082.611 6         0.000 6      1940.757 6        37.977 6
G16  20496078.585 9 107707599.623 9       547.534 9        55.977 9  20496077.758 6         0.000 6       426.650 6        37.977 6
G26  20657061.350 9 108553567.782 9     -1495.318 9        55.872 9  20657064.167 6         0.000 6     -1165.183 6        37.977 6
G20  21940298.896 9 115297015.831 9      2559.912 9        55.317 9  21940299.215 6         0.000 6      1994.738 6        37.977 6
> 2019 07 03 12 01  9.0000000  0  8       0.000000000000
G07  25342443.038 9 133175390.964 9      2188.041 9        54.133 9  25342443.705 6         0.000 6      1704.968 6        37.977 6
G10  23803603.998 9 125088728.714 9      3520.464 9        54.671 9  23803607.718 6         0.000 6      2743.222 6        37.977 6
G21  21173294.336 9 111266392.043 9     -1248.774 9        55.708 9  21173293.621 6         0.000 6      -973.071 6        37.977 6
G29  24306025.765 9 127728971.013 9     -3109.029 9        54.473 9  24306027.345 6         0.000 6     -2422.622 6        37.977 6
G27  21999606.771 9 115608686.909 9      2490.193 9        55.376 9  21999608.701 6         0.000 6      1940.411 6        37.977 6
G16  20495974.459 9 107707052.438 9       546.837 9        55.977 9  20495973.632 6         0.000 6       426.107 6        37.977 6
G26  20657345.937 9 108555063.294 9     -1495.710 9        55.872 9  20657348.754 6         0.000 6     -1165.489 6        37.977 6
G20  21939811.769 9 115294455.963 9      2559.828 9        55.317 9  21939812.087 6         0.000 6      1994.672 6        37.977 6
> 2019 07 03 12 01 10.0000000  0  8       0.000000000000
G07  25342026.757 9 133173203.398 9      2187.106 9        54.133 9  25342027.424 6         0.000 6      1704.239 6        37.977 6
G10  23802934.045 9 125085208.101 9      3520.779 9        54.672 9  23802937.765 6         0.000 6      2743.467 6        37.977 6
G21  21173532.005 9 111267641.004 9     -1249.150 9        55.708 9  21173531.291 6         0.000 6      -973.364 6        37.977 6
G29  24306617.387 9 127732079.999 9     -3108.972 9        54.472 9  24306618.968 6         0.000 6     -2422.578 6        37.977 6
G27  21999132.945 9 115606196.944 9      2489.751 9        55.376 9  21999134.876 6         0.000 6      1940.066 6        37.977 6
G16  20495870.467 9 107706505.954 9       546.136 9        55.977 9  20495869.640 6         0.000 6       425.561 6        37.977 6
G26  20657630.599 9 108556559.203 9     -1496.112 9        55.872 9  20657633.417 6         0.000 6     -1165.802 6        37.977 6
G20  21939324.658 9 115291896.186 9      2559.730 9        55.317 9  21939324.977 6         0.000 6      1994.596 6        37.977 6
> 2019 07 03 12 01 11.0000000  0  8       0.000000000000
G07  25341610.653 9 133171016.758 9      2186.177 9        54.133 9  25341611.320 6         0.000 6      1703.515 6        37.977 6
G10  23802264.034 9 125081687.177 9      3521.090 9        54.672 9  23802267.753 6         0.000 6      2743.709 6        37.977 6
G21  21173769.746 9 111268890.340 9     -1249.526 9        55.708 9  21173769.032 6         0.000 6      -973.656 6        37.977 6
G29  24307209.001 9 127735188.937 9     -3108.921 9        54.472 9  24307210.582 6         0.000 6     -2422.538 6        37.977 6
G27  21998659.202 9 115603707.410 9      2489.316 9        55.377 9  21998661.133 6         0.000 6      1939.728 6        37.977 6
G16  20495766.606 9 107705960.163 9       545.441 9        55.977 9  20495765.779 6         0.000 6       425.019 6        37.977 6
G26  20657915.338 9 108558055.512 9     -1496.511 9        55.872 9  20657918.155 6         0.000 6     -1166.113 6        37.977 6
G20  21938837.568 9 115289336.512 9      2559.629 9        55.318 9  21938837.886 6         0.000 6      1994.517 6        37.977 6
> 2019 07 03 12 01 12.0000000  0  8       0.000000000000
G07  25341194.725 9 133168831.046 9      2185.256 9        54.134 9  25341195.392 6         0.000 6      1702.798 6        37.977 6
G10  23801593.963 9 125078165.943 9      3521.395 9        54.672 9  23801597.682 6         0.000 6      2743.947 6        37.977 6
G21  21174007.558 9 111270140.051 9     -1249.901 9        55.708 9  21174006.844 6         0.000 6      -973.949 6        37.977 6
G29  24307800.605 9 127738297.828 9     -3108.879 9        54.472 9  24307802.187 6         0.000 6     -2422.506 6        37.977 6
G27  21998185.541 9 115601218.306 9      2488.892 9        55.377 9  21998187.471 6         0.000 6      1939.397 6        37.977 6
G16  20495662.877 9 107705415.064 9       544.752 9        55.977 9  20495662.050 6         0.000 6       424.482 6        37.977 6
G26  20658200.152 9 108559552.217 9     -1496.909 9        55.872 9  20658202.969 6         0.000 6     -1166.423 6        37.977 6
G20  21938350.496 9 115286776.940 9      2559.521 9        55.318 9  21938350.814 6         0.000 6      1994.433 6        37.977 6
> 2019 07 03 12 01 13.0000000  0  8       0.000000000000
G07  25340778.972 9 133166646.255 9      2184.343 9        54.134 9  25340779.639 6         0.000 6      1702.086 6        37.977 6
G10  23800923.835 9 125074644.405 9      3521.692 9        54.672 9  23800927.553 6         0.000 6      2744.178 6        37.977 6
G21  21174245.442 9 111271390.138 9     -1250.280 9        55.708 9  21174244.728 6         0.000 6      -974.244 6        37.977 6
G29  24308392.200 9 127741406.673 9     -3108.841 9        54.472 9  24308393.783 6         0.000 6     -2422.476 6        37.977 6
G27  21997711.961 9 115598729.630 9      2488.470 9        55.377 9  21997713.891 6         0.000 6      1939.068 6        37.977 6
G16  20495559.280 9 107704870.657 9       544.062 9        55.977 9  20495558.453 6         0.000 6       423.944 6        37.977 6
G26  20658485.042 9 108561049.322 9     -1497.312 9        55.871 9  20658487.859 6         0.000 6     -1166.737 6        37.977 6
G20  21937863.446 9 115284217.474 9      2559.406 9        55.318 9  21937863.763 6         0.000 6      1994.343 6        37.977 6
> 2019 07 03 12 01 14.0000000  0  8       0.000000000000
G07  25340363.391 9 133164462.368 9      2183.434 9        54.134 9  25340364.058 6         0.000 6      1701.378 6        37.977 6
G10  23800253.651 9 125071122.578 9      3521.986 9        54.673 9  23800257.369 6         0.000 6      2744.407 6        37.977 6
G21  21174483.398 9 111272640.606 9     -1250.658 9        55.708 9  21174482.684 6         0.000 6      -974.539 6        37.977 6
G29  24308983.791 9 127744515.492 9     -3108.809 9        54.472 9  24308985.374 6         0.000 6     -2422.451 6        37.977 6
G27  21997238.460 9 115596241.367 9      2488.054 9        55.377 9  21997240.390 6         0.000 6      1938.744 6        37.977 6
G16  20495455.813 9 107704326.934 9       543.377 9        55.977 9  20495454.986 6         0.000 6       423.410 6        37.977 6
G26  20658770.008 9 108562546.830 9     -1497.712 9        55.871 9  20658772.826 6         0.000 6     -1167.049 6        37.977 6
G20  21937376.418 9 115281658.133 9      2559.288 9        55.318 9  21937376.735 6         0.000 6      1994.251 6        37.977 6
> 2019 07 03 12 01 15.0000000  0  8       0.000000000000
G07  25339947.984 9 133162279.392 9      2182.539 9        54.134 9  25339948.650 6         0.000 6      1700.681 6        37.977 6
G10  23799583.412 9 125067600.455 9      3522.266 9        54.673 9  23799587.128 6         0.000 6      2744.626 6        37.977 6
G21  21174721.426 9 111273891.452 9     -1251.038 9        55.708 9  21174720.713 6         0.000 6      -974.835 6        37.977 6
G29  24309575.374 9 127747624.275 9     -3108.786 9        54.471 9  24309576.958 6         0.000 6     -2422.433 6        37.977 6
G27  21996765.038 9 115593753.522 9      2487.647 9        55.377 9  21996766.968 6         0.000 6      1938.427 6        37.977 6
G16  20495352.477 9 107703783.898 9       542.696 9        55.977 9  20495351.649 6         0.000 6       422.880 6        37.977 6
G26  20659055.051 9 108564044.738 9     -1498.116 9        55.871 9  20659057.869 6         0.000 6     -1167.363 6        37.977 6
G20  21936889.413 9 115279098.908 9      2559.159 9        55.318 9  21936889.730 6         0.000 6      1994.151 6        37.977 6
> 2019 07 03 12 01 16.0000000  0  8       0.000000000000
G07  25339532.746 9 133160097.302 9      2181.645 9        54.134 9  25339533.412 6         0.000 6      1699.984 6        37.977 6
G10  23798913.120 9 125064078.059 9      3522.547 9        54.673 9  23798916.836 6         0.000 6      2744.845 6        37.977 6
G21  21174959.527 9 111275142.678 9     -1251.421 9        55.708 9  21174958.813 6         0.000 6      -975.133 6        37.977 6
G29  24310166.955 9 127750733.039 9     -3108.767 9        54.471 9  24310168.539 6         0.000 6     -2422.419 6        37.977 6
G27  21996291.693 9 115591266.079 9      2487.243 9        55.378 9  21996293.623 6         0.000 6      1938.112 6        37.977 6
G16  20495249.270 9 107703241.541 9       542.016 9        55.977 9  20495248.442 6         0.000 6       422.350 6        37.977 6
G26  20659340.171 9 108565543.053 9     -1498.519 9        55.871 9  20659342.989 6         0.000 6     -1167.678 6        37.977 6
G20  21936402.434 9 115276539.818 9      2559.027 9        55.319 9  21936402.750 6         0.000 6      1994.048 6        37.977 6
> 2019 07 03 12 01 17.0000000  0  8       0.000000000000
G07  25339117.677 9 133157916.107 9      2180.759 9        54.134 9  25339118.343 6         0.000 6      1699.294 6        37.977 6
G10  23798242.775 9 125060555.384 9      3522.820 9        54.673 9  23798246.490 6         0.000 6      2745.057 6        37.977 6
G21  21175197.701 9 111276394.293 9     -1251.804 9        55.707 9  21175196.988 6         0.000 6      -975.432 6        37.977 6
G29  24310758.532 9 127753841.789 9     -3108.753 9        54.471 9  24310760.117 6         0.000 6     -2422.407 6        37.977 6
G27  21995818.425 9 115588779.041 9      2486.844 9        55.378 9  21995820.355 6         0.000 6      1937.801 6        37.977 6
G16  20495146.192 9 107702699.867 9       541.338 9        55.977 9  20495145.365 6         0.000 6       421.821 6        37.977 6
G26  20659625.369 9 108567041.774 9     -1498.925 9        55.871 9  20659628.187 6         0.000 6     -1167.994 6        37.977 6
G20  21935915.480 9 115273980.864 9      2558.889 9        55.319 9  21935915.796 6         0.000 6      1993.941 6        37.977 6
> 2019 07 03 12 01 18.0000000  0  8       0.000000000000
G07  25338702.778 9 133155735.797 9      2179.879 9        54.134 9  25338703.443 6         0.000 6      1698.608 6        37.977 6
G10  23797572.378 9 125057032.436 9      3523.087 9        54.674 9  23797576.093 6         0.000 6      2745.265 6        37.977 6
G21  21175435.948 9 111277646.288 9     -1252.189 9        55.707 9  21175435.235 6         0.000 6      -975.732 6        37.977 6
G29  24311350.107 9 127756950.524 9     -3108.745 9        54.471 9  24311351.692 6         0.000 6     -2422.401 6        37.977 6
G27  21995345.232 9 115586292.399 9      2486.451 9        55.378 9  21995347.162 6         0.000 6      1937.495 6        37.977 6
G16  20495043.244 9 107702158.869 9       540.662 9        55.977 9  20495042.417 6         0.000 6       421.295 6        37.977 6
G26  20659910.643 9 108568540.899 9     -1499.331 9        55.871 9  20659913.461 6         0.000 6     -1168.311 6        37.977 6
G20  21935428.552 9 115271422.048 9      2558.745 9        55.319 9  21935428.869 6         0.000 6      1993.828 6        37.977 6
> 2019 07 03 12 01 19.0000000  0  8       0.000000000000
G07  25338288.043 9 133153556.357 9      2179.005 9        54.135 9  25338288.708 6         0.000 6      1697.927 6        37.977 6
G10  23796901.933 9 125053509.231 9      3523.349 9        54.674 9  23796905.647 6         0.000 6      2745.469 6        37.977 6
G21  21175674.269 9 111278898.668 9     -1252.574 9        55.707 9  21175673.555 6         0.000 6      -976.032 6        37.977 6
G29  24311941.681 9 127760059.257 9     -3108.739 9        54.471 9  24311943.267 6         0.000 6     -2422.397 6        37.977 6
G27  21994872.114 9 115583806.146 9      2486.060 9        55.378 9  21994874.043 6         0.000 6      1937.190 6        37.977 6
G16  20494940.423 9 107701618.543 9       539.988 9        55.978 9  20494939.596 6         0.000 6       420.770 6        37.977 6
G26  20660195.995 9 108570040.433 9     -1499.740 9        55.871 9  20660198.814 6         0.000 6     -1168.629 6        37.977 6
G20  21934941.654 9 115268863.382 9      2558.596 9        55.319 9  21934941.970 6         0.000 6      1993.713 6        37.977 6
> 2019 07 03 12 01 20.0000000  0  8       0.000000000000
G07  25337873.476 9 133151377.793 9      2178.123 9        54.135 9  25337874.141 6         0.000 6      1697.239 6        37.977 6
G10  23796231.437 9 125049985.761 9      3523.612 9        54.674 9  23796235.150 6         0.000 6      2745.674 6        37.977 6
G21  21175912.663 9 111280151.437 9     -1252.942 9        55.707 9  21175911.949 6         0.000 6      -976.319 6        37.977 6
G29  24312533.254 9 127763167.987 9     -3108.691 9        54.470 9  24312534.841 6         0.000 6     -2422.359 6        37.977 6
G27  21994399.069 9 115581320.282 9      2485.640 9        55.378 9  21994400.998 6         0.000 6      1936.863 6        37.977 6
G16  20494837.731 9 107701078.892 9       539.300 9        55.978 9  20494836.904 6         0.000 6       420.234 6        37.977 6
G26  20660481.425 9 108571540.375 9     -1500.157 9        55.871 9  20660484.243 6         0.000 6     -1168.954 6        37.977 6
G20  21934454.783 9 115266304.866 9      2558.461 9        55.319 9  21934455.099 6         0.000 6      1993.607 6        37.977 6
> 2019 07 03 12 01 21.0000000  0  8       0.000000000000
G07  25337459.316 9 133149201.374 9      2174.607 9        54.135 9  25337459.981 6         0.000 6      1694.500 6        37.977 6
G10  23795560.774 9 125046461.416 9      3525.181 9        54.674 9  23795564.487 6         0.000 6      2746.897 6        37.977 6
G21  21176150.826 9 111281402.991 9     -1250.080 9        55.707 9  21176150.112 6         0.000 6      -974.089 6        37.977 6
G29  24313123.994 9 127766272.333 9     -3099.776 9        54.470 9  24313125.581 6         0.000 6     -2415.413 6        37.977 6
G27  21993926.708 9 115578838.013 9      2478.719 9        55.378 9  21993928.637 6         0.000 6      1931.470 6        37.977 6
G16  20494735.463 9 107700541.469 9       535.460 9        55.978 9  20494734.636 6         0.000 6       417.242 6        37.977 6
G26  20660767.082 9 108573041.509 9     -1502.134 9        55.870 9  20660769.900 6         0.000 6     -1170.494 6        37.977 6
G20  21933967.624 9 115263744.832 9      2561.741 9        55.320 9  21933967.940 6         0.000 6      1996.163 6        37.977 6
> 2019 07 03 12 01 22.0000000  0  8       0.000000000000
G07  25337045.810 9 133147028.388 9      2171.492 9        54.135 9  25337046.475 6         0.000 6      1692.073 6        37.977 6
G10  23794889.807 9 125042935.470 9      3526.682 9        54.675 9  23794893.519 6         0.000 6      2748.066 6        37.977 6
G21  21176388.497 9 111282651.962 9     -1248.064 9        55.707 9  21176387.783 6         0.000 6      -972.518 6        37.977 6
G29  24313713.175 9 127769368.494 9     -3093.078 9        54.470 9  24313714.764 6         0.000 6     -2410.193 6        37.977 6
G27  21993455.567 9 115576362.152 9      2473.367 9        55.379 9  21993457.496 6         0.000 6      1927.300 6        37.977 6
G16  20494633.876 9 107700007.625 9       532.395 9        55.978 9  20494633.049 6         0.000 6       414.853 6        37.977 6
G26  20661053.076 9 108574544.418 9     -1503.596 9        55.870 9  20661055.895 6         0.000 6     -1171.634 6        37.977 6
G20  21933479.876 9 115261181.704 9      2564.340 9        55.320 9  21933480.191 6         0.000 6      1998.188 6        37.977 6
> 2019 07 03 12 01 23.0000000  0  8       0.000000000000
G07  25336632.843 9 133144858.235 9      2168.901 9        54.135 9  25336633.507 6         0.000 6      1690.053 6        37.977 6
G10  23794218.573 9 125039408.121 9      3528.006 9        54.675 9  23794222.284 6         0.000 6      2749.098 6        37.977 6
G21  21176625.874 9 111283899.387 9     -1246.916 9        55.707 9  21176625.161 6         0.000 6      -971.623 6        37.977 6
G29  24314301.319 9 127772459.201 9     -3088.694 9        54.470 9  24314302.908 6         0.000 6     -2406.777 6        37.977 6
G27  21992985.275 9 115573890.752 9      2469.677 9        55.379 9  21992987.203 6         0.000 6      1924.424 6        37.977 6
G16  20494532.790 9 107699476.413 9       530.144 9        55.978 9  20494531.962 6         0.000 6       413.099 6        37.977 6
G26  20661339.300 9 108576048.533 9     -1504.573 9        55.870 9  20661342.119 6         0.000 6     -1172.395 6        37.977 6
G20  21932991.714 9 115258616.399 9      2566.159 9        55.320 9  21932992.029 6         0.000 6      1999.606 6        37.977 6
> 2019 07 03 12 01 24.0000000  0  8       0.000000000000
G07  25336220.333 9 133142690.483 9      2166.669 9        54.135 9  25336220.997 6         0.000 6      1688.314 6        37.977 6
G10  23793547.100 9 125035879.517 9      3529.196 9        54.675 9  23793550.810 6         0.000 6      2750.025 6        37.977 6
G21  21176863.091 9 111285145.970 9     -1246.331 9        55.707 9  21176862.378 6         0.000 6      -971.167 6        37.977 6
G29  24314888.784 9 127775546.340 9     -3085.818 9        54.469 9  24314890.374 6         0.000 6     -2404.536 6        37.977 6
G27  21992515.574 9 115571422.457 9      2467.072 9        55.379 9  21992517.502 6         0.000 6      1922.394 6        37.977 6
G16  20494432.077 9 107698947.167 9       528.423 9        55.978 9  20494431.250 6         0.000 6       411.758 6        37.977 6
G26  20661625.678 9 108577553.459 9     -1505.242 9        55.870 9  20661628.497 6         0.000 6     -1172.916 6        37.977 6
G20  21932503.260 9 115256049.557 9      2567.456 9        55.320 9  21932503.574 6         0.000 6      2000.616 6        37.977 6
> 2019 07 03 12 01 25.0000000  0  8       0.000000000000
G07  25335808.221 9 133140524.826 9      2164.692 9        54.135 9  25335808.885 6         0.000 6      1686.774 6        37.977 6
G10  23792875.411 9 125032349.779 9      3530.280 9        54.675 9  23792879.121 6         0.000 6      2750.870 6        37.977 6
G21  21177100.234 9 111286392.163 9     -1246.114 9        55.707 9  21177099.521 6         0.000 6      -970.998 6        37.977 6
G29  24315475.803 9 127778631.135 9     -3083.937 9        54.469 9  24315477.393 6         0.000 6     -2403.070 6        37.977 6
G27  21992046.294 9 115568956.380 9      2465.189 9        55.379 9  21992048.222 6         0.000 6      1920.927 6        37.977 6
G16  20494331.656 9 107698419.450 9       527.056 9        55.978 9  20494330.829 6         0.000 6       410.693 6        37.977 6
G26  20661912.163 9 108579058.946 9     -1505.715 9        55.870 9  20661914.982 6         0.000 6     -1173.285 6        37.977 6
G20  21932014.594 9 115253481.607 9      2568.396 9        55.320 9  21932014.908 6         0.000 6      2001.349 6        37.977 6
> 2019 07 03 12 01 26.0000000  0  8       0.000000000000
G07  25335396.467 9 133138361.047 9      2162.900 9        54.135 9  25335397.131 6         0.000 6      1685.377 6        37.977 6
G10  23792203.525 9 125028819.005 9      3531.274 9        54.676 9  23792207.234 6         0.000 6      2751.645 6        37.977 6
G21  21177337.361 9 111287638.271 9     -1246.140 9        55.707 9  21177336.647 6         0.000 6      -971.018 6        37.977 6
G29  24316062.531 9 127781714.400 9     -3082.705 9        54.469 9  24316064.122 6         0.000 6     -2402.111 6        37.977 6
G27  21991577.325 9 115566491.933 9      2463.776 9        55.379 9  21991579.253 6         0.000 6      1919.826 6        37.977 6
G16  20494231.472 9 107697892.980 9       525.914 9        55.978 9  20494230.645 6         0.000 6       409.803 6        37.977 6
G26  20662198.727 9 108580564.846 9     -1506.075 9        55.870 9  20662201.546 6         0.000 6     -1173.565 6        37.977 6
G20  21931525.775 9 115250912.850 9      2569.089 9        55.320 9  21931526.089 6         0.000 6      2001.889 6        37.977 6
> 2019 07 03 12 01 27.0000000  0  8       0.000000000000
G07  25334985.042 9 133136198.995 9      2161.239 9        54.136 9  25334985.705 6         0.000 6      1684.084 6        37.977 6
G10  23791531.456 9 125025287.270 9      3532.202 9        54.676 9  23791535.165 6         0.000 6      2752.368 6        37.977 6
G21  21177574.509 9 111288884.492 9     -1246.318 9        55.706 9  21177573.795 6         0.000 6      -971.157 6        37.977 6
G29  24316649.068 9 127784796.663 9     -3081.901 9        54.469 9  24316650.660 6         0.000 6     -2401.484 6        37.977 6
G27  21991108.593 9 115564028.732 9      2462.681 9        55.380 9  21991110.521 6         0.000 6      1918.973 6        37.977 6
G16  20494131.491 9 107697367.573 9       524.928 9        55.978 9  20494130.663 6         0.000 6       409.035 6        37.977 6
G26  20662485.352 9 108582071.067 9     -1506.358 9        55.870 9  20662488.171 6         0.000 6     -1173.786 6        37.977 6
G20  21931036.841 9 115248343.490 9      2569.615 9        55.321 9  21931037.155 6         0.000 6      2002.299 6        37.977 6
> 2019 07 03 12 01 28.0000000  0  8       0.000000000000
G07  25334573.922 9 133134038.553 9      2159.673 9        54.136 9  25334574.586 6         0.000 6      1682.863 6        37.977 6
G10  23790859.215 9 125021754.632 9      3533.077 9        54.676 9  23790862.923 6         0.000 6      2753.050 6        37.977 6
G21  21177811.700 9 111290130.941 9     -1246.602 9        55.706 9  21177810.987 6         0.000 6      -971.379 6        37.977 6
G29  24317235.481 9 127787878.275 9     -3081.385 9        54.469 9  24317237.073 6         0.000 6     -2401.081 6        37.977 6
G27  21990640.047 9 115561566.509 9      2461.796 9        55.380 9  21990641.974 6         0.000 6      1918.283 6        37.977 6
G16  20494031.685 9 107696843.091 9       524.042 9        55.978 9  20494030.858 6         0.000 6       408.344 6        37.977 6
G26  20662772.024 9 108583577.540 9     -1506.597 9        55.870 9  20662774.843 6         0.000 6     -1173.973 6        37.977 6
G20  21930547.818 9 115245773.661 9      2570.022 9        55.321 9  21930548.132 6         0.000 6      2002.616 6        37.977 6
> 2019 07 03 12 01 29.0000000  0  8       0.000000000000
G07  25334163.093 9 133131879.635 9      2158.182 9        54.136 9  25334163.757 6         0.000 6      1681.701 6        37.977 6
G10  23790186.814 9 125018221.148 9      3533.905 9        54.676 9  23790190.521 6         0.000 6      2753.695 6        37.977 6
G21  21178048.954 9 111291377.715 9     -1246.949 9        55.706 9  21178048.240 6         0.000 6      -971.648 6        37.977 6
G29  24317821.816 9 127790959.475 9     -3081.054 9        54.468 9  24317823.409 6         0.000 6     -2400.824 6        37.977 6
G27  21990171.655 9 115559105.097 9      2461.054 9        55.380 9  21990173.583 6         0.000 6      1917.705 6        37.977 6
G16  20493932.042 9 107696319.463 9       523.227 9        55.978 9  20493931.215 6         0.000 6       407.709 6        37.977 6
G26  20663058.741 9 108585084.245 9     -1506.810 9        55.869 9  20663061.560 6         0.000 6     -1174.138 6        37.977 6
G20  21930058.728 9 115243203.478 9      2570.346 9        55.321 9  21930059.041 6         0.000 6      2002.868 6        37.977 6
> 2019 07 03 12 01 30.0000000  0  8       0.000000000000
G07  25333752.543 9 133129722.183 9      2156.745 9        54.136 9  25333753.206 6         0.000 6      1680.582 6        37.977 6
G10  23789514.257 9 125014686.849 9      3534.700 9        54.677 9  23789517.964 6         0.000 6      2754.314 6        37.977 6
G21  21178286.276 9 111292624.854 9     -1247.337 9        55.706 9  21178285.563 6         0.000 6      -971.951 6        37.977 6
G29  24318408.100 9 127794040.406 9     -3080.852 9        54.468 9  24318409.693 6         0.000 6     -2400.666 6        37.977 6
G27  21989703.395 9 115556644.376 9      2460.412 9        55.380 9  21989705.322 6         0.000 6      1917.205 6        37.977 6
G16  20493832.549 9 107695796.623 9       522.462 9        55.978 9  20493831.722 6         0.000 6       407.113 6        37.977 6
G26  20663345.496 9 108586591.150 9     -1507.004 9        55.869 9  20663348.315 6         0.000 6     -1174.290 6        37.977 6
G20  21929569.581 9 115240632.997 9      2570.611 9        55.321 9  21929569.893 6         0.000 6      2003.074 6        37.977 6
> 2019 07 03 12 01 31.0000000  0  8       0.000000000000
G07  25333342.262 9 133127566.145 9      2155.350 9        54.136 9  25333342.925 6         0.000 6      1679.494 6        37.977 6
G10  23788841.553 9 125011151.776 9      3535.462 9        54.677 9  23788845.259 6         0.000 6      2754.908 6        37.977 6
G21  21178523.677 9 111293872.402 9     -1247.762 9        55.706 9  21178522.964 6         0.000 6      -972.282 6        37.977 6
G29  24318994.354 9 127797121.182 9     -3080.737 9        54.468 9  24318995.948 6         0.000 6     -2400.577 6        37.977 6
G27  21989235.251 9 115554184.265 9      2459.833 9        55.380 9  21989237.178 6         0.000 6      1916.753 6        37.977 6
G16  20493733.199 9 107695274.538 9       521.721 9        55.978 9  20493732.372 6         0.000 6       406.536 6        37.977 6
G26  20663632.288 9 108588098.253 9     -1507.198 9        55.869 9  20663635.108 6         0.000 6     -1174.441 6        37.977 6
G20  21929080.389 9 115238062.280 9      2570.826 9        55.321 9  21929080.701 6         0.000 6      2003.242 6        37.977 6
> 2019 07 03 12 01 32.0000000  0  8       0.000000000000
G07  25332932.242 9 133125411.476 9      2153.996 9        54.136 9  25332932.904 6         0.000 6      1678.439 6        37.977 6
G10  23788168.707 9 125007615.957 9      3536.195 9        54.677 9  23788172.412 6         0.000 6      2755.479 6        37.977 6
G21  21178761.159 9 111295120.380 9     -1248.200 9        55.706 9  21178760.446 6         0.000 6      -972.624 6        37.977 6
G29  24319580.593 9 127800201.879 9     -3080.684 9        54.468 9  24319582.187 6         0.000 6     -2400.535 6        37.977 6
G27  21988767.211 9 115551724.699 9      2459.308 9        55.381 9  21988769.138 6         0.000 6      1916.344 6        37.977 6
G16  20493633.987 9 107694753.172 9       521.011 9        55.978 9  20493633.160 6         0.000 6       405.982 6        37.977 6
G26  20663919.116 9 108589605.543 9     -1507.386 9        55.869 9  20663921.936 6         0.000 6     -1174.587 6        37.977 6
G20  21928591.159 9 115235491.367 9      2571.005 9        55.322 9  21928591.472 6         0.000 6      2003.382 6        37.977 6
> 2019 07 03 12 01 33.0000000  0  8       0.000000000000
G07  25332522.478 9 133123258.157 9      2152.665 9        54.136 9  25332523.140 6         0.000 6      1677.402 6        37.977 6
G10  23787495.722 9 125004079.409 9      3536.906 9        54.677 9  23787499.427 6         0.000 6      2756.033 6        37.977 6
G21  21178998.727 9 111296368.807 9     -1248.658 9        55.706 9  21178998.014 6         0.000 6      -972.980 6        37.977 6
G29  24320166.825 9 127803282.542 9     -3080.669 9        54.468 9  24320168.421 6         0.000 6     -2400.524 6        37.977 6
G27  21988299.268 9 115549265.647 9      2458.808 9        55.381 9  21988301.195 6         0.000 6      1915.955 6        37.977 6
G16  20493534.909 9 107694232.514 9       520.307 9        55.978 9  20493534.082 6         0.000 6       405.434 6        37.977 6
G26  20664205.980 9 108591113.019 9     -1507.579 9        55.869 9  20664208.800 6         0.000 6     -1174.738 6        37.977 6
G20  21928101.898 9 115232920.284 9      2571.156 9        55.322 9  21928102.210 6         0.000 6      2003.499 6        37.977 6
> 2019 07 03 12 01 34.0000000  0  8       0.000000000000
G07  25332112.964 9 133121106.149 9      2151.366 9        54.137 9  25332113.626 6         0.000 6      1676.390 6        37.977 6
G10  23786822.605 9 125000542.166 9      3537.595 9        54.678 9  23786826.309 6         0.000 6      2756.570 6        37.977 6
G21  21179236.383 9 111297617.694 9     -1249.121 9        55.706 9  21179235.670 6         0.000 6      -973.341 6        37.977 6
G29  24320753.059 9 127806363.208 9     -3080.694 9        54.467 9  24320754.654 6         0.000 6     -2400.543 6        37.977 6
G27  21987831.417 9 115546807.077 9      2458.347 9        55.381 9  21987833.344 6         0.000 6      1915.596 6        37.977 6
G16  20493435.963 9 107693712.550 9       519.625 9        55.978 9  20493435.136 6         0.000 6       404.903 6        37.977 6
G26  20664492.881 9 108592620.691 9     -1507.768 9        55.869 9  20664495.701 6         0.000 6     -1174.885 6        37.977 6
G20  21927612.610 9 115230349.066 9      2571.283 9        55.322 9  21927612.922 6         0.000 6      2003.598 6        37.977 6
> 2019 07 03 12 01 35.0000000  0  8       0.000000000000
G07  25331703.696 9 133118955.434 9      2150.084 9        54.137 9  25331704.358 6         0.000 6      1675.391 6        37.977 6
G10  23786149.357 9 124997004.236 9      3538.268 9        54.678 9  23786153.061 6         0.000 6      2757.095 6        37.977 6
G21  21179474.127 9 111298867.046 9     -1249.590 9        55.706 9  21179473.414 6         0.000 6      -973.707 6        37.977 6
G29  24321339.299 9 127809443.911 9     -3080.736 9        54.467 9  24321340.895 6         0.000 6     -2400.576 6        37.977 6
G27  21987363.652 9 115544348.955 9      2457.901 9        55.381 9  21987365.578 6         0.000 6      1915.248 6        37.977 6
G16  20493337.145 9 107693193.259 9       518.950 9        55.978 9  20493336.318 6         0.000 6       404.377 6        37.977 6
G26  20664779.816 9 108594128.546 9     -1507.960 9        55.869 9  20664782.636 6         0.000 6     -1175.034 6        37.977 6
G20  21927123.299 9 115227777.725 9      2571.393 9        55.322 9  21927123.611 6         0.000 6      2003.684 6        37.977 6
> 2019 07 03 12 01 36.0000000  0  8       0.000000000000
G07  25331294.669 9 133116805.986 9      2148.822 9        54.137 9  25331295.330 6         0.000 6      1674.408 6        37.977 6
G10  23785475.985 9 124993465.649 9      3538.924 9        54.678 9  23785479.688 6         0.000 6      2757.606 6        37.977 6
G21  21179711.961 9 111300116.874 9     -1250.068 9        55.706 9  21179711.248 6         0.000 6      -974.079 6        37.977 6
G29  24321925.550 9 127812524.669 9     -3080.803 9        54.467 9  24321927.147 6         0.000 6     -2400.628 6        37.977 6
G27  21986895.970 9 115541891.271 9      2457.474 9        55.381 9  21986897.896 6         0.000 6      1914.915 6        37.977 6
G16  20493238.456 9 107692674.643 9       518.283 9        55.978 9  20493237.629 6         0.000 6       403.857 6        37.977 6
G26  20665066.790 9 108595636.602 9     -1508.156 9        55.869 9  20665069.610 6         0.000 6     -1175.187 6        37.977 6
G20  21926633.971 9 115225206.289 9      2571.484 9        55.322 9  21926634.282 6         0.000 6      2003.755 6        37.977 6
> 2019 07 03 12 01 37.0000000  0  8       0.000000000000
G07  25330885.880 9 133114657.791 9      2147.577 9        54.137 9  25330886.542 6         0.000 6      1673.438 6        37.977 6
G10  23784802.488 9 124989926.411 9      3539.566 9        54.678 9  23784806.190 6         0.000 6      2758.106 6        37.977 6
G21  21179949.886 9 111301367.176 9     -1250.546 9        55.706 9  21179949.173 6         0.000 6      -974.452 6        37.977 6
G29  24322511.814 9 127815605.500 9     -3080.883 9        54.467 9  24322513.412 6         0.000 6     -2400.690 6        37.977 6
G27  21986428.367 9 115539434.006 9      2457.061 9        55.381 9  21986430.293 6         0.000 6      1914.594 6        37.977 6
G16  20493139.892 9 107692156.686 9       517.624 9        55.978 9  20493139.065 6         0.000 6       403.343 6        37.977 6
G26  20665353.801 9 108597144.851 9     -1508.353 9        55.869 9  20665356.621 6         0.000 6     -1175.340 6        37.977 6
G20  21926144.625 9 115222634.767 9      2571.562 9        55.323 9  21926144.936 6         0.000 6      2003.816 6        37.977 6
> 2019 07 03 12 01 38.0000000  0  8       0.000000000000
G07  25330477.327 9 133112510.836 9      2146.351 9        54.137 9  25330477.989 6         0.000 6      1672.482 6        37.977 6
G10  23784128.871 9 124986386.538 9      3540.192 9        54.679 9  23784132.572 6         0.000 6      2758.594 6        37.977 6
G21  21180187.903 9 111302617.963 9     -1251.025 9        55.705 9  21180187.190 6         0.000 6      -974.825 6        37.977 6
G29  24323098.096 9 127818686.422 9     -3080.976 9        54.467 9  24323099.695 6         0.000 6     -2400.763 6        37.977 6
G27  21985960.841 9 115536977.144 9      2456.664 9        55.382 9  21985962.767 6         0.000 6      1914.285 6        37.977 6
G16  20493041.453 9 107691639.386 9       516.974 9        55.978 9  20493040.626 6         0.000 6       402.837 6        37.977 6
G26  20665640.849 9 108598653.297 9     -1508.550 9        55.868 9  20665643.669 6         0.000 6     -1175.494 6        37.977 6
G20  21925655.267 9 115220063.174 9      2571.627 9        55.323 9  21925655.577 6         0.000 6      2003.866 6        37.977 6
> 2019 07 03 12 01 39.0000000  0  8       0.000000000000
G07  25330069.007 9 133110365.099 9      2145.137 9        54.137 9  25330069.668 6         0.000 6      1671.536 6        37.977 6
G10  23783455.136 9 124982846.048 9      3540.804 9        54.679 9  23783458.837 6         0.000 6      2759.071 6        37.977 6
G21  21180426.011 9 111303869.231 9     -1251.513 9        55.705 9  21180425.299 6         0.000 6      -975.205 6        37.977 6
G29  24323684.396 9 127821767.436 9     -3081.081 9        54.466 9  24323685.995 6         0.000 6     -2400.845 6        37.977 6
G27  21985493.392 9 115534520.683 9      2456.272 9        55.382 9  21985495.318 6         0.000 6      1913.979 6        37.977 6
G16  20492943.139 9 107691122.742 9       516.321 9        55.978 9  20492942.312 6         0.000 6       402.328 6        37.977 6
G26  20665927.936 9 108600161.949 9     -1508.758 9        55.868 9  20665930.757 6         0.000 6     -1175.656 6        37.977 6
G20  21925165.897 9 115217491.524 9      2571.676 9        55.323 9  21925166.208 6         0.000 6      2003.904 6        37.977 6
> 2019 07 03 12 01 40.0000000  0  8       0.000000000000
G07  25329660.915 9 133108220.564 9      2143.936 9        54.137 9  25329661.575 6         0.000 6      1670.601 6        37.977 6
G10  23782781.286 9 124979304.953 9      3541.407 9        54.679 9  23782784.986 6         0.000 6      2759.540 6        37.977 6
G21  21180664.213 9 111305120.986 9     -1252.000 9        55.705 9  21180663.500 6         0.000 6      -975.584 6        37.977 6
G29  24324270.717 9 127824848.568 9     -3081.198 9        54.466 9  24324272.317 6         0.000 6     -2400.936 6        37.977 6
G27  21985026.014 9 115532064.599 9      2455.895 9        55.382 9  21985027.940 6         0.000 6      1913.685 6        37.977 6
G16  20492844.947 9 107690606.739 9       515.680 9        55.978 9  20492844.119 6         0.000 6       401.828 6        37.977 6
G26  20666215.062 9 108601670.805 9     -1508.961 9        55.868 9  20666217.883 6         0.000 6     -1175.814 6        37.977 6
G20  21924676.520 9 115214919.833 9      2571.717 9        55.323 9  21924676.830 6         0.000 6      2003.937 6        37.977 6
> 2019 07 03 12 01 41.0000000  0  8       0.000000000000
G07  25329253.050 9 133106077.225 9      2142.754 9        54.138 9  25329253.711 6         0.000 6      1669.679 6        37.977 6
G10  23782107.322 9 124975763.262 9      3541.993 9        54.679 9  23782111.022 6         0.000 6      2759.997 6        37.977 6
G21  21180902.506 9 111306373.228 9     -1252.487 9        55.705 9  21180901.794 6         0.000 6      -975.964 6        37.977 6
G29  24324857.062 9 127827929.817 9     -3081.323 9        54.466 9  24324858.662 6         0.000 6     -2401.033 6        37.977 6
G27  21984558.708 9 115529608.891 9      2455.528 9        55.382 9  21984560.633 6         0.000 6      1913.399 6        37.977 6
G16  20492746.877 9 107690091.378 9       515.042 9        55.978 9  20492746.050 6         0.000 6       401.332 6        37.977 6
G26  20666502.227 9 108603179.867 9     -1509.169 9        55.868 9  20666505.048 6         0.000 6     -1175.977 6        37.977 6
G20  21924187.135 9 115212348.104 9      2571.745 9        55.323 9  21924187.445 6         0.000 6      2003.958 6        37.977 6
> 2019 07 03 12 01 42.0000000  0  8       0.000000000000
G07  25328845.410 9 133103935.066 9      2141.576 9        54.138 9  25328846.070 6         0.000 6      1668.761 6        37.977 6
G10  23781433.248 9 124972220.990 9      3542.573 9        54.680 9  23781436.947 6         0.000 6      2760.449 6        37.977 6
G21  21181140.895 9 111307625.965 9     -1252.983 9        55.705 9  21181140.182 6         0.000 6      -976.351 6        37.977 6
G29  24325443.431 9 127831011.199 9     -3081.463 9        54.466 9  24325445.032 6         0.000 6     -2401.142 6        37.977 6
G27  21984091.471 9 115527153.549 9      2455.168 9        55.382 9  21984093.397 6         0.000 6      1913.118 6        37.977 6
G16  20492648.929 9 107689576.658 9       514.405 9        55.979 9  20492648.102 6         0.000 6       400.835 6        37.977 6
G26  20666789.434 9 108604689.144 9     -1509.381 9        55.868 9  20666792.254 6         0.000 6     -1176.142 6        37.977 6
G20  21923697.747 9 115209776.356 9      2571.762 9        55.324 9  21923698.057 6         0.000 6      2003.971 6        37.977 6
> 2019 07 03 12 01 43.0000000  0  8       0.000000000000
G07  25328437.992 9 133101794.075 9      2140.416 9        54.138 9  25328438.653 6         0.000 6      1667.858 6        37.977 6
G10  23780759.065 9 124968678.142 9      3543.138 9        54.680 9  23780762.763 6         0.000 6      2760.889 6        37.977 6
G21  21181379.376 9 111308879.193 9     -1253.476 9        55.705 9  21181378.663 6         0.000 6      -976.735 6        37.977 6
G29  24326029.827 9 127834092.723 9     -3081.606 9        54.466 9  24326031.429 6         0.000 6     -2401.254 6        37.977 6
G27  21983624.302 9 115524698.559 9      2454.817 9        55.383 9  21983626.227 6         0.000 6      1912.845 6        37.977 6
G16  20492551.100 9 107689062.567 9       513.775 9        55.979 9  20492550.273 6         0.000 6       400.344 6        37.977 6
G26  20667076.679 9 108606198.628 9     -1509.596 9        55.868 9  20667079.500 6         0.000 6     -1176.309 6        37.977 6
G20  21923208.356 9 115207204.593 9      2571.769 9        55.324 9  21923208.665 6         0.000 6      2003.977 6        37.977 6
> 2019 07 03 12 01 44.0000000  0  8       0.000000000000
G07  25328030.795 9 133099654.244 9      2139.261 9        54.138 9  25328031.455 6         0.000 6      1666.958 6        37.977 6
G10  23780084.774 9 124965134.732 9      3543.698 9        54.680 9  23780088.472 6         0.000 6      2761.326 6        37.977 6
G21  21181617.952 9 111310132.918 9     -1253.973 9        55.705 9  21181617.239 6         0.000 6      -977.122 6        37.977 6
G29  24326616.251 9 127837174.391 9     -3081.760 9        54.465 9  24326617.854 6         0.000 6     -2401.374 6        37.977 6
G27  21983157.199 9 115522243.922 9      2454.474 9        55.383 9  21983159.124 6         0.000 6      1912.578 6        37.977 6
G16  20492453.393 9 107688549.110 9       513.148 9        55.979 9  20492452.566 6         0.000 6       399.855 6        37.977 6
G26  20667363.967 9 108607708.331 9     -1509.810 9        55.868 9  20667366.788 6         0.000 6     -1176.476 6        37.977 6
G20  21922718.964 9 115204632.826 9      2571.770 9        55.324 9  21922719.273 6         0.000 6      2003.977 6        37.977 6
> 2019 07 03 12 01 45.0000000  0  8       0.000000000000
G07  25327623.817 9 133097515.559 9      2138.119 9        54.138 9  25327624.476 6         0.000 6      1666.068 6        37.977 6
G10  23779410.378 9 124961590.767 9      3544.247 9        54.680 9  23779414.075 6         0.000 6      2761.754 6        37.977 6
G21  21181856.622 9 111311387.136 9     -1254.469 9        55.705 9  21181855.909 6         0.000 6      -977.509 6        37.977 6
G29  24327202.705 9 127840256.216 9     -3081.917 9        54.465 9  24327204.308 6         0.000 6     -2401.496 6        37.977 6
G27  21982690.161 9 115519789.621 9      2454.136 9        55.383 9  21982692.086 6         0.000 6      1912.314 6        37.977 6
G16  20492355.804 9 107688036.274 9       512.523 9        55.979 9  20492354.976 6         0.000 6       399.369 6        37.977 6
G26  20667651.294 9 108609218.247 9     -1510.028 9        55.868 9  20667654.115 6         0.000 6     -1176.646 6        37.977 6
G20  21922229.573 9 115202061.062 9      2571.761 9        55.324 9  21922229.882 6         0.000 6      2003.971 6        37.977 6
> 2019 07 03 12 01 46.0000000  0  8       0.000000000000
G07  25327217.055 9 133095378.015 9      2136.988 9        54.138 9  25327217.714 6         0.000 6      1665.186 6        37.977 6
G10  23778735.878 9 124958046.255 9      3544.786 9        54.681 9  23778739.574 6         0.000 6      2762.174 6        37.977 6
G21  21182095.387 9 111312641.856 9     -1254.971 9        55.705 9  21182094.675 6         0.000 6      -977.900 6        37.977 6
G29  24327789.191 9 127843338.210 9     -3082.089 9        54.465 9  24327790.794 6         0.000 6     -2401.630 6        37.977 6
G27  21982223.185 9 115517335.651 9      2453.809 9        55.383 9  21982225.110 6         0.000 6      1912.060 6        37.977 6
G16  20492258.333 9 107687524.061 9       511.903 9        55.979 9  20492257.505 6         0.000 6       398.885 6        37.977 6
G26  20667938.663 9 108610728.379 9     -1510.248 9        55.867 9  20667941.485 6         0.000 6     -1176.817 6        37.977 6
G20  21921740.184 9 115199489.311 9      2571.741 9        55.324 9  21921740.492 6         0.000 6      2003.955 6        37.977 6
> 2019 07 03 12 01 47.0000000  0  8       0.000000000000
G07  25326810.507 9 133093241.598 9      2135.857 9        54.138 9  25326811.167 6         0.000 6      1664.305 6        37.977 6
G10  23778061.276 9 124954501.206 9      3545.325 9        54.681 9  23778064.972 6         0.000 6      2762.594 6        37.977 6
G21  21182334.248 9 111313897.077 9     -1255.477 9        55.705 9  21182333.536 6         0.000 6      -978.294 6        37.977 6
G29  24328375.710 9 127846420.376 9     -3082.268 9        54.465 9  24328377.314 6         0.000 6     -2401.770 6        37.977 6
G27  21981756.272 9 115514882.006 9      2453.486 9        55.383 9  21981758.196 6         0.000 6      1911.808 6        37.977 6
G16  20492160.979 9 107687012.466 9       511.284 9        55.979 9  20492160.152 6         0.000 6       398.403 6        37.977 6
G26  20668226.074 9 108612238.732 9     -1510.467 9        55.867 9  20668228.896 6         0.000 6     -1176.987 6        37.977 6
G20  21921250.799 9 115196917.582 9      2571.719 9        55.325 9  21921251.108 6         0.000 6      2003.938 6        37.977 6
> 2019 07 03 12 01 48.0000000  0  8       0.000000000000
G07  25326404.174 9 133091106.307 9      2134.744 9        54.139 9  25326404.833 6         0.000 6      1663.438 6        37.977 6
G10  23777386.572 9 124950955.626 9      3545.849 9        54.681 9  23777390.267 6         0.000 6      2763.002 6        37.977 6
G21  21182573.206 9 111315152.807 9     -1255.980 9        55.704 9  21182572.493 6         0.000 6      -978.686 6        37.977 6
G29  24328962.263 9 127849502.723 9     -3082.453 9        54.464 9  24328963.868 6         0.000 6     -2401.914 6        37.977 6
G27  21981289.420 9 115512428.684 9      2453.175 9        55.383 9  21981291.344 6         0.000 6      1911.565 6        37.977 6
G16  20492063.744 9 107686501.492 9       510.673 9        55.979 9  20492062.917 6         0.000 6       397.927 6        37.977 6
G26  20668513.528 9 108613749.309 9     -1510.687 9        55.867 9  20668516.349 6         0.000 6     -1177.159 6        37.977 6
G20  21920761.420 9 115194345.882 9      2571.685 9        55.325 9  21920761.728 6         0.000 6      2003.912 6        37.977 6
> 2019 07 03 12 01 49.0000000  0  8       0.000000000000
G07  25325998.053 9 133088972.128 9      2133.628 9        54.139 9  25325998.712 6         0.000 6      1662.568 6        37.977 6
G10  23776711.768 9 124947409.519 9      3546.377 9        54.681 9  23776715.463 6         0.000 6      2763.414 6        37.977 6
G21  21182812.259 9 111316409.037 9     -1256.486 9        55.704 9  21182811.546 6         0.000 6      -979.080 6        37.977 6
G29  24329548.852 9 127852585.259 9     -3082.643 9        54.464 9  24329550.457 6         0.000 6     -2402.062 6        37.977 6
G27  21980822.626 9 115509975.668 9      2452.865 9        55.384 9  21980824.550 6         0.000 6      1911.324 6        37.977 6
G16  20491966.624 9 107685991.122 9       510.063 9        55.979 9  20491965.797 6         0.000 6       397.452 6        37.977 6
G26  20668801.022 9 108615260.100 9     -1510.905 9        55.867 9  20668803.844 6         0.000 6     -1177.329 6        37.977 6
G20  21920272.047 9 115191774.213 9      2571.653 9        55.325 9  21920272.355 6         0.000 6      2003.887 6        37.977 6
> 2019 07 03 12 01 50.0000000  0  8       0.000000000000
G07  25325592.142 9 133086839.054 9      2132.528 9        54.139 9  25325592.801 6         0.000 6      1661.711 6        37.977 6
G10  23776036.867 9 124943862.898 9      3546.889 9        54.682 9  23776040.561 6         0.000 6      2763.812 6        37.977 6
G21  21183051.409 9 111317665.780 9     -1256.996 9        55.704 9  21183050.697 6         0.000 6      -979.477 6        37.977 6
G29  24330135.479 9 127855667.994 9     -3082.846 9        54.464 9  24330137.085 6         0.000 6     -2402.220 6        37.977 6
G27  21980355.890 9 115507522.957 9      2452.566 9        55.384 9  21980357.814 6         0.000 6      1911.091 6        37.977 6
G16  20491869.621 9 107685481.365 9       509.458 9        55.979 9  20491868.793 6         0.000 6       396.980 6        37.977 6
G26  20669088.559 9 108616771.117 9     -1511.127 9        55.867 9  20669091.381 6         0.000 6     -1177.502 6        37.977 6
G20  21919782.683 9 115189202.591 9      2571.605 9        55.325 9  21919782.990 6         0.000 6      2003.849 6        37.977 6
> 2019 07 03 12 01 51.0000000  0  8       0.000000000000
G07  25325186.441 9 133084707.085 9      2131.428 9        54.139 9  25325187.099 6         0.000 6      1660.854 6        37.977 6
G10  23775361.867 9 124940315.759 9      3547.401 9        54.682 9  23775365.560 6         0.000 6      2764.212 6        37.977 6
G21  21183290.657 9 111318923.035 9     -1257.510 9        55.704 9  21183289.944 6         0.000 6      -979.878 6        37.977 6
G29  24330722.145 9 127858750.937 9     -3083.056 9        54.464 9  24330723.752 6         0.000 6     -2402.384 6        37.977 6
G27  21979889.210 9 115505070.542 9      2452.272 9        55.384 9  21979891.134 6         0.000 6      1910.862 6        37.977 6
G16  20491772.732 9 107684972.210 9       508.854 9        55.979 9  20491771.904 6         0.000 6       396.509 6        37.977 6
G26  20669376.138 9 108618282.351 9     -1511.348 9        55.867 9  20669378.960 6         0.000 6     -1177.674 6        37.977 6
G20  21919293.327 9 115186631.012 9      2571.556 9        55.325 9  21919293.634 6         0.000 6      2003.811 6        37.977 6
> 2019 07 03 12 01 52.0000000  0  8       0.000000000000
G07  25324780.949 9 133082576.212 9      2130.331 9        54.139 9  25324781.607 6         0.000 6      1659.999 6        37.977 6
G10  23774686.769 9 124936768.108 9      3547.912 9        54.682 9  23774690.462 6         0.000 6      2764.609 6        37.977 6
G21  21183530.001 9 111320180.796 9     -1258.026 9        55.704 9  21183529.289 6         0.000 6      -980.280 6        37.977 6
G29  24331308.851 9 127861834.087 9     -3083.270 9        54.464 9  24331310.458 6         0.000 6     -2402.551 6        37.977 6
G27  21979422.586 9 115502618.417 9      2451.981 9        55.384 9  21979424.510 6         0.000 6      1910.635 6        37.977 6
G16  20491675.956 9 107684463.653 9       508.251 9        55.979 9  20491675.129 6         0.000 6       396.040 6        37.977 6
G26  20669663.758 9 108619793.802 9     -1511.569 9        55.867 9  20669666.580 6         0.000 6     -1177.846 6        37.977 6
G20  21918803.980 9 115184059.482 9      2571.503 9        55.325 9  21918804.287 6         0.000 6      2003.769 6        37.977 6
> 2019 07 03 12 01 53.0000000  0  8       0.000000000000
G07  25324375.664 9 133080446.430 9      2129.243 9        54.139 9  25324376.322 6         0.000 6      1659.151 6        37.977 6
G10  23774011.576 9 124933219.955 9      3548.415 9        54.682 9  23774015.268 6         0.000 6      2765.002 6        37.977 6
G21  21183769.445 9 111321439.082 9     -1258.545 9        55.704 9  21183768.733 6         0.000 6      -980.684 6        37.977 6
G29  24331895.600 9 127864917.461 9     -3083.500 9        54.463 9  24331897.208 6         0.000 6     -2402.730 6        37.977 6
G27  21978956.016 9 115500166.580 9      2451.703 9        55.384 9  21978957.940 6         0.000 6      1910.418 6        37.977 6
G16  20491579.296 9 107683955.701 9       507.657 9        55.979 9  20491578.469 6         0.000 6       395.577 6        37.977 6
G26  20669951.421 9 108621305.479 9     -1511.786 9        55.867 9  20669954.243 6         0.000 6     -1178.016 6        37.977 6
G20  21918314.645 9 115181488.014 9      2571.442 9        55.326 9  21918314.952 6         0.000 6      2003.722 6        37.977 6
> 2019 07 03 12 01 54.0000000  0  8       0.000000000000
G07  25323970.585 9 133078317.732 9      2128.160 9        54.139 9  25323971.243 6         0.000 6      1658.308 6        37.977 6
G10  23773336.288 9 124929671.300 9      3548.915 9        54.683 9  23773339.979 6         0.000 6      2765.391 6        37.977 6
G21  21184008.988 9 111322697.888 9     -1259.066 9        55.704 9  21184008.276 6         0.000 6      -981.090 6        37.977 6
G29  24332482.393 9 127868001.072 9     -3083.734 9        54.463 9  24332484.002 6         0.000 6     -2402.912 6        37.977 6
G27  21978489.498 9 115497715.014 9      2451.429 9        55.385 9  21978491.422 6         0.000 6      1910.205 6        37.977 6
G16  20491482.749 9 107683448.339 9       507.064 9        55.979 9  20491481.921 6         0.000 6       395.115 6        37.977 6
G26  20670239.125 9 108622817.372 9     -1512.005 9        55.866 9  20670241.947 6         0.000 6     -1178.186 6        37.977 6
G20  21917825.322 9 115178916.610 9      2571.376 9        55.326 9  21917825.629 6         0.000 6      2003.671 6        37.977 6
> 2019 07 03 12 01 55.0000000  0  8       0.000000000000
G07  25323565.714 9 133076190.122 9      2127.079 9        54.140 9  25323566.372 6         0.000 6      1657.465 6        37.977 6
G10  23772660.903 9 124926122.141 9      3549.415 9        54.683 9  23772664.594 6         0.000 6      2765.781 6        37.977 6
G21  21184248.630 9 111323957.217 9     -1259.589 9        55.704 9  21184247.918 6         0.000 6      -981.498 6        37.977 6
G29  24333069.231 9 127871084.916 9     -3083.978 9        54.463 9  24333070.840 6         0.000 6     -2403.103 6        37.977 6
G27  21978023.033 9 115495263.724 9      2451.164 9        55.385 9  21978024.956 6         0.000 6      1909.999 6        37.977 6
G16  20491386.314 9 107682941.571 9       506.478 9        55.979 9  20491385.487 6         0.000 6       394.658 6        37.977 6
G26  20670526.870 9 108624329.481 9     -1512.218 9        55.866 9  20670529.692 6         0.000 6     -1178.352 6        37.977 6
G20  21917336.012 9 115176345.270 9      2571.309 9        55.326 9  21917336.318 6         0.000 6      2003.618 6        37.977 6
> 2019 07 03 12 01 56.0000000  0  8       0.000000000000
G07  25323161.047 9 133074063.588 9      2125.998 9        54.140 9  25323161.705 6         0.000 6      1656.623 6        37.977 6
G10  23771985.425 9 124922572.488 9      3549.913 9        54.683 9  23771989.114 6         0.000 6      2766.169 6        37.977 6
G21  21184488.373 9 111325217.070 9     -1260.118 9        55.704 9  21184487.661 6         0.000 6      -981.911 6        37.977 6
G29  24333656.116 9 127874169.006 9     -3084.228 9        54.463 9  24333657.726 6         0.000 6     -2403.297 6        37.977 6
G27  21977556.618 9 115492812.699 9      2450.899 9        55.385 9  21977558.541 6         0.000 6      1909.792 6        37.977 6
G16  20491289.991 9 107682435.391 9       505.889 9        55.979 9  20491289.164 6         0.000 6       394.199 6        37.977 6
G26  20670814.657 9 108625841.809 9     -1512.434 9        55.866 9  20670817.479 6         0.000 6     -1178.521 6        37.977 6
G20  21916846.715 9 115173774.002 9      2571.236 9        55.326 9  21916847.021 6         0.000 6      2003.562 6        37.977 6
> 2019 07 03 12 01 57.0000000  0  8       0.000000000000
G07  25322756.585 9 133071938.129 9      2124.923 9        54.140 9  25322757.243 6         0.000 6      1655.785 6        37.977 6
G10  23771309.852 9 124919022.338 9      3550.408 9        54.683 9  23771313.541 6         0.000 6      2766.555 6        37.977 6
G21  21184728.216 9 111326477.454 9     -1260.652 9        55.704 9  21184727.504 6         0.000 6      -982.327 6        37.977 6
G29  24334243.051 9 127877253.358 9     -3084.493 9        54.463 9  24334244.661 6         0.000 6     -2403.504 6        37.977 6
G27  21977090.251 9 115490361.926 9      2450.647 9        55.385 9  21977092.174 6         0.000 6      1909.595 6        37.977 6
G16  20491193.778 9 107681929.791 9       505.307 9        55.979 9  20491192.951 6         0.000 6       393.746 6        37.977 6
G26  20671102.483 9 108627354.347 9     -1512.647 9        55.866 9  20671105.306 6         0.000 6     -1178.686 6        37.977 6
G20  21916357.433 9 115171202.810 9      2571.158 9        55.326 9  21916357.738 6         0.000 6      2003.501 6        37.977 6
> 2019 07 03 12 01 58.0000000  0  8       0.000000000000
G07  25322352.329 9 133069813.749 9      2123.850 9        54.140 9  25322352.986 6         0.000 6      1654.949 6        37.977 6
G10  23770634.184 9 124915471.691 9      3550.903 9        54.684 9  23770637.872 6         0.000 6      2766.940 6        37.977 6
G21  21184968.161 9 111327738.374 9     -1261.189 9        55.703 9  21184967.449 6         0.000 6      -982.745 6        37.977 6
G29  24334830.036 9 127880337.975 9     -3084.765 9        54.462 9  24334831.647 6         0.000 6     -2403.715 6        37.977 6
G27  21976623.932 9 115487911.408 9      2450.399 9        55.385 9  21976625.855 6         0.000 6      1909.403 6        37.977 6
G16  20491097.677 9 107681424.775 9       504.729 9        55.979 9  20491096.850 6         0.000 6       393.295 6        37.977 6
G26  20671390.351 9 108628867.097 9     -1512.857 9        55.866 9  20671393.173 6         0.000 6     -1178.850 6        37.977 6
G20  21915868.165 9 115168631.696 9      2571.077 9        55.327 9  21915868.470 6         0.000 6      2003.438 6        37.977 6
> 2019 07 03 12 01 59.0000000  0  8       0.000000000000
G07  25321948.276 9 133067690.444 9      2122.777 9        54.140 9  25321948.933 6         0.000 6      1654.113 6        37.977 6
G10  23769958.421 9 124911920.545 9      3551.398 9        54.684 9  23769962.109 6         0.000 6      2767.325 6        37.977 6
G21  21185208.209 9 111328999.833 9     -1261.731 9        55.703 9  21185207.497 6         0.000 6      -983.167 6        37.977 6
G29  24335417.073 9 127883422.869 9     -3085.045 9        54.462 9  24335418.685 6         0.000 6     -2403.934 6        37.977 6
G27  21976157.660 9 115485461.134 9      2450.156 9        55.386 9  21976159.583 6         0.000 6      1909.213 6        37.977 6
G16  20491001.685 9 107680920.334 9       504.151 9        55.979 9  20491000.858 6         0.000 6       392.845 6        37.977 6
G26  20671678.257 9 108630380.053 9     -1513.066 9        55.866 9  20671681.080 6         0.000 6     -1179.013 6        37.977 6
G20  21915378.912 9 115166060.661 9      2570.993 9        55.327 9  21915379.217 6         0.000 6      2003.372 6        37.977 6
> 2019 07 03 12 02  0.0000000  0  8       0.000000000000
G07  25321544.428 9 133065568.207 9      2121.704 9        54.140 9  25321545.084 6         0.000 6      1653.277 6        37.977 6
G10  23769282.565 9 124908368.909 9      3551.896 9        54.684 9  23769286.253 6         0.000 6      2767.714 6        37.977 6
G21  21185448.360 9 111330261.835 9     -1262.273 9        55.703 9  21185447.648 6         0.000 6      -983.589 6        37.977 6
G29  24336004.166 9 127886508.049 9     -3085.335 9        54.462 9  24336005.778 6         0.000 6     -2404.160 6        37.977 6
G27  21975691.433 9 115483011.097 9      2449.923 9        55.386 9  21975693.355 6         0.000 6      1909.031 6        37.977 6
G16  20490905.803 9 107680416.467 9       503.582 9        55.979 9  20490904.975 6         0.000 6       392.402 6        37.977 6
G26  20671966.203 9 108631893.218 9     -1513.267 9        55.866 9  20671969.026 6         0.000 6     -1179.169 6        37.977 6
G20  21914889.677 9 115163489.714 9      2570.910 9        55.327 9  21914889.981 6         0.000 6      2003.307 6        37.977 6
> 2019 07 03 12 02  1.0000000  0  8       0.000000000000
G07  25321140.783 9 133063447.047 9      2120.633 9        54.140 9  25321141.440 6         0.000 6      1652.442 6        37.977 6
G10  23768606.614 9 124904816.770 9      3552.393 9        54.684 9  23768610.301 6         0.000 6      2768.101 6        37.977 6
G21  21185688.615 9 111331524.382 9     -1262.825 9        55.703 9  21185687.903 6         0.000 6      -984.020 6        37.977 6
G29  24336591.314 9 127889593.524 9     -3085.640 9        54.462 9  24336592.927 6         0.000 6     -2404.398 6        37.977 6
G27  21975225.250 9 115480561.290 9      2449.697 9        55.386 9  21975227.172 6         0.000 6      1908.855 6        37.977 6
G16  20490810.028 9 107679913.168 9       503.015 9        55.979 9  20490809.201 6         0.000 6       391.960 6        37.977 6
G26  20672254.186 9 108633406.579 9     -1513.466 9        55.866 9  20672257.009 6         0.000 6     -1179.325 6        37.977 6
G20  21914400.456 9 115160918.849 9      2570.820 9        55.327 9  21914400.761 6         0.000 6      2003.237 6        37.977 6
> 2019 07 03 12 02  2.0000000  0  8       0.000000000000
G07  25320737.343 9 133061326.954 9      2119.559 9        54.141 9  25320737.999 6         0.000 6      1651.605 6        37.977 6
G10  23767930.568 9 124901264.137 9      3552.896 9        54.685 9  23767934.254 6         0.000 6      2768.493 6        37.977 6
G21  21185928.976 9 111332787.485 9     -1263.379 9        55.703 9  21185928.264 6         0.000 6      -984.451 6        37.977 6
G29  24337178.522 9 127892679.315 9     -3085.957 9        54.462 9  24337180.136 6         0.000 6     -2404.644 6        37.977 6
G27  21974759.109 9 115478111.704 9      2449.481 9        55.386 9  21974761.031 6         0.000 6      1908.687 6        37.977 6
G16  20490714.361 9 107679410.434 9       502.455 9        55.979 9  20490713.534 6         0.000 6       391.524 6        37.977 6
G26  20672542.208 9 108634920.140 9     -1513.657 9        55.866 9  20672545.031 6         0.000 6     -1179.474 6        37.977 6
G20  21913911.254 9 115158348.080 9      2570.732 9        55.327 9  21913911.559 6         0.000 6      2003.169 6        37.977 6
> 2019 07 03 12 02  3.0000000  0  8       0.000000000000
G07  25320334.107 9 133059207.938 9      2118.483 9        54.141 9  25320334.763 6         0.000 6      1650.767 6        37.977 6
G10  23767254.426 9 124897710.998 9      3553.401 9        54.685 9  23767258.112 6         0.000 6      2768.886 6        37.977 6
G21  21186169.442 9 111334051.147 9     -1263.942 9        55.703 9  21186168.731 6         0.000 6      -984.890 6        37.977 6
G29  24337765.792 9 127895765.426 9     -3086.285 9        54.461 9  24337767.406 6         0.000 6     -2404.900 6        37.977 6
G27  21974293.008 9 115475662.333 9      2449.269 9        55.386 9  21974294.930 6         0.000 6      1908.522 6        37.977 6
G16  20490618.800 9 107678908.259 9       501.896 9        55.979 9  20490617.973 6         0.000 6       391.088 6        37.977 6
G26  20672830.265 9 108636433.891 9     -1513.847 9        55.865 9  20672833.089 6         0.000 6     -1179.621 6        37.977 6
G20  21913422.069 9 115155777.398 9      2570.640 9        55.328 9  21913422.373 6         0.000 6      2003.097 6        37.977 6
> 2019 07 03 12 02  4.0000000  0  8       0.000000000000
G07  25319931.074 9 133057089.988 9      2117.509 9        54.141 9  25319931.729 6         0.000 6      1650.008 6        37.977 6
G10  23766578.190 9 124894157.364 9      3553.796 9        54.685 9  23766581.875 6         0.000 6      2769.194 6        37.977 6
G21  21186410.016 9 111335315.370 9     -1264.476 9        55.703 9  21186409.305 6         0.000 6      -985.306 6        37.977 6
G29  24338353.124 9 127898851.866 9     -3086.579 9        54.461 9  24338354.739 6         0.000 6     -2405.129 6        37.977 6
G27  21973826.948 9 115473213.170 9      2449.056 9        55.386 9  21973828.869 6         0.000 6      1908.356 6        37.977 6
G16  20490523.346 9 107678406.643 9       501.329 9        55.979 9  20490522.519 6         0.000 6       390.646 6        37.977 6
G26  20673118.360 9 108637947.835 9     -1514.099 9        55.865 9  20673121.183 6         0.000 6     -1179.818 6        37.977 6
G20  21912932.903 9 115153206.815 9      2570.483 9        55.328 9  21912933.206 6         0.000 6      2002.975 6        37.977 6
> 2019 07 03 12 02  5.0000000  0  8       0.000000000000
G07  25319528.184 9 133054972.793 9      2116.844 9        54.141 9  25319528.839 6         0.000 6      1649.489 6        37.977 6
G10  23765901.923 9 124890603.568 9      3553.866 9        54.685 9  23765905.607 6         0.000 6      2769.249 6        37.977 6
G21  21186650.677 9 111336580.050 9     -1264.901 9        55.703 9  21186649.965 6         0.000 6      -985.638 6        37.977 6
G29  24338940.495 9 127901938.512 9     -3086.750 9        54.461 9  24338942.111 6         0.000 6     -2405.263 6        37.977 6
G27  21973360.928 9 115470764.226 9      2448.839 9        55.387 9  21973362.850 6         0.000 6      1908.187 6        37.977 6
G16  20490428.002 9 107677905.608 9       500.743 9        55.979 9  20490427.175 6         0.000 6       390.189 6        37.977 6
G26  20673406.527 9 108639462.163 9     -1514.534 9        55.865 9  20673409.351 6         0.000 6     -1180.157 6        37.977 6
G20  21912443.790 9 115150636.518 9      2570.147 9        55.328 9  21912444.094 6         0.000 6      2002.713 6        37.977 6
> 2019 07 03 12 02  6.0000000  0  8       0.000000000000
G07  25319125.448 9 133052856.406 9      2115.903 9        54.141 9  25319126.103 6         0.000 6      1648.757 6        37.977 6
G10  23765225.614 9 124887049.550 9      3554.228 9        54.685 9  23765229.298 6         0.000 6      2769.531 6        37.977 6
G21  21186891.428 9 111337845.204 9     -1265.427 9        55.703 9  21186890.716 6         0.000 6      -986.047 6        37.977 6
G29  24339527.909 9 127905025.385 9     -3087.043 9        54.461 9  24339529.526 6         0.000 6     -2405.491 6        37.977 6
G27  21972894.950 9 115468315.496 9      2448.635 9        55.387 9  21972896.872 6         0.000 6      1908.028 6        37.977 6
G16  20490332.768 9 107677405.150 9       500.180 9        55.979 9  20490331.941 6         0.000 6       389.750 6        37.977 6
G26  20673694.761 9 108640976.841 9     -1514.800 9        55.865 9  20673697.585 6         0.000 6     -1180.364 6        37.977 6
G20  21911954.726 9 115148066.472 9      2569.970 9        55.328 9  21911955.029 6         0.000 6      2002.575 6        37.977 6
> 2019 07 03 12 02  7.0000000  0  8       0.000000000000
G07  25318722.916 9 133050741.087 9      2114.695 9        54.141 9  25318723.571 6         0.000 6      1647.815 6        37.977 6
G10  23764549.210 9 124883495.031 9      3554.882 9        54.686 9  23764552.893 6         0.000 6      2770.040 6        37.977 6
G21  21187132.290 9 111339110.940 9     -1266.055 9        55.703 9  21187131.578 6         0.000 6      -986.537 6        37.977 6
G29  24340115.394 9 127908112.625 9     -3087.473 9        54.461 9  24340117.010 6         0.000 6     -2405.826 6        37.977 6
G27  21972429.008 9 115465866.953 9      2448.460 9        55.387 9  21972430.929 6         0.000 6      1907.891 6        37.977 6
G16  20490237.638 9 107676905.239 9       499.650 9        55.980 9  20490236.811 6         0.000 6       389.337 6        37.977 6
G26  20673983.030 9 108642491.701 9     -1514.890 9        55.865 9  20673985.853 6         0.000 6     -1180.434 6        37.977 6
G20  21911465.682 9 115145496.533 9      2569.948 9        55.328 9  21911465.985 6         0.000 6      2002.558 6        37.977 6
> 2019 07 03 12 02  8.0000000  0  8       0.000000000000
G07  25318320.638 9 133048627.106 9      2113.238 9        54.141 9  25318321.293 6         0.000 6      1646.680 6        37.977 6
G10  23763872.654 9 124879939.716 9      3555.810 9        54.686 9  23763876.336 6         0.000 6      2770.764 6        37.977 6
G21  21187373.279 9 111340377.349 9     -1266.791 9        55.702 9  21187372.568 6         0.000 6      -987.110 6        37.977 6
G29  24340702.973 9 127911200.363 9     -3088.056 9        54.460 9  24340704.590 6         0.000 6     -2406.280 6        37.977 6
G27  21971963.094 9 115463418.566 9      2448.326 9        55.387 9  21971965.016 6         0.000 6      1907.787 6        37.977 6
G16  20490142.605 9 107676405.836 9       499.157 9        55.980 9  20490141.778 6         0.000 6       388.953 6        37.977 6
G26  20674271.298 9 108644006.559 9     -1514.810 9        55.865 9  20674274.122 6         0.000 6     -1180.372 6        37.977 6
G20  21910976.628 9 115142926.538 9      2570.064 9        55.329 9  21910976.930 6         0.000 6      2002.648 6        37.977 6
> 2019 07 03 12 02  9.0000000  0  8       0.000000000000
G07  25317918.661 9 133046514.705 9      2111.542 9        54.141 9  25317919.315 6         0.000 6      1645.358 6        37.977 6
G10  23763195.895 9 124876383.336 9      3557.006 9        54.686 9  23763199.577 6         0.000 6      2771.696 6        37.977 6
G21  21187614.421 9 111341644.557 9     -1267.641 9        55.702 9  21187613.710 6         0.000 6      -987.773 6        37.977 6
G29  24341290.681 9 127914288.778 9     -3088.823 9        54.460 9  24341292.299 6         0.000 6     -2406.878 6        37.977 6
G27  21971497.201 9 115460970.281 9      2448.262 9        55.387 9  21971499.122 6         0.000 6      1907.737 6        37.977 6
G16  20490047.661 9 107675906.904 9       498.718 9        55.980 9  20490046.834 6         0.000 6       388.612 6        37.977 6
G26  20674559.534 9 108645521.250 9     -1514.549 9        55.865 9  20674562.358 6         0.000 6     -1180.169 6        37.977 6
G20  21910487.539 9 115140356.366 9      2570.307 9        55.329 9  21910487.841 6         0.000 6      2002.837 6        37.977 6
> 2019 07 03 12 02 10.0000000  0  8       0.000000000000
G07  25317517.027 9 133044404.111 9      2109.629 9        54.142 9  25317517.682 6         0.000 6      1643.868 6        37.977 6
G10  23762518.885 9 124872825.633 9      3558.451 9        54.686 9  23762522.566 6         0.000 6      2772.822 6        37.977 6
G21  21187855.737 9 111342912.679 9     -1268.620 9        55.702 9  21187855.026 6         0.000 6      -988.535 6        37.977 6
G29  24341878.553 9 127917378.060 9     -3089.795 9        54.460 9  24341880.172 6         0.000 6     -2407.635 6        37.977 6
G27  21971031.312 9 115458522.023 9      2448.277 9        55.388 9  21971033.233 6         0.000 6      1907.749 6        37.977 6
G16  20489952.796 9 107675408.385 9       498.332 9        55.980 9  20489951.969 6         0.000 6       388.311 6        37.977 6
G26  20674847.705 9 108647035.595 9     -1514.121 9        55.865 9  20674850.529 6         0.000 6     -1179.835 6        37.977 6
G20  21909998.394 9 115137785.895 9      2570.654 9        55.329 9  21909998.696 6         0.000 6      2003.108 6        37.977 6
> 2019 07 03 12 02 11.0000000  0  8       0.000000000000
G07  25317115.775 9 133042295.521 9      2107.535 9        54.142 9  25317116.430 6         0.000 6      1642.236 6        37.977 6
G10  23761841.579 9 124869266.376 9      3560.114 9        54.687 9  23761845.259 6         0.000 6      2774.117 6        37.977 6
G21  21188097.252 9 111344181.847 9     -1269.733 9        55.702 9  21188096.541 6         0.000 6      -989.402 6        37.977 6
G29  24342466.634 9 127920468.435 9     -3091.008 9        54.460 9  24342468.254 6         0.000 6     -2408.580 6        37.977 6
G27  21970565.410 9 115456073.692 9      2448.408 9        55.388 9  21970567.331 6         0.000 6      1907.851 6        37.977 6
G16  20489857.998 9 107674910.217 9       498.017 9        55.980 9  20489857.171 6         0.000 6       388.065 6        37.977 6
G26  20675135.779 9 108648549.430 9     -1513.528 9        55.864 9  20675138.603 6         0.000 6     -1179.373 6        37.977 6
G20  21909509.176 9 115135215.041 9      2571.076 9        55.329 9  21909509.478 6         0.000 6      2003.437 6        37.977 6
> 2019 07 03 12 02 12.0000000  0  8       0.000000000000
G07  25316714.936 9 133040189.097 9      2105.306 9        54.142 9  25316715.590 6         0.000 6      1640.499 6        37.977 6
G10  23761163.938 9 124865705.360 9      3561.957 9        54.687 9  23761167.617 6         0.000 6      2775.554 6        37.977 6
G21  21188338.991 9 111345452.195 9     -1270.988 9        55.702 9  21188338.280 6         0.000 6      -990.381 6        37.977 6
G29  24343054.972 9 127923560.161 9     -3092.504 9        54.459 9  24343056.592 6         0.000 6     -2409.746 6        37.977 6
G27  21970099.468 9 115453625.153 9      2448.694 9        55.388 9  21970101.389 6         0.000 6      1908.074 6        37.977 6
G16  20489763.251 9 107674412.317 9       497.792 9        55.980 9  20489762.424 6         0.000 6       387.890 6        37.977 6
G26  20675423.723 9 108650062.587 9     -1512.775 9        55.864 9  20675426.548 6         0.000 6     -1178.786 6        37.977 6
G20  21909019.873 9 115132643.738 9      2571.536 9        55.329 9  21909020.174 6         0.000 6      2003.795 6        37.977 6
> 2019 07 03 12 02 13.0000000  0  8       0.000000000000
G07  25316314.530 9 133038084.952 9      2102.990 9        54.142 9  25316315.183 6         0.000 6      1638.694 6        37.977 6
G10  23760485.932 9 124862142.428 9      3563.937 9        54.687 9  23760489.611 6         0.000 6      2777.096 6        37.977 6
G21  21188580.983 9 111346723.872 9     -1272.387 9        55.702 9  21188580.272 6         0.000 6      -991.470 6        37.977 6
G29  24343643.623 9 127926653.533 9     -3094.306 9        54.459 9  24343645.244 6         0.000 6     -2411.150 6        37.977 6
G27  21969633.455 9 115451176.242 9      2449.163 9        55.388 9  21969635.376 6         0.000 6      1908.439 6        37.977 6
G16  20489668.538 9 107673914.595 9       497.668 9        55.980 9  20489667.711 6         0.000 6       387.793 6        37.977 6
G26  20675711.511 9 108651574.919 9     -1511.877 9        55.864 9  20675714.335 6         0.000 6     -1178.086 6        37.977 6
G20  21908530.481 9 115130071.972 9      2571.999 9        55.330 9  21908530.782 6         0.000 6      2004.156 6        37.977 6
> 2019 07 03 12 02 14.0000000  0  8       0.000000000000
G07  25315914.569 9 133035983.148 9      2100.636 9        54.142 9  25315915.222 6         0.000 6      1636.860 6        37.977 6
G10  23759807.540 9 124858577.464 9      3566.010 9        54.687 9  23759811.219 6         0.000 6      2778.712 6        37.977 6
G21  21188823.257 9 111347997.027 9     -1273.949 9        55.702 9  21188822.546 6         0.000 6      -992.687 6        37.977 6
G29  24344232.651 9 127929748.886 9     -3096.479 9        54.459 9  24344234.272 6         0.000 6     -2412.844 6        37.977 6
G27  21969167.332 9 115448726.751 9      2449.865 9        55.388 9  21969169.252 6         0.000 6      1908.986 6        37.977 6
G16  20489573.836 9 107673416.936 9       497.668 9        55.980 9  20489573.009 6         0.000 6       387.794 6        37.977 6
G26  20675999.114 9 108653086.282 9     -1510.840 9        55.864 9  20676001.938 6         0.000 6     -1177.279 6        37.977 6
G20  21908041.004 9 115127499.759 9      2572.417 9        55.330 9  21908041.305 6         0.000 6      2004.482 6        37.977 6
> 2019 07 03 12 02 15.0000000  0  8       0.000000000000
G07  25315515.055 9 133033883.692 9      2098.298 9        54.142 9  25315515.708 6         0.000 6      1635.039 6        37.977 6
G10  23759128.749 9 124855010.401 9      3568.131 9        54.688 9  23759132.427 6         0.000 6      2780.364 6        37.977 6
G21  21189065.845 9 111349271.834 9     -1275.688 9        55.702 9  21189065.134 6         0.000 6      -994.043 6        37.977 6
G29  24344822.132 9 127932846.621 9     -3099.070 9        54.459 9  24344823.754 6         0.000 6     -2414.862 6        37.977 6
G27  21968701.049 9 115446276.421 9      2450.842 9        55.388 9  21968702.969 6         0.000 6      1909.748 6        37.977 6
G16  20489479.122 9 107672919.209 9       497.808 9        55.980 9  20489478.295 6         0.000 6       387.902 6        37.977 6
G26  20676286.508 9 108654596.546 9     -1509.679 9        55.864 9  20676289.333 6         0.000 6     -1176.374 6        37.977 6
G20  21907551.456 9 115124927.172 9      2572.745 9        55.330 9  21907551.757 6         0.000 6      2004.737 6        37.977 6
> 2019 07 03 12 02 16.0000000  0  8       0.000000000000
G07  25315115.979 9 133031786.538 9      2096.055 9        54.142 9  25315116.632 6         0.000 6      1633.291 6        37.977 6
G10  23758449.554 9 124851441.216 9      3570.231 9        54.688 9  23758453.231 6         0.000 6      2782.001 6        37.977 6
G21  21189308.780 9 111350548.469 9     -1277.604 9        55.702 9  21189308.069 6         0.000 6      -995.535 6        37.977 6
G29  24345412.150 9 127935947.173 9     -3102.122 9        54.459 9  24345413.773 6         0.000 6     -2417.240 6        37.977 6
G27  21968234.550 9 115443824.955 9      2452.148 9        55.389 9  21968236.470 6         0.000 6      1910.766 6        37.977 6
G16  20489384.366 9 107672421.260 9       498.116 9        55.980 9  20489383.538 6         0.000 6       388.142 6        37.977 6
G26  20676573.670 9 108656105.589 9     -1508.407 9        55.864 9  20676576.494 6         0.000 6     -1175.382 6        37.977 6
G20  21907061.858 9 115122354.322 9      2572.926 9        55.330 9  21907062.159 6         0.000 6      2004.879 6        37.977 6
> 2019 07 03 12 02 17.0000000  0  8       0.000000000000
G07  25314717.314 9 133029691.542 9      2093.992 9        54.143 9  25314717.967 6         0.000 6      1631.683 6        37.977 6
G10  23757769.968 9 124847869.982 9      3572.224 9        54.688 9  23757773.645 6         0.000 6      2783.554 6        37.977 6
G21  21189552.099 9 111351827.115 9     -1279.707 9        55.702 9  21189551.388 6         0.000 6      -997.174 6        37.977 6
G29  24346002.795 9 127939051.026 9     -3105.674 9        54.458 9  24346004.419 6         0.000 6     -2420.009 6        37.977 6
G27  21967767.769 9 115441372.005 9      2453.819 9        55.389 9  21967769.689 6         0.000 6      1912.067 6        37.977 6
G16  20489289.535 9 107671922.921 9       498.595 9        55.980 9  20489288.708 6         0.000 6       388.516 6        37.977 6
G26  20676860.583 9 108657613.326 9     -1507.066 9        55.864 9  20676863.408 6         0.000 6     -1174.338 6        37.977 6
G20  21906572.246 9 115119781.398 9      2572.890 9        55.330 9  21906572.546 6         0.000 6      2004.851 6        37.977 6
> 2019 07 03 12 02 18.0000000  0  8       0.000000000000
G07  25314319.018 9 133027598.484 9      2092.189 9        54.143 9  25314319.670 6         0.000 6      1630.278 6        37.977 6
G10  23757090.019 9 124844296.834 9      3574.043 9        54.688 9  23757093.695 6         0.000 6      2784.971 6        37.977 6
G21  21189795.835 9 111353107.956 9     -1282.006 9        55.701 9  21189795.124 6         0.000 6      -998.966 6        37.977 6
G29  24346594.170 9 127942158.709 9     -3109.790 9        54.458 9  24346595.794 6         0.000 6     -2423.216 6        37.977 6
G27  21967300.629 9 115438917.169 9      2455.918 9        55.389 9  21967302.548 6         0.000 6      1913.703 6        37.977 6
G16  20489194.592 9 107671423.996 9       499.279 9        55.980 9  20489193.765 6         0.000 6       389.048 6        37.977 6
G26  20677147.235 9 108659119.688 9     -1505.671 9        55.864 9  20677150.059 6         0.000 6     -1173.251 6        37.977 6
G20  21906082.666 9 115117208.641 9      2572.574 9        55.330 9  21906082.966 6         0.000 6      2004.604 6        37.977 6
> 2019 07 03 12 02 19.0000000  0  8       0.000000000000
G07  25313921.031 9 133025507.054 9      2090.756 9        54.143 9  25313921.684 6         0.000 6      1629.161 6        37.977 6
G10  23756409.749 9 124840721.999 9      3575.581 9        54.689 9  23756413.424 6         0.000 6      2786.170 6        37.977 6
G21  21190040.026 9 111354391.188 9     -1284.481 9        55.701 9  21190039.315 6         0.000 6     -1000.894 6        37.977 6
G29  24347186.382 9 127945270.794 9     -3114.481 9        54.458 9  24347188.007 6         0.000 6     -2426.871 6        37.977 6
G27  21966833.046 9 115436460.005 9      2458.484 9        55.389 9  21966834.965 6         0.000 6      1915.702 6        37.977 6
G16  20489099.500 9 107670924.280 9       500.183 9        55.980 9  20489098.673 6         0.000 6       389.753 6        37.977 6
G26  20677433.619 9 108660624.647 9     -1504.263 9        55.863 9  20677436.444 6         0.000 6     -1172.154 6        37.977 6
G20  21905593.179 9 115114636.371 9      2571.907 9        55.331 9  21905593.478 6         0.000 6      2004.084 6        37.977 6
> 2019 07 03 12 02 20.0000000  0  8       0.000000000000
G07  25313523.275 9 133023416.832 9      2089.786 9        54.143 9  25313523.927 6         0.000 6      1628.405 6        37.977 6
G10  23755729.220 9 124837145.806 9      3576.749 9        54.689 9  23755732.894 6         0.000 6      2787.080 6        37.977 6
G21  21190284.706 9 111355676.990 9     -1287.145 9        55.701 9  21190283.995 6         0.000 6     -1002.970 6        37.977 6
G29  24347779.545 9 127948387.877 9     -3119.795 9        54.458 9  24347781.170 6         0.000 6     -2431.011 6        37.977 6
G27  21966364.926 9 115434000.024 9      2461.562 9        55.389 9  21966366.846 6         0.000 6      1918.101 6        37.977 6
G16  20489004.213 9 107670423.547 9       501.319 9        55.980 9  20489003.386 6         0.000 6       390.638 6        37.977 6
G26  20677719.738 9 108662128.211 9     -1502.883 9        55.863 9  20677722.563 6         0.000 6     -1171.078 6        37.977 6
G20  21905103.858 9 115112064.978 9      2570.812 9        55.331 9  21905104.157 6         0.000 6      2003.231 6        37.977 6
> 2019 07 03 12 02 21.0000000  0  8       0.000000000000
G07  25313125.651 9 133021327.307 9      2089.386 9        54.143 9  25313126.303 6         0.000 6      1628.094 6        37.977 6
G10  23755048.511 9 124833568.671 9      3577.439 9        54.689 9  23755052.185 6         0.000 6      2787.617 6        37.977 6
G21  21190529.910 9 111356965.545 9     -1289.978 9        55.701 9  21190529.199 6         0.000 6     -1005.178 6        37.977 6
G29  24348373.780 9 127951510.593 9     -3125.731 9        54.458 9  24348375.406 6         0.000 6     -2435.637 6        37.977 6
G27  21965896.170 9 115431536.694 9      2465.178 9        55.390 9  21965898.089 6         0.000 6      1920.919 6        37.977 6
G16  20488908.688 9 107669921.558 9       502.692 9        55.980 9  20488907.861 6         0.000 6       391.708 6        37.977 6
G26  20678005.600 9 108663630.426 9     -1501.581 9        55.863 9  20678008.426 6         0.000 6     -1170.064 6        37.977 6
G20  21904614.792 9 115109494.922 9      2569.219 9        55.331 9  21904615.091 6         0.000 6      2001.990 6        37.977 6
> 2019 07 03 12 02 22.0000000  0  8       0.000000000000
G07  25312728.037 9 133019237.836 9      2089.678 9        54.143 9  25312728.689 6         0.000 6      1628.322 6        37.977 6
G10  23754367.728 9 124829991.142 9      3577.535 9        54.689 9  23754371.401 6         0.000 6      2787.692 6        37.977 6
G21  21190775.668 9 111358257.009 9     -1292.964 9        55.701 9  21190774.957 6         0.000 6     -1007.505 6        37.977 6
G29  24348969.206 9 127954639.566 9     -3132.310 9        54.457 9  24348970.833 6         0.000 6     -2440.764 6        37.977 6
G27  21965426.669 9 115429069.455 9      2469.378 9        55.390 9  21965428.588 6         0.000 6      1924.192 6        37.977 6
G16  20488812.876 9 107669418.064 9       504.323 9        55.980 9  20488812.049 6         0.000 6       392.979 6        37.977 6
G26  20678291.227 9 108665131.400 9     -1500.406 9        55.863 9  20678294.052 6         0.000 6     -1169.148 6        37.977 6
G20  21904126.084 9 115106926.748 9      2567.046 9        55.331 9  21904126.382 6         0.000 6      2000.296 6        37.977 6
> 2019 07 03 12 02 23.0000000  0  8       0.000000000000
G07  25312330.292 9 133017147.677 9      2090.766 9        54.143 9  25312330.944 6         0.000 6      1629.169 6        37.977 6
G10  23753686.993 9 124826413.867 9      3576.922 9        54.690 9  23753690.666 6         0.000 6      2787.215 6        37.977 6
G21  21191022.005 9 111359551.520 9     -1296.069 9        55.701 9  21191021.294 6         0.000 6     -1009.924 6        37.977 6
G29  24349565.943 9 127957775.427 9     -3139.487 9        54.457 9  24349567.570 6         0.000 6     -2446.357 6        37.977 6
G27  21964956.313 9 115426597.721 9      2474.152 9        55.390 9  21964958.232 6         0.000 6      1927.911 6        37.977 6
G16  20488716.731 9 107668912.814 9       506.195 9        55.980 9  20488715.903 6         0.000 6       394.438 6        37.977 6
G26  20678576.647 9 108666631.292 9     -1499.428 9        55.863 9  20678579.472 6         0.000 6     -1168.386 6        37.977 6
G20  21903637.850 9 115104361.068 9      2564.229 9        55.331 9  21903638.149 6         0.000 6      1998.101 6        37.977 6
> 2019 07 03 12 02 24.0000000  0  8       0.000000000000
G07  25311932.256 9 133015055.989 9      2092.766 9        54.144 9  25311932.908 6         0.000 6      1630.727 6        37.977 6
G10  23753006.451 9 124822837.603 9      3575.484 9        54.690 9  23753010.123 6         0.000 6      2786.094 6        37.977 6
G21  21191268.944 9 111360849.192 9     -1299.269 9        55.701 9  21191268.233 6         0.000 6     -1012.418 6        37.977 6
G29  24350164.101 9 127960918.758 9     -3147.252 9        54.457 9  24350165.728 6         0.000 6     -2452.407 6        37.977 6
G27  21964484.994 9 115424120.925 9      2479.519 9        55.390 9  21964486.913 6         0.000 6      1932.094 6        37.977 6
G16  20488620.206 9 107668405.576 9       508.311 9        55.980 9  20488619.379 6         0.000 6       396.086 6        37.977 6
G26  20678861.905 9 108668130.332 9     -1498.708 9        55.863 9  20678864.731 6         0.000 6     -1167.825 6        37.977 6
G20  21903150.220 9 115101798.558 9      2560.693 9        55.332 9  21903150.518 6         0.000 6      1995.346 6        37.977 6
> 2019 07 03 12 02 25.0000000  0  8       0.000000000000
G07  25311533.747 9 133012961.809 9      2095.760 9        54.144 9  25311534.398 6         0.000 6      1633.060 6        37.977 6
G10  23752326.269 9 124819263.231 9      3573.124 9        54.690 9  23752329.940 6         0.000 6      2784.255 6        37.977 6
G21  21191516.494 9 111362150.076 9     -1302.502 9        55.701 9  21191515.784 6         0.000 6     -1014.937 6        37.977 6
G29  24350763.783 9 127964070.100 9     -3155.498 9        54.457 9  24350765.412 6         0.000 6     -2458.832 6        37.977 6
G27  21964012.600 9 115421638.480 9      2485.434 9        55.390 9  21964014.519 6         0.000 6      1936.703 6        37.977 6
G16  20488523.257 9 107667896.106 9       510.644 9        55.980 9  20488522.430 6         0.000 6       397.904 6        37.977 6
G26  20679147.055 9 108669628.805 9     -1498.315 9        55.863 9  20679149.881 6         0.000 6     -1167.518 6        37.977 6
G20  21902663.333 9 115099239.952 9      2556.406 9        55.332 9  21902663.630 6         0.000 6      1992.006 6        37.977 6
> 2019 07 03 12 02 26.0000000  0  8       0.000000000000
G07  25311134.564 9 133010864.091 9      2099.837 9        54.144 9  25311135.215 6         0.000 6      1636.237 6        37.977 6
G10  23751646.634 9 124815691.735 9      3569.736 9        54.690 9  23751650.304 6         0.000 6      2781.615 6        37.977 6
G21  21191764.662 9 111363454.204 9     -1305.725 9        55.701 9  21191763.951 6         0.000 6     -1017.448 6        37.977 6
G29  24351365.078 9 127967229.913 9     -3164.152 9        54.457 9  24351366.707 6         0.000 6     -2465.575 6        37.977 6
G27  21963539.030 9 115419149.855 9      2491.862 9        55.391 9  21963540.949 6         0.000 6      1941.712 6        37.977 6
G16  20488425.847 9 107667384.209 9       513.164 9        55.980 9  20488425.020 6         0.000 6       399.868 6        37.977 6
G26  20679432.170 9 108671127.089 9     -1498.326 9        55.863 9  20679434.996 6         0.000 6     -1167.527 6        37.977 6
G20  21902177.339 9 115096686.045 9      2551.318 9        55.332 9  21902177.637 6         0.000 6      1988.041 6        37.977 6
> 2019 07 03 12 02 27.0000000  0  8       0.000000000000
G07  25310734.498 9 133008761.737 9      2105.053 9        54.144 9  25310735.149 6         0.000 6      1640.302 6        37.977 6
G10  23750967.746 9 124812124.166 9      3565.247 9        54.691 9  23750971.416 6         0.000 6      2778.117 6        37.977 6
G21  21192013.435 9 111364761.513 9     -1308.864 9        55.701 9  21192012.724 6         0.000 6     -1019.894 6        37.977 6
G29  24351968.045 9 127970398.518 9     -3173.074 9        54.456 9  24351969.675 6         0.000 6     -2472.528 6        37.977 6
G27  21963064.194 9 115416654.578 9      2498.732 9        55.391 9  21963066.113 6         0.000 6      1947.065 6        37.977 6
G16  20488327.941 9 107666869.711 9       515.837 9        55.980 9  20488327.114 6         0.000 6       401.951 6        37.977 6
G26  20679717.329 9 108672625.608 9     -1498.804 9        55.863 9  20679720.155 6         0.000 6     -1167.900 6        37.977 6
G20  21901692.389 9 115094137.621 9      2545.423 9        55.332 9  21901692.687 6         0.000 6      1983.448 6        37.977 6
> 2019 07 03 12 02 28.0000000  0  8       0.000000000000
G07  25310333.328 9 133006653.575 9      2111.433 9        54.144 9  25310333.978 6         0.000 6      1645.273 6        37.977 6
G10  23750289.824 9 124808561.672 9      3559.599 9        54.691 9  23750293.493 6         0.000 6      2773.717 6        37.977 6
G21  21192262.792 9 111366071.894 9     -1311.851 9        55.700 9  21192262.081 6         0.000 6     -1022.222 6        37.977 6
G29  24352572.723 9 127973576.114 9     -3182.092 9        54.456 9  24352574.354 6         0.000 6     -2479.555 6        37.977 6
G27  21962588.018 9 115414152.256 9      2505.925 9        55.391 9  21962589.936 6         0.000 6      1952.670 6        37.977 6
G16  20488229.518 9 107666352.495 9       518.590 9        55.980 9  20488228.691 6         0.000 6       404.096 6        37.977 6
G26  20680002.631 9 108674124.881 9     -1499.833 9        55.862 9  20680005.457 6         0.000 6     -1168.702 6        37.977 6
G20  21901208.640 9 115091595.503 9      2538.729 9        55.332 9  21901208.937 6         0.000 6      1978.231 6        37.977 6
> 2019 07 03 12 02 29.0000000  0  8       0.000000000000
G07  25309930.832 9 133004538.452 9      2118.974 9        54.144 9  25309931.483 6         0.000 6      1651.150 6        37.977 6
G10  23749613.088 9 124805005.413 9      3552.771 9        54.691 9  23749616.757 6         0.000 6      2768.396 6        37.977 6
G21  21192512.695 9 111367385.141 9     -1314.588 9        55.700 9  21192511.984 6         0.000 6     -1024.355 6        37.977 6
G29  24353179.111 9 127976762.691 9     -3191.007 9        54.456 9  24353180.742 6         0.000 6     -2486.502 6        37.977 6
G27  21962110.450 9 115411642.626 9      2513.324 9        55.391 9  21962112.368 6         0.000 6      1958.435 6        37.977 6
G16  20488130.567 9 107665832.503 9       521.373 9        55.980 9  20488129.740 6         0.000 6       406.264 6        37.977 6
G26  20680288.185 9 108675625.474 9     -1501.460 9        55.862 9  20680291.011 6         0.000 6     -1169.970 6        37.977 6
G20  21900726.236 9 115089060.456 9      2531.283 9        55.333 9  21900726.532 6         0.000 6      1972.430 6        37.977 6
> 2019 07 03 12 02 30.0000000  0  8       0.000000000000
G07  25309526.794 9 133002415.222 9      2127.621 9        54.144 9  25309527.445 6         0.000 6      1657.887 6        37.977 6
G10  23748937.764 9 124801456.572 9      3544.783 9        54.691 9  23748941.432 6         0.000 6      2762.171 6        37.977 6
G21  21192763.089 9 111368700.970 9     -1316.993 9        55.700 9  21192762.378 6         0.000 6     -1026.229 6        37.977 6
G29  24353787.168 9 127979958.040 9     -3199.585 9        54.456 9  24353788.799 6         0.000 6     -2493.186 6        37.977 6
G27  21961631.469 9 115409125.561 9      2520.755 9        55.391 9  21961633.386 6         0.000 6      1964.225 6        37.977 6
G16  20488031.090 9 107665309.751 9       524.094 9        55.980 9  20488030.263 6         0.000 6       408.385 6        37.977 6
G26  20680574.110 9 108677128.020 9     -1503.741 9        55.862 9  20680576.937 6         0.000 6     -1171.747 6        37.977 6
G20  21900245.315 9 115086533.205 9      2523.166 9        55.333 9  21900245.611 6         0.000 6      1966.104 6        37.977 6
> 2019 07 03 12 02 31.0000000  0  8       0.000000000000
G07  25309121.013 9 133000282.831 9      2137.272 9        54.145 9  25309121.663 6         0.000 6      1665.408 6        37.977 6
G10  23748264.068 9 124797916.283 9      3535.688 9        54.692 9  23748267.735 6         0.000 6      2755.085 6        37.977 6
G21  21193013.901 9 111370018.996 9     -1318.968 9        55.700 9  21193013.191 6         0.000 6     -1027.767 6        37.977 6
G29  24354396.803 9 127983161.684 9     -3207.557 9        54.455 9  24354398.435 6         0.000 6     -2499.398 6        37.977 6
G27  21961151.086 9 115406601.136 9      2528.020 9        55.391 9  21961153.003 6         0.000 6      1969.886 6        37.977 6
G16  20487931.110 9 107664784.352 9       526.657 9        55.981 9  20487930.283 6         0.000 6       410.382 6        37.977 6
G26  20680860.536 9 108678633.196 9     -1506.715 9        55.862 9  20680863.363 6         0.000 6     -1174.064 6        37.977 6
G20  21899765.994 9 115084014.364 9      2514.490 9        55.333 9  21899766.291 6         0.000 6      1959.344 6        37.977 6
> 2019 07 03 12 02 32.0000000  0  8       0.000000000000
G07  25308713.313 9 132998140.355 9      2147.762 9        54.145 9  25308713.963 6         0.000 6      1673.582 6        37.977 6
G10  23747592.197 9 124794385.588 9      3525.614 9        54.692 9  23747595.863 6         0.000 6      2747.234 6        37.977 6
G21  21193265.040 9 111371338.738 9     -1320.419 9        55.700 9  21193264.329 6         0.000 6     -1028.898 6        37.977 6
G29  24355007.873 9 127986372.870 9     -3214.634 9        54.455 9  24355009.506 6         0.000 6     -2504.912 6        37.977 6
G27  21960669.355 9 115404069.627 9      2534.888 9        55.392 9  21960671.273 6         0.000 6      1975.238 6        37.977 6
G16  20487830.666 9 107664256.513 9       528.954 9        55.981 9  20487829.839 6         0.000 6       412.172 6        37.977 6
G26  20681147.595 9 108680141.698 9     -1510.397 9        55.862 9  20681150.421 6         0.000 6     -1176.933 6        37.977 6
G20  21899288.364 9 115081504.404 9      2505.424 9        55.333 9  21899288.660 6         0.000 6      1952.279 6        37.977 6
> 2019 07 03 12 02 33.0000000  0  8       0.000000000000
G07  25308303.582 9 132995987.205 9      2156.960 9        54.145 9  25308304.231 6         0.000 6      1680.749 6        37.977 6
G10  23746922.298 9 124790865.256 9      3516.517 9        54.692 9  23746925.964 6         0.000 6      2740.146 6        37.977 6
G21  21193516.396 9 111372659.625 9     -1321.215 9        55.700 9  21193515.686 6         0.000 6     -1029.518 6        37.977 6
G29  24355620.167 9 127989590.486 9     -3219.644 9        54.455 9  24355621.801 6         0.000 6     -2508.816 6        37.977 6
G27  21960186.390 9 115401531.631 9      2540.101 9        55.392 9  21960188.307 6         0.000 6      1979.301 6        37.977 6
G16  20487729.825 9 107663726.591 9       530.484 9        55.981 9  20487728.998 6         0.000 6       413.364 6        37.977 6
G26  20681435.412 9 108681654.186 9     -1514.117 9        55.862 9  20681438.239 6         0.000 6     -1179.832 6        37.977 6
G20  21898812.460 9 115079003.515 9      2497.605 9        55.333 9  21898812.756 6         0.000 6      1946.187 6        37.977 6
> 2019 07 03 12 02 34.0000000  0  8       0.000000000000
G07  25307893.066 9 132993829.937 9      2157.581 9        54.145 9  25307893.716 6         0.000 6      1681.233 6        37.977 6
G10  23746253.237 9 124787349.329 9      3515.361 9        54.692 9  23746256.903 6         0.000 6      2739.245 6        37.977 6
G21  21193767.853 9 111373981.039 9     -1321.609 9        55.700 9  21193767.143 6         0.000 6     -1029.825 6        37.977 6
G29  24356232.899 9 127992810.403 9     -3220.207 9        54.455 9  24356234.534 6         0.000 6     -2509.255 6        37.977 6
G27  21959702.996 9 115398991.381 9      2540.406 9        55.392 9  21959704.913 6         0.000 6      1979.538 6        37.977 6
G16  20487628.916 9 107663196.311 9       530.079 9        55.981 9  20487628.089 6         0.000 6       413.049 6        37.977 6
G26  20681723.629 9 108683168.774 9     -1515.057 9        55.862 9  20681726.456 6         0.000 6     -1180.564 6        37.977 6
G20  21898337.303 9 115076506.550 9      2496.340 9        55.334 9  21898337.598 6         0.000 6      1945.201 6        37.977 6
> 2019 07 03 12 02 35.0000000  0  8       0.000000000000
G07  25307482.432 9 132991672.043 9      2158.205 9        54.145 9  25307483.081 6         0.000 6      1681.719 6        37.977 6
G10  23745584.398 9 124783834.565 9      3514.196 9        54.693 9  23745588.063 6         0.000 6      2738.337 6        37.977 6
G21  21194019.384 9 111375302.844 9     -1322.001 9        55.700 9  21194018.674 6         0.000 6     -1030.131 6        37.977 6
G29  24356845.737 9 127996030.880 9     -3220.757 9        54.455 9  24356847.372 6         0.000 6     -2509.683 6        37.977 6
G27  21959219.544 9 115396450.827 9      2540.699 9        55.392 9  21959221.461 6         0.000 6      1979.766 6        37.977 6
G16  20487528.085 9 107662666.437 9       529.665 9        55.981 9  20487527.258 6         0.000 6       412.726 6        37.977 6
G26  20682012.025 9 108684684.305 9     -1516.009 9        55.862 9  20682014.852 6         0.000 6     -1181.306 6        37.977 6
G20  21897862.386 9 115074010.852 9      2495.072 9        55.334 9  21897862.681 6         0.000 6      1944.213 6        37.977 6
> 2019 07 03 12 02 36.0000000  0  8       0.000000000000
G07  25307071.679 9 132989513.527 9      2158.820 9        54.145 9  25307072.328 6         0.000 6      1682.198 6        37.977 6
G10  23744915.779 9 124780320.962 9      3513.042 9        54.693 9  23744919.443 6         0.000 6      2737.438 6        37.977 6
G21  21194270.989 9 111376625.033 9     -1322.384 9        55.700 9  21194270.279 6         0.000 6     -1030.429 6        37.977 6
G29  24357458.679 9 127999251.896 9     -3221.292 9        54.454 9  24357460.314 6         0.000 6     -2510.101 6        37.977 6
G27  21958736.037 9 115393909.982 9      2540.984 9        55.392 9  21958737.954 6         0.000 6      1979.988 6        37.977 6
G16  20487427.331 9 107662136.975 9       529.249 9        55.981 9  20487426.504 6         0.000 6       412.402 6        37.977 6
G26  20682300.602 9 108686200.785 9     -1516.956 9        55.861 9  20682303.429 6         0.000 6     -1182.044 6        37.977 6
G20  21897387.710 9 115071516.415 9      2493.817 9        55.334 9  21897388.005 6         0.000 6      1943.235 6        37.977 6
> 2019 07 03 12 02 37.0000000  0  8       0.000000000000
G07  25306660.813 9 132987354.413 9      2159.416 9        54.145 9  25306661.462 6         0.000 6      1682.663 6        37.977 6
G10  23744247.378 9 124776808.500 9      3511.900 9        54.693 9  23744251.041 6         0.000 6      2736.548 6        37.977 6
G21  21194522.666 9 111377947.605 9     -1322.760 9        55.700 9  21194521.956 6         0.000 6     -1030.722 6        37.977 6
G29  24358071.719 9 128002473.437 9     -3221.804 9        54.454 9  24358073.356 6         0.000 6     -2510.499 6        37.977 6
G27  21958252.478 9 115391368.867 9      2541.248 9        55.393 9  21958254.395 6         0.000 6      1980.194 6        37.977 6
G16  20487326.659 9 107661607.937 9       528.823 9        55.981 9  20487325.832 6         0.000 6       412.070 6        37.977 6
G26  20682589.359 9 108687718.211 9     -1517.904 9        55.861 9  20682592.186 6         0.000 6     -1182.783 6        37.977 6
G20  21896913.270 9 115069023.222 9      2492.577 9        55.334 9  21896913.565 6         0.000 6      1942.269 6        37.977 6
> 2019 07 03 12 02 38.0000000  0  8       0.000000000000
G07  25306249.833 9 132985194.703 9      2160.000 9        54.145 9  25306250.482 6         0.000 6      1683.118 6        37.977 6
G10  23743579.194 9 124773297.180 9      3510.772 9        54.693 9  23743582.857 6         0.000 6      2735.669 6        37.977 6
G21  21194774.414 9 111379270.547 9     -1323.126 9        55.699 9  21194773.704 6         0.000 6     -1031.008 6        37.977 6
G29  24358684.855 9 128005695.475 9     -3222.296 9        54.454 9  24358686.492 6         0.000 6     -2510.883 6        37.977 6
G27  21957768.871 9 115388827.496 9      2541.500 9        55.393 9  21957770.787 6         0.000 6      1980.390 6        37.977 6
G16  20487226.068 9 107661079.330 9       528.394 9        55.981 9  20487225.241 6         0.000 6       411.736 6        37.977 6
G26  20682878.297 9 108689236.590 9     -1518.847 9        55.861 9  20682881.125 6         0.000 6     -1183.518 6        37.977 6
G20  21896439.066 9 115066531.265 9      2491.354 9        55.334 9  21896439.360 6         0.000 6      1941.316 6        37.977 6
> 2019 07 03 12 02 39.0000000  0  8       0.000000000000
G07  25305838.745 9 132983034.421 9      2160.568 9        54.146 9  25305839.393 6         0.000 6      1683.561 6        37.977 6
G10  23742911.223 9 124769786.979 9      3509.654 9        54.694 9  23742914.885 6         0.000 6      2734.798 6        37.977 6
G21  21195026.231 9 111380593.857 9     -1323.493 9        55.699 9  21195025.521 6         0.000 6     -1031.294 6        37.977 6
G29  24359298.083 9 128008918.002 9     -3222.774 9        54.454 9  24359299.721 6         0.000 6     -2511.255 6        37.977 6
G27  21957285.217 9 115386285.880 9      2541.734 9        55.393 9  21957287.133 6         0.000 6      1980.573 6        37.977 6
G16  20487125.560 9 107660551.156 9       527.953 9        55.981 9  20487124.733 6         0.000 6       411.392 6        37.977 6
G26  20683167.414 9 108690755.909 9     -1519.794 9        55.861 9  20683170.242 6         0.000 6     -1184.256 6        37.977 6
G20  21895965.093 9 115064040.525 9      2490.139 9        55.334 9  21895965.387 6         0.000 6      1940.369 6        37.977 6
> 2019 07 03 12 02 40.0000000  0  8       0.000000000000
G07  25305427.548 9 132980873.574 9      2161.123 9        54.146 9  25305428.196 6         0.000 6      1683.993 6        37.977 6
G10  23742243.465 9 124766277.895 9      3508.546 9        54.694 9  23742247.126 6         0.000 6      2733.934 6        37.977 6
G21  21195278.118 9 111381917.532 9     -1323.856 9        55.699 9  21195277.408 6         0.000 6     -1031.576 6        37.977 6
G29  24359911.401 9 128012140.996 9     -3223.232 9        54.453 9  24359913.039 6         0.000 6     -2511.612 6        37.977 6
G27  21956801.520 9 115383744.039 9      2541.951 9        55.393 9  21956803.436 6         0.000 6      1980.742 6        37.977 6
G16  20487025.137 9 107660023.428 9       527.503 9        55.981 9  20487024.310 6         0.000 6       411.041 6        37.977 6
G26  20683456.712 9 108692276.178 9     -1520.742 9        55.861 9  20683459.540 6         0.000 6     -1184.994 6        37.977 6
G20  21895491.350 9 115061550.995 9      2488.937 9        55.335 9  21895491.644 6         0.000 6      1939.432 6        37.977 6
> 2019 07 03 12 02 41.0000000  0  8       0.000000000000
G07  25305016.249 9 132978712.182 9      2161.662 9        54.146 9  25305016.896 6         0.000 6      1684.413 6        37.977 6
G10  23741575.915 9 124762769.910 9      3507.451 9        54.694 9  23741579.576 6         0.000 6      2733.081 6        37.977 6
G21  21195530.073 9 111383241.562 9     -1324.210 9        55.699 9  21195529.363 6         0.000 6     -1031.852 6        37.977 6
G29  24360524.803 9 128015364.437 9     -3223.674 9        54.453 9  24360526.442 6         0.000 6     -2511.956 6        37.977 6
G27  21956317.784 9 115381201.988 9      2542.157 9        55.393 9  21956319.699 6         0.000 6      1980.902 6        37.977 6
G16  20486924.799 9 107659496.151 9       527.050 9        55.981 9  20486923.972 6         0.000 6       410.688 6        37.977 6
G26  20683746.190 9 108693797.391 9     -1521.685 9        55.861 9  20683749.018 6         0.000 6     -1185.729 6        37.977 6
G20  21895017.834 9 115059062.658 9      2487.750 9        55.335 9  21895018.128 6         0.000 6      1938.508 6        37.977 6
> 2019 07 03 12 02 42.0000000  0  8       0.000000000000
G07  25304604.847 9 132976550.254 9      2162.191 9        54.146 9  25304605.494 6         0.000 6      1684.825 6        37.977 6
G10  23740908.574 9 124759263.017 9      3506.365 9        54.694 9  23740912.234 6         0.000 6      2732.235 6        37.977 6
G21  21195782.095 9 111384565.947 9     -1324.558 9        55.699 9  21195781.385 6         0.000 6     -1032.124 6        37.977 6
G29  24361138.289 9 128018588.316 9     -3224.098 9        54.453 9  24361139.929 6         0.000 6     -2512.287 6        37.977 6
G27  21955834.008 9 115378659.735 9      2542.348 9        55.394 9  21955835.924 6         0.000 6      1981.051 6        37.977 6
G16  20486824.549 9 107658969.331 9       526.589 9        55.981 9  20486823.722 6         0.000 6       410.329 6        37.977 6
G26  20684035.847 9 108695319.548 9     -1522.629 9        55.861 9  20684038.675 6         0.000 6     -1186.465 6        37.977 6
G20  21894544.544 9 115056575.505 9      2486.574 9        55.335 9  21894544.837 6         0.000 6      1937.591 6        37.977 6
> 2019 07 03 12 02 43.0000000  0  8       0.000000000000
G07  25304193.346 9 132974387.804 9      2162.706 9        54.146 9  25304193.993 6         0.000 6      1685.226 6        37.977 6
G10  23740241.438 9 124755757.205 9      3505.288 9        54.695 9  23740245.097 6         0.000 6      2731.396 6        37.977 6
G21  21196034.183 9 111385890.677 9     -1324.907 9        55.699 9  21196033.473 6         0.000 6     -1032.395 6        37.977 6
G29  24361751.854 9 128021812.609 9     -3224.508 9        54.453 9  24361753.494 6         0.000 6     -2512.607 6        37.977 6
G27  21955350.198 9 115376117.299 9      2542.524 9        55.394 9  21955352.114 6         0.000 6      1981.188 6        37.977 6
G16  20486724.386 9 107658442.974 9       526.119 9        55.981 9  20486723.559 6         0.000 6       409.963 6        37.977 6
G26  20684325.684 9 108696842.649 9     -1523.575 9        55.861 9  20684328.512 6         0.000 6     -1187.202 6        37.977 6
G20  21894071.476 9 115054089.521 9      2485.407 9        55.335 9  21894071.769 6         0.000 6      1936.682 6        37.977 6
> 2019 07 03 12 02 44.0000000  0  8       0.000000000000
G07  25303781.747 9 132972224.845 9      2163.208 9        54.146 9  25303782.395 6         0.000 6      1685.618 6        37.977 6
G10  23739574.506 9 124752252.465 9      3504.224 9        54.695 9  23739578.165 6         0.000 6      2730.567 6        37.977 6
G21  21196286.337 9 111387215.753 9     -1325.242 9        55.699 9  21196285.627 6         0.000 6     -1032.656 6        37.977 6
G29  24362365.495 9 128025037.303 9     -3224.898 9        54.453 9  24362367.135 6         0.000 6     -2512.910 6        37.977 6
G27  21954866.356 9 115373574.695 9      2542.688 9        55.394 9  21954868.272 6         0.000 6      1981.316 6        37.977 6
G16  20486624.314 9 107657917.093 9       525.648 9        55.981 9  20486623.487 6         0.000 6       409.596 6        37.977 6
G26  20684615.701 9 108698366.697 9     -1524.515 9        55.860 9  20684618.529 6         0.000 6     -1187.935 6        37.977 6
G20  21893598.630 9 115051604.700 9      2484.256 9        55.335 9  21893598.923 6         0.000 6      1935.785 6        37.977 6
> 2019 07 03 12 02 45.0000000  0  8       0.000000000000
G07  25303370.055 9 132970061.392 9      2163.699 9        54.146 9  25303370.702 6         0.000 6      1686.000 6        37.977 6
G10  23738907.776 9 124748748.783 9      3503.167 9        54.695 9  23738911.434 6         0.000 6      2729.743 6        37.977 6
G21  21196538.554 9 111388541.163 9     -1325.581 9        55.699 9  21196537.845 6         0.000 6     -1032.920 6        37.977 6
G29  24362979.209 9 128028262.385 9     -3225.279 9        54.452 9  24362980.851 6         0.000 6     -2513.207 6        37.977 6
G27  21954382.484 9 115371031.931 9      2542.839 9        55.394 9  21954384.399 6         0.000 6      1981.434 6        37.977 6
G16  20486524.332 9 107657391.684 9       525.166 9        55.981 9  20486523.505 6         0.000 6       409.220 6        37.977 6
G26  20684905.897 9 108699891.683 9     -1525.460 9        55.860 9  20684908.725 6         0.000 6     -1188.670 6        37.977 6
G20  21893126.001 9 115049121.023 9      2483.111 9        55.336 9  21893126.294 6         0.000 6      1934.893 6        37.977 6
> 2019 07 03 12 02 46.0000000  0  8       0.000000000000
G07  25302958.271 9 132967897.457 9      2164.174 9        54.147 9  25302958.918 6         0.000 6      1686.370 6        37.977 6
G10  23738241.245 9 124745246.149 9      3502.125 9        54.695 9  23738244.902 6         0.000 6      2728.931 6        37.977 6
G21  21196790.836 9 111389866.912 9     -1325.912 9        55.699 9  21196790.126 6         0.000 6     -1033.179 6        37.977 6
G29  24363592.995 9 128031487.839 9     -3225.643 9        54.452 9  24363594.637 6         0.000 6     -2513.491 6        37.977 6
G27  21953898.584 9 115368489.023 9      2542.978 9        55.394 9  21953900.499 6         0.000 6      1981.542 6        37.977 6
G16  20486424.443 9 107656866.761 9       524.680 9        55.981 9  20486423.616 6         0.000 6       408.842 6        37.977 6
G26  20685196.271 9 108701417.611 9     -1526.399 9        55.860 9  20685199.100 6         0.000 6     -1189.402 6        37.977 6
G20  21892653.589 9 115046638.484 9      2481.982 9        55.336 9  21892653.881 6         0.000 6      1934.013 6        37.977 6
> 2019 07 03 12 02 47.0000000  0  8       0.000000000000
G07  25302546.398 9 132965733.050 9      2164.642 9        54.147 9  25302547.044 6         0.000 6      1686.735 6        37.977 6
G10  23737574.911 9 124741744.555 9      3501.087 9        54.696 9  23737578.568 6         0.000 6      2728.122 6        37.977 6
G21  21197043.179 9 111391192.986 9     -1326.240 9        55.698 9  21197042.470 6         0.000 6     -1033.434 6        37.977 6
G29  24364206.848 9 128034713.649 9     -3225.995 9        54.452 9  24364208.491 6         0.000 6     -2513.765 6        37.977 6
G27  21953414.659 9 115365945.980 9      2543.107 9        55.395 9  21953416.573 6         0.000 6      1981.642 6        37.977 6
G16  20486324.646 9 107656342.324 9       524.189 9        55.981 9  20486323.819 6         0.000 6       408.459 6        37.977 6
G26  20685486.825 9 108702944.477 9     -1527.340 9        55.860 9  20685489.653 6         0.000 6     -1190.135 6        37.977 6
G20  21892181.390 9 115044157.068 9      2480.860 9        55.336 9  21892181.682 6         0.000 6      1933.138 6        37.977 6
> 2019 07 03 12 02 48.0000000  0  8       0.000000000000
G07  25302134.437 9 132963568.183 9      2165.096 9        54.147 9  25302135.083 6         0.000 6      1687.088 6        37.977 6
G10  23736908.775 9 124738243.993 9      3500.062 9        54.696 9  23736912.431 6         0.000 6      2727.324 6        37.977 6
G21  21197295.585 9 111392519.387 9     -1326.563 9        55.698 9  21197294.876 6         0.000 6     -1033.686 6        37.977 6
G29  24364820.767 9 128037939.803 9     -3226.333 9        54.452 9  24364822.410 6         0.000 6     -2514.028 6        37.977 6
G27  21952930.710 9 115363402.817 9      2543.224 9        55.395 9  21952932.625 6         0.000 6      1981.733 6        37.977 6
G16  20486224.943 9 107655818.383 9       523.693 9        55.981 9  20486224.116 6         0.000 6       408.072 6        37.977 6
G26  20685777.557 9 108704472.286 9     -1528.277 9        55.860 9  20685780.386 6         0.000 6     -1190.866 6        37.977 6
G20  21891709.404 9 115041676.770 9      2479.750 9        55.336 9  21891709.696 6         0.000 6      1932.274 6        37.977 6
> 2019 07 03 12 02 49.0000000  0  8       0.000000000000
G07  25301722.389 9 132961402.864 9      2165.539 9        54.147 9  25301723.036 6         0.000 6      1687.434 6        37.977 6
G10  23736242.833 9 124734744.456 9      3499.043 9        54.696 9  23736246.489 6         0.000 6      2726.529 6        37.977 6
G21  21197548.053 9 111393846.110 9     -1326.884 9        55.698 9  21197547.343 6         0.000 6     -1033.936 6        37.977 6
G29  24365434.749 9 128041166.290 9     -3226.656 9        54.451 9  24365436.393 6         0.000 6     -2514.280 6        37.977 6
G27  21952446.741 9 115360859.542 9      2543.325 9        55.395 9  21952448.655 6         0.000 6      1981.813 6        37.977 6
G16  20486125.336 9 107655294.942 9       523.187 9        55.981 9  20486124.509 6         0.000 6       407.678 6        37.977 6
G26  20686068.469 9 108706001.034 9     -1529.219 9        55.860 9  20686071.297 6         0.000 6     -1191.600 6        37.977 6
G20  21891237.629 9 115039197.579 9      2478.647 9        55.336 9  21891237.921 6         0.000 6      1931.415 6        37.977 6
> 2019 07 03 12 02 50.0000000  0  8       0.000000000000
G07  25301310.259 9 132959237.105 9      2165.975 9        54.147 9  25301310.904 6         0.000 6      1687.774 6        37.977 6
G10  23735577.085 9 124731245.935 9      3498.030 9        54.696 9  23735580.740 6         0.000 6      2725.741 6        37.977 6
G21  21197800.581 9 111395173.154 9     -1327.200 9        55.698 9  21197799.871 6         0.000 6     -1034.182 6        37.977 6
G29  24366048.792 9 128044393.096 9     -3226.970 9        54.451 9  24366050.436 6         0.000 6     -2514.524 6        37.977 6
G27  21951962.752 9 115358316.169 9      2543.421 9        55.395 9  21951964.667 6         0.000 6      1981.887 6        37.977 6
G16  20486025.825 9 107654772.009 9       522.680 9        55.981 9  20486024.998 6         0.000 6       407.283 6        37.977 6
G26  20686359.559 9 108707530.724 9     -1530.158 9        55.860 9  20686362.388 6         0.000 6     -1192.332 6        37.977 6
G20  21890766.063 9 115036719.488 9      2477.554 9        55.337 9  21890766.354 6         0.000 6      1930.562 6        37.977 6
> 2019 07 03 12 02 51.0000000  0  8       0.000000000000
G07  25300898.047 9 132957070.920 9      2166.395 9        54.147 9  25300898.692 6         0.000 6      1688.101 6        37.977 6
G10  23734911.527 9 124727748.415 9      3497.034 9        54.697 9  23734915.181 6         0.000 6      2724.964 6        37.977 6
G21  21198053.167 9 111396500.503 9     -1327.509 9        55.698 9  21198052.458 6         0.000 6     -1034.423 6        37.977 6
G29  24366662.891 9 128047620.202 9     -3227.266 9        54.451 9  24366664.537 6         0.000 6     -2514.756 6        37.977 6
G27  21951478.747 9 115355772.707 9      2543.504 9        55.395 9  21951480.661 6         0.000 6      1981.952 6        37.977 6
G16  20485926.410 9 107654249.582 9       522.169 9        55.981 9  20485925.583 6         0.000 6       406.885 6        37.977 6
G26  20686650.827 9 108709061.345 9     -1531.092 9        55.860 9  20686653.656 6         0.000 6     -1193.059 6        37.977 6
G20  21890294.703 9 115034242.477 9      2476.476 9        55.337 9  21890294.994 6         0.000 6      1929.723 6        37.977 6
> 2019 07 03 12 02 52.0000000  0  8       0.000000000000
G07  25300485.755 9 132954904.319 9      2166.814 9        54.147 9  25300486.401 6         0.000 6      1688.427 6        37.977 6
G10  23734246.158 9 124724251.892 9      3496.034 9        54.697 9  23734249.812 6         0.000 6      2724.185 6        37.977 6
G21  21198305.814 9 111397828.169 9     -1327.818 9        55.698 9  21198305.104 6         0.000 6     -1034.663 6        37.977 6
G29  24367277.048 9 128050847.606 9     -3227.556 9        54.451 9  24367278.694 6         0.000 6     -2514.981 6        37.977 6
G27  21950994.727 9 115353229.167 9      2543.579 9        55.396 9  21950996.641 6         0.000 6      1982.010 6        37.977 6
G16  20485827.094 9 107653727.673 9       521.650 9        55.981 9  20485826.267 6         0.000 6       406.481 6        37.977 6
G26  20686942.274 9 108710592.907 9     -1532.032 9        55.859 9  20686945.103 6         0.000 6     -1193.792 6        37.977 6
G20  21889823.548 9 115031766.547 9      2475.398 9        55.337 9  21889823.839 6         0.000 6      1928.882 6        37.977 6
> 2019 07 03 12 02 53.0000000  0  8       0.000000000000
G07  25300073.386 9 132952737.304 9      2167.218 9        54.148 9  25300074.031 6         0.000 6      1688.742 6        37.977 6
G10  23733580.980 9 124720756.364 9      3495.048 9        54.697 9  23733584.633 6         0.000 6      2723.416 6        37.977 6
G21  21198558.518 9 111399156.138 9     -1328.122 9        55.698 9  21198557.809 6         0.000 6     -1034.900 6        37.977 6
G29  24367891.257 9 128054075.287 9     -3227.831 9        54.451 9  24367892.904 6         0.000 6     -2515.195 6        37.977 6
G27  21950510.694 9 115350685.561 9      2543.642 9        55.396 9  21950512.608 6         0.000 6      1982.059 6        37.977 6
G16  20485727.878 9 107653206.286 9       521.127 9        55.981 9  20485727.051 6         0.000 6       406.073 6        37.977 6
G26  20687233.900 9 108712125.409 9     -1532.970 9        55.859 9  20687236.729 6         0.000 6     -1194.522 6        37.977 6
G20  21889352.597 9 115029291.688 9      2474.332 9        55.337 9  21889352.888 6         0.000 6      1928.052 6        37.977 6
> 2019 07 03 12 02 54.0000000  0  8       0.000000000000
G07  25299660.941 9 132950569.895 9      2167.610 9        54.148 9  25299661.586 6         0.000 6      1689.048 6        37.977 6
G10  23732915.987 9 124717261.812 9      3494.071 9        54.697 9  23732919.639 6         0.000 6      2722.655 6        37.977 6
G21  21198811.279 9 111400484.407 9     -1328.423 9        55.698 9  21198810.570 6         0.000 6     -1035.135 6        37.977 6
G29  24368505.517 9 128057303.236 9     -3228.092 9        54.450 9  24368507.165 6         0.000 6     -2515.399 6        37.977 6
G27  21950026.650 9 115348141.896 9      2543.692 9        55.396 9  21950028.564 6         0.000 6      1982.098 6        37.977 6
G16  20485628.760 9 107652685.422 9       520.597 9        55.981 9  20485627.933 6         0.000 6       405.660 6        37.977 6
G26  20687525.703 9 108713658.842 9     -1533.907 9        55.859 9  20687528.532 6         0.000 6     -1195.252 6        37.977 6
G20  21888881.847 9 115026817.884 9      2473.278 9        55.337 9  21888882.137 6         0.000 6      1927.230 6        37.977 6
> 2019 07 03 12 02 55.0000000  0  8       0.000000000000
G07  25299248.421 9 132948402.091 9      2167.994 9        54.148 9  25299249.065 6         0.000 6      1689.347 6        37.977 6
G10  23732251.180 9 124713768.241 9      3493.102 9        54.698 9  23732254.832 6         0.000 6      2721.900 6        37.977 6
G21  21199064.098 9 111401812.977 9     -1328.718 9        55.698 9  21199063.389 6         0.000 6     -1035.365 6        37.977 6
G29  24369119.828 9 128060531.447 9     -3228.342 9        54.450 9  24369121.476 6         0.000 6     -2515.594 6        37.977 6
G27  21949542.597 9 115345598.180 9      2543.736 9        55.396 9  21949544.510 6         0.000 6      1982.132 6        37.977 6
G16  20485529.744 9 107652165.088 9       520.066 9        55.982 9  20485528.917 6         0.000 6       405.246 6        37.977 6
G26  20687817.685 9 108715193.214 9     -1534.841 9        55.859 9  20687820.514 6         0.000 6     -1195.980 6        37.977 6
G20  21888411.298 9 115024345.138 9      2472.232 9        55.337 9  21888411.588 6         0.000 6      1926.416 6        37.977 6
> 2019 07 03 12 02 56.0000000  0  8       0.000000000000
G07  25298835.829 9 132946233.909 9      2168.372 9        54.148 9  25298836.473 6         0.000 6      1689.641 6        37.977 6
G10  23731586.557 9 124710275.636 9      3492.137 9        54.698 9  23731590.209 6         0.000 6      2721.148 6        37.977 6
G21  21199316.973 9 111403141.843 9     -1329.008 9        55.698 9  21199316.264 6         0.000 6     -1035.591 6        37.977 6
G29  24369734.185 9 128063759.903 9     -3228.583 9        54.450 9  24369735.833 6         0.000 6     -2515.782 6        37.977 6
G27  21949058.536 9 115343054.427 9      2543.772 9        55.396 9  21949060.450 6         0.000 6      1982.161 6        37.977 6
G16  20485430.830 9 107651645.291 9       519.532 9        55.982 9  20485430.003 6         0.000 6       404.830 6        37.977 6
G26  20688109.844 9 108716728.523 9     -1535.774 9        55.859 9  20688112.674 6         0.000 6     -1196.708 6        37.977 6
G20  21887940.948 9 115021873.434 9      2471.193 9        55.338 9  21887941.238 6         0.000 6      1925.606 6        37.977 6
> 2019 07 03 12 02 57.0000000  0  8       0.000000000000
G07  25298423.165 9 132944065.352 9      2168.745 9        54.148 9  25298423.810 6         0.000 6      1689.932 6        37.977 6
G10  23730922.117 9 124706783.991 9      3491.174 9        54.698 9  23730925.768 6         0.000 6      2720.398 6        37.977 6
G21  21199569.902 9 111404470.992 9     -1329.301 9        55.697 9  21199569.192 6         0.000 6     -1035.819 6        37.977 6
G29  24370348.585 9 128066988.591 9     -3228.819 9        54.450 9  24370350.235 6         0.000 6     -2515.965 6        37.977 6
G27  21948574.469 9 115340510.641 9      2543.800 9        55.396 9  21948576.383 6         0.000 6      1982.183 6        37.977 6
G16  20485332.017 9 107651126.026 9       518.990 9        55.982 9  20485331.190 6         0.000 6       404.408 6        37.977 6
G26  20688402.181 9 108718264.761 9     -1536.713 9        55.859 9  20688405.011 6         0.000 6     -1197.439 6        37.977 6
G20  21887470.794 9 115019402.762 9      2470.155 9        55.338 9  21887471.083 6         0.000 6      1924.797 6        37.977 6
> 2019 07 03 12 02 58.0000000  0  8       0.000000000000
G07  25298010.432 9 132941896.429 9      2169.103 9        54.148 9  25298011.076 6         0.000 6      1690.211 6        37.977 6
G10  23730257.860 9 124703293.306 9      3490.224 9        54.698 9  23730261.510 6         0.000 6      2719.657 6        37.977 6
G21  21199822.887 9 111405800.440 9     -1329.589 9        55.697 9  21199822.178 6         0.000 6     -1036.043 6        37.977 6
G29  24370963.030 9 128070217.509 9     -3229.036 9        54.450 9  24370964.680 6         0.000 6     -2516.134 6        37.977 6
G27  21948090.399 9 115337966.839 9      2543.813 9        55.397 9  21948092.312 6         0.000 6      1982.192 6        37.977 6
G16  20485233.310 9 107650607.315 9       518.440 9        55.982 9  20485232.483 6         0.000 6       403.980 6        37.977 6
G26  20688694.698 9 108719801.945 9     -1537.650 9        55.859 9  20688697.527 6         0.000 6     -1198.169 6        37.977 6
G20  21887000.837 9 115016933.128 9      2469.131 9        55.338 9  21887001.127 6         0.000 6      1923.999 6        37.977 6
> 2019 07 03 12 02 59.0000000  0  8       0.000000000000
G07  25297597.631 9 132939727.148 9      2169.458 9        54.148 9  25297598.275 6         0.000 6      1690.488 6        37.977 6
G10  23729593.784 9 124699803.570 9      3489.277 9        54.699 9  23729597.433 6         0.000 6      2718.920 6        37.977 6
G21  21200075.926 9 111407130.168 9     -1329.868 9        55.697 9  21200075.217 6         0.000 6     -1036.261 6        37.977 6
G29  24371577.515 9 128073446.641 9     -3229.244 9        54.449 9  24371579.166 6         0.000 6     -2516.297 6        37.977 6
G27  21947606.326 9 115335423.022 9      2543.824 9        55.397 9  21947608.239 6         0.000 6      1982.201 6        37.977 6
G16  20485134.706 9 107650089.147 9       517.894 9        55.982 9  20485133.879 6         0.000 6       403.554 6        37.977 6
G26  20688987.392 9 108721340.061 9     -1538.583 9        55.859 9  20688990.222 6         0.000 6     -1198.896 6        37.977 6
G20  21886531.075 9 115014464.514 9      2468.114 9        55.338 9  21886531.364 6         0.000 6      1923.207 6        37.977 6
> 2019 07 03 12 03  0.0000000  0  8       0.000000000000
G07  25297184.763 9 132937557.514 9      2169.801 9        54.149 9  25297185.407 6         0.000 6      1690.755 6        37.977 6
G10  23728929.887 9 124696314.779 9      3488.338 9        54.699 9  23728933.536 6         0.000 6      2718.188 6        37.977 6
G21  21200329.018 9 111408460.176 9     -1330.143 9        55.697 9  21200328.309 6         0.000 6     -1036.475 6        37.977 6
G29  24372192.040 9 128076675.980 9     -3229.433 9        54.449 9  24372193.692 6         0.000 6     -2516.444 6        37.977 6
G27  21947122.252 9 115332879.195 9      2543.816 9        55.397 9  21947124.165 6         0.000 6      1982.195 6        37.977 6
G16  20485036.206 9 107649571.527 9       517.336 9        55.982 9  20485035.379 6         0.000 6       403.119 6        37.977 6
G26  20689280.264 9 108722879.111 9     -1539.520 9        55.859 9  20689283.094 6         0.000 6     -1199.627 6        37.977 6
G20  21886061.506 9 115011996.915 9      2467.107 9        55.338 9  21886061.794 6         0.000 6      1922.422 6        37.977 6
> 2019 07 03 12 03  1.0000000  0  8       0.000000000000
G07  25296771.948 9 132935388.162 9      2168.892 9        54.149 9  25296772.592 6         0.000 6      1690.047 6        37.977 6
G10  23728266.099 9 124692826.559 9      3488.145 9        54.699 9  23728269.747 6         0.000 6      2718.037 6        37.977 6
G21  21200582.050 9 111409789.863 9     -1329.239 9        55.697 9  21200581.341 6         0.000 6     -1035.771 6        37.977 6
G29  24372806.286 9 128079903.853 9     -3226.346 9        54.449 9  24372807.938 6         0.000 6     -2514.038 6        37.977 6
G27  21946638.412 9 115330336.603 9      2541.381 9        55.397 9  21946640.325 6         0.000 6      1980.297 6        37.977 6
G16  20484937.925 9 107649055.056 9       515.612 9        55.982 9  20484937.098 6         0.000 6       401.776 6        37.977 6
G26  20689573.358 9 108724419.330 9     -1540.905 9        55.858 9  20689576.188 6         0.000 6     -1200.706 6        37.977 6
G20  21885591.991 9 115009529.603 9      2467.538 9        55.339 9  21885592.279 6         0.000 6      1922.758 6        37.977 6
> 2019 07 03 12 03  2.0000000  0  8       0.000000000000
G07  25296359.289 9 132933219.628 9      2168.242 9        54.149 9  25296359.933 6         0.000 6      1689.540 6        37.977 6
G10  23727602.353 9 124689338.563 9      3487.836 9        54.699 9  23727606.001 6         0.000 6      2717.797 6        37.977 6
G21  21200834.936 9 111411118.790 9     -1328.684 9        55.697 9  21200834.227 6         0.000 6     -1035.338 6        37.977 6
G29  24373420.017 9 128083129.020 9     -3224.189 9        54.449 9  24373421.670 6         0.000 6     -2512.358 6        37.977 6
G27  21946154.984 9 115327796.173 9      2539.615 9        55.397 9  21946156.896 6         0.000 6      1978.922 6        37.977 6
G16  20484839.946 9 107648540.173 9       514.217 9        55.982 9  20484839.119 6         0.000 6       400.689 6        37.977 6
G26  20689866.700 9 108725960.851 9     -1542.113 9        55.858 9  20689869.530 6         0.000 6     -1201.647 6        37.977 6
G20  21885122.419 9 115007061.989 9      2467.626 9        55.339 9  21885122.707 6         0.000 6      1922.827 6        37.977 6
> 2019 07 03 12 03  3.0000000  0  8       0.000000000000
G07  25295946.728 9 132931051.609 9      2167.838 9        54.149 9  25295947.371 6         0.000 6      1689.225 6        37.977 6
G10  23726938.679 9 124685850.943 9      3487.405 9        54.700 9  23726942.326 6         0.000 6      2717.461 6        37.977 6
G21  21201087.748 9 111412447.325 9     -1328.427 9        55.697 9  21201087.039 6         0.000 6     -1035.138 6        37.977 6
G29  24374033.421 9 128086352.467 9     -3222.832 9        54.448 9  24374035.074 6         0.000 6     -2511.300 6        37.977 6
G27  21945671.831 9 115325257.191 9      2538.428 9        55.398 9  21945673.743 6         0.000 6      1977.997 6        37.977 6
G16  20484742.203 9 107648026.530 9       513.103 9        55.982 9  20484741.376 6         0.000 6       399.821 6        37.977 6
G26  20690160.258 9 108727503.505 9     -1543.184 9        55.858 9  20690163.088 6         0.000 6     -1202.481 6        37.977 6
G20  21884652.862 9 115004594.456 9      2467.402 9        55.339 9  21884653.150 6         0.000 6      1922.652 6        37.977 6
> 2019 07 03 12 03  4.0000000  0  8       0.000000000000
G07  25295534.226 9 132928883.900 9      2167.611 9        54.149 9  25295534.869 6         0.000 6      1689.048 6        37.977 6
G10  23726275.097 9 124682363.806 9      3486.878 9        54.700 9  23726278.743 6         0.000 6      2717.051 6        37.977 6
G21  21201340.531 9 111413775.706 9     -1328.365 9        55.697 9  21201339.822 6         0.000 6     -1035.089 6        37.977 6
G29  24374646.619 9 128089574.836 9     -3222.001 9        54.448 9  24374648.273 6         0.000 6     -2510.653 6        37.977 6
G27  21945188.866 9 115322719.194 9      2537.625 9        55.398 9  21945190.778 6         0.000 6      1977.370 6        37.977 6
G16  20484644.654 9 107647513.905 9       512.173 9        55.982 9  20484643.827 6         0.000 6       399.096 6        37.977 6
G26  20690454.011 9 108729047.188 9     -1544.173 9        55.858 9  20690456.841 6         0.000 6     -1203.252 6        37.977 6
G20  21884183.370 9 115002127.264 9      2466.962 9        55.339 9  21884183.658 6         0.000 6      1922.309 6        37.977 6
> 2019 07 03 12 03  5.0000000  0  8       0.000000000000
G07  25295121.757 9 132926716.361 9      2167.495 9        54.149 9  25295122.399 6         0.000 6      1688.958 6        37.977 6
G10  23725611.621 9 124678877.225 9      3486.292 9        54.700 9  23725615.266 6         0.000 6      2716.594 6        37.977 6
G21  21201593.314 9 111415104.090 9     -1328.421 9        55.697 9  21201592.605 6         0.000 6     -1035.134 6        37.977 6
G29  24375259.693 9 128092796.551 9     -3221.500 9        54.448 9  24375261.348 6         0.000 6     -2510.263 6        37.977 6
G27  21944706.029 9 115320181.872 9      2537.064 9        55.398 9  21944707.941 6         0.000 6      1976.934 6        37.977 6
G16  20484547.269 9 107647002.147 9       511.362 9        55.982 9  20484546.442 6         0.000 6       398.464 6        37.977 6
G26  20690747.947 9 108730591.829 9     -1545.107 9        55.858 9  20690750.777 6         0.000 6     -1203.980 6        37.977 6
G20  21883713.975 9 114999660.582 9      2466.389 9        55.339 9  21883714.263 6         0.000 6      1921.863 6        37.977 6
> 2019 07 03 12 03  6.0000000  0  8       0.000000000000
G07  25294709.301 9 132924548.895 9      2167.449 9        54.149 9  25294709.943 6         0.000 6      1688.922 6        37.977 6
G10  23724948.261 9 124675391.255 9      3485.668 9        54.700 9  23724951.906 6         0.000 6      2716.108 6        37.977 6
G21  21201846.116 9 111416432.573 9     -1328.560 9        55.697 9  21201845.407 6         0.000 6     -1035.242 6        37.977 6
G29  24375872.695 9 128096017.885 9     -3221.218 9        54.448 9  24375874.350 6         0.000 6     -2510.043 6        37.977 6
G27  21944223.282 9 115317645.021 9      2536.662 9        55.398 9  21944225.193 6         0.000 6      1976.620 6        37.977 6
G16  20484450.031 9 107646491.157 9       510.626 9        55.982 9  20484449.204 6         0.000 6       397.891 6        37.977 6
G26  20691042.057 9 108732137.387 9     -1546.007 9        55.858 9  20691044.888 6         0.000 6     -1204.681 6        37.977 6
G20  21883244.699 9 114997194.523 9      2465.727 9        55.339 9  21883244.986 6         0.000 6      1921.347 6        37.977 6
> 2019 07 03 12 03  7.0000000  0  8       0.000000000000
G07  25294296.850 9 132922381.453 9      2167.452 9        54.150 9  25294297.492 6         0.000 6      1688.925 6        37.977 6
G10  23724285.022 9 124671905.922 9      3485.016 9        54.700 9  23724288.666 6         0.000 6      2715.600 6        37.977 6
G21  21202098.950 9 111417761.225 9     -1328.748 9        55.696 9  21202098.242 6         0.000 6     -1035.388 6        37.977 6
G29  24376485.656 9 128099239.010 9     -3221.073 9        54.448 9  24376487.312 6         0.000 6     -2509.929 6        37.977 6
G27  21943740.602 9 115315108.523 9      2536.360 9        55.398 9  21943742.513 6         0.000 6      1976.385 6        37.977 6
G16  20484352.929 9 107645980.881 9       509.939 9        55.982 9  20484352.102 6         0.000 6       397.355 6        37.977 6
G26  20691336.337 9 108733683.836 9     -1546.886 9        55.858 9  20691339.168 6         0.000 6     -1205.366 6        37.977 6
G20  21882775.555 9 114994729.157 9      2465.008 9        55.340 9  21882775.842 6         0.000 6      1920.786 6        37.977 6
> 2019 07 03 12 03  8.0000000  0  8       0.000000000000
G07  25293884.394 9 132920213.984 9      2167.492 9        54.150 9  25293885.036 6         0.000 6      1688.956 6        37.977 6
G10  23723621.910 9 124668421.254 9      3484.340 9        54.701 9  23723625.553 6         0.000 6      2715.073 6        37.977 6
G21  21202351.823 9 111419090.082 9     -1328.971 9        55.696 9  21202351.115 6         0.000 6     -1035.562 6        37.977 6
G29  24377098.600 9 128102460.043 9     -3221.020 9        54.447 9  24377100.257 6         0.000 6     -2509.888 6        37.977 6
G27  21943257.971 9 115312572.286 9      2536.124 9        55.399 9  21943259.883 6         0.000 6      1976.202 6        37.977 6
G16  20484255.953 9 107645471.271 9       509.282 9        55.982 9  20484255.126 6         0.000 6       396.843 6        37.977 6
G26  20691630.783 9 108735231.157 9     -1547.757 9        55.858 9  20691633.613 6         0.000 6     -1206.045 6        37.977 6
G20  21882306.552 9 114992264.535 9      2464.245 9        55.340 9  21882306.838 6         0.000 6      1920.192 6        37.977 6
> 2019 07 03 12 03  9.0000000  0  8       0.000000000000
G07  25293471.928 9 132918046.468 9      2167.544 9        54.150 9  25293472.570 6         0.000 6      1688.996 6        37.977 6
G10  23722958.927 9 124664937.266 9      3483.662 9        54.701 9  23722962.570 6         0.000 6      2714.544 6        37.977 6
G21  21202604.740 9 111420419.167 9     -1329.209 9        55.696 9  21202604.032 6         0.000 6     -1035.747 6        37.977 6
G29  24377711.538 9 128105681.042 9     -3221.016 9        54.447 9  24377713.196 6         0.000 6     -2509.885 6        37.977 6
G27  21942775.382 9 115310036.267 9      2535.927 9        55.399 9  21942777.294 6         0.000 6      1976.048 6        37.977 6
G16  20484159.101 9 107644962.309 9       508.645 9        55.982 9  20484158.274 6         0.000 6       396.347 6        37.977 6
G26  20691925.393 9 108736779.343 9     -1548.615 9        55.857 9  20691928.224 6         0.000 6     -1206.713 6        37.977 6
G20  21881837.696 9 114989800.682 9      2463.467 9        55.340 9  21881837.982 6         0.000 6      1919.586 6        37.977 6
> 2019 07 03 12 03 10.0000000  0  8       0.000000000000
G07  25293059.452 9 132915878.892 9      2167.615 9        54.150 9  25293060.093 6         0.000 6      1689.052 6        37.977 6
G10  23722296.074 9 124661453.960 9      3482.968 9        54.701 9  23722299.716 6         0.000 6      2714.004 6        37.977 6
G21  21202857.704 9 111421748.500 9     -1329.461 9        55.696 9  21202856.995 6         0.000 6     -1035.944 6        37.977 6
G29  24378324.480 9 128108902.063 9     -3221.047 9        54.447 9  24378326.138 6         0.000 6     -2509.910 6        37.977 6
G27  21942292.828 9 115307500.427 9      2535.755 9        55.399 9  21942294.739 6         0.000 6      1975.914 6        37.977 6
G16  20484062.368 9 107644453.975 9       508.018 9        55.982 9  20484061.541 6         0.000 6       395.859 6        37.977 6
G26  20692220.166 9 108738328.383 9     -1549.473 9        55.857 9  20692222.997 6         0.000 6     -1207.382 6        37.977 6
G20  21881368.989 9 114987337.617 9      2462.669 9        55.340 9  21881369.275 6         0.000 6      1918.964 6        37.977 6
> 2019 07 03 12 03 11.0000000  0  8       0.000000000000
G07  25292646.960 9 132913711.240 9      2167.692 9        54.150 9  25292647.602 6         0.000 6      1689.111 6        37.977 6
G10  23721633.354 9 124657971.353 9      3482.274 9        54.701 9  23721636.995 6         0.000 6      2713.463 6        37.977 6
G21  21203110.716 9 111423078.090 9     -1329.717 9        55.696 9  21203110.008 6         0.000 6     -1036.144 6        37.977 6
G29  24378937.430 9 128112123.126 9     -3221.099 9        54.447 9  24378939.089 6         0.000 6     -2509.950 6        37.977 6
G27  21941810.304 9 115304964.753 9      2535.600 9        55.399 9  21941812.215 6         0.000 6      1975.793 6        37.977 6
G16  20483965.754 9 107643946.266 9       507.402 9        55.982 9  20483964.927 6         0.000 6       395.378 6        37.977 6
G26  20692515.102 9 108739878.282 9     -1550.324 9        55.857 9  20692517.933 6         0.000 6     -1208.045 6        37.977 6
G20  21880900.436 9 114984875.357 9      2461.866 9        55.340 9  21880900.721 6         0.000 6      1918.338 6        37.977 6
> 2019 07 03 12 03 12.0000000  0  8       0.000000000000
G07  25292234.454 9 132911543.506 9      2167.774 9        54.150 9  25292235.095 6         0.000 6      1689.175 6        37.977 6
G10  23720970.766 9 124654489.443 9      3481.574 9        54.702 9  23720974.407 6         0.000 6      2712.918 6        37.977 6
G21  21203363.779 9 111424407.939 9     -1329.984 9        55.696 9  21203363.070 6         0.000 6     -1036.351 6        37.977 6
G29  24379550.392 9 128115344.251 9     -3221.166 9        54.446 9  24379552.051 6         0.000 6     -2510.002 6        37.977 6
G27  21941327.809 9 115302429.226 9      2535.453 9        55.399 9  21941329.720 6         0.000 6      1975.678 6        37.977 6
G16  20483869.257 9 107643439.171 9       506.786 9        55.982 9  20483868.430 6         0.000 6       394.898 6        37.977 6
G26  20692810.201 9 108741429.032 9     -1551.178 9        55.857 9  20692813.032 6         0.000 6     -1208.710 6        37.977 6
G20  21880432.036 9 114982413.905 9      2461.053 9        55.341 9  21880432.321 6         0.000 6      1917.705 6        37.977 6
> 2019 07 03 12 03 13.0000000  0  8       0.000000000000
G07  25291821.933 9 132909375.696 9      2167.855 9        54.150 9  25291822.573 6         0.000 6      1689.239 6        37.977 6
G10  23720308.311 9 124651008.230 9      3480.875 9        54.702 9  23720311.952 6         0.000 6      2712.373 6        37.977 6
G21  21203616.891 9 111425738.054 9     -1330.244 9        55.696 9  21203616.183 6         0.000 6     -1036.554 6        37.977 6
G29  24380163.365 9 128118565.436 9     -3221.230 9        54.446 9  24380165.025 6         0.000 6     -2510.052 6        37.977 6
G27  21940845.343 9 115299893.853 9      2535.307 9        55.400 9  21940847.254 6         0.000 6      1975.564 6        37.977 6
G16  20483772.878 9 107642932.695 9       506.173 9        55.982 9  20483772.051 6         0.000 6       394.420 6        37.977 6
G26  20693105.462 9 108742980.637 9     -1552.029 9        55.857 9  20693108.293 6         0.000 6     -1209.373 6        37.977 6
G20  21879963.791 9 114979953.262 9      2460.243 9        55.341 9  21879964.076 6         0.000 6      1917.074 6        37.977 6
> 2019 07 03 12 03 14.0000000  0  8       0.000000000000
G07  25291409.396 9 132907207.804 9      2167.939 9        54.151 9  25291410.036 6         0.000 6      1689.304 6        37.977 6
G10  23719645.990 9 124647527.715 9      3480.174 9        54.702 9  23719649.629 6         0.000 6      2711.826 6        37.977 6
G21  21203870.054 9 111427068.432 9     -1330.512 9        55.696 9  21203869.345 6         0.000 6     -1036.763 6        37.977 6
G29  24380776.351 9 128121786.691 9     -3221.303 9        54.446 9  24380778.012 6         0.000 6     -2510.109 6        37.977 6
G27  21940362.904 9 115297358.623 9      2535.163 9        55.400 9  21940364.815 6         0.000 6      1975.452 6        37.977 6
G16  20483676.616 9 107642426.832 9       505.557 9        55.982 9  20483675.788 6         0.000 6       393.940 6        37.977 6
G26  20693400.884 9 108744533.092 9     -1552.883 9        55.857 9  20693403.716 6         0.000 6     -1210.040 6        37.977 6
G20  21879495.699 9 114977493.431 9      2459.428 9        55.341 9  21879495.984 6         0.000 6      1916.438 6        37.977 6
> 2019 07 03 12 03 15.0000000  0  8       0.000000000000
G07  25290996.842 9 132905039.822 9      2168.021 9        54.151 9  25290997.482 6         0.000 6      1689.368 6        37.977 6
G10  23718983.802 9 124644047.906 9      3479.475 9        54.702 9  23718987.441 6         0.000 6      2711.282 6        37.977 6
G21  21204123.266 9 111428399.071 9     -1330.772 9        55.696 9  21204122.558 6         0.000 6     -1036.965 6        37.977 6
G29  24381389.351 9 128125008.015 9     -3221.367 9        54.446 9  24381391.012 6         0.000 6     -2510.159 6        37.977 6
G27  21939880.492 9 115294823.533 9      2535.017 9        55.400 9  21939882.402 6         0.000 6      1975.338 6        37.977 6
G16  20483580.469 9 107641921.580 9       504.943 9        55.982 9  20483579.642 6         0.000 6       393.462 6        37.977 6
G26  20693696.469 9 108746086.400 9     -1553.735 9        55.857 9  20693699.301 6         0.000 6     -1210.703 6        37.977 6
G20  21879027.763 9 114975034.414 9      2458.618 9        55.341 9  21879028.048 6         0.000 6      1915.808 6        37.977 6
> 2019 07 03 12 03 16.0000000  0  8       0.000000000000
G07  25290584.273 9 132902871.762 9      2168.107 9        54.151 9  25290584.913 6         0.000 6      1689.435 6        37.977 6
G10  23718321.747 9 124640568.795 9      3478.769 9        54.703 9  23718325.386 6         0.000 6      2710.732 6        37.977 6
G21  21204376.529 9 111429729.976 9     -1331.036 9        55.695 9  21204375.821 6         0.000 6     -1037.171 6        37.977 6
G29  24382002.363 9 128128229.404 9     -3221.434 9        54.446 9  24382004.025 6         0.000 6     -2510.211 6        37.977 6
G27  21939398.109 9 115292288.595 9      2534.870 9        55.400 9  21939400.019 6         0.000 6      1975.224 6        37.977 6
G16  20483484.441 9 107641416.948 9       504.326 9        55.982 9  20483483.614 6         0.000 6       392.981 6        37.977 6
G26  20693992.217 9 108747640.565 9     -1554.592 9        55.857 9  20693995.049 6         0.000 6     -1211.371 6        37.977 6
G20  21878559.982 9 114972576.210 9      2457.802 9        55.341 9  21878560.266 6         0.000 6      1915.172 6        37.977 6
> 2019 07 03 12 03 17.0000000  0  8       0.000000000000
G07  25290171.689 9 132900703.620 9      2168.185 9        54.151 9  25290172.329 6         0.000 6      1689.495 6        37.977 6
G10  23717659.826 9 124637090.384 9      3478.073 9        54.703 9  23717663.464 6         0.000 6      2710.189 6        37.977 6
G21  21204629.842 9 111431061.142 9     -1331.293 9        55.695 9  21204629.133 6         0.000 6     -1037.371 6        37.977 6
G29  24382615.388 9 128131450.859 9     -3221.491 9        54.445 9  24382617.050 6         0.000 6     -2510.255 6        37.977 6
G27  21938915.753 9 115289753.801 9      2534.719 9        55.400 9  21938917.663 6         0.000 6      1975.106 6        37.977 6
G16  20483388.530 9 107640912.930 9       503.709 9        55.982 9  20483387.703 6         0.000 6       392.501 6        37.977 6
G26  20694288.127 9 108749195.580 9     -1555.445 9        55.856 9  20694290.959 6         0.000 6     -1212.036 6        37.977 6
G20  21878092.354 9 114970118.815 9      2456.997 9        55.342 9  21878092.638 6         0.000 6      1914.544 6        37.977 6
> 2019 07 03 12 03 18.0000000  0  8       0.000000000000
G07  25289759.089 9 132898535.397 9      2168.266 9        54.151 9  25289759.729 6         0.000 6      1689.559 6        37.977 6
G10  23716998.037 9 124633612.671 9      3477.372 9        54.703 9  23717001.674 6         0.000 6      2709.643 6        37.977 6
G21  21204883.202 9 111432392.560 9     -1331.552 9        55.695 9  21204882.494 6         0.000 6     -1037.573 6        37.977 6
G29  24383228.422 9 128134672.365 9     -3221.549 9        54.445 9  24383230.085 6         0.000 6     -2510.301 6        37.977 6
G27  21938433.427 9 115287219.161 9      2534.567 9        55.400 9  21938435.337 6         0.000 6      1974.988 6        37.977 6
G16  20483292.736 9 107640409.529 9       503.090 9        55.982 9  20483291.909 6         0.000 6       392.018 6        37.977 6
G26  20694584.200 9 108750751.450 9     -1556.301 9        55.856 9  20694587.032 6         0.000 6     -1212.703 6        37.977 6
G20  21877624.880 9 114967662.225 9      2456.187 9        55.342 9  21877625.164 6         0.000 6      1913.913 6        37.977 6
> 2019 07 03 12 03 19.0000000  0  8       0.000000000000
G07  25289346.474 9 132896367.094 9      2168.341 9        54.151 9  25289347.113 6         0.000 6      1689.618 6        37.977 6
G10  23716336.382 9 124630135.662 9      3476.676 9        54.703 9  23716340.019 6         0.000 6      2709.101 6        37.977 6
G21  21205136.613 9 111433724.241 9     -1331.806 9        55.695 9  21205135.905 6         0.000 6     -1037.771 6        37.977 6
G29  24383841.467 9 128137893.929 9     -3221.596 9        54.445 9  24383843.131 6         0.000 6     -2510.337 6        37.977 6
G27  21937951.130 9 115284684.677 9      2534.407 9        55.401 9  21937953.040 6         0.000 6      1974.863 6        37.977 6
G16  20483197.061 9 107639906.753 9       502.467 9        55.983 9  20483196.233 6         0.000 6       391.533 6        37.977 6
G26  20694880.437 9 108752308.183 9     -1557.158 9        55.856 9  20694883.268 6         0.000 6     -1213.371 6        37.977 6
G20  21877157.560 9 114965206.449 9      2455.384 9        55.342 9  21877157.844 6         0.000 6      1913.288 6        37.977 6
> 2019 07 03 12 03 20.0000000  0  8       0.000000000000
G07  25288933.844 9 132894198.715 9      2168.423 9        54.151 9  25288934.484 6         0.000 6      1689.681 6        37.977 6
G10  23715674.860 9 124626659.348 9      3475.973 9        54.704 9  23715678.496 6         0.000 6      2708.553 6        37.977 6
G21  21205390.071 9 111435056.170 9     -1332.058 9        55.695 9  21205389.362 6         0.000 6     -1037.968 6        37.977 6
G29  24384454.520 9 128141115.534 9     -3221.642 9        54.445 9  24384456.185 6         0.000 6     -2510.373 6        37.977 6
G27  21937468.864 9 115282150.354 9      2534.248 9        55.401 9  21937470.773 6         0.000 6      1974.739 6        37.977 6
G16  20483101.503 9 107639404.597 9       501.844 9        55.983 9  20483100.676 6         0.000 6       391.047 6        37.977 6
G26  20695176.836 9 108753865.769 9     -1558.019 9        55.856 9  20695179.668 6         0.000 6     -1214.041 6        37.977 6
G20  21876690.393 9 114962751.470 9      2454.578 9        55.342 9  21876690.676 6         0.000 6      1912.659 6        37.977 6
> 2019 07 03 12 03 21.0000000  0  8       0.000000000000
G07  25288521.200 9 132892030.259 9      2168.494 9        54.152 9  25288521.839 6         0.000 6      1689.737 6        37.977 6
G10  23715013.470 9 124623183.735 9      3475.277 9        54.704 9  23715017.106 6         0.000 6      2708.011 6        37.977 6
G21  21205643.577 9 111436388.354 9     -1332.310 9        55.695 9  21205642.869 6         0.000 6     -1038.164 6        37.977 6
G29  24385067.582 9 128144337.183 9     -3221.680 9        54.445 9  24385069.247 6         0.000 6     -2510.402 6        37.977 6
G27  21936986.629 9 115279616.195 9      2534.080 9        55.401 9  21936988.538 6         0.000 6      1974.608 6        37.977 6
G16  20483006.066 9 107638903.070 9       501.215 9        55.983 9  20483005.239 6         0.000 6       390.557 6        37.977 6
G26  20695473.399 9 108755424.219 9     -1558.880 9        55.856 9  20695476.231 6         0.000 6     -1214.712 6        37.977 6
G20  21876223.378 9 114960297.298 9      2453.778 9        55.342 9  21876223.661 6         0.000 6      1912.036 6        37.977 6
> 2019 07 03 12 03 22.0000000  0  8       0.000000000000
G07  25288108.542 9 132889861.729 9      2168.569 9        54.152 9  25288109.181 6         0.000 6      1689.795 6        37.977 6
G10  23714352.214 9 124619708.820 9      3474.577 9        54.704 9  23714355.849 6         0.000 6      2707.465 6        37.977 6
G21  21205897.130 9 111437720.784 9     -1332.558 9        55.695 9  21205896.422 6         0.000 6     -1038.357 6        37.977 6
G29  24385680.650 9 128147558.866 9     -3221.711 9        54.444 9  24385682.315 6         0.000 6     -2510.427 6        37.977 6
G27  21936504.426 9 115277082.202 9      2533.908 9        55.401 9  21936506.335 6         0.000 6      1974.474 6        37.977 6
G16  20482910.748 9 107638402.169 9       500.584 9        55.983 9  20482909.920 6         0.000 6       390.066 6        37.977 6
G26  20695770.126 9 108756983.528 9     -1559.744 9        55.856 9  20695772.958 6         0.000 6     -1215.386 6        37.977 6
G20  21875756.516 9 114957843.925 9      2452.977 9        55.342 9  21875756.799 6         0.000 6      1911.411 6        37.977 6
> 2019 07 03 12 03 23.0000000  0  8       0.000000000000
G07  25287695.870 9 132887693.127 9      2168.645 9        54.152 9  25287696.509 6         0.000 6      1689.854 6        37.977 6
G10  23713691.091 9 124616234.603 9      3473.878 9        54.704 9  23713694.725 6         0.000 6      2706.920 6        37.977 6
G21  21206150.731 9 111439053.464 9     -1332.798 9        55.695 9  21206150.023 6         0.000 6     -1038.544 6        37.977 6
G29  24386293.723 9 128150780.578 9     -3221.736 9        54.444 9  24386295.389 6         0.000 6     -2510.446 6        37.977 6
G27  21936022.256 9 115274548.386 9      2533.737 9        55.401 9  21936024.165 6         0.000 6      1974.341 6        37.977 6
G16  20482815.550 9 107637901.902 9       499.956 9        55.983 9  20482814.723 6         0.000 6       389.576 6        37.977 6
G26  20696067.018 9 108758543.704 9     -1560.606 9        55.856 9  20696069.850 6         0.000 6     -1216.057 6        37.977 6
G20  21875289.806 9 114955391.351 9      2452.180 9        55.343 9  21875290.089 6         0.000 6      1910.791 6        37.977 6
> 2019 07 03 12 03 24.0000000  0  8       0.000000000000
G07  25287283.183 9 132885524.447 9      2168.714 9        54.152 9  25287283.822 6         0.000 6      1689.908 6        37.977 6
G10  23713030.101 9 124612761.088 9      3473.180 9        54.705 9  23713033.734 6         0.000 6      2706.377 6        37.977 6
G21  21206404.377 9 111440386.382 9     -1333.042 9        55.695 9  21206403.669 6         0.000 6     -1038.734 6        37.977 6
G29  24386906.801 9 128154002.313 9     -3221.752 9        54.444 9  24386908.468 6         0.000 6     -2510.459 6        37.977 6
G27  21935540.119 9 115272014.741 9      2533.553 9        55.402 9  21935542.027 6         0.000 6      1974.198 6        37.977 6
G16  20482720.472 9 107637402.262 9       499.318 9        55.983 9  20482719.645 6         0.000 6       389.079 6        37.977 6
G26  20696364.074 9 108760104.742 9     -1561.475 9        55.856 9  20696366.907 6         0.000 6     -1216.734 6        37.977 6
G20  21874823.248 9 114952939.576 9      2451.385 9        55.343 9  21874823.530 6         0.000 6      1910.171 6        37.977 6
> 2019 07 03 12 03 25.0000000  0  8       0.000000000000
G07  25286870.485 9 132883355.704 9      2168.783 9        54.152 9  25286871.123 6         0.000 6      1689.961 6        37.977 6
G10  23712369.243 9 124609288.265 9      3472.483 9        54.705 9  23712372.875 6         0.000 6      2705.833 6        37.977 6
G21  21206658.069 9 111441719.544 9     -1333.279 9        55.695 9  21206657.361 6         0.000 6     -1038.919 6        37.977 6
G29  24387519.881 9 128157224.061 9     -3221.763 9        54.444 9  24387521.549 6         0.000 6     -2510.468 6        37.977 6
G27  21935058.017 9 115269481.285 9      2533.369 9        55.402 9  21935059.926 6         0.000 6      1974.054 6        37.977 6
G16  20482625.516 9 107636903.264 9       498.682 9        55.983 9  20482624.688 6         0.000 6       388.583 6        37.977 6
G26  20696661.296 9 108761666.650 9     -1562.342 9        55.855 9  20696664.128 6         0.000 6     -1217.409 6        37.977 6
G20  21874356.840 9 114950488.591 9      2450.593 9        55.343 9  21874357.122 6         0.000 6      1909.554 6        37.977 6
> 2019 07 03 12 03 26.0000000  0  8       0.000000000000
G07  25286457.772 9 132881186.890 9      2168.852 9        54.152 9  25286458.410 6         0.000 6      1690.015 6        37.977 6
G10  23711708.517 9 124605816.141 9      3471.784 9        54.705 9  23711712.150 6         0.000 6      2705.289 6        37.977 6
G21  21206911.806 9 111443052.938 9     -1333.514 9        55.694 9  21206911.098 6         0.000 6     -1039.102 6        37.977 6
G29  24388132.963 9 128160445.817 9     -3221.767 9        54.443 9  24388134.631 6         0.000 6     -2510.471 6        37.977 6
G27  21934575.951 9 115266948.011 9      2533.179 9        55.402 9  21934577.859 6         0.000 6      1973.906 6        37.977 6
G16  20482530.680 9 107636404.900 9       498.041 9        55.983 9  20482529.853 6         0.000 6       388.084 6        37.977 6
G26  20696958.682 9 108763229.423 9     -1563.213 9        55.855 9  20696961.515 6         0.000 6     -1218.088 6        37.977 6
G20  21873890.583 9 114948038.397 9      2449.802 9        55.343 9  21873890.865 6         0.000 6      1908.938 6        37.977 6
> 2019 07 03 12 03 27.0000000  0  8       0.000000000000
G07  25286045.046 9 132879018.003 9      2168.922 9        54.152 9  25286045.684 6         0.000 6      1690.070 6        37.977 6
G10  23711047.926 9 124602344.721 9      3471.086 9        54.705 9  23711051.558 6         0.000 6      2704.745 6        37.977 6
G21  21207165.588 9 111444386.570 9     -1333.744 9        55.694 9  21207164.880 6         0.000 6     -1039.281 6        37.977 6
G29  24388746.045 9 128163667.575 9     -3221.767 9        54.443 9  24388747.714 6         0.000 6     -2510.471 6        37.977 6
G27  21934093.921 9 115264414.931 9      2532.989 9        55.402 9  21934095.829 6         0.000 6      1973.759 6        37.977 6
G16  20482435.967 9 107635907.181 9       497.403 9        55.983 9  20482435.140 6         0.000 6       387.587 6        37.977 6
G26  20697256.235 9 108764793.073 9     -1564.082 9        55.855 9  20697259.068 6         0.000 6     -1218.766 6        37.977 6
G20  21873424.477 9 114945588.999 9      2449.013 9        55.343 9  21873424.759 6         0.000 6      1908.323 6        37.977 6
> 2019 07 03 12 03 28.0000000  0  8       0.000000000000
G07  25285632.308 9 132876849.050 9      2168.989 9        54.153 9  25285632.945 6         0.000 6      1690.122 6        37.977 6
G10  23710387.467 9 124598873.996 9      3470.387 9        54.706 9  23710391.098 6         0.000 6      2704.201 6        37.977 6
G21  21207419.413 9 111445720.428 9     -1333.972 9        55.694 9  21207418.705 6         0.000 6     -1039.459 6        37.977 6
G29  24389359.126 9 128166889.329 9     -3221.757 9        54.443 9  24389360.796 6         0.000 6     -2510.463 6        37.977 6
G27  21933611.928 9 115261882.042 9      2532.791 9        55.402 9  21933613.836 6         0.000 6      1973.604 6        37.977 6
G16  20482341.376 9 107635410.101 9       496.758 9        55.983 9  20482340.549 6         0.000 6       387.084 6        37.977 6
G26  20697553.953 9 108766357.591 9     -1564.956 9        55.855 9  20697556.786 6         0.000 6     -1219.446 6        37.977 6
G20  21872958.521 9 114943140.385 9      2448.227 9        55.344 9  21872958.802 6         0.000 6      1907.710 6        37.977 6
> 2019 07 03 12 03 29.0000000  0  8       0.000000000000
G07  25285219.556 9 132874680.032 9      2169.055 9        54.153 9  25285220.194 6         0.000 6      1690.173 6        37.977 6
G10  23709727.141 9 124595403.970 9      3469.687 9        54.706 9  23709730.772 6         0.000 6      2703.655 6        37.977 6
G21  21207673.281 9 111447054.516 9     -1334.198 9        55.694 9  21207672.573 6         0.000 6     -1039.635 6        37.977 6
G29  24389972.205 9 128170111.070 9     -3221.740 9        54.443 9  24389973.876 6         0.000 6     -2510.449 6        37.977 6
G27  21933129.974 9 115259349.357 9      2532.586 9        55.403 9  21933131.881 6         0.000 6      1973.444 6        37.977 6
G16  20482246.908 9 107634913.669 9       496.108 9        55.983 9  20482246.081 6         0.000 6       386.578 6        37.977 6
G26  20697851.838 9 108767922.986 9     -1565.834 9        55.855 9  20697854.671 6         0.000 6     -1220.131 6        37.977 6
G20  21872492.714 9 114940692.557 9      2447.441 9        55.344 9  21872492.995 6         0.000 6      1907.098 6        37.977 6
> 2019 07 03 12 03 30.0000000  0  8       0.000000000000
G07  25284806.792 9 132872510.944 9      2169.115 9        54.153 9  25284807.429 6         0.000 6      1690.220 6        37.977 6
G10  23709066.949 9 124591934.648 9      3468.991 9        54.706 9  23709070.579 6         0.000 6      2703.113 6        37.977 6
G21  21207927.192 9 111448388.824 9     -1334.421 9        55.694 9  21207926.484 6         0.000 6     -1039.809 6        37.977 6
G29  24390585.280 9 128173332.787 9     -3221.715 9        54.443 9  24390586.951 6         0.000 6     -2510.430 6        37.977 6
G27  21932648.058 9 115256816.876 9      2532.375 9        55.403 9  21932649.966 6         0.000 6      1973.280 6        37.977 6
G16  20482152.564 9 107634417.886 9       495.456 9        55.983 9  20482151.737 6         0.000 6       386.069 6        37.977 6
G26  20698149.891 9 108769489.260 9     -1566.712 9        55.855 9  20698152.724 6         0.000 6     -1220.815 6        37.977 6
G20  21872027.056 9 114938245.516 9      2446.661 9        55.344 9  21872027.337 6         0.000 6      1906.490 6        37.977 6
> 2019 07 03 12 03 31.0000000  0  8       0.000000000000
G07  25284394.017 9 132870341.798 9      2169.181 9        54.153 9  25284394.654 6         0.000 6      1690.272 6        37.977 6
G10  23708406.889 9 124588466.020 9      3468.289 9        54.706 9  23708410.518 6         0.000 6      2702.566 6        37.977 6
G21  21208181.145 9 111449723.358 9     -1334.640 9        55.694 9  21208180.438 6         0.000 6     -1039.980 6        37.977 6
G29  24391198.350 9 128176554.480 9     -3221.685 9        54.442 9  24391200.021 6         0.000 6     -2510.407 6        37.977 6
G27  21932166.183 9 115254284.610 9      2532.163 9        55.403 9  21932168.091 6         0.000 6      1973.115 6        37.977 6
G16  20482058.344 9 107633922.759 9       494.803 9        55.983 9  20482057.517 6         0.000 6       385.561 6        37.977 6
G26  20698448.111 9 108771056.414 9     -1567.594 9        55.855 9  20698450.944 6         0.000 6     -1221.502 6        37.977 6
G20  21871561.547 9 114935799.254 9      2445.878 9        55.344 9  21871561.828 6         0.000 6      1905.880 6        37.977 6
> 2019 07 03 12 03 32.0000000  0  8       0.000000000000
G07  25283981.229 9 132868172.586 9      2169.245 9        54.153 9  25283981.865 6         0.000 6      1690.322 6        37.977 6
G10  23707746.963 9 124584998.095 9      3467.588 9        54.707 9  23707750.592 6         0.000 6      2702.019 6        37.977 6
G21  21208435.139 9 111451058.105 9     -1334.853 9        55.694 9  21208434.432 6         0.000 6     -1040.145 6        37.977 6
G29  24391811.412 9 128179776.136 9     -3221.644 9        54.442 9  24391813.085 6         0.000 6     -2510.374 6        37.977 6
G27  21931684.349 9 115251752.557 9      2531.945 9        55.403 9  21931686.256 6         0.000 6      1972.945 6        37.977 6
G16  20481964.249 9 107633428.284 9       494.147 9        55.983 9  20481963.422 6         0.000 6       385.050 6        37.977 6
G26  20698746.498 9 108772624.449 9     -1568.477 9        55.855 9  20698749.331 6         0.000 6     -1222.190 6        37.977 6
G20  21871096.187 9 114933353.772 9      2445.100 9        55.344 9  21871096.467 6         0.000 6      1905.274 6        37.977 6
> 2019 07 03 12 03 33.0000000  0  8       0.000000000000
G07  25283568.429 9 132866003.313 9      2169.310 9        54.153 9  25283569.066 6         0.000 6      1690.372 6        37.977 6
G10  23707087.170 9 124581530.869 9      3466.885 9        54.707 9  23707090.798 6         0.000 6      2701.472 6        37.977 6
G21  21208689.173 9 111452393.063 9     -1335.066 9        55.694 9  21208688.466 6         0.000 6     -1040.311 6        37.977 6
G29  24392424.466 9 128182997.743 9     -3221.597 9        54.442 9  24392426.139 6         0.000 6     -2510.338 6        37.977 6
G27  21931202.558 9 115249220.731 9      2531.721 9        55.403 9  21931204.465 6         0.000 6      1972.770 6        37.977 6
G16  20481870.279 9 107632934.470 9       493.487 9        55.983 9  20481869.452 6         0.000 6       384.535 6        37.977 6
G26  20699045.054 9 108774193.370 9     -1569.365 9        55.854 9  20699047.888 6         0.000 6     -1222.882 6        37.977 6
G20  21870630.974 9 114930909.066 9      2444.321 9        55.344 9  21870631.254 6         0.000 6      1904.667 6        37.977 6
> 2019 07 03 12 03 34.0000000  0  8       0.000000000000
G07  25283155.617 9 132863833.973 9      2169.369 9        54.153 9  25283156.253 6         0.000 6      1690.419 6        37.977 6
G10  23706427.512 9 124578064.351 9      3466.184 9        54.707 9  23706431.139 6         0.000 6      2700.925 6        37.977 6
G21  21208943.248 9 111453728.235 9     -1335.273 9        55.694 9  21208942.541 6         0.000 6     -1040.473 6        37.977 6
G29  24393037.510 9 128186219.303 9     -3221.541 9        54.442 9  24393039.184 6         0.000 6     -2510.294 6        37.977 6
G27  21930720.810 9 115246689.128 9      2531.491 9        55.404 9  21930722.716 6         0.000 6      1972.591 6        37.977 6
G16  20481776.435 9 107632441.318 9       492.823 9        55.983 9  20481775.608 6         0.000 6       384.018 6        37.977 6
G26  20699343.780 9 108775763.183 9     -1570.254 9        55.854 9  20699346.613 6         0.000 6     -1223.575 6        37.977 6
G20  21870165.910 9 114928465.142 9      2443.547 9        55.345 9  21870166.189 6         0.000 6      1904.064 6        37.977 6
> 2019 07 03 12 03 35.0000000  0  8       0.000000000000
G07  25282742.793 9 132861664.575 9      2169.430 9        54.154 9  25282743.429 6         0.000 6      1690.466 6        37.977 6
G10  23705767.986 9 124574598.530 9      3465.479 9        54.707 9  23705771.612 6         0.000 6      2700.376 6        37.977 6
G21  21209197.361 9 111455063.606 9     -1335.477 9        55.693 9  21209196.654 6         0.000 6     -1040.632 6        37.977 6
G29  24393650.543 9 128189440.800 9     -3221.474 9        54.441 9  24393652.217 6         0.000 6     -2510.242 6        37.977 6
G27  21930239.105 9 115244157.757 9      2531.252 9        55.404 9  21930241.012 6         0.000 6      1972.405 6        37.977 6
G16  20481682.717 9 107631948.826 9       492.154 9        55.983 9  20481681.890 6         0.000 6       383.497 6        37.977 6
G26  20699642.674 9 108777333.880 9     -1571.148 9        55.854 9  20699645.508 6         0.000 6     -1224.272 6        37.977 6
G20  21869700.992 9 114926021.984 9      2442.774 9        55.345 9  21869701.271 6         0.000 6      1903.461 6        37.977 6
> 2019 07 03 12 03 36.0000000  0  8       0.000000000000
G07  25282329.958 9 132859495.114 9      2169.487 9        54.154 9  25282330.594 6         0.000 6      1690.511 6        37.977 6
G10  23705108.595 9 124571133.416 9      3464.777 9        54.707 9  23705112.220 6         0.000 6      2699.829 6        37.977 6
G21  21209451.513 9 111456399.184 9     -1335.679 9        55.693 9  21209450.806 6         0.000 6     -1040.789 6        37.977 6
G29  24394263.563 9 128192662.233 9     -3221.403 9        54.441 9  24394265.238 6         0.000 6     -2510.187 6        37.977 6
G27  21929757.446 9 115241626.624 9      2531.010 9        55.404 9  21929759.353 6         0.000 6      1972.216 6        37.977 6
G16  20481589.127 9 107631457.005 9       491.484 9        55.983 9  20481588.300 6         0.000 6       382.974 6        37.977 6
G26  20699941.739 9 108778905.474 9     -1572.043 9        55.854 9  20699944.572 6         0.000 6     -1224.969 6        37.977 6
G20  21869236.221 9 114923579.604 9      2442.003 9        55.345 9  21869236.500 6         0.000 6      1902.861 6        37.977 6
> 2019 07 03 12 03 37.0000000  0  8       0.000000000000
G07  25281917.112 9 132857325.599 9      2169.546 9        54.154 9  25281917.748 6         0.000 6      1690.556 6        37.977 6
G10  23704449.337 9 124567669.001 9      3464.075 9        54.708 9  23704452.962 6         0.000 6      2699.282 6        37.977 6
G21  21209705.703 9 111457734.956 9     -1335.870 9        55.693 9  21209704.995 6         0.000 6     -1040.938 6        37.977 6
G29  24394876.567 9 128195883.580 9     -3221.318 9        54.441 9  24394878.243 6         0.000 6     -2510.120 6        37.977 6
G27  21929275.834 9 115239095.740 9      2530.764 9        55.404 9  21929277.741 6         0.000 6      1972.025 6        37.977 6
G16  20481495.664 9 107630965.856 9       490.814 9        55.983 9  20481494.837 6         0.000 6       382.452 6        37.977 6
G26  20700240.974 9 108780477.963 9     -1572.937 9        55.854 9  20700243.808 6         0.000 6     -1225.665 6        37.977 6
G20  21868771.596 9 114921137.987 9      2441.239 9        55.345 9  21868771.875 6         0.000 6      1902.265 6        37.977 6
> 2019 07 03 12 03 38.0000000  0  8       0.000000000000
G07  25281504.255 9 132855156.022 9      2169.608 9        54.154 9  25281504.890 6         0.000 6      1690.604 6        37.977 6
G10  23703790.213 9 124564205.293 9      3463.368 9        54.708 9  23703793.837 6         0.000 6      2698.731 6        37.977 6
G21  21209959.928 9 111459070.922 9     -1336.061 9        55.693 9  21209959.221 6         0.000 6     -1041.087 6        37.977 6
G29  24395489.556 9 128199104.845 9     -3221.229 9        54.441 9  24395491.232 6         0.000 6     -2510.052 6        37.977 6
G27  21928794.269 9 115236565.101 9      2530.515 9        55.404 9  21928796.175 6         0.000 6      1971.830 6        37.977 6
G16  20481402.329 9 107630475.379 9       490.140 9        55.983 9  20481401.502 6         0.000 6       381.927 6        37.977 6
G26  20700540.379 9 108782051.348 9     -1573.836 9        55.854 9  20700543.213 6         0.000 6     -1226.366 6        37.977 6
G20  21868307.117 9 114918697.139 9      2440.471 9        55.345 9  21868307.396 6         0.000 6      1901.667 6        37.977 6
> 2019 07 03 12 03 39.0000000  0  8       0.000000000000
G07  25281091.387 9 132852986.391 9      2169.665 9        54.154 9  25281092.022 6         0.000 6      1690.649 6        37.977 6
G10  23703131.223 9 124560742.289 9      3462.660 9        54.708 9  23703134.847 6         0.000 6      2698.179 6        37.977 6
G21  21210214.191 9 111460407.082 9     -1336.252 9        55.693 9  21210213.484 6         0.000 6     -1041.235 6        37.977 6
G29  24396102.526 9 128202326.016 9     -3221.128 9        54.441 9  24396104.203 6         0.000 6     -2509.973 6        37.977 6
G27  21928312.754 9 115234034.722 9      2530.251 9        55.405 9  21928314.660 6         0.000 6      1971.625 6        37.977 6
G16  20481309.125 9 107629985.584 9       489.455 9        55.983 9  20481308.297 6         0.000 6       381.394 6        37.977 6
G26  20700839.957 9 108783625.639 9     -1574.745 9        55.854 9  20700842.791 6         0.000 6     -1227.074 6        37.977 6
G20  21867842.785 9 114916257.057 9      2439.705 9        55.346 9  21867843.063 6         0.000 6      1901.070 6        37.977 6
> 2019 07 03 12 03 40.0000000  0  8       0.000000000000
G07  25280678.509 9 132850816.703 9      2169.709 9        54.154 9  25280679.144 6         0.000 6      1690.683 6        37.977 6
G10  23702472.367 9 124557279.989 9      3461.965 9        54.708 9  23702475.991 6         0.000 6      2697.638 6        37.977 6
G21  21210468.488 9 111461743.417 9     -1336.426 9        55.693 9  21210467.780 6         0.000 6     -1041.371 6        37.977 6
G29  24396715.474 9 128205547.071 9     -3221.002 9        54.440 9  24396717.152 6         0.000 6     -2509.874 6        37.977 6
G27  21927831.288 9 115231504.607 9      2529.976 9        55.405 9  21927833.194 6         0.000 6      1971.410 6        37.977 6
G16  20481216.049 9 107629496.467 9       488.770 9        55.983 9  20481215.222 6         0.000 6       380.860 6        37.977 6
G26  20701139.707 9 108785200.830 9     -1575.645 9        55.854 9  20701142.541 6         0.000 6     -1227.776 6        37.977 6
G20  21867378.595 9 114913817.731 9      2438.958 9        55.346 9  21867378.873 6         0.000 6      1900.488 6        37.977 6
> 2019 07 03 12 03 41.0000000  0  8       0.000000000000
G07  25280265.982 9 132848648.867 9      2165.958 9        54.154 9  25280266.617 6         0.000 6      1687.761 6        37.977 6
G10  23701813.357 9 124553816.876 9      3464.303 9        54.709 9  23701816.980 6         0.000 6      2699.459 6        37.977 6
G21  21210722.679 9 111463079.200 9     -1335.148 9        55.693 9  21210721.972 6         0.000 6     -1040.376 6        37.977 6
G29  24397327.925 9 128208765.510 9     -3215.927 9        54.440 9  24397329.603 6         0.000 6     -2505.920 6        37.977 6
G27  21927350.267 9 115228976.827 9      2525.615 9        55.405 9  21927352.173 6         0.000 6      1968.012 6        37.977 6
G16  20481123.279 9 107629008.961 9       486.261 9        55.983 9  20481122.452 6         0.000 6       378.905 6        37.977 6
G26  20701439.603 9 108786776.795 9     -1576.261 9        55.853 9  20701442.437 6         0.000 6     -1228.256 6        37.977 6
G20  21866914.223 9 114911377.443 9      2441.636 9        55.346 9  21866914.501 6         0.000 6      1902.575 6        37.977 6
> 2019 07 03 12 03 42.0000000  0  8       0.000000000000
G07  25279854.095 9 132846484.387 9      2163.198 9        54.155 9  25279854.729 6         0.000 6      1685.610 6        37.977 6
G10  23701153.958 9 124550351.723 9      3465.876 9        54.709 9  23701157.580 6         0.000 6      2700.685 6        37.977 6
G21  21210976.663 9 111464413.898 9     -1334.330 9        55.693 9  21210975.956 6         0.000 6     -1039.738 6        37.977 6
G29  24397939.528 9 128211979.494 9     -3212.328 9        54.440 9  24397941.207 6         0.000 6     -2503.115 6        37.977 6
G27  21926869.981 9 115226452.911 9      2522.439 9        55.405 9  21926871.887 6         0.000 6      1965.537 6        37.977 6
G16  20481030.944 9 107628523.735 9       484.289 9        55.983 9  20481030.117 6         0.000 6       377.368 6        37.977 6
G26  20701739.615 9 108788353.366 9     -1576.893 9        55.853 9  20701742.449 6         0.000 6     -1228.748 6        37.977 6
G20  21866449.412 9 114908934.850 9      2443.383 9        55.346 9  21866449.690 6         0.000 6      1903.936 6        37.977 6
> 2019 07 03 12 03 43.0000000  0  8       0.000000000000
G07  25279442.643 9 132844322.195 9      2161.325 9        54.155 9  25279443.277 6         0.000 6      1684.150 6        37.977 6
G10  23700494.331 9 124546885.366 9      3466.755 9        54.709 9  23700497.952 6         0.000 6      2701.370 6        37.977 6
G21  21211230.532 9 111465747.986 9     -1333.895 9        55.693 9  21211229.825 6         0.000 6     -1039.399 6        37.977 6
G29  24398550.574 9 128215190.555 9     -3209.986 9        54.440 9  24398552.254 6         0.000 6     -2501.290 6        37.977 6
G27  21926390.196 9 115223931.625 9      2520.283 9        55.405 9  21926392.101 6         0.000 6      1963.858 6        37.977 6
G16  20480938.937 9 107628040.236 9       482.776 9        55.983 9  20480938.110 6         0.000 6       376.189 6        37.977 6
G26  20702039.750 9 108789930.587 9     -1577.559 9        55.853 9  20702042.585 6         0.000 6     -1229.267 6        37.977 6
G20  21865984.353 9 114906490.950 9      2444.310 9        55.346 9  21865984.630 6         0.000 6      1904.658 6        37.977 6
> 2019 07 03 12 03 44.0000000  0  8       0.000000000000
G07  25279031.486 9 132842161.558 9      2160.038 9        54.155 9  25279032.121 6         0.000 6      1683.147 6        37.977 6
G10  23699834.583 9 124543418.382 9      3467.173 9        54.709 9  23699838.204 6         0.000 6      2701.696 6        37.977 6
G21  21211484.342 9 111467081.766 9     -1333.703 9        55.693 9  21211483.635 6         0.000 6     -1039.249 6        37.977 6
G29  24399161.257 9 128218399.705 9     -3208.456 9        54.440 9  24399162.937 6         0.000 6     -2500.098 6        37.977 6
G27  21925910.753 9 115221412.139 9      2518.791 9        55.405 9  21925912.658 6         0.000 6      1962.695 6        37.977 6
G16  20480847.187 9 107627558.088 9       481.565 9        55.984 9  20480846.360 6         0.000 6       375.245 6        37.977 6
G26  20702340.016 9 108791508.490 9     -1578.251 9        55.853 9  20702342.850 6         0.000 6     -1229.807 6        37.977 6
G20  21865519.172 9 114904046.411 9      2444.700 9        55.346 9  21865519.449 6         0.000 6      1904.962 6        37.977 6
> 2019 07 03 12 03 45.0000000  0  8       0.000000000000
G07  25278620.537 9 132840002.005 9      2159.129 9        54.155 9  25278621.171 6         0.000 6      1682.439 6        37.977 6
G10  23699174.787 9 124539951.137 9      3467.292 9        54.710 9  23699178.407 6         0.000 6      2701.788 6        37.977 6
G21  21211738.132 9 111468415.440 9     -1333.667 9        55.692 9  21211737.425 6         0.000 6     -1039.221 6        37.977 6
G29  24399771.703 9 128221607.607 9     -3207.441 9        54.439 9  24399773.384 6         0.000 6     -2499.307 6        37.977 6
G27  21925431.551 9 115218893.916 9      2517.720 9        55.406 9  21925433.456 6         0.000 6      1961.860 6        37.977 6
G16  20480755.649 9 107627077.049 9       480.540 9        55.984 9  20480754.822 6         0.000 6       374.447 6        37.977 6
G26  20702640.415 9 108793087.096 9     -1578.968 9        55.853 9  20702643.250 6         0.000 6     -1230.365 6        37.977 6
G20  21865053.952 9 114901601.670 9      2444.742 9        55.347 9  21865054.229 6         0.000 6      1904.995 6        37.977 6
> 2019 07 03 12 03 46.0000000  0  8       0.000000000000
G07  25278209.734 9 132837843.225 9      2158.473 9        54.155 9  25278210.367 6         0.000 6      1681.928 6        37.977 6
G10  23698514.989 9 124536483.884 9      3467.211 9        54.710 9  23698518.608 6         0.000 6      2701.725 6        37.977 6
G21  21211991.925 9 111469749.130 9     -1333.730 9        55.692 9  21211991.218 6         0.000 6     -1039.270 6        37.977 6
G29  24400381.989 9 128224814.672 9     -3206.764 9        54.439 9  24400383.670 6         0.000 6     -2498.780 6        37.977 6
G27  21924952.524 9 115216376.618 9      2516.927 9        55.406 9  21924954.429 6         0.000 6      1961.242 6        37.977 6
G16  20480664.293 9 107626596.970 9       479.641 9        55.984 9  20480663.466 6         0.000 6       373.746 6        37.977 6
G26  20702940.952 9 108794666.429 9     -1579.698 9        55.853 9  20702943.787 6         0.000 6     -1230.934 6        37.977 6
G20  21864588.748 9 114899157.010 9      2444.556 9        55.347 9  21864589.024 6         0.000 6      1904.850 6        37.977 6
> 2019 07 03 12 03 47.0000000  0  8       0.000000000000
G07  25277799.039 9 132835685.013 9      2157.980 9        54.155 9  25277799.673 6         0.000 6      1681.544 6        37.977 6
G10  23697855.219 9 124533016.781 9      3466.998 9        54.710 9  23697858.838 6         0.000 6      2701.559 6        37.977 6
G21  21212245.736 9 111471082.916 9     -1333.854 9        55.692 9  21212245.029 6         0.000 6     -1039.367 6        37.977 6
G29  24400992.169 9 128228021.178 9     -3206.300 9        54.439 9  24400993.851 6         0.000 6     -2498.418 6        37.977 6
G27  21924473.630 9 115213860.015 9      2516.310 9        55.406 9  21924475.535 6         0.000 6      1960.761 6        37.977 6
G16  20480573.099 9 107626117.745 9       478.820 9        55.984 9  20480572.272 6         0.000 6       373.107 6        37.977 6
G26  20703241.629 9 108796246.496 9     -1580.442 9        55.853 9  20703244.464 6         0.000 6     -1231.513 6        37.977 6
G20  21864123.594 9 114896712.614 9      2444.223 9        55.347 9  21864123.870 6         0.000 6      1904.590 6        37.977 6
> 2019 07 03 12 03 48.0000000  0  8       0.000000000000
G07  25277388.428 9 132833527.239 9      2157.567 9        54.155 9  25277389.061 6         0.000 6      1681.222 6        37.977 6
G10  23697195.498 9 124529549.937 9      3466.728 9        54.710 9  23697199.117 6         0.000 6      2701.349 6        37.977 6
G21  21212499.577 9 111472416.856 9     -1334.035 9        55.692 9  21212498.870 6         0.000 6     -1039.508 6        37.977 6
G29  24401602.275 9 128231227.299 9     -3205.992 9        54.439 9  24401603.958 6         0.000 6     -2498.178 6        37.977 6
G27  21923994.842 9 115211343.970 9      2515.809 9        55.406 9  21923996.747 6         0.000 6      1960.372 6        37.977 6
G16  20480482.058 9 107625639.318 9       478.052 9        55.984 9  20480481.230 6         0.000 6       372.508 6        37.977 6
G26  20703542.449 9 108797827.314 9     -1581.178 9        55.853 9  20703545.284 6         0.000 6     -1232.087 6        37.977 6
G20  21863658.514 9 114894268.607 9      2443.804 9        55.347 9  21863658.790 6         0.000 6      1904.264 6        37.977 6
> 2019 07 03 12 03 49.0000000  0  8       0.000000000000
G07  25276977.906 9 132831369.939 9      2157.050 9        54.156 9  25276978.539 6         0.000 6      1680.819 6        37.977 6
G10  23696535.814 9 124526083.283 9      3466.592 9        54.711 9  23696539.432 6         0.000 6      2701.243 6        37.977 6
G21  21212753.461 9 111473751.029 9     -1334.315 9        55.692 9  21212752.755 6         0.000 6     -1039.726 6        37.977 6
G29  24402212.343 9 128234433.213 9     -3205.869 9        54.438 9  24402214.026 6         0.000 6     -2498.082 6        37.977 6
G27  21923516.139 9 115208828.371 9      2515.405 9        55.406 9  21923518.043 6         0.000 6      1960.056 6        37.977 6
G16  20480391.155 9 107625161.624 9       477.342 9        55.984 9  20480390.328 6         0.000 6       371.955 6        37.977 6
G26  20703843.397 9 108799408.801 9     -1581.800 9        55.852 9  20703846.232 6         0.000 6     -1232.572 6        37.977 6
G20  21863193.509 9 114891824.995 9      2443.421 9        55.347 9  21863193.785 6         0.000 6      1903.966 6        37.977 6
> 2019 07 03 12 03 50.0000000  0  8       0.000000000000
G07  25276567.473 9 132829213.100 9      2156.658 9        54.156 9  25276568.106 6         0.000 6      1680.514 6        37.977 6
G10  23695876.166 9 124522616.818 9      3466.332 9        54.711 9  23695879.783 6         0.000 6      2701.041 6        37.977 6
G21  21213007.398 9 111475085.473 9     -1334.576 9        55.692 9  21213006.691 6         0.000 6     -1039.929 6        37.977 6
G29  24402822.388 9 128237639.012 9     -3205.756 9        54.438 9  24402824.072 6         0.000 6     -2497.994 6        37.977 6
G27  21923037.509 9 115206313.155 9      2515.037 9        55.407 9  21923039.413 6         0.000 6      1959.769 6        37.977 6
G16  20480300.387 9 107624684.631 9       476.641 9        55.984 9  20480299.560 6         0.000 6       371.409 6        37.977 6
G26  20704144.467 9 108800990.932 9     -1582.481 9        55.852 9  20704147.302 6         0.000 6     -1233.103 6        37.977 6
G20  21862728.584 9 114889381.802 9      2442.953 9        55.348 9  21862728.860 6         0.000 6      1903.601 6        37.977 6
> 2019 07 03 12 03 51.0000000  0  8       0.000000000000
G07  25276157.102 9 132827056.590 9      2156.389 9        54.156 9  25276157.735 6         0.000 6      1680.304 6        37.977 6
G10  23695216.579 9 124519150.678 9      3465.947 9        54.711 9  23695220.196 6         0.000 6      2700.740 6        37.977 6
G21  21213261.382 9 111476420.166 9     -1334.804 9        55.692 9  21213260.675 6         0.000 6     -1040.107 6        37.977 6
G29  24403432.411 9 128240844.697 9     -3205.626 9        54.438 9  24403434.096 6         0.000 6     -2497.893 6        37.977 6
G27  21922558.947 9 115203798.296 9      2514.688 9        55.407 9  21922560.851 6         0.000 6      1959.498 6        37.977 6
G16  20480209.752 9 107624208.340 9       475.942 9        55.984 9  20480208.924 6         0.000 6       370.864 6        37.977 6
G26  20704445.673 9 108802573.779 9     -1583.228 9        55.852 9  20704448.508 6         0.000 6     -1233.685 6        37.977 6
G20  21862263.757 9 114886939.119 9      2442.409 9        55.348 9  21862264.032 6         0.000 6      1903.177 6        37.977 6
> 2019 07 03 12 03 52.0000000  0  8       0.000000000000
G07  25275746.770 9 132824900.284 9      2156.240 9        54.156 9  25275747.402 6         0.000 6      1680.188 6        37.977 6
G10  23694557.080 9 124515684.993 9      3465.433 9        54.711 9  23694560.695 6         0.000 6      2700.340 6        37.977 6
G21  21213515.405 9 111477755.069 9     -1334.998 9        55.692 9  21213514.699 6         0.000 6     -1040.259 6        37.977 6
G29  24404042.407 9 128244050.234 9     -3205.464 9        54.438 9  24404044.092 6         0.000 6     -2497.767 6        37.977 6
G27  21922080.450 9 115201283.784 9      2514.343 9        55.407 9  21922082.354 6         0.000 6      1959.229 6        37.977 6
G16  20480119.250 9 107623732.753 9       475.231 9        55.984 9  20480118.423 6         0.000 6       370.310 6        37.977 6
G26  20704747.029 9 108804157.414 9     -1584.051 9        55.852 9  20704749.864 6         0.000 6     -1234.326 6        37.977 6
G20  21861799.040 9 114884497.022 9      2441.789 9        55.348 9  21861799.315 6         0.000 6      1902.694 6        37.977 6
> 2019 07 03 12 03 53.0000000  0  8       0.000000000000
G07  25275336.457 9 132822744.078 9      2156.195 9        54.156 9  25275337.089 6         0.000 6      1680.153 6        37.977 6
G10  23693897.687 9 124512219.874 9      3464.808 9        54.712 9  23693901.302 6         0.000 6      2699.853 6        37.977 6
G21  21213769.461 9 111479090.140 9     -1335.148 9        55.692 9  21213768.754 6         0.000 6     -1040.375 6        37.977 6
G29  24404652.366 9 128247255.578 9     -3205.247 9        54.438 9  24404654.052 6         0.000 6     -2497.597 6        37.977 6
G27  21921602.020 9 115198769.620 9      2513.990 9        55.407 9  21921603.924 6         0.000 6      1958.954 6        37.977 6
G16  20480028.885 9 107623257.880 9       474.510 9        55.984 9  20480028.058 6         0.000 6       369.748 6        37.977 6
G26  20705048.547 9 108805741.902 9     -1584.942 9        55.852 9  20705051.383 6         0.000 6     -1235.020 6        37.977 6
G20  21861334.446 9 114882055.567 9      2441.114 9        55.348 9  21861334.720 6         0.000 6      1902.168 6        37.977 6
> 2019 07 03 12 03 54.0000000  0  8       0.000000000000
G07  25274926.144 9 132820587.872 9      2156.239 9        54.156 9  25274926.776 6         0.000 6      1680.187 6        37.977 6
G10  23693238.423 9 124508755.429 9      3464.081 9        54.712 9  23693242.038 6         0.000 6      2699.287 6        37.977 6
G21  21214023.542 9 111480425.342 9     -1335.251 9        55.692 9  21214022.835 6         0.000 6     -1040.455 6        37.977 6
G29  24405262.278 9 128250460.678 9     -3204.962 9        54.437 9  24405263.965 6         0.000 6     -2497.375 6        37.977 6
G27  21921123.659 9 115196255.818 9      2513.613 9        55.407 9  21921125.563 6         0.000 6      1958.660 6        37.977 6
G16  20479938.659 9 107622783.738 9       473.767 9        55.984 9  20479937.832 6         0.000 6       369.169 6        37.977 6
G26  20705350.241 9 108807327.313 9     -1585.901 9        55.852 9  20705353.077 6         0.000 6     -1235.768 6        37.977 6
G20  21860869.985 9 114879614.814 9      2440.391 9        55.348 9  21860870.259 6         0.000 6      1901.604 6        37.977 6
> 2019 07 03 12 03 55.0000000  0  8       0.000000000000
G07  25274515.814 9 132818431.576 9      2156.370 9        54.156 9  25274516.445 6         0.000 6      1680.289 6        37.977 6
G10  23692579.308 9 124505291.763 9      3463.255 9        54.712 9  23692582.922 6         0.000 6      2698.643 6        37.977 6
G21  21214277.636 9 111481760.619 9     -1335.307 9        55.691 9  21214276.930 6         0.000 6     -1040.499 6        37.977 6
G29  24405872.129 9 128253665.455 9     -3204.606 9        54.437 9  24405873.816 6         0.000 6     -2497.098 6        37.977 6
G27  21920645.372 9 115193742.404 9      2513.210 9        55.408 9  21920647.275 6         0.000 6      1958.346 6        37.977 6
G16  20479848.576 9 107622310.347 9       473.002 9        55.984 9  20479847.748 6         0.000 6       368.573 6        37.977 6
G26  20705652.124 9 108808913.718 9     -1586.930 9        55.852 9  20705654.960 6         0.000 6     -1236.569 6        37.977 6
G20  21860405.666 9 114877174.806 9      2439.623 9        55.348 9  21860405.940 6         0.000 6      1901.006 6        37.977 6
> 2019 07 03 12 03 56.0000000  0  8       0.000000000000
G07  25274105.451 9 132816275.108 9      2156.576 9        54.157 9  25274106.082 6         0.000 6      1680.450 6        37.977 6
G10  23691920.359 9 124501828.973 9      3462.341 9        54.712 9  23691923.972 6         0.000 6      2697.931 6        37.977 6
G21  21214531.738 9 111483095.932 9     -1335.307 9        55.691 9  21214531.032 6         0.000 6     -1040.499 6        37.977 6
G29  24406481.905 9 128256869.839 9     -3204.160 9        54.437 9  24406483.593 6         0.000 6     -2496.750 6        37.977 6
G27  21920167.165 9 115191229.412 9      2512.769 9        55.408 9  21920169.068 6         0.000 6      1958.002 6        37.977 6
G16  20479758.641 9 107621837.739 9       472.212 9        55.984 9  20479757.814 6         0.000 6       367.958 6        37.977 6
G26  20705954.211 9 108810501.191 9     -1588.024 9        55.852 9  20705957.047 6         0.000 6     -1237.422 6        37.977 6
G20  21859941.498 9 114874735.588 9      2438.825 9        55.349 9  21859941.771 6         0.000 6      1900.384 6        37.977 6
> 2019 07 03 12 03 57.0000000  0  8       0.000000000000
G07  25273695.044 9 132814118.408 9      2156.843 9        54.157 9  25273695.675 6         0.000 6      1680.657 6        37.977 6
G10  23691261.590 9 124498367.129 9      3461.350 9        54.713 9  23691265.202 6         0.000 6      2697.159 6        37.977 6
G21  21214785.834 9 111484431.212 9     -1335.253 9        55.691 9  21214785.127 6         0.000 6     -1040.457 6        37.977 6
G29  24407091.585 9 128260073.722 9     -3203.618 9        54.437 9  24407093.274 6         0.000 6     -2496.329 6        37.977 6
G27  21919689.047 9 115188716.886 9      2512.281 9        55.408 9  21919690.950 6         0.000 6      1957.622 6        37.977 6
G16  20479668.859 9 107621365.932 9       471.393 9        55.984 9  20479668.032 6         0.000 6       367.319 6        37.977 6
G26  20706256.510 9 108812089.783 9     -1589.179 9        55.851 9  20706259.346 6         0.000 6     -1238.322 6        37.977 6
G20  21859477.482 9 114872297.172 9      2438.006 9        55.349 9  21859477.755 6         0.000 6      1899.746 6        37.977 6
> 2019 07 03 12 03 58.0000000  0  8       0.000000000000
G07  25273284.581 9 132811961.412 9      2157.156 9        54.157 9  25273285.212 6         0.000 6      1680.902 6        37.977 6
G10  23690603.018 9 124494906.320 9      3460.292 9        54.713 9  23690606.630 6         0.000 6      2696.334 6        37.977 6
G21  21215039.915 9 111485766.416 9     -1335.142 9        55.691 9  21215039.209 6         0.000 6     -1040.370 6        37.977 6
G29  24407701.153 9 128263277.009 9     -3202.961 9        54.436 9  24407702.842 6         0.000 6     -2495.817 6        37.977 6
G27  21919211.028 9 115186204.884 9      2511.727 9        55.408 9  21919212.931 6         0.000 6      1957.190 6        37.977 6
G16  20479579.239 9 107620894.973 9       470.531 9        55.984 9  20479578.412 6         0.000 6       366.647 6        37.977 6
G26  20706559.038 9 108813679.575 9     -1590.403 9        55.851 9  20706561.874 6         0.000 6     -1239.275 6        37.977 6
G20  21859013.625 9 114869859.592 9      2437.174 9        55.349 9  21859013.898 6         0.000 6      1899.098 6        37.977 6
> 2019 07 03 12 03 59.0000000  0  8       0.000000000000
G07  25272874.055 9 132809804.089 9      2157.498 9        54.157 9  25272874.686 6         0.000 6      1681.168 6        37.977 6
G10  23689944.651 9 124491446.589 9      3459.185 9        54.713 9  23689948.262 6         0.000 6      2695.472 6        37.977 6
G21  21215293.968 9 111487101.472 9     -1334.971 9        55.691 9  21215293.261 6         0.000 6     -1040.237 6        37.977 6
G29  24408310.583 9 128266479.576 9     -3202.182 9        54.436 9  24408312.273 6         0.000 6     -2495.209 6        37.977 6
G27  21918733.121 9 115183693.466 9      2511.101 9        55.408 9  21918735.023 6         0.000 6      1956.703 6        37.977 6
G16  20479489.784 9 107620424.887 9       469.630 9        55.984 9  20479488.957 6         0.000 6       365.945 6        37.977 6
G26  20706861.802 9 108815270.609 9     -1591.680 9        55.851 9  20706864.638 6         0.000 6     -1240.270 6        37.977 6
G20  21858549.924 9 114867422.833 9      2436.348 9        55.349 9  21858550.197 6         0.000 6      1898.454 6        37.977 6
> 2019 07 03 12 04  0.0000000  0  8       0.000000000000
G07  25272463.461 9 132807646.409 9      2157.856 9        54.157 9  25272464.092 6         0.000 6      1681.447 6        37.977 6
G10  23689286.500 9 124487987.992 9      3458.039 9        54.713 9  23689290.110 6         0.000 6      2694.578 6        37.977 6
G21  21215547.983 9 111488436.333 9     -1334.739 9        55.691 9  21215547.277 6         0.000 6     -1040.056 6        37.977 6
G29  24408919.854 9 128269681.304 9     -3201.272 9        54.436 9  24408921.544 6         0.000 6     -2494.500 6        37.977 6
G27  21918255.340 9 115181182.713 9      2510.395 9        55.409 9  21918257.242 6         0.000 6      1956.153 6        37.977 6
G16  20479400.507 9 107619955.729 9       468.683 9        55.984 9  20479399.679 6         0.000 6       365.207 6        37.977 6
G26  20707164.815 9 108816862.954 9     -1593.011 9        55.851 9  20707167.652 6         0.000 6     -1241.308 6        37.977 6
G20  21858086.382 9 114864986.905 9      2435.533 9        55.349 9  21858086.654 6         0.000 6      1897.819 6        37.977 6
> 2019 07 03 12 04  1.0000000  0  8       0.000000000000
G07  25272052.800 9 132805488.370 9      2158.217 9        54.157 9  25272053.430 6         0.000 6      1681.729 6        37.977 6
G10  23688628.568 9 124484530.549 9      3456.871 9        54.714 9  23688632.178 6         0.000 6      2693.668 6        37.977 6
G21  21215801.948 9 111489770.924 9     -1334.437 9        55.691 9  21215801.241 6         0.000 6     -1039.822 6        37.977 6
G29  24409528.937 9 128272882.050 9     -3200.213 9        54.436 9  24409530.629 6         0.000 6     -2493.675 6        37.977 6
G27  21917777.701 9 115178672.708 9      2509.598 9        55.409 9  21917779.603 6         0.000 6      1955.531 6        37.977 6
G16  20479311.412 9 107619487.536 9       467.690 9        55.984 9  20479310.585 6         0.000 6       364.434 6        37.977 6
G26  20707468.086 9 108818456.648 9     -1594.388 9        55.851 9  20707470.922 6         0.000 6     -1242.381 6        37.977 6
G20  21857622.991 9 114862551.773 9      2434.749 9        55.350 9  21857623.263 6         0.000 6      1897.208 6        37.977 6
> 2019 07 03 12 04  2.0000000  0  8       0.000000000000
G07  25271642.071 9 132803329.982 9      2158.553 9        54.157 9  25271642.702 6         0.000 6      1681.990 6        37.977 6
G10  23687970.860 9 124481074.278 9      3455.699 9        54.714 9  23687974.469 6         0.000 6      2692.755 6        37.977 6
G21  21216055.848 9 111491105.180 9     -1334.070 9        55.691 9  21216055.142 6         0.000 6     -1039.535 6        37.977 6
G29  24410137.803 9 128276081.651 9     -3198.988 9        54.436 9  24410139.495 6         0.000 6     -2492.721 6        37.977 6
G27  21917300.226 9 115176163.561 9      2508.685 9        55.409 9  21917302.128 6         0.000 6      1954.820 6        37.977 6
G16  20479222.513 9 107619020.369 9       466.636 9        55.984 9  20479221.686 6         0.000 6       363.613 6        37.977 6
G26  20707771.623 9 108820051.745 9     -1595.812 9        55.851 9  20707774.460 6         0.000 6     -1243.490 6        37.977 6
G20  21857159.745 9 114860117.404 9      2434.010 9        55.350 9  21857160.017 6         0.000 6      1896.632 6        37.977 6
> 2019 07 03 12 04  3.0000000  0  8       0.000000000000
G07  25271231.283 9 132801171.280 9      2158.851 9        54.158 9  25271231.913 6         0.000 6      1682.222 6        37.977 6
G10  23687313.374 9 124477619.175 9      3454.534 9        54.714 9  23687316.983 6         0.000 6      2691.848 6        37.977 6
G21  21216309.672 9 111492439.029 9     -1333.626 9        55.691 9  21216308.965 6         0.000 6     -1039.189 6        37.977 6
G29  24410746.417 9 128279279.929 9     -3197.576 9        54.435 9  24410748.110 6         0.000 6     -2491.620 6        37.977 6
G27  21916822.937 9 115173655.394 9      2507.644 9        55.409 9  21916824.839 6         0.000 6      1954.009 6        37.977 6
G16  20479133.822 9 107618554.290 9       465.518 9        55.984 9  20479132.994 6         0.000 6       362.741 6        37.977 6
G26  20708075.435 9 108821648.289 9     -1597.279 9        55.851 9  20708078.272 6         0.000 6     -1244.633 6        37.977 6
G20  21856696.634 9 114857683.741 9      2433.331 9        55.350 9  21856696.905 6         0.000 6      1896.103 6        37.977 6
> 2019 07 03 12 04  4.0000000  0  8       0.000000000000
G07  25270820.445 9 132799012.312 9      2159.078 9        54.158 9  25270821.074 6         0.000 6      1682.399 6        37.977 6
G10  23686656.106 9 124474165.218 9      3453.411 9        54.714 9  23686659.714 6         0.000 6      2690.972 6        37.977 6
G21  21216563.404 9 111493772.401 9     -1333.111 9        55.690 9  21216562.698 6         0.000 6     -1038.788 6        37.977 6
G29  24411354.746 9 128282476.707 9     -3195.976 9        54.435 9  24411356.439 6         0.000 6     -2490.374 6        37.977 6
G27  21916345.858 9 115171148.332 9      2506.466 9        55.409 9  21916347.760 6         0.000 6      1953.091 6        37.977 6
G16  20479045.348 9 107618089.360 9       464.332 9        55.984 9  20479044.521 6         0.000 6       361.817 6        37.977 6
G26  20708379.530 9 108823246.312 9     -1598.773 9        55.851 9  20708382.367 6         0.000 6     -1245.798 6        37.977 6
G20  21856233.644 9 114855250.720 9      2432.734 9        55.350 9  21856233.916 6         0.000 6      1895.638 6        37.977 6
> 2019 07 03 12 04  5.0000000  0  8       0.000000000000
G07  25270409.570 9 132796853.157 9      2159.214 9        54.158 9  25270410.200 6         0.000 6      1682.506 6        37.977 6
G10  23685999.047 9 124470712.362 9      3452.346 9        54.715 9  23686002.655 6         0.000 6      2690.143 6        37.977 6
G21  21216817.032 9 111495105.223 9     -1332.521 9        55.690 9  21216816.326 6         0.000 6     -1038.329 6        37.977 6
G29  24411962.751 9 128285671.785 9     -3194.172 9        54.435 9  24411964.445 6         0.000 6     -2488.968 6        37.977 6
G27  21915869.018 9 115168642.523 9      2505.138 9        55.409 9  21915870.920 6         0.000 6      1952.056 6        37.977 6
G16  20478957.108 9 107617625.653 9       463.076 9        55.984 9  20478956.281 6         0.000 6       360.839 6        37.977 6
G26  20708683.911 9 108824845.845 9     -1600.287 9        55.850 9  20708686.748 6         0.000 6     -1246.977 6        37.977 6
G20  21855770.760 9 114852818.253 9      2432.236 9        55.350 9  21855771.031 6         0.000 6      1895.250 6        37.977 6
> 2019 07 03 12 04  6.0000000  0  8       0.000000000000
G07  25269998.681 9 132794693.922 9      2159.229 9        54.158 9  25269999.310 6         0.000 6      1682.517 6        37.977 6
G10  23685342.183 9 124467260.530 9      3451.367 9        54.715 9  23685345.790 6         0.000 6      2689.379 6        37.977 6
G21  21217070.540 9 111496437.415 9     -1331.862 9        55.690 9  21217069.834 6         0.000 6     -1037.814 6        37.977 6
G29  24412570.392 9 128288864.947 9     -3192.149 9        54.435 9  24412572.086 6         0.000 6     -2487.392 6        37.977 6
G27  21915392.447 9 115166138.126 9      2503.637 9        55.410 9  21915394.348 6         0.000 6      1950.887 6        37.977 6
G16  20478869.114 9 107617163.240 9       461.737 9        55.984 9  20478868.286 6         0.000 6       359.795 6        37.977 6
G26  20708988.582 9 108826446.899 9     -1601.818 9        55.850 9  20708991.419 6         0.000 6     -1248.170 6        37.977 6
G20  21855307.960 9 114850386.224 9      2431.855 9        55.350 9  21855308.231 6         0.000 6      1894.953 6        37.977 6
> 2019 07 03 12 04  7.0000000  0  8       0.000000000000
G07  25269587.804 9 132792534.753 9      2159.096 9        54.158 9  25269588.433 6         0.000 6      1682.413 6        37.977 6
G10  23684685.494 9 124463809.615 9      3450.500 9        54.715 9  23684689.100 6         0.000 6      2688.704 6        37.977 6
G21  21217323.915 9 111497768.909 9     -1331.126 9        55.690 9  21217323.209 6         0.000 6     -1037.241 6        37.977 6
G29  24413177.625 9 128292055.970 9     -3189.901 9        54.435 9  24413179.320 6         0.000 6     -2485.640 6        37.977 6
G27  21914916.178 9 115163635.321 9      2501.961 9        55.410 9  21914918.080 6         0.000 6      1949.581 6        37.977 6
G16  20478781.382 9 107616702.208 9       460.319 9        55.984 9  20478780.555 6         0.000 6       358.690 6        37.977 6
G26  20709293.543 9 108828049.479 9     -1603.344 9        55.850 9  20709296.380 6         0.000 6     -1249.360 6        37.977 6
G20  21854845.217 9 114847954.500 9      2431.617 9        55.351 9  21854845.488 6         0.000 6      1894.767 6        37.977 6
> 2019 07 03 12 04  8.0000000  0  8       0.000000000000
G07  25269176.969 9 132790375.802 9      2158.777 9        54.158 9  25269177.598 6         0.000 6      1682.165 6        37.977 6
G10  23684028.957 9 124460359.497 9      3449.784 9        54.715 9  23684032.562 6         0.000 6      2688.146 6        37.977 6
G21  21217577.143 9 111499099.633 9     -1330.322 9        55.690 9  21217576.437 6         0.000 6     -1036.615 6        37.977 6
G29  24413784.410 9 128295244.634 9     -3187.422 9        54.434 9  24413786.105 6         0.000 6     -2483.708 6        37.977 6
G27  21914440.246 9 115161134.282 9      2500.093 9        55.410 9  21914442.147 6         0.000 6      1948.125 6        37.977 6
G16  20478693.928 9 107616242.633 9       458.817 9        55.984 9  20478693.101 6         0.000 6       357.519 6        37.977 6
G26  20709598.793 9 108829653.578 9     -1604.853 9        55.850 9  20709601.631 6         0.000 6     -1250.536 6        37.977 6
G20  21854382.505 9 114845522.936 9      2431.544 9        55.351 9  21854382.776 6         0.000 6      1894.710 6        37.977 6
> 2019 07 03 12 04  9.0000000  0  8       0.000000000000
G07  25268766.214 9 132788217.274 9      2158.250 9        54.158 9  25268766.843 6         0.000 6      1681.754 6        37.977 6
G10  23683372.540 9 124456910.015 9      3449.237 9        54.715 9  23683376.145 6         0.000 6      2687.719 6        37.977 6
G21  21217830.213 9 111500429.524 9     -1329.448 9        55.690 9  21217829.507 6         0.000 6     -1035.934 6        37.977 6
G29  24414390.699 9 128298430.697 9     -3184.695 9        54.434 9  24414392.396 6         0.000 6     -2481.583 6        37.977 6
G27  21913964.689 9 115158635.217 9      2498.019 9        55.410 9  21913966.590 6         0.000 6      1946.509 6        37.977 6
G16  20478606.769 9 107615784.611 9       457.223 9        55.984 9  20478605.942 6         0.000 6       356.277 6        37.977 6
G26  20709904.329 9 108831259.181 9     -1606.340 9        55.850 9  20709907.167 6         0.000 6     -1251.694 6        37.977 6
G20  21853919.791 9 114843091.359 9      2431.652 9        55.351 9  21853920.061 6         0.000 6      1894.795 6        37.977 6
> 2019 07 03 12 04 10.0000000  0  8       0.000000000000
G07  25268355.582 9 132786059.391 9      2157.476 9        54.159 9  25268356.210 6         0.000 6      1681.151 6        37.977 6
G10  23682716.208 9 124453460.977 9      3448.899 9        54.716 9  23682719.812 6         0.000 6      2687.456 6        37.977 6
G21  21218083.110 9 111501758.508 9     -1328.519 9        55.690 9  21218082.405 6         0.000 6     -1035.210 6        37.977 6
G29  24414996.448 9 128301613.918 9     -3181.738 9        54.434 9  24414998.145 6         0.000 6     -2479.279 6        37.977 6
G27  21913489.546 9 115156138.324 9      2495.739 9        55.410 9  21913491.446 6         0.000 6      1944.732 6        37.977 6
G16  20478519.921 9 107615328.222 9       455.540 9        55.985 9  20478519.094 6         0.000 6       354.966 6        37.977 6
G26  20710210.144 9 108832866.243 9     -1607.779 9        55.850 9  20710212.981 6         0.000 6     -1252.815 6        37.977 6
G20  21853457.036 9 114840659.572 9      2431.966 9        55.351 9  21853457.306 6         0.000 6      1895.039 6        37.977 6
> 2019 07 03 12 04 11.0000000  0  8       0.000000000000
G07  25267945.124 9 132783902.424 9      2156.422 9        54.159 9  25267945.752 6         0.000 6      1680.330 6        37.977 6
G10  23682059.917 9 124450012.152 9      3448.806 9        54.716 9  23682063.520 6         0.000 6      2687.384 6        37.977 6
G21  21218335.825 9 111503086.530 9     -1327.533 9        55.690 9  21218335.119 6         0.000 6     -1034.442 6        37.977 6
G29  24415601.610 9 128304794.056 9     -3178.538 9        54.434 9  24415603.308 6         0.000 6     -2476.786 6        37.977 6
G27  21913014.857 9 115153643.823 9      2493.241 9        55.411 9  21913016.758 6         0.000 6      1942.786 6        37.977 6
G16  20478433.402 9 107614873.559 9       453.769 9        55.985 9  20478432.574 6         0.000 6       353.586 6        37.977 6
G26  20710516.225 9 108834474.710 9     -1609.153 9        55.850 9  20710519.063 6         0.000 6     -1253.886 6        37.977 6
G20  21852994.199 9 114838227.351 9      2432.510 9        55.351 9  21852994.469 6         0.000 6      1895.463 6        37.977 6
> 2019 07 03 12 04 12.0000000  0  8       0.000000000000
G07  25267534.895 9 132781746.662 9      2155.061 9        54.159 9  25267535.523 6         0.000 6      1679.269 6        37.977 6
G10  23681403.618 9 124446563.289 9      3448.983 9        54.716 9  23681407.221 6         0.000 6      2687.522 6        37.977 6
G21  21218588.347 9 111504413.541 9     -1326.500 9        55.690 9  21218587.641 6         0.000 6     -1033.636 6        37.977 6
G29  24416206.140 9 128307970.872 9     -3175.104 9        54.433 9  24416207.839 6         0.000 6     -2474.110 6        37.977 6
G27  21912540.666 9 115151151.933 9      2490.521 9        55.411 9  21912542.566 6         0.000 6      1940.667 6        37.977 6
G16  20478347.228 9 107614420.714 9       451.908 9        55.985 9  20478346.401 6         0.000 6       352.136 6        37.977 6
G26  20710822.561 9 108836084.515 9     -1610.448 9        55.849 9  20710825.399 6         0.000 6     -1254.895 6        37.977 6
G20  21852531.235 9 114835794.464 9      2433.300 9        55.352 9  21852531.505 6         0.000 6      1896.079 6        37.977 6
> 2019 07 03 12 04 13.0000000  0  8       0.000000000000
G07  25267124.958 9 132779592.431 9      2153.354 9        54.159 9  25267125.586 6         0.000 6      1677.939 6        37.977 6
G10  23680747.257 9 124443114.098 9      3449.473 9        54.716 9  23680750.859 6         0.000 6      2687.904 6        37.977 6
G21  21218840.670 9 111505739.510 9     -1325.435 9        55.690 9  21218839.965 6         0.000 6     -1032.807 6        37.977 6
G29  24416809.997 9 128311144.151 9     -3171.455 9        54.433 9  24416811.696 6         0.000 6     -2471.266 6        37.977 6
G27  21912067.013 9 115148662.872 9      2487.585 9        55.411 9  21912068.913 6         0.000 6      1938.379 6        37.977 6
G16  20478261.418 9 107613969.778 9       449.963 9        55.985 9  20478260.591 6         0.000 6       350.621 6        37.977 6
G26  20711129.135 9 108837695.570 9     -1611.638 9        55.849 9  20711131.973 6         0.000 6     -1255.822 6        37.977 6
G20  21852068.097 9 114833360.662 9      2434.357 9        55.352 9  21852068.366 6         0.000 6      1896.902 6        37.977 6
> 2019 07 03 12 04 14.0000000  0  8       0.000000000000
G07  25266715.380 9 132777440.084 9      2151.280 9        54.159 9  25266716.007 6         0.000 6      1676.323 6        37.977 6
G10  23680090.771 9 124439664.252 9      3450.300 9        54.717 9  23680094.373 6         0.000 6      2688.548 6        37.977 6
G21  21219092.788 9 111507064.399 9     -1324.349 9        55.689 9  21219092.083 6         0.000 6     -1031.961 6        37.977 6
G29  24417413.141 9 128314313.680 9     -3167.602 9        54.433 9  24417414.840 6         0.000 6     -2468.264 6        37.977 6
G27  21911593.938 9 115146176.849 9      2484.433 9        55.411 9  21911595.838 6         0.000 6      1935.923 6        37.977 6
G16  20478175.984 9 107613520.821 9       447.938 9        55.985 9  20478175.157 6         0.000 6       349.042 6        37.977 6
G26  20711435.923 9 108839307.751 9     -1612.707 9        55.849 9  20711438.761 6         0.000 6     -1256.655 6        37.977 6
G20  21851604.732 9 114830925.664 9      2435.693 9        55.352 9  21851605.001 6         0.000 6      1897.944 6        37.977 6
> 2019 07 03 12 04 15.0000000  0  8       0.000000000000
G07  25266306.233 9 132775290.010 9      2148.817 9        54.159 9  25266306.861 6         0.000 6      1674.403 6        37.977 6
G10  23679434.093 9 124436213.397 9      3451.489 9        54.717 9  23679437.694 6         0.000 6      2689.475 6        37.977 6
G21  21219344.700 9 111508388.201 9     -1323.266 9        55.689 9  21219343.994 6         0.000 6     -1031.116 6        37.977 6
G29  24418015.533 9 128317479.264 9     -3163.585 9        54.433 9  24418017.234 6         0.000 6     -2465.134 6        37.977 6
G27  21911121.483 9 115143694.086 9      2481.085 9        55.411 9  21911123.383 6         0.000 6      1933.314 6        37.977 6
G16  20478090.944 9 107613073.930 9       445.841 9        55.985 9  20478090.116 6         0.000 6       347.409 6        37.977 6
G26  20711742.903 9 108840920.936 9     -1613.635 9        55.849 9  20711745.741 6         0.000 6     -1257.379 6        37.977 6
G20  21851141.084 9 114828489.186 9      2437.312 9        55.352 9  21851141.353 6         0.000 6      1899.205 6        37.977 6
> 2019 07 03 12 04 16.0000000  0  8       0.000000000000
G07  25265897.596 9 132773142.610 9      2145.931 9        54.159 9  25265898.223 6         0.000 6      1672.155 6        37.977 6
G10  23678777.150 9 124432761.151 9      3453.080 9        54.717 9  23678780.751 6         0.000 6      2690.714 6        37.977 6
G21  21219596.405 9 111509710.922 9     -1322.193 9        55.689 9  21219595.700 6         0.000 6     -1030.280 6        37.977 6
G29  24418617.147 9 128320640.753 9     -3159.419 9        54.433 9  24418618.848 6         0.000 6     -2461.887 6        37.977 6
G27  21910649.684 9 115141214.767 9      2477.545 9        55.412 9  21910651.584 6         0.000 6      1930.556 6        37.977 6
G16  20478006.308 9 107612629.166 9       443.684 9        55.985 9  20478005.481 6         0.000 6       345.728 6        37.977 6
G26  20712050.042 9 108842534.963 9     -1614.394 9        55.849 9  20712052.880 6         0.000 6     -1257.970 6        37.977 6
G20  21850677.100 9 114826050.932 9      2439.237 9        55.352 9  21850677.368 6         0.000 6      1900.706 6        37.977 6
> 2019 07 03 12 04 17.0000000  0  8       0.000000000000
G07  25265489.549 9 132770998.312 9      2142.617 9        54.160 9  25265490.176 6         0.000 6      1669.573 6        37.977 6
G10  23678119.865 9 124429307.105 9      3455.086 9        54.717 9  23678123.465 6         0.000 6      2692.278 6        37.977 6
G21  21219847.910 9 111511032.587 9     -1321.159 9        55.689 9  21219847.204 6         0.000 6     -1029.475 6        37.977 6
G29  24419217.958 9 128323798.026 9     -3155.159 9        54.432 9  24419219.659 6         0.000 6     -2458.568 6        37.977 6
G27  21910178.574 9 115138739.068 9      2473.847 9        55.412 9  21910180.473 6         0.000 6      1927.674 6        37.977 6
G16  20477922.087 9 107612186.581 9       441.481 9        55.985 9  20477921.260 6         0.000 6       344.011 6        37.977 6
G26  20712357.308 9 108844149.653 9     -1614.964 9        55.849 9  20712360.146 6         0.000 6     -1258.414 6        37.977 6
G20  21850212.719 9 114823610.602 9      2441.461 9        55.353 9  21850212.988 6         0.000 6      1902.438 6        37.977 6
> 2019 07 03 12 04 18.0000000  0  9       0.000000000000
G07  25265082.174 9 132768857.547 9      2138.862 9        54.160 9  25265082.801 6         0.000 6      1666.646 6        37.977 6
G10  23677462.158 9 124425850.839 9      3457.527 9        54.718 9  23677465.757 6         0.000 6      2694.179 6        37.977 6
G21  21220099.223 9 111512353.248 9     -1320.180 9        55.689 9  21220098.518 6         0.000 6     -1028.712 6        37.977 6
G29  24419817.952 9 128326951.006 9     -3150.838 9        54.432 9  24419819.654 6         0.000 6     -2455.201 6        37.977 6
G27  21909708.181 9 115136267.140 9      2470.010 9        55.412 9  21909710.080 6         0.000 6      1924.684 6        37.977 6
G16  20477838.289 9 107611746.220 9       439.246 9        55.985 9  20477837.462 6         0.000 6       342.269 6        37.977 6
G26  20712664.663 9 108845764.815 9     -1615.326 9        55.849 9  20712667.502 6         0.000 6     -1258.696 6        37.977 6
G20  21849747.888 9 114821167.902 9      2443.985 9        55.353 9  21849748.156 6         0.000 6      1904.405 6        37.977 6
G08  25188871.213 9 132368363.996 9      3222.638 9        54.196 9  25188875.139 6         0.000 6      2511.146 6        37.977 6
> 2019 07 03 12 04 19.0000000  0  9       0.000000000000
G07  25264675.557 9 132766720.759 9      2134.668 9        54.160 9  25264676.183 6         0.000 6      1663.378 6        37.977 6
G10  23676803.943 9 124422391.909 9      3460.409 9        54.718 9  23676807.542 6         0.000 6      2696.425 6        37.977 6
G21  21220350.358 9 111513672.967 9     -1319.291 9        55.689 9  21220349.652 6         0.000 6     -1028.019 6        37.977 6
G29  24420417.124 9 128330099.664 9     -3146.531 9        54.432 9  24420418.827 6         0.000 6     -2451.845 6        37.977 6
G27  21909238.528 9 115133799.099 9      2466.079 9        55.412 9  21909240.427 6         0.000 6      1921.621 6        37.977 6
G16  20477754.917 9 107611308.097 9       437.000 9        55.985 9  20477754.090 6         0.000 6       340.520 6        37.977 6
G26  20712972.065 9 108847380.221 9     -1615.461 9        55.849 9  20712974.904 6         0.000 6     -1258.801 6        37.977 6
G20  21849282.548 9 114818722.528 9      2446.793 9        55.353 9  21849282.816 6         0.000 6      1906.593 6        37.977 6
G08  25188258.392 9 132365143.608 9      3218.042 9        54.196 9  25188262.318 6         0.000 6      2507.567 6        37.977 6
> 2019 07 03 12 04 20.0000000  0  9       0.000000000000
G07  25264269.779 9 132764588.387 9      2130.037 9        54.160 9  25264270.405 6         0.000 6      1659.770 6        37.977 6
G10  23676145.137 9 124418929.870 9      3463.742 9        54.718 9  23676148.736 6         0.000 6      2699.022 6        37.977 6
G21  21220601.333 9 111514991.851 9     -1318.506 9        55.689 9  21220600.628 6         0.000 6     -1027.408 6        37.977 6
G29  24421015.480 9 128333244.039 9     -3142.285 9        54.432 9  24421017.184 6         0.000 6     -2448.536 6        37.977 6
G27  21908769.630 9 115131335.026 9      2462.092 9        55.412 9  21908771.529 6         0.000 6      1918.514 6        37.977 6
G16  20477671.972 9 107610872.221 9       434.769 9        55.985 9  20477671.145 6         0.000 6       338.781 6        37.977 6
G26  20713279.470 9 108848995.641 9     -1615.344 9        55.848 9  20713282.308 6         0.000 6     -1258.710 6        37.977 6
G20  21848816.648 9 114816274.208 9      2449.878 9        55.353 9  21848816.915 6         0.000 6      1908.997 6        37.977 6
G08  25187646.474 9 132361927.962 9      3213.294 9        54.196 9  25187650.399 6         0.000 6      2503.867 6        37.977 6
> 2019 07 03 12 04 21.0000000  0  9       0.000000000000
G07  25263864.921 9 132762460.846 9      2125.005 9        54.160 9  25263865.547 6         0.000 6      1655.849 6        37.977 6
G10  23675485.657 9 124415464.286 9      3467.500 9        54.718 9  23675489.254 6         0.000 6      2701.951 6        37.977 6
G21  21220852.173 9 111516310.022 9     -1317.868 9        55.689 9  21220851.468 6         0.000 6     -1026.910 6        37.977 6
G29  24421613.043 9 128336384.243 9     -3138.190 9        54.432 9  24421614.748 6         0.000 6     -2445.345 6        37.977 6
G27  21908301.490 9 115128874.939 9      2458.105 9        55.412 9  21908303.389 6         0.000 6      1915.407 6        37.977 6
G16  20477589.449 9 107610438.556 9       432.572 9        55.985 9  20477588.621 6         0.000 6       337.069 6        37.977 6
G26  20713586.828 9 108850610.817 9     -1614.974 9        55.848 9  20713589.666 6         0.000 6     -1258.422 6        37.977 6
G20  21848350.138 9 114813822.687 9      2453.194 9        55.353 9  21848350.405 6         0.000 6      1911.581 6        37.977 6
G08  25187035.453 9 132358717.034 9      3208.606 9        54.196 9  25187039.378 6         0.000 6      2500.214 6        37.977 6
> 2019 07 03 12 04 22.0000000  0  9       0.000000000000
G07  25263461.058 9 132760338.537 9      2119.589 9        54.160 9  25263461.684 6         0.000 6      1651.628 6        37.977 6
G10  23674825.420 9 124411994.729 9      3471.679 9        54.719 9  23674829.017 6         0.000 6      2705.207 6        37.977 6
G21  21221102.907 9 111517627.639 9     -1317.400 9        55.689 9  21221102.202 6         0.000 6     -1026.545 6        37.977 6
G29  24422209.846 9 128339520.450 9     -3134.314 9        54.431 9  24422211.551 6         0.000 6     -2442.325 6        37.977 6
G27  21907834.107 9 115126418.824 9      2454.171 9        55.413 9  21907836.005 6         0.000 6      1912.342 6        37.977 6
G16  20477507.339 9 107610007.065 9       430.439 9        55.985 9  20477506.511 6         0.000 6       335.407 6        37.977 6
G26  20713894.090 9 108852225.491 9     -1614.333 9        55.848 9  20713896.929 6         0.000 6     -1257.923 6        37.977 6
G20  21847882.976 9 114811367.741 9      2456.719 9        55.353 9  21847883.243 6         0.000 6      1914.327 6        37.977 6
G08  25186425.316 9 132355510.744 9      3204.045 9        54.196 9  25186429.240 6         0.000 6      2496.660 6        37.977 6
> 2019 07 03 12 04 23.0000000  0  9       0.000000000000
G07  25263058.220 9 132758221.613 9      2115.123 9        54.160 9  25263058.846 6         0.000 6      1648.149 6        37.977 6
G10  23674164.385 9 124408520.976 9      3475.087 9        54.719 9  23674167.981 6         0.000 6      2707.862 6        37.977 6
G21  21221353.574 9 111518944.900 9     -1317.253 9        55.689 9  21221352.869 6         0.000 6     -1026.431 6        37.977 6
G29  24422805.964 9 128342653.062 9     -3131.583 9        54.431 9  24422807.670 6         0.000 6     -2440.197 6        37.977 6
G27  21907367.435 9 115123966.450 9      2451.197 9        55.413 9  21907369.333 6         0.000 6      1910.024 6        37.977 6
G16  20477425.614 9 107609577.602 9       428.731 9        55.985 9  20477424.787 6         0.000 6       334.076 6        37.977 6
G26  20714201.215 9 108853839.439 9     -1613.794 9        55.848 9  20714204.054 6         0.000 6     -1257.502 6        37.977 6
G20  21847415.157 9 114808909.338 9      2459.408 9        55.354 9  21847415.424 6         0.000 6      1916.423 6        37.977 6
G08  25185815.995 9 132352308.751 9      3200.709 9        54.197 9  25185819.919 6         0.000 6      2494.060 6        37.977 6
> 2019 07 03 12 04 24.0000000  0  9       0.000000000000
G07  25262655.867 9 132756107.233 9      2113.729 9        54.160 9  25262656.492 6         0.000 6      1647.063 6        37.977 6
G10  23673503.027 9 124405045.526 9      3475.756 9        54.719 9  23673506.623 6         0.000 6      2708.384 6        37.977 6
G21  21221604.262 9 111520262.276 9     -1317.506 9        55.688 9  21221603.557 6         0.000 6     -1026.629 6        37.977 6
G29  24423401.830 9 128345784.350 9     -3131.067 9        54.431 9  24423403.536 6         0.000 6     -2439.795 6        37.977 6
G27  21906901.073 9 115121515.704 9      2450.355 9        55.413 9  21906902.971 6         0.000 6      1909.368 6        37.977 6
G16  20477344.114 9 107609149.314 9       427.866 9        55.985 9  20477343.287 6         0.000 6       333.402 6        37.977 6
G26  20714508.336 9 108855453.370 9     -1614.099 9        55.848 9  20714511.175 6         0.000 6     -1257.740 6        37.977 6
G20  21846947.117 9 114806449.774 9      2459.664 9        55.354 9  21846947.383 6         0.000 6      1916.622 6        37.977 6
G08  25185206.997 9 132349108.448 9      3199.975 9        54.197 9  25185210.920 6         0.000 6      2493.488 6        37.977 6
> 2019 07 03 12 04 25.0000000  0  9       0.000000000000
G07  25262253.755 9 132753994.125 9      2112.502 9        54.161 9  25262254.380 6         0.000 6      1646.106 6        37.977 6
G10  23672841.562 9 124401569.517 9      3476.278 9        54.719 9  23672845.158 6         0.000 6      2708.790 6        37.977 6
G21  21221855.001 9 111521579.916 9     -1317.778 9        55.688 9  21221854.296 6         0.000 6     -1026.840 6        37.977 6
G29  24423997.614 9 128348915.203 9     -3130.671 9        54.431 9  24423999.321 6         0.000 6     -2439.486 6        37.977 6
G27  21906434.855 9 115119065.718 9      2449.632 9        55.413 9  21906436.754 6         0.000 6      1908.805 6        37.977 6
G16  20477262.772 9 107608721.858 9       427.051 9        55.985 9  20477261.945 6         0.000 6       332.767 6        37.977 6
G26  20714815.522 9 108857067.642 9     -1614.447 9        55.848 9  20714818.361 6         0.000 6     -1258.011 6        37.977 6
G20  21846479.046 9 114803990.048 9      2459.790 9        55.354 9  21846479.312 6         0.000 6      1916.720 6        37.977 6
G08  25184598.120 9 132345908.782 9      3199.381 9        54.197 9  25184602.043 6         0.000 6      2493.026 6        37.977 6
> 2019 07 03 12 04 26.0000000  0  9       0.000000000000
G07  25261851.877 9 132751882.244 9      2111.274 9        54.161 9  25261852.502 6         0.000 6      1645.149 6        37.977 6
G10  23672179.998 9 124398092.985 9      3476.802 9        54.720 9  23672183.593 6         0.000 6      2709.199 6        37.977 6
G21  21222105.793 9 111522897.835 9     -1318.057 9        55.688 9  21222105.088 6         0.000 6     -1027.058 6        37.977 6
G29  24424593.324 9 128352045.670 9     -3130.288 9        54.430 9  24424595.031 6         0.000 6     -2439.188 6        37.977 6
G27  21905968.775 9 115116616.449 9      2448.917 9        55.413 9  21905970.673 6         0.000 6      1908.248 6        37.977 6
G16  20477181.585 9 107608295.216 9       426.239 9        55.985 9  20477180.757 6         0.000 6       332.135 6        37.977 6
G26  20715122.774 9 108858682.259 9     -1614.790 9        55.848 9  20715125.613 6         0.000 6     -1258.279 6        37.977 6
G20  21846010.951 9 114801530.200 9      2459.913 9        55.354 9  21846011.217 6         0.000 6      1916.816 6        37.977 6
G08  25183989.353 9 132342709.700 9      3198.800 9        54.197 9  25183993.276 6         0.000 6      2492.573 6        37.977 6
