     3.00           Observation Data    M (Mixed)           RINEX VERSION / TYPE
SimGEN V6.06.00 E1 03-07-2019Spirent             03-Jul-19 12:00     PGM / RUN BY / DATE 
                                                            MARKER NAME         
1                                                           MARKER NUMBER       
GROUND_CRAFT                                                MARKER TYPE         
                    Spirent                                 OBSERVER / AGENCY   
rec_num             rec_type            rec_vers            REC # / TYPE / VERS 
1                   ant_type                                ANT # / TYPE        
  1000.000                                                  INTERVAL            
  2019     7     3    12     0    0.0000000     GPS         TIME OF FIRST OBS   
  4162376.9960   664998.0020  4770706.3460                  APPROX POSITION XYZ 
        0.0000        0.0000        0.0000                  ANTENNA: DELTA H/E/N
G    8 C1C L1C D1C S1C C2C L2C D2C S2C                      SYS / # / OBS TYPES 
        0.0000        0.0000        0.0000                  ANTENNA: DELTA X/Y/Z
DBHZ                                                        SIGNAL STRENGTH UNIT
                                                            END OF HEADER       
> 2019 07 03 12 00  0.0000000  0  8       0.000000000000
G07  25372059.378 9 133331025.628 9      2225.925 9        54.123 9  25372060.062 6         0.000 6      1734.487 6        37.977 6
G10  23849422.726 9 125329507.019 9      3528.939 9        54.655 9  23849426.492 6         0.000 6      2749.823 6        37.977 6
G21  21156576.323 9 111178538.337 9     -1238.671 9        55.715 9  21156575.606 6         0.000 6      -965.198 6        37.977 6
G29  24263781.779 9 127506978.072 9     -3143.311 9        54.488 9  24263783.316 6         0.000 6     -2449.333 6        37.977 6
G27  22033551.328 9 115787066.563 9      2535.810 9        55.363 9  22033553.271 6         0.000 6      1975.956 6        37.977 6
G16  20503976.773 9 107749104.870 9       603.986 9        55.974 9  20503975.946 6         0.000 6       470.638 6        37.977 6
G26  20638110.026 9 108453978.017 9     -1446.021 9        55.880 9  20638112.837 6         0.000 6     -1126.770 6        37.977 6
G20  21972889.232 9 115468278.892 9      2578.046 9        55.304 9  21972889.570 6         0.000 6      2008.867 6        37.977 6
> 2019 07 03 12 00  1.0000000  0  8       0.000000000000
G07  25371635.831 9 133328799.876 9      2225.530 9        54.123 9  25371636.514 6         0.000 6      1734.180 6        37.977 6
G10  23848751.200 9 125325978.138 9      3528.826 9        54.655 9  23848754.966 6         0.000 6      2749.737 6        37.977 6
G21  21156812.069 9 111179777.193 9     -1239.041 9        55.715 9  21156811.352 6         0.000 6      -965.487 6        37.977 6
G29  24264379.945 9 127510121.445 9     -3143.426 9        54.488 9  24264381.482 6         0.000 6     -2449.426 6        37.977 6
G27  22033068.801 9 115784530.871 9      2535.574 9        55.363 9  22033070.744 6         0.000 6      1975.773 6        37.977 6
G16  20503861.897 9 107748501.193 9       603.369 9        55.974 9  20503861.070 6         0.000 6       470.158 6        37.977 6
G26  20638385.250 9 108455424.327 9     -1446.602 9        55.880 9  20638388.061 6         0.000 6     -1127.223 6        37.977 6
G20  21972398.687 9 115465701.065 9      2577.612 9        55.304 9  21972399.024 6         0.000 6      2008.530 6        37.977 6
> 2019 07 03 12 00  2.0000000  0  8       0.000000000000
G07  25371212.381 9 133326574.634 9      2224.602 9        54.123 9  25371213.064 6         0.000 6      1733.457 6        37.977 6
G10  23848079.688 9 125322449.329 9      3529.178 9        54.655 9  23848083.453 6         0.000 6      2750.012 6        37.977 6
G21  21157047.889 9 111181016.431 9     -1239.491 9        55.715 9  21157047.172 6         0.000 6      -965.838 6        37.977 6
G29  24264978.129 9 127513264.912 9     -3143.539 9        54.487 9  24264979.667 6         0.000 6     -2449.514 6        37.977 6
G27  22032586.322 9 115781995.429 9      2535.241 9        55.363 9  22032588.265 6         0.000 6      1975.513 6        37.977 6
G16  20503747.139 9 107747898.136 9       602.725 9        55.974 9  20503746.312 6         0.000 6       469.656 6        37.977 6
G26  20638660.579 9 108456871.189 9     -1446.951 9        55.880 9  20638663.390 6         0.000 6     -1127.495 6        37.977 6
G20  21971908.218 9 115463123.638 9      2577.496 9        55.305 9  21971908.555 6         0.000 6      2008.440 6        37.977 6
> 2019 07 03 12 00  3.0000000  0  8       0.000000000000
G07  25370789.447 9 133324352.106 9      2220.488 9        54.123 9  25370790.130 6         0.000 6      1730.251 6        37.977 6
G10  23847407.766 9 125318918.362 9      3532.751 9        54.656 9  23847411.530 6         0.000 6      2752.796 6        37.977 6
G21  21157283.851 9 111182256.420 9     -1240.488 9        55.715 9  21157283.134 6         0.000 6      -966.614 6        37.977 6
G29  24265576.349 9 127516408.572 9     -3143.803 9        54.487 9  24265577.888 6         0.000 6     -2449.719 6        37.977 6
G27  22032103.975 9 115779460.681 9      2534.266 9        55.363 9  22032105.918 6         0.000 6      1974.754 6        37.977 6
G16  20503632.524 9 107747295.830 9       601.887 9        55.974 9  20503631.697 6         0.000 6       469.003 6        37.977 6
G26  20638935.813 9 108458317.548 9     -1445.784 9        55.880 9  20638938.623 6         0.000 6     -1126.586 6        37.977 6
G20  21971417.542 9 115460545.123 9      2579.525 9        55.305 9  21971417.879 6         0.000 6      2010.020 6        37.977 6
> 2019 07 03 12 00  4.0000000  0  8       0.000000000000
G07  25370367.367 9 133322134.062 9      2215.569 9        54.124 9  25370368.049 6         0.000 6      1726.419 6        37.977 6
G10  23846735.092 9 125315383.448 9      3537.142 9        54.656 9  23846738.855 6         0.000 6      2756.217 6        37.977 6
G21  21157520.014 9 111183497.466 9     -1241.620 9        55.715 9  21157519.297 6         0.000 6      -967.497 6        37.977 6
G29  24266174.621 9 127519552.502 9     -3144.103 9        54.487 9  24266176.160 6         0.000 6     -2449.953 6        37.977 6
G27  22031621.829 9 115776926.990 9      2533.131 9        55.364 9  22031623.772 6         0.000 6      1973.869 6        37.977 6
G16  20503518.073 9 107746694.387 9       601.006 9        55.974 9  20503517.246 6         0.000 6       468.316 6        37.977 6
G26  20639210.791 9 108459762.567 9     -1444.229 9        55.879 9  20639213.602 6         0.000 6     -1125.373 6        37.977 6
G20  21970926.432 9 115457964.327 9      2582.097 9        55.305 9  21970926.769 6         0.000 6      2012.025 6        37.977 6
> 2019 07 03 12 00  5.0000000  0  8       0.000000000000
G07  25369946.251 9 133319921.086 9      2210.526 9        54.124 9  25369946.933 6         0.000 6      1722.489 6        37.977 6
G10  23846061.548 9 125311843.964 9      3541.720 9        54.656 9  23846065.311 6         0.000 6      2759.784 6        37.977 6
G21  21157756.414 9 111184739.757 9     -1242.948 9        55.715 9  21157755.698 6         0.000 6      -968.531 6        37.977 6
G29  24266772.991 9 127522696.946 9     -3144.836 9        54.487 9  24266774.531 6         0.000 6     -2450.524 6        37.977 6
G27  22031139.879 9 115774394.328 9      2532.258 9        55.364 9  22031141.822 6         0.000 6      1973.188 6        37.977 6
G16  20503403.779 9 107746093.768 9       600.262 9        55.974 9  20503402.952 6         0.000 6       467.736 6        37.977 6
G26  20639485.448 9 108461205.897 9     -1442.479 9        55.879 9  20639488.258 6         0.000 6     -1124.010 6        37.977 6
G20  21970434.821 9 115455380.901 9      2584.672 9        55.305 9  21970435.158 6         0.000 6      2014.031 6        37.977 6
> 2019 07 03 12 00  6.0000000  0  8       0.000000000000
G07  25369526.050 9 133317712.920 9      2205.816 9        54.124 9  25369526.732 6         0.000 6      1718.818 6        37.977 6
G10  23845387.176 9 125308300.124 9      3545.979 9        54.656 9  23845390.938 6         0.000 6      2763.103 6        37.977 6
G21  21157993.065 9 111185983.364 9     -1244.271 9        55.715 9  21157992.348 6         0.000 6      -969.562 6        37.977 6
G29  24267371.513 9 127525842.191 9     -3145.675 9        54.486 9  24267373.054 6         0.000 6     -2451.178 6        37.977 6
G27  22030658.076 9 115771862.434 9      2531.532 9        55.364 9  22030660.018 6         0.000 6      1972.623 6        37.977 6
G16  20503289.617 9 107745493.845 9       599.580 9        55.974 9  20503288.791 6         0.000 6       467.205 6        37.977 6
G26  20639759.787 9 108462647.556 9     -1440.847 9        55.879 9  20639762.598 6         0.000 6     -1122.738 6        37.977 6
G20  21969942.753 9 115452795.068 9      2586.999 9        55.305 9  21969943.089 6         0.000 6      2015.845 6        37.977 6
> 2019 07 03 12 00  7.0000000  0  8       0.000000000000
G07  25369106.744 9 133315509.454 9      2201.146 9        54.124 9  25369107.426 6         0.000 6      1715.180 6        37.977 6
G10  23844711.995 9 125304752.035 9      3550.203 9        54.656 9  23844715.756 6         0.000 6      2766.395 6        37.977 6
G21  21158229.969 9 111187228.304 9     -1245.606 9        55.714 9  21158229.253 6         0.000 6      -970.603 6        37.977 6
G29  24267970.198 9 127528988.291 9     -3146.557 9        54.486 9  24267971.739 6         0.000 6     -2451.865 6        37.977 6
G27  22030176.408 9 115769331.258 9      2530.845 9        55.364 9  22030178.350 6         0.000 6      1972.088 6        37.977 6
G16  20503175.585 9 107744894.603 9       598.918 9        55.974 9  20503174.759 6         0.000 6       466.690 6        37.977 6
G26  20640033.816 9 108464087.588 9     -1439.219 9        55.879 9  20640036.627 6         0.000 6     -1121.469 6        37.977 6
G20  21969450.244 9 115450206.922 9      2589.288 9        55.306 9  21969450.580 6         0.000 6      2017.628 6        37.977 6
> 2019 07 03 12 00  8.0000000  0  8       0.000000000000
G07  25368688.313 9 133313310.591 9      2196.626 9        54.124 9  25368688.995 6         0.000 6      1711.657 6        37.977 6
G10  23844036.020 9 125301199.773 9      3554.314 9        54.657 9  23844039.781 6         0.000 6      2769.598 6        37.977 6
G21  21158467.132 9 111188474.604 9     -1247.022 9        55.714 9  21158466.416 6         0.000 6      -971.705 6        37.977 6
G29  24268569.068 9 127532135.367 9     -3147.682 9        54.486 9  24268570.610 6         0.000 6     -2452.742 6        37.977 6
G27  22029694.856 9 115766800.685 9      2530.354 9        55.364 9  22029696.797 6         0.000 6      1971.705 6        37.977 6
G16  20503061.671 9 107744295.979 9       598.348 9        55.974 9  20503060.844 6         0.000 6       466.245 6        37.977 6
G26  20640307.534 9 108465525.986 9     -1437.583 9        55.879 9  20640310.345 6         0.000 6     -1120.195 6        37.977 6
G20  21968957.311 9 115447616.548 9      2591.429 9        55.306 9  21968957.647 6         0.000 6      2019.296 6        37.977 6
> 2019 07 03 12 00  9.0000000  0  8       0.000000000000
G07  25368270.719 9 133311116.120 9      2192.381 9        54.124 9  25368271.400 6         0.000 6      1708.350 6        37.977 6
G10  23843359.281 9 125297643.499 9      3558.215 9        54.657 9  23843363.042 6         0.000 6      2772.638 6        37.977 6
G21  21158704.579 9 111189722.391 9     -1248.582 9        55.714 9  21158703.862 6         0.000 6      -972.921 6        37.977 6
G29  24269168.196 9 127535283.793 9     -3149.274 9        54.486 9  24269169.738 6         0.000 6     -2453.982 6        37.977 6
G27  22029213.363 9 115764270.425 9      2530.242 9        55.365 9  22029215.304 6         0.000 6      1971.618 6        37.977 6
G16  20502947.849 9 107743697.840 9       597.961 9        55.974 9  20502947.022 6         0.000 6       465.943 6        37.977 6
G26  20640580.940 9 108466962.739 9     -1435.925 9        55.879 9  20640583.751 6         0.000 6     -1118.903 6        37.977 6
G20  21968463.996 9 115445024.165 9      2593.294 9        55.306 9  21968464.332 6         0.000 6      2020.750 6        37.977 6
> 2019 07 03 12 00 10.0000000  0  8       0.000000000000
G07  25367853.898 9 133308925.714 9      2188.510 9        54.124 9  25367854.579 6         0.000 6      1705.334 6        37.977 6
G10  23842681.827 9 125294083.461 9      3561.828 9        54.657 9  23842685.586 6         0.000 6      2775.453 6        37.977 6
G21  21158942.340 9 111190971.835 9     -1250.329 9        55.714 9  21158941.624 6         0.000 6      -974.283 6        37.977 6
G29  24269767.682 9 127538434.105 9     -3151.470 9        54.486 9  24269769.225 6         0.000 6     -2455.693 6        37.977 6
G27  22028731.846 9 115761740.040 9      2530.623 9        55.365 9  22028733.787 6         0.000 6      1971.915 6        37.977 6
G16  20502834.080 9 107743099.981 9       597.806 9        55.974 9  20502833.254 6         0.000 6       465.823 6        37.977 6
G26  20640854.029 9 108468397.828 9     -1434.250 9        55.879 9  20640856.840 6         0.000 6     -1117.598 6        37.977 6
G20  21967970.361 9 115442430.096 9      2594.791 9        55.306 9  21967970.696 6         0.000 6      2021.916 6        37.977 6
> 2019 07 03 12 00 11.0000000  0  8       0.000000000000
G07  25367437.768 9 133306738.939 9      2185.543 9        54.125 9  25367438.448 6         0.000 6      1703.022 6        37.977 6
G10  23842003.721 9 125290520.001 9      3564.607 9        54.657 9  23842007.480 6         0.000 6      2777.619 6        37.977 6
G21  21159180.450 9 111192223.109 9     -1252.141 9        55.714 9  21159179.733 6         0.000 6      -975.694 6        37.977 6
G29  24270367.644 9 127541586.914 9     -3154.154 9        54.485 9  24270369.187 6         0.000 6     -2457.785 6        37.977 6
G27  22028250.207 9 115759209.011 9      2531.541 9        55.365 9  22028252.148 6         0.000 6      1972.630 6        37.977 6
G16  20502720.317 9 107742502.150 9       597.883 9        55.974 9  20502719.490 6         0.000 6       465.883 6        37.977 6
G26  20641126.800 9 108469831.251 9     -1432.840 9        55.879 9  20641129.611 6         0.000 6     -1116.499 6        37.977 6
G20  21967476.481 9 115439834.744 9      2595.581 9        55.306 9  21967476.816 6         0.000 6      2022.531 6        37.977 6
> 2019 07 03 12 00 12.0000000  0  8       0.000000000000
G07  25367021.746 9 133304552.736 9      2185.861 9        54.125 9  25367022.427 6         0.000 6      1703.269 6        37.977 6
G10  23841325.557 9 125286956.236 9      3564.006 9        54.658 9  23841329.315 6         0.000 6      2777.150 6        37.977 6
G21  21159418.800 9 111193475.648 9     -1253.224 9        55.714 9  21159418.084 6         0.000 6      -976.539 6        37.977 6
G29  24270968.031 9 127544741.962 9     -3156.286 9        54.485 9  24270969.576 6         0.000 6     -2459.446 6        37.977 6
G27  22027768.344 9 115756676.808 9      2532.853 9        55.365 9  22027770.285 6         0.000 6      1973.653 6        37.977 6
G16  20502606.533 9 107741904.213 9       598.025 9        55.974 9  20502605.706 6         0.000 6       465.993 6        37.977 6
G26  20641399.541 9 108471264.513 9     -1433.119 9        55.879 9  20641402.352 6         0.000 6     -1116.716 6        37.977 6
G20  21966982.746 9 115437240.155 9      2594.235 9        55.307 9  21966983.081 6         0.000 6      2021.483 6        37.977 6
> 2019 07 03 12 00 13.0000000  0  8       0.000000000000
G07  25366606.038 9 133302368.180 9      2183.265 9        54.125 9  25366606.719 6         0.000 6      1701.247 6        37.977 6
G10  23840647.111 9 125283390.990 9      3566.517 9        54.658 9  23840650.868 6         0.000 6      2779.107 6        37.977 6
G21  21159657.473 9 111194729.880 9     -1255.272 9        55.714 9  21159656.756 6         0.000 6      -978.134 6        37.977 6
G29  24271568.967 9 127547899.891 9     -3159.689 9        54.485 9  24271570.512 6         0.000 6     -2462.098 6        37.977 6
G27  22027286.224 9 115754143.252 9      2534.337 9        55.365 9  22027288.164 6         0.000 6      1974.809 6        37.977 6
G16  20502492.704 9 107741306.036 9       598.371 9        55.974 9  20502491.877 6         0.000 6       466.263 6        37.977 6
G26  20641672.119 9 108472696.916 9     -1431.656 9        55.878 9  20641674.930 6         0.000 6     -1115.576 6        37.977 6
G20  21966489.040 9 115434645.714 9      2594.637 9        55.307 9  21966489.374 6         0.000 6      2021.796 6        37.977 6
> 2019 07 03 12 00 14.0000000  0  8       0.000000000000
G07  25366190.802 9 133300186.104 9      2180.973 9        54.125 9  25366191.483 6         0.000 6      1699.461 6        37.977 6
G10  23839968.200 9 125279823.300 9      3568.815 9        54.658 9  23839971.957 6         0.000 6      2780.898 6        37.977 6
G21  21159896.553 9 111195986.257 9     -1257.520 9        55.714 9  21159895.837 6         0.000 6      -979.886 6        37.977 6
G29  24272170.608 9 127551061.523 9     -3163.697 9        54.485 9  24272172.153 6         0.000 6     -2465.221 6        37.977 6
G27  22026803.776 9 115751607.977 9      2536.297 9        55.365 9  22026805.717 6         0.000 6      1976.336 6        37.977 6
G16  20502378.786 9 107740707.394 9       598.943 9        55.974 9  20502377.959 6         0.000 6       466.709 6        37.977 6
G26  20641944.408 9 108474127.805 9     -1430.142 9        55.878 9  20641947.220 6         0.000 6     -1114.397 6        37.977 6
G20  21965995.281 9 115432051.001 9      2594.720 9        55.307 9  21965995.615 6         0.000 6      2021.861 6        37.977 6
> 2019 07 03 12 00 15.0000000  0  8       0.000000000000
G07  25365775.952 9 133298006.056 9      2179.242 9        54.125 9  25365776.632 6         0.000 6      1698.112 6        37.977 6
G10  23839288.894 9 125276253.534 9      3570.639 9        54.658 9  23839292.650 6         0.000 6      2782.319 6        37.977 6
G21  21160136.077 9 111197244.961 9     -1259.916 9        55.714 9  21160135.361 6         0.000 6      -981.753 6        37.977 6
G29  24272773.067 9 127554227.459 9     -3168.297 9        54.485 9  24272774.614 6         0.000 6     -2468.805 6        37.977 6
G27  22026320.906 9 115749070.482 9      2538.790 9        55.366 9  22026322.847 6         0.000 6      1978.278 6        37.977 6
G16  20502264.737 9 107740108.060 9       599.765 9        55.974 9  20502263.910 6         0.000 6       467.349 6        37.977 6
G26  20642216.415 9 108475557.211 9     -1428.695 9        55.878 9  20642219.227 6         0.000 6     -1113.269 6        37.977 6
G20  21965501.552 9 115429456.440 9      2594.315 9        55.307 9  21965501.885 6         0.000 6      2021.545 6        37.977 6
> 2019 07 03 12 00 16.0000000  0  8       0.000000000000
G07  25365361.368 9 133295827.404 9      2178.237 9        54.125 9  25365362.048 6         0.000 6      1697.328 6        37.977 6
G10  23838609.298 9 125272682.241 9      3571.812 9        54.659 9  23838613.053 6         0.000 6      2783.233 6        37.977 6
G21  21160376.071 9 111198506.135 9     -1262.424 9        55.714 9  21160375.354 6         0.000 6      -983.707 6        37.977 6
G29  24273376.459 9 127557398.293 9     -3173.436 9        54.484 9  24273378.006 6         0.000 6     -2472.810 6        37.977 6
G27  22025837.510 9 115746530.221 9      2541.809 9        55.366 9  22025839.451 6         0.000 6      1980.631 6        37.977 6
G16  20502150.508 9 107739507.785 9       600.818 9        55.974 9  20502149.681 6         0.000 6       468.170 6        37.977 6
G26  20642488.160 9 108476985.237 9     -1427.418 9        55.878 9  20642490.972 6         0.000 6     -1112.274 6        37.977 6
G20  21965007.954 9 115426862.572 9      2593.313 9        55.307 9  21965008.288 6         0.000 6      2020.764 6        37.977 6
> 2019 07 03 12 00 17.0000000  0  8       0.000000000000
G07  25364946.826 9 133293648.974 9      2178.941 9        54.125 9  25364947.505 6         0.000 6      1697.877 6        37.977 6
G10  23837929.631 9 125269110.577 9      3571.210 9        54.659 9  23837933.385 6         0.000 6      2782.764 6        37.977 6
G21  21160616.512 9 111199769.664 9     -1264.530 9        55.713 9  21160615.796 6         0.000 6      -985.348 6        37.977 6
G29  24273980.811 9 127560574.173 9     -3178.214 9        54.484 9  24273982.358 6         0.000 6     -2476.533 6        37.977 6
G27  22025353.518 9 115743986.826 9      2544.976 9        55.366 9  22025355.458 6         0.000 6      1983.099 6        37.977 6
G16  20502036.075 9 107738906.433 9       601.870 9        55.975 9  20502035.248 6         0.000 6       468.990 6        37.977 6
G26  20642759.737 9 108478412.382 9     -1427.054 9        55.878 9  20642762.549 6         0.000 6     -1111.991 6        37.977 6
G20  21964514.646 9 115424270.224 9      2591.208 9        55.308 9  21964514.979 6         0.000 6      2019.124 6        37.977 6
> 2019 07 03 12 00 18.0000000  0  8       0.000000000000
G07  25364532.003 9 133291469.069 9      2181.022 9        54.126 9  25364532.682 6         0.000 6      1699.499 6        37.977 6
G10  23837250.235 9 125265540.340 9      3569.122 9        54.659 9  23837253.989 6         0.000 6      2781.137 6        37.977 6
G21  21160857.302 9 111201035.021 9     -1266.128 9        55.713 9  21160856.586 6         0.000 6      -986.594 6        37.977 6
G29  24274586.000 9 127563754.454 9     -3182.265 9        54.484 9  24274587.548 6         0.000 6     -2479.689 6        37.977 6
G27  22024868.935 9 115741440.330 9      2547.978 9        55.366 9  22024870.875 6         0.000 6      1985.438 6        37.977 6
G16  20501921.452 9 107738304.090 9       602.784 9        55.975 9  20501920.626 6         0.000 6       469.702 6        37.977 6
G26  20643031.333 9 108479839.629 9     -1427.551 9        55.878 9  20643034.146 6         0.000 6     -1112.378 6        37.977 6
G20  21964021.824 9 115421680.431 9      2588.304 9        55.308 9  21964022.157 6         0.000 6      2016.861 6        37.977 6
> 2019 07 03 12 00 19.0000000  0  8       0.000000000000
G07  25364116.722 9 133289286.754 9      2183.666 9        54.126 9  25364117.401 6         0.000 6      1701.559 6        37.977 6
G10  23836571.308 9 125261972.564 9      3566.388 9        54.659 9  23836575.061 6         0.000 6      2779.007 6        37.977 6
G21  21161098.365 9 111202301.814 9     -1267.421 9        55.713 9  21161097.649 6         0.000 6      -987.601 6        37.977 6
G29  24275191.906 9 127566938.502 9     -3185.775 9        54.484 9  24275193.455 6         0.000 6     -2482.425 6        37.977 6
G27  22024383.804 9 115738890.950 9      2550.748 9        55.366 9  22024385.744 6         0.000 6      1987.596 6        37.977 6
G16  20501806.671 9 107737700.908 9       603.558 9        55.975 9  20501805.844 6         0.000 6       470.305 6        37.977 6
G26  20643303.071 9 108481267.618 9     -1428.478 9        55.878 9  20643305.883 6         0.000 6     -1113.100 6        37.977 6
G20  21963529.587 9 115419093.715 9      2585.117 9        55.308 9  21963529.920 6         0.000 6      2014.378 6        37.977 6
> 2019 07 03 12 00 20.0000000  0  8       0.000000000000
G07  25363700.896 9 133287101.579 9      2186.813 9        54.126 9  25363701.575 6         0.000 6      1704.011 6        37.977 6
G10  23835892.952 9 125258407.792 9      3563.027 9        54.660 9  23835896.705 6         0.000 6      2776.388 6        37.977 6
G21  21161339.641 9 111203569.731 9     -1268.313 9        55.713 9  21161338.925 6         0.000 6      -988.296 6        37.977 6
G29  24275798.415 9 127570125.719 9     -3188.474 9        54.483 9  24275799.965 6         0.000 6     -2484.528 6        37.977 6
G27  22023898.180 9 115736338.981 9      2553.085 9        55.367 9  22023900.120 6         0.000 6      1989.418 6        37.977 6
G16  20501691.761 9 107737097.054 9       604.090 9        55.975 9  20501690.935 6         0.000 6       470.719 6        37.977 6
G26  20643575.025 9 108482696.745 9     -1429.898 9        55.878 9  20643577.837 6         0.000 6     -1114.207 6        37.977 6
G20  21963037.973 9 115416510.271 9      2581.736 9        55.308 9  21963038.306 6         0.000 6      2011.743 6        37.977 6
> 2019 07 03 12 00 21.0000000  0  8       0.000000000000
G07  25363284.489 9 133284913.349 9      2189.551 9        54.126 9  25363285.168 6         0.000 6      1706.144 6        37.977 6
G10  23835215.220 9 125254846.294 9      3560.116 9        54.660 9  23835218.972 6         0.000 6      2774.119 6        37.977 6
G21  21161581.089 9 111204838.548 9     -1269.371 9        55.713 9  21161580.373 6         0.000 6      -989.120 6        37.977 6
G29  24276405.434 9 127573315.614 9     -3191.441 9        54.483 9  24276406.984 6         0.000 6     -2486.840 6        37.977 6
G27  22023412.119 9 115733784.714 9      2555.509 9        55.367 9  22023414.058 6         0.000 6      1991.306 6        37.977 6
G16  20501576.754 9 107736492.687 9       604.684 9        55.975 9  20501575.927 6         0.000 6       471.182 6        37.977 6
G26  20643847.243 9 108484127.260 9     -1431.043 9        55.878 9  20643850.056 6         0.000 6     -1115.099 6        37.977 6
G20  21962546.991 9 115413930.144 9      2578.586 9        55.308 9  21962547.323 6         0.000 6      2009.289 6        37.977 6
> 2019 07 03 12 00 22.0000000  0  8       0.000000000000
G07  25362867.574 9 133282722.449 9      2192.277 9        54.126 9  25362868.252 6         0.000 6      1708.269 6        37.977 6
G10  23834538.025 9 125251287.625 9      3557.210 9        54.660 9  23834541.777 6         0.000 6      2771.855 6        37.977 6
G21  21161822.743 9 111206108.446 9     -1270.405 9        55.713 9  21161822.027 6         0.000 6      -989.926 6        37.977 6
G29  24277013.026 9 127576508.521 9     -3194.338 9        54.483 9  24277014.577 6         0.000 6     -2489.097 6        37.977 6
G27  22022925.592 9 115731228.003 9      2557.882 9        55.367 9  22022927.531 6         0.000 6      1993.155 6        37.977 6
G16  20501461.630 9 107735887.708 9       605.251 9        55.975 9  20501460.804 6         0.000 6       471.624 6        37.977 6
G26  20644119.669 9 108485558.865 9     -1432.205 9        55.877 9  20644122.482 6         0.000 6     -1116.004 6        37.977 6
G20  21962056.599 9 115411353.123 9      2575.458 9        55.308 9  21962056.931 6         0.000 6      2006.851 6        37.977 6
> 2019 07 03 12 00 23.0000000  0  8       0.000000000000
G07  25362450.130 9 133280528.769 9      2195.099 9        54.126 9  25362450.808 6         0.000 6      1710.467 6        37.977 6
G10  23833861.399 9 125247731.942 9      3554.160 9        54.660 9  23833865.150 6         0.000 6      2769.478 6        37.977 6
G21  21162064.581 9 111207379.311 9     -1271.302 9        55.713 9  21162063.865 6         0.000 6      -990.625 6        37.977 6
G29  24277621.141 9 127579704.174 9     -3196.932 9        54.483 9  24277622.692 6         0.000 6     -2491.118 6        37.977 6
G27  22022438.632 9 115728669.013 9      2560.070 9        55.367 9  22022440.571 6         0.000 6      1994.860 6        37.977 6
G16  20501346.409 9 107735282.214 9       605.719 9        55.975 9  20501345.582 6         0.000 6       471.989 6        37.977 6
G26  20644392.331 9 108486991.710 9     -1433.510 9        55.877 9  20644395.144 6         0.000 6     -1117.021 6        37.977 6
G20  21961566.805 9 115408779.241 9      2572.320 9        55.309 9  21961567.136 6         0.000 6      2004.406 6        37.977 6
> 2019 07 03 12 00 24.0000000  0  8       0.000000000000
G07  25362032.145 9 133278332.250 9      2197.930 9        54.126 9  25362032.823 6         0.000 6      1712.673 6        37.977 6
G10  23833185.361 9 125244179.347 9      3551.063 9        54.661 9  23833189.111 6         0.000 6      2767.065 6        37.977 6
G21  21162306.578 9 111208651.016 9     -1272.090 9        55.713 9  21162305.862 6         0.000 6      -991.239 6        37.977 6
G29  24278229.722 9 127582902.281 9     -3199.263 9        54.483 9  24278231.274 6         0.000 6     -2492.935 6        37.977 6
G27  22021951.272 9 115726107.923 9      2562.085 9        55.367 9  22021953.211 6         0.000 6      1996.431 6        37.977 6
G16  20501231.107 9 107734676.299 9       606.101 9        55.975 9  20501230.280 6         0.000 6       472.286 6        37.977 6
G26  20644665.251 9 108488425.913 9     -1434.901 9        55.877 9  20644668.064 6         0.000 6     -1118.105 6        37.977 6
G20  21961077.605 9 115406208.484 9      2569.226 9        55.309 9  21961077.936 6         0.000 6      2001.995 6        37.977 6
> 2019 07 03 12 00 25.0000000  0  8       0.000000000000
G07  25361613.627 9 133276132.926 9      2200.703 9        54.127 9  25361614.305 6         0.000 6      1714.834 6        37.977 6
G10  23832509.909 9 125240629.837 9      3547.994 9        54.661 9  23832513.659 6         0.000 6      2764.673 6        37.977 6
G21  21162548.717 9 111209923.462 9     -1272.795 9        55.713 9  21162548.001 6         0.000 6      -991.789 6        37.977 6
G29  24278838.725 9 127586102.603 9     -3201.372 9        54.482 9  24278840.278 6         0.000 6     -2494.578 6        37.977 6
G27  22021463.545 9 115723544.901 9      2563.939 9        55.368 9  22021465.484 6         0.000 6      1997.875 6        37.977 6
G16  20501115.740 9 107734070.040 9       606.404 9        55.975 9  20501114.913 6         0.000 6       472.522 6        37.977 6
G26  20644938.440 9 108489861.528 9     -1436.333 9        55.877 9  20644941.253 6         0.000 6     -1119.221 6        37.977 6
G20  21960588.986 9 115403640.778 9      2566.215 9        55.309 9  21960589.317 6         0.000 6      1999.649 6        37.977 6
> 2019 07 03 12 00 26.0000000  0  8       0.000000000000
G07  25361194.590 9 133273930.872 9      2203.395 9        54.127 9  25361195.267 6         0.000 6      1716.932 6        37.977 6
G10  23831835.037 9 125237083.369 9      3544.976 9        54.661 9  23831838.786 6         0.000 6      2762.322 6        37.977 6
G21  21162790.985 9 111211196.588 9     -1273.446 9        55.713 9  21162790.269 6         0.000 6      -992.296 6        37.977 6
G29  24279448.113 9 127589304.947 9     -3203.307 9        54.482 9  24279449.666 6         0.000 6     -2496.086 6        37.977 6
G27  22020975.478 9 115720980.098 9      2565.652 9        55.368 9  22020977.417 6         0.000 6      1999.210 6        37.977 6
G16  20501000.322 9 107733463.517 9       606.635 9        55.975 9  20500999.495 6         0.000 6       472.703 6        37.977 6
G26  20645211.904 9 108491298.589 9     -1437.790 9        55.877 9  20645214.717 6         0.000 6     -1120.356 6        37.977 6
G20  21960100.932 9 115401076.041 9      2563.288 9        55.309 9  21960101.263 6         0.000 6      1997.368 6        37.977 6
> 2019 07 03 12 00 27.0000000  0  8       0.000000000000
G07  25360775.048 9 133271726.170 9      2205.995 9        54.127 9  25360775.725 6         0.000 6      1718.958 6        37.977 6
G10  23831160.732 9 125233539.884 9      3542.029 9        54.661 9  23831164.480 6         0.000 6      2760.025 6        37.977 6
G21  21163033.370 9 111212470.332 9     -1274.041 9        55.712 9  21163032.655 6         0.000 6      -992.759 6        37.977 6
G29  24280057.852 9 127592509.139 9     -3205.073 9        54.482 9  24280059.406 6         0.000 6     -2497.462 6        37.977 6
G27  22020487.098 9 115718413.646 9      2567.232 9        55.368 9  22020489.037 6         0.000 6      2000.441 6        37.977 6
G16  20500884.866 9 107732856.789 9       606.805 9        55.975 9  20500884.039 6         0.000 6       472.835 6        37.977 6
G26  20645485.645 9 108492737.108 9     -1439.254 9        55.877 9  20645488.458 6         0.000 6     -1121.497 6        37.977 6
G20  21959613.425 9 115398514.180 9      2560.458 9        55.309 9  21959613.756 6         0.000 6      1995.163 6        37.977 6
> 2019 07 03 12 00 28.0000000  0  8       0.000000000000
G07  25360355.022 9 133269518.919 9      2208.486 9        54.127 9  25360355.699 6         0.000 6      1720.899 6        37.977 6
G10  23830486.981 9 125229999.308 9      3539.167 9        54.662 9  23830490.728 6         0.000 6      2757.795 6        37.977 6
G21  21163275.865 9 111213744.650 9     -1274.585 9        55.712 9  21163275.150 6         0.000 6      -993.183 6        37.977 6
G29  24280667.914 9 127595715.022 9     -3206.679 9        54.482 9  24280669.468 6         0.000 6     -2498.713 6        37.977 6
G27  22019998.430 9 115715845.680 9      2568.679 9        55.368 9  22020000.368 6         0.000 6      2001.569 6        37.977 6
G16  20500769.383 9 107732249.925 9       606.912 9        55.975 9  20500768.556 6         0.000 6       472.919 6        37.977 6
G26  20645759.666 9 108494177.095 9     -1440.719 9        55.877 9  20645762.479 6         0.000 6     -1122.638 6        37.977 6
G20  21959126.448 9 115395955.103 9      2557.732 9        55.310 9  21959126.778 6         0.000 6      1993.039 6        37.977 6
> 2019 07 03 12 00 29.0000000  0  8       0.000000000000
G07  25359934.531 9 133267309.232 9      2210.879 9        54.127 9  25359935.208 6         0.000 6      1722.764 6        37.977 6
G10  23829813.766 9 125226461.550 9      3536.384 9        54.662 9  23829817.513 6         0.000 6      2755.627 6        37.977 6
G21  21163518.458 9 111215019.485 9     -1275.085 9        55.712 9  21163517.743 6         0.000 6      -993.573 6        37.977 6
G29  24281278.265 9 127598922.430 9     -3208.138 9        54.481 9  24281279.820 6         0.000 6     -2499.850 6        37.977 6
G27  22019509.499 9 115713276.330 9      2570.005 9        55.368 9  22019511.437 6         0.000 6      2002.602 6        37.977 6
G16  20500653.886 9 107731642.982 9       606.962 9        55.975 9  20500653.059 6         0.000 6       472.957 6        37.977 6
G26  20646033.965 9 108495618.542 9     -1442.183 9        55.877 9  20646036.778 6         0.000 6     -1123.780 6        37.977 6
G20  21958639.979 9 115393398.696 9      2555.103 9        55.310 9  21958640.309 6         0.000 6      1990.990 6        37.977 6
> 2019 07 03 12 00 30.0000000  0  8       0.000000000000
G07  25359513.596 9 133265097.206 9      2213.156 9        54.127 9  25359514.273 6         0.000 6      1724.538 6        37.977 6
G10  23829141.073 9 125222926.534 9      3533.692 9        54.662 9  23829144.819 6         0.000 6      2753.529 6        37.977 6
G21  21163761.144 9 111216294.807 9     -1275.546 9        55.712 9  21163760.429 6         0.000 6      -993.932 6        37.977 6
G29  24281888.882 9 127602131.234 9     -3209.455 9        54.481 9  24281890.438 6         0.000 6     -2500.876 6        37.977 6
G27  22019020.326 9 115710705.713 9      2571.206 9        55.369 9  22019022.264 6         0.000 6      2003.538 6        37.977 6
G16  20500538.385 9 107731036.020 9       606.952 9        55.975 9  20500537.558 6         0.000 6       472.950 6        37.977 6
G26  20646308.542 9 108497061.456 9     -1443.644 9        55.876 9  20646311.356 6         0.000 6     -1124.918 6        37.977 6
G20  21958154.002 9 115390844.874 9      2552.576 9        55.310 9  21958154.332 6         0.000 6      1989.021 6        37.977 6
> 2019 07 03 12 00 31.0000000  0  8       0.000000000000
G07  25359092.238 9 133262882.957 9      2215.322 9        54.127 9  25359092.914 6         0.000 6      1726.226 6        37.977 6
G10  23828468.883 9 125219394.165 9      3531.091 9        54.662 9  23828472.629 6         0.000 6      2751.503 6        37.977 6
G21  21164003.913 9 111217570.567 9     -1275.969 9        55.712 9  21164003.198 6         0.000 6      -994.261 6        37.977 6
G29  24282499.735 9 127605341.279 9     -3210.638 9        54.481 9  24282501.292 6         0.000 6     -2501.799 6        37.977 6
G27  22018530.937 9 115708133.959 9      2572.293 9        55.369 9  22018532.875 6         0.000 6      2004.384 6        37.977 6
G16  20500422.891 9 107730429.097 9       606.888 9        55.975 9  20500422.064 6         0.000 6       472.900 6        37.977 6
G26  20646583.398 9 108498505.829 9     -1445.095 9        55.876 9  20646586.211 6         0.000 6     -1126.048 6        37.977 6
G20  21957668.496 9 115388293.528 9      2550.150 9        55.310 9  21957668.826 6         0.000 6      1987.131 6        37.977 6
> 2019 07 03 12 00 32.0000000  0  8       0.000000000000
G07  25358670.478 9 133260666.598 9      2217.381 9        54.128 9  25358671.154 6         0.000 6      1727.830 6        37.977 6
G10  23827797.179 9 125215864.345 9      3528.584 9        54.663 9  23827800.924 6         0.000 6      2749.549 6        37.977 6
G21  21164246.759 9 111218846.731 9     -1276.358 9        55.712 9  21164246.044 6         0.000 6      -994.565 6        37.977 6
G29  24283110.803 9 127608552.449 9     -3211.698 9        54.481 9  24283112.360 6         0.000 6     -2502.624 6        37.977 6
G27  22018041.350 9 115705561.167 9      2573.270 9        55.369 9  22018043.288 6         0.000 6      2005.146 6        37.977 6
G16  20500307.413 9 107729822.259 9       606.774 9        55.975 9  20500306.587 6         0.000 6       472.811 6        37.977 6
G26  20646858.527 9 108499951.640 9     -1446.534 9        55.876 9  20646861.340 6         0.000 6     -1127.170 6        37.977 6
G20  21957183.442 9 115385744.554 9      2547.822 9        55.310 9  21957183.771 6         0.000 6      1985.317 6        37.977 6
> 2019 07 03 12 00 33.0000000  0  8       0.000000000000
G07  25358248.338 9 133258448.241 9      2219.313 9        54.128 9  25358249.014 6         0.000 6      1729.336 6        37.977 6
G10  23827125.942 9 125212336.984 9      3526.184 9        54.663 9  23827129.686 6         0.000 6      2747.679 6        37.977 6
G21  21164489.677 9 111220123.272 9     -1276.719 9        55.712 9  21164488.962 6         0.000 6      -994.846 6        37.977 6
G29  24283722.061 9 127611764.621 9     -3212.643 9        54.481 9  24283723.618 6         0.000 6     -2503.361 6        37.977 6
G27  22017551.588 9 115702987.453 9      2574.142 9        55.369 9  22017553.526 6         0.000 6      2005.826 6        37.977 6
G16  20500191.963 9 107729215.561 9       606.612 9        55.975 9  20500191.136 6         0.000 6       472.685 6        37.977 6
G26  20647133.928 9 108501398.885 9     -1447.952 9        55.876 9  20647136.742 6         0.000 6     -1128.275 6        37.977 6
G20  21956698.821 9 115383197.860 9      2545.600 9        55.311 9  21956699.150 6         0.000 6      1983.586 6        37.977 6
> 2019 07 03 12 00 34.0000000  0  8       0.000000000000
G07  25357825.841 9 133256228.007 9      2221.135 9        54.128 9  25357826.517 6         0.000 6      1730.755 6        37.977 6
G10  23826455.153 9 125208811.975 9      3523.881 9        54.663 9  23826458.897 6         0.000 6      2745.884 6        37.977 6
G21  21164732.661 9 111221400.158 9     -1277.053 9        55.712 9  21164731.945 6         0.000 6      -995.107 6        37.977 6
G29  24284333.487 9 127614977.678 9     -3213.481 9        54.480 9  24284335.045 6         0.000 6     -2504.014 6        37.977 6
G27  22017061.670 9 115700412.919 9      2574.917 9        55.369 9  22017063.608 6         0.000 6      2006.429 6        37.977 6
G16  20500076.547 9 107728609.049 9       606.405 9        55.975 9  20500075.721 6         0.000 6       472.524 6        37.977 6
G26  20647409.599 9 108502847.540 9     -1449.352 9        55.876 9  20647412.412 6         0.000 6     -1129.366 6        37.977 6
G20  21956214.614 9 115380653.336 9      2543.476 9        55.311 9  21956214.942 6         0.000 6      1981.930 6        37.977 6
> 2019 07 03 12 00 35.0000000  0  8       0.000000000000
G07  25357403.010 9 133254006.019 9      2222.835 9        54.128 9  25357403.685 6         0.000 6      1732.080 6        37.977 6
G10  23825784.791 9 125205289.207 9      3521.684 9        54.663 9  23825788.534 6         0.000 6      2744.172 6        37.977 6
G21  21164975.705 9 111222677.365 9     -1277.366 9        55.712 9  21164974.990 6         0.000 6      -995.350 6        37.977 6
G29  24284945.063 9 127618191.523 9     -3214.220 9        54.480 9  24284946.622 6         0.000 6     -2504.589 6        37.977 6
G27  22016571.614 9 115697837.659 9      2575.595 9        55.370 9  22016573.551 6         0.000 6      2006.958 6        37.977 6
G16  20499961.175 9 107728002.764 9       606.155 9        55.975 9  20499960.348 6         0.000 6       472.328 6        37.977 6
G26  20647685.532 9 108504297.576 9     -1450.728 9        55.876 9  20647688.345 6         0.000 6     -1130.438 6        37.977 6
G20  21955730.799 9 115378110.880 9      2541.451 9        55.311 9  21955731.128 6         0.000 6      1980.353 6        37.977 6
> 2019 07 03 12 00 36.0000000  0  8       0.000000000000
G07  25356979.865 9 133251782.382 9      2224.416 9        54.128 9  25356980.541 6         0.000 6      1733.312 6        37.977 6
G10  23825114.838 9 125201768.591 9      3519.594 9        54.664 9  23825118.580 6         0.000 6      2742.544 6        37.977 6
G21  21165218.808 9 111223954.879 9     -1277.660 9        55.712 9  21165218.093 6         0.000 6      -995.579 6        37.977 6
G29  24285556.773 9 127621406.069 9     -3214.870 9        54.480 9  24285558.333 6         0.000 6     -2505.096 6        37.977 6
G27  22016081.436 9 115695261.758 9      2576.187 9        55.370 9  22016083.373 6         0.000 6      2007.419 6        37.977 6
G16  20499845.854 9 107727396.748 9       605.865 9        55.975 9  20499845.027 6         0.000 6       472.103 6        37.977 6
G26  20647961.725 9 108505748.979 9     -1452.077 9        55.876 9  20647964.539 6         0.000 6     -1131.489 6        37.977 6
G20  21955247.363 9 115375570.408 9      2539.526 9        55.311 9  21955247.691 6         0.000 6      1978.852 6        37.977 6
> 2019 07 03 12 00 37.0000000  0  8       0.000000000000
G07  25356556.431 9 133249557.227 9      2225.883 9        54.128 9  25356557.107 6         0.000 6      1734.455 6        37.977 6
G10  23824445.272 9 125198250.010 9      3517.606 9        54.664 9  23824449.013 6         0.000 6      2740.995 6        37.977 6
G21  21165461.965 9 111225232.677 9     -1277.938 9        55.711 9  21165461.250 6         0.000 6      -995.796 6        37.977 6
G29  24286168.597 9 127624621.218 9     -3215.441 9        54.480 9  24286170.158 6         0.000 6     -2505.541 6        37.977 6
G27  22015591.154 9 115692685.312 9      2576.700 9        55.370 9  22015593.091 6         0.000 6      2007.819 6        37.977 6
G16  20499730.592 9 107726791.043 9       605.541 9        55.976 9  20499729.766 6         0.000 6       471.850 6        37.977 6
G26  20648238.172 9 108507201.718 9     -1453.398 9        55.876 9  20648240.986 6         0.000 6     -1132.519 6        37.977 6
G20  21954764.283 9 115373031.810 9      2537.692 9        55.311 9  21954764.610 6         0.000 6      1977.424 6        37.977 6
> 2019 07 03 12 00 38.0000000  0  8       0.000000000000
G07  25356132.729 9 133247330.661 9      2227.235 9        54.128 9  25356133.404 6         0.000 6      1735.509 6        37.977 6
G10  23823776.074 9 125194733.363 9      3515.727 9        54.664 9  23823779.815 6         0.000 6      2739.530 6        37.977 6
G21  21165705.175 9 111226510.750 9     -1278.205 9        55.711 9  21165704.459 6         0.000 6      -996.004 6        37.977 6
G29  24286780.525 9 127627836.906 9     -3215.943 9        54.480 9  24286782.085 6         0.000 6     -2505.933 6        37.977 6
G27  22015100.781 9 115690108.387 9      2577.142 9        55.370 9  22015102.718 6         0.000 6      2008.163 6        37.977 6
G16  20499615.395 9 107726185.677 9       605.186 9        55.976 9  20499614.568 6         0.000 6       471.574 6        37.977 6
G26  20648514.868 9 108508655.761 9     -1454.685 9        55.876 9  20648517.682 6         0.000 6     -1133.521 6        37.977 6
G20  21954281.543 9 115370495.001 9      2535.952 9        55.312 9  21954281.871 6         0.000 6      1976.068 6        37.977 6
> 2019 07 03 12 00 39.0000000  0  8       0.000000000000
G07  25355708.781 9 133245102.801 9      2228.465 9        54.129 9  25355709.456 6         0.000 6      1736.467 6        37.977 6
G10  23823107.225 9 125191218.546 9      3513.955 9        54.664 9  23823110.965 6         0.000 6      2738.150 6        37.977 6
G21  21165948.434 9 111227789.085 9     -1278.466 9        55.711 9  21165947.719 6         0.000 6      -996.207 6        37.977 6
G29  24287392.541 9 127631053.061 9     -3216.375 9        54.479 9  24287394.102 6         0.000 6     -2506.268 6        37.977 6
G27  22014610.331 9 115687531.060 9      2577.503 9        55.370 9  22014612.268 6         0.000 6      2008.445 6        37.977 6
G16  20499500.269 9 107725580.684 9       604.793 9        55.976 9  20499499.442 6         0.000 6       471.267 6        37.977 6
G26  20648791.805 9 108510111.077 9     -1455.944 9        55.875 9  20648794.620 6         0.000 6     -1134.502 6        37.977 6
G20  21953799.126 9 115367959.888 9      2534.304 9        55.312 9  21953799.453 6         0.000 6      1974.784 6        37.977 6
> 2019 07 03 12 00 40.0000000  0  8       0.000000000000
G07  25355284.609 9 133242873.768 9      2229.584 9        54.129 9  25355285.284 6         0.000 6      1737.339 6        37.977 6
G10  23822438.702 9 125187705.445 9      3512.289 9        54.665 9  23822442.441 6         0.000 6      2736.851 6        37.977 6
G21  21166191.742 9 111229067.676 9     -1278.718 9        55.711 9  21166191.027 6         0.000 6      -996.404 6        37.977 6
G29  24288004.634 9 127634269.622 9     -3216.753 9        54.479 9  24288006.196 6         0.000 6     -2506.564 6        37.977 6
G27  22014119.818 9 115684953.400 9      2577.806 9        55.371 9  22014121.755 6         0.000 6      2008.681 6        37.977 6
G16  20499385.219 9 107724976.094 9       604.377 9        55.976 9  20499384.392 6         0.000 6       470.943 6        37.977 6
G26  20649068.979 9 108511567.631 9     -1457.164 9        55.875 9  20649071.793 6         0.000 6     -1135.453 6        37.977 6
G20  21953317.014 9 115365426.377 9      2532.744 9        55.312 9  21953317.341 6         0.000 6      1973.568 6        37.977 6
> 2019 07 03 12 00 41.0000000  0  8       0.000000000000
G07  25354860.237 9 133240643.677 9      2230.588 9        54.129 9  25354860.911 6         0.000 6      1738.121 6        37.977 6
G10  23821770.486 9 125184193.955 9      3510.730 9        54.665 9  23821774.224 6         0.000 6      2735.637 6        37.977 6
G21  21166435.098 9 111230346.519 9     -1278.968 9        55.711 9  21166434.382 6         0.000 6      -996.599 6        37.977 6
G29  24288616.793 9 127637486.530 9     -3217.081 9        54.479 9  24288618.356 6         0.000 6     -2506.819 6        37.977 6
G27  22013629.255 9 115682375.474 9      2578.048 9        55.371 9  22013631.191 6         0.000 6      2008.869 6        37.977 6
G16  20499270.252 9 107724371.938 9       603.935 9        55.976 9  20499269.425 6         0.000 6       470.599 6        37.977 6
G26  20649346.381 9 108513025.390 9     -1458.347 9        55.875 9  20649349.196 6         0.000 6     -1136.375 6        37.977 6
G20  21952835.191 9 115362894.381 9      2531.272 9        55.312 9  21952835.517 6         0.000 6      1972.421 6        37.977 6
> 2019 07 03 12 00 42.0000000  0  8       0.000000000000
G07  25354435.682 9 133238412.633 9      2231.481 9        54.129 9  25354436.356 6         0.000 6      1738.817 6        37.977 6
G10  23821102.557 9 125180683.976 9      3509.277 9        54.665 9  23821106.295 6         0.000 6      2734.505 6        37.977 6
G21  21166678.501 9 111231625.611 9     -1279.216 9        55.711 9  21166677.786 6         0.000 6      -996.792 6        37.977 6
G29  24289229.011 9 127640703.745 9     -3217.361 9        54.479 9  24289230.574 6         0.000 6     -2507.037 6        37.977 6
G27  22013138.650 9 115679797.332 9      2578.232 9        55.371 9  22013140.586 6         0.000 6      2009.013 6        37.977 6
G16  20499155.371 9 107723768.235 9       603.469 9        55.976 9  20499154.544 6         0.000 6       470.235 6        37.977 6
G26  20649624.006 9 108514484.316 9     -1459.494 9        55.875 9  20649626.821 6         0.000 6     -1137.269 6        37.977 6
G20  21952353.640 9 115360363.818 9      2529.884 9        55.312 9  21952353.966 6         0.000 6      1971.340 6        37.977 6
> 2019 07 03 12 00 43.0000000  0  8       0.000000000000
G07  25354010.971 9 133236180.761 9      2232.258 9        54.129 9  25354011.644 6         0.000 6      1739.423 6        37.977 6
G10  23820434.893 9 125177175.389 9      3507.930 9        54.665 9  23820438.630 6         0.000 6      2733.455 6        37.977 6
G21  21166921.952 9 111232904.955 9     -1279.470 9        55.711 9  21166921.237 6         0.000 6      -996.989 6        37.977 6
G29  24289841.278 9 127643921.222 9     -3217.608 9        54.478 9  24289842.842 6         0.000 6     -2507.229 6        37.977 6
G27  22012648.016 9 115677219.036 9      2578.364 9        55.371 9  22012649.952 6         0.000 6      2009.115 6        37.977 6
G16  20499040.581 9 107723165.012 9       602.979 9        55.976 9  20499039.755 6         0.000 6       469.853 6        37.977 6
G26  20649901.845 9 108515944.366 9     -1460.603 9        55.875 9  20649904.659 6         0.000 6     -1138.132 6        37.977 6
G20  21951872.344 9 115357834.597 9      2528.578 9        55.312 9  21951872.670 6         0.000 6      1970.322 6        37.977 6
> 2019 07 03 12 00 44.0000000  0  8       0.000000000000
G07  25353586.120 9 133233948.159 9      2232.929 9        54.129 9  25353586.793 6         0.000 6      1739.946 6        37.977 6
G10  23819767.476 9 125173668.100 9      3506.689 9        54.666 9  23819771.213 6         0.000 6      2732.488 6        37.977 6
G21  21167165.450 9 111234184.547 9     -1279.724 9        55.711 9  21167164.735 6         0.000 6      -997.187 6        37.977 6
G29  24290453.589 9 127647138.927 9     -3217.817 9        54.478 9  24290455.153 6         0.000 6     -2507.392 6        37.977 6
G27  22012157.360 9 115674640.624 9      2578.448 9        55.371 9  22012159.296 6         0.000 6      2009.181 6        37.977 6
G16  20498925.886 9 107722562.282 9       602.470 9        55.976 9  20498925.059 6         0.000 6       469.457 6        37.977 6
G26  20650179.890 9 108517405.502 9     -1461.670 9        55.875 9  20650182.705 6         0.000 6     -1138.964 6        37.977 6
G20  21951391.289 9 115355306.642 9      2527.354 9        55.313 9  21951391.615 6         0.000 6      1969.368 6        37.977 6
> 2019 07 03 12 00 45.0000000  0  8       0.000000000000
G07  25353161.151 9 133231714.939 9      2233.492 9        54.129 9  25353161.825 6         0.000 6      1740.384 6        37.977 6
G10  23819100.286 9 125170162.003 9      3505.553 9        54.666 9  23819104.022 6         0.000 6      2731.602 6        37.977 6
G21  21167408.998 9 111235464.399 9     -1279.980 9        55.711 9  21167408.283 6         0.000 6      -997.387 6        37.977 6
G29  24291065.938 9 127650356.832 9     -3218.001 9        54.478 9  24291067.503 6         0.000 6     -2507.536 6        37.977 6
G27  22011666.692 9 115672062.150 9      2578.492 9        55.371 9  22011668.628 6         0.000 6      2009.215 6        37.977 6
G16  20498811.288 9 107721960.070 9       601.949 9        55.976 9  20498810.462 6         0.000 6       469.051 6        37.977 6
G26  20650458.134 9 108518867.685 9     -1462.692 9        55.875 9  20650460.949 6         0.000 6     -1139.760 6        37.977 6
G20  21950910.461 9 115352779.875 9      2526.210 9        55.313 9  21950910.786 6         0.000 6      1968.476 6        37.977 6
> 2019 07 03 12 00 46.0000000  0  8       0.000000000000
G07  25352736.086 9 133229481.211 9      2233.950 9        54.130 9  25352736.759 6         0.000 6      1740.741 6        37.977 6
G10  23818433.302 9 125166656.989 9      3504.516 9        54.666 9  23818437.037 6         0.000 6      2730.795 6        37.977 6
G21  21167652.596 9 111236744.511 9     -1280.248 9        55.711 9  21167651.881 6         0.000 6      -997.596 6        37.977 6
G29  24291678.319 9 127653574.906 9     -3218.165 9        54.478 9  24291679.885 6         0.000 6     -2507.664 6        37.977 6
G27  22011176.021 9 115669483.655 9      2578.496 9        55.372 9  22011177.956 6         0.000 6      2009.218 6        37.977 6
G16  20498696.792 9 107721358.389 9       601.409 9        55.976 9  20498695.966 6         0.000 6       468.630 6        37.977 6
G26  20650736.570 9 108520330.871 9     -1463.676 9        55.875 9  20650739.385 6         0.000 6     -1140.527 6        37.977 6
G20  21950429.842 9 115350254.213 9      2525.138 9        55.313 9  21950430.167 6         0.000 6      1967.641 6        37.977 6
> 2019 07 03 12 00 47.0000000  0  8       0.000000000000
G07  25352310.944 9 133227247.079 9      2234.307 9        54.130 9  25352311.617 6         0.000 6      1741.020 6        37.977 6
G10  23817766.505 9 125163152.960 9      3503.578 9        54.666 9  23817770.240 6         0.000 6      2730.063 6        37.977 6
G21  21167896.245 9 111238024.895 9     -1280.524 9        55.710 9  21167895.530 6         0.000 6      -997.811 6        37.977 6
G29  24292290.728 9 127656793.129 9     -3218.308 9        54.478 9  24292292.295 6         0.000 6     -2507.775 6        37.977 6
G27  22010685.353 9 115666905.181 9      2578.462 9        55.372 9  22010687.288 6         0.000 6      2009.192 6        37.977 6
G16  20498582.401 9 107720757.259 9       600.854 9        55.976 9  20498581.574 6         0.000 6       468.198 6        37.977 6
G26  20651015.189 9 108521795.022 9     -1464.619 9        55.875 9  20651018.004 6         0.000 6     -1141.262 6        37.977 6
G20  21949949.421 9 115347729.583 9      2524.138 9        55.313 9  21949949.745 6         0.000 6      1966.862 6        37.977 6
> 2019 07 03 12 00 48.0000000  0  8       0.000000000000
G07  25351885.743 9 133225012.636 9      2234.564 9        54.130 9  25351886.416 6         0.000 6      1741.220 6        37.977 6
G10  23817099.878 9 125159649.821 9      3502.740 9        54.667 9  23817103.612 6         0.000 6      2729.411 6        37.977 6
G21  21168139.947 9 111239305.557 9     -1280.806 9        55.710 9  21168139.232 6         0.000 6      -998.031 6        37.977 6
G29  24292903.165 9 127660011.495 9     -3218.436 9        54.477 9  24292904.732 6         0.000 6     -2507.875 6        37.977 6
G27  22010194.693 9 115664326.748 9      2578.396 9        55.372 9  22010196.627 6         0.000 6      2009.141 6        37.977 6
G16  20498468.115 9 107720156.683 9       600.290 9        55.976 9  20498467.289 6         0.000 6       467.759 6        37.977 6
G26  20651293.982 9 108523260.091 9     -1465.518 9        55.874 9  20651296.798 6         0.000 6     -1141.962 6        37.977 6
G20  21949469.182 9 115345205.920 9      2523.212 9        55.313 9  21949469.507 6         0.000 6      1966.140 6        37.977 6
> 2019 07 03 12 00 49.0000000  0  8       0.000000000000
G07  25351460.503 9 133222777.988 9      2234.723 9        54.130 9  25351461.176 6         0.000 6      1741.344 6        37.977 6
G10  23816433.401 9 125156147.470 9      3502.001 9        54.667 9  23816437.134 6         0.000 6      2728.834 6        37.977 6
G21  21168383.704 9 111240586.508 9     -1281.098 9        55.710 9  21168382.989 6         0.000 6      -998.258 6        37.977 6
G29  24293515.624 9 127663229.978 9     -3218.553 9        54.477 9  24293517.192 6         0.000 6     -2507.966 6        37.977 6
G27  22009704.049 9 115661748.401 9      2578.303 9        55.372 9  22009705.984 6         0.000 6      2009.068 6        37.977 6
G16  20498353.939 9 107719556.680 9       599.718 9        55.976 9  20498353.112 6         0.000 6       467.313 6        37.977 6
G26  20651572.943 9 108524726.038 9     -1466.371 9        55.874 9  20651575.759 6         0.000 6     -1142.627 6        37.977 6
G20  21948989.114 9 115342683.147 9      2522.355 9        55.314 9  21948989.438 6         0.000 6      1965.473 6        37.977 6
> 2019 07 03 12 00 50.0000000  0  8       0.000000000000
G07  25351035.242 9 133220543.230 9      2234.783 9        54.130 9  25351035.914 6         0.000 6      1741.391 6        37.977 6
G10  23815767.056 9 125152645.815 9      3501.351 9        54.667 9  23815770.789 6         0.000 6      2728.328 6        37.977 6
G21  21168627.518 9 111241867.760 9     -1281.407 9        55.710 9  21168626.803 6         0.000 6      -998.499 6        37.977 6
G29  24294128.104 9 127666448.575 9     -3218.662 9        54.477 9  24294129.673 6         0.000 6     -2508.051 6        37.977 6
G27  22009213.427 9 115659170.166 9      2578.174 9        55.372 9  22009215.361 6         0.000 6      2008.967 6        37.977 6
G16  20498239.873 9 107718957.260 9       599.126 9        55.976 9  20498239.046 6         0.000 6       466.852 6        37.977 6
G26  20651852.064 9 108526192.825 9     -1467.192 9        55.874 9  20651854.879 6         0.000 6     -1143.267 6        37.977 6
G20  21948509.203 9 115340161.202 9      2521.560 9        55.314 9  21948509.527 6         0.000 6      1964.853 6        37.977 6
> 2019 07 03 12 00 51.0000000  0  8       0.000000000000
G07  25350609.978 9 133218308.454 9      2234.760 9        54.130 9  25350610.650 6         0.000 6      1741.373 6        37.977 6
G10  23815100.825 9 125149144.760 9      3500.791 9        54.667 9  23815104.557 6         0.000 6      2727.892 6        37.977 6
G21  21168871.391 9 111243149.319 9     -1281.722 9        55.710 9  21168870.676 6         0.000 6      -998.745 6        37.977 6
G29  24294740.604 9 127669667.272 9     -3218.762 9        54.477 9  24294742.173 6         0.000 6     -2508.129 6        37.977 6
G27  22008722.830 9 115656592.068 9      2578.025 9        55.373 9  22008724.765 6         0.000 6      2008.851 6        37.977 6
G16  20498125.919 9 107718358.429 9       598.533 9        55.976 9  20498125.092 6         0.000 6       466.389 6        37.977 6
G26  20652131.335 9 108527660.404 9     -1467.968 9        55.874 9  20652134.151 6         0.000 6     -1143.871 6        37.977 6
G20  21948029.436 9 115337640.014 9      2520.828 9        55.314 9  21948029.760 6         0.000 6      1964.283 6        37.977 6
> 2019 07 03 12 00 52.0000000  0  8       0.000000000000
G07  25350184.726 9 133216073.746 9      2234.653 9        54.130 9  25350185.398 6         0.000 6      1741.289 6        37.977 6
G10  23814434.693 9 125145644.223 9      3500.313 9        54.668 9  23814438.425 6         0.000 6      2727.519 6        37.977 6
G21  21169115.326 9 111244431.206 9     -1282.052 9        55.710 9  21169114.611 6         0.000 6      -999.002 6        37.977 6
G29  24295353.124 9 127672886.076 9     -3218.862 9        54.476 9  24295354.694 6         0.000 6     -2508.207 6        37.977 6
G27  22008232.264 9 115654014.128 9      2577.855 9        55.373 9  22008234.198 6         0.000 6      2008.719 6        37.977 6
G16  20498012.079 9 107717760.195 9       597.931 9        55.976 9  20498011.252 6         0.000 6       465.921 6        37.977 6
G26  20652410.751 9 108529128.741 9     -1468.707 9        55.874 9  20652413.566 6         0.000 6     -1144.447 6        37.977 6
G20  21947549.803 9 115335119.532 9      2520.152 9        55.314 9  21947550.127 6         0.000 6      1963.756 6        37.977 6
> 2019 07 03 12 00 53.0000000  0  8       0.000000000000
G07  25349759.503 9 133213839.185 9      2234.463 9        54.131 9  25349760.174 6         0.000 6      1741.141 6        37.977 6
G10  23813768.644 9 125142144.124 9      3499.918 9        54.668 9  23813772.375 6         0.000 6      2727.212 6        37.977 6
G21  21169359.324 9 111245713.424 9     -1282.389 9        55.710 9  21169358.609 6         0.000 6      -999.264 6        37.977 6
G29  24295965.662 9 127676104.974 9     -3218.956 9        54.476 9  24295967.232 6         0.000 6     -2508.280 6        37.977 6
G27  22007741.733 9 115651436.371 9      2577.663 9        55.373 9  22007743.667 6         0.000 6      2008.569 6        37.977 6
G16  20497898.354 9 107717162.567 9       597.325 9        55.976 9  20497897.527 6         0.000 6       465.448 6        37.977 6
G26  20652690.303 9 108530597.798 9     -1469.406 9        55.874 9  20652693.119 6         0.000 6     -1144.992 6        37.977 6
G20  21947070.294 9 115332599.697 9      2519.535 9        55.314 9  21947070.617 6         0.000 6      1963.275 6        37.977 6
> 2019 07 03 12 00 54.0000000  0  8       0.000000000000
G07  25349334.322 9 133211604.849 9      2234.202 9        54.131 9  25349334.993 6         0.000 6      1740.937 6        37.977 6
G10  23813102.665 9 125138644.387 9      3499.594 9        54.668 9  23813106.395 6         0.000 6      2726.959 6        37.977 6
G21  21169603.387 9 111246995.985 9     -1282.737 9        55.710 9  21169602.673 6         0.000 6      -999.535 6        37.977 6
G29  24296578.217 9 127679323.964 9     -3219.046 9        54.476 9  24296579.788 6         0.000 6     -2508.350 6        37.977 6
G27  22007251.240 9 115648858.816 9      2577.452 9        55.373 9  22007253.174 6         0.000 6      2008.405 6        37.977 6
G16  20497784.745 9 107716565.550 9       596.711 9        55.976 9  20497783.918 6         0.000 6       464.970 6        37.977 6
G26  20652969.987 9 108532067.541 9     -1470.074 9        55.874 9  20652972.802 6         0.000 6     -1145.512 6        37.977 6
G20  21946590.897 9 115330080.456 9      2518.966 9        55.315 9  21946591.220 6         0.000 6      1962.832 6        37.977 6
> 2019 07 03 12 00 55.0000000  0  8       0.000000000000
G07  25348909.198 9 133209370.810 9      2233.875 9        54.131 9  25348909.869 6         0.000 6      1740.683 6        37.977 6
G10  23812436.739 9 125135144.936 9      3499.334 9        54.668 9  23812440.469 6         0.000 6      2726.757 6        37.977 6
G21  21169847.518 9 111248278.899 9     -1283.100 9        55.710 9  21169846.803 6         0.000 6      -999.818 6        37.977 6
G29  24297190.790 9 127682543.043 9     -3219.139 9        54.476 9  24297192.361 6         0.000 6     -2508.423 6        37.977 6
G27  22006760.789 9 115646281.481 9      2577.224 9        55.373 9  22006762.722 6         0.000 6      2008.227 6        37.977 6
G16  20497671.254 9 107715969.148 9       596.089 9        55.976 9  20497670.427 6         0.000 6       464.485 6        37.977 6
G26  20653249.793 9 108533537.934 9     -1470.714 9        55.874 9  20653252.609 6         0.000 6     -1146.012 6        37.977 6
G20  21946111.604 9 115327561.758 9      2518.438 9        55.315 9  21946111.927 6         0.000 6      1962.421 6        37.977 6
> 2019 07 03 12 00 56.0000000  0  8       0.000000000000
G07  25348484.141 9 133207137.124 9      2233.499 9        54.131 9  25348484.812 6         0.000 6      1740.389 6        37.977 6
G10  23811770.859 9 125131645.721 9      3499.124 9        54.669 9  23811774.588 6         0.000 6      2726.593 6        37.977 6
G21  21170091.719 9 111249562.183 9     -1283.465 9        55.710 9  21170091.004 6         0.000 6     -1000.103 6        37.977 6
G29  24297803.380 9 127685762.218 9     -3219.228 9        54.476 9  24297804.952 6         0.000 6     -2508.492 6        37.977 6
G27  22006270.382 9 115643704.378 9      2576.984 9        55.374 9  22006272.315 6         0.000 6      2008.040 6        37.977 6
G16  20497557.881 9 107715373.371 9       595.467 9        55.976 9  20497557.054 6         0.000 6       464.000 6        37.977 6
G26  20653529.720 9 108535008.956 9     -1471.329 9        55.873 9  20653532.536 6         0.000 6     -1146.491 6        37.977 6
G20  21945632.409 9 115325043.574 9      2517.947 9        55.315 9  21945632.731 6         0.000 6      1962.038 6        37.977 6
> 2019 07 03 12 00 57.0000000  0  8       0.000000000000
G07  25348059.159 9 133204903.832 9      2233.085 9        54.131 9  25348059.829 6         0.000 6      1740.067 6        37.977 6
G10  23811105.014 9 125128146.695 9      3498.956 9        54.669 9  23811108.742 6         0.000 6      2726.462 6        37.977 6
G21  21170335.989 9 111250845.831 9     -1283.837 9        55.709 9  21170335.274 6         0.000 6     -1000.393 6        37.977 6
G29  24298415.988 9 127688981.483 9     -3219.319 9        54.475 9  24298417.561 6         0.000 6     -2508.563 6        37.977 6
G27  22005780.020 9 115641127.515 9      2576.739 9        55.374 9  22005781.954 6         0.000 6      2007.849 6        37.977 6
G16  20497444.626 9 107714778.211 9       594.844 9        55.976 9  20497443.799 6         0.000 6       463.515 6        37.977 6
G26  20653809.761 9 108536480.579 9     -1471.923 9        55.873 9  20653812.577 6         0.000 6     -1146.953 6        37.977 6
G20  21945153.304 9 115322525.864 9      2517.483 9        55.315 9  21945153.626 6         0.000 6      1961.676 6        37.977 6
> 2019 07 03 12 00 58.0000000  0  8       0.000000000000
G07  25347634.259 9 133202670.971 9      2232.641 9        54.131 9  25347634.929 6         0.000 6      1739.721 6        37.977 6
G10  23810439.199 9 125124647.826 9      3498.809 9        54.669 9  23810442.927 6         0.000 6      2726.347 6        37.977 6
G21  21170580.331 9 111252129.858 9     -1284.217 9        55.709 9  21170579.617 6         0.000 6     -1000.689 6        37.977 6
G29  24299028.613 9 127692200.837 9     -3219.410 9        54.475 9  24299030.186 6         0.000 6     -2508.634 6        37.977 6
G27  22005289.708 9 115638550.908 9      2576.482 9        55.374 9  22005291.641 6         0.000 6      2007.649 6        37.977 6
G16  20497331.491 9 107714183.684 9       594.213 9        55.977 9  20497330.664 6         0.000 6       463.023 6        37.977 6
G26  20654089.915 9 108537952.796 9     -1472.511 9        55.873 9  20654092.731 6         0.000 6     -1147.411 6        37.977 6
G20  21944674.286 9 115320008.613 9      2517.032 9        55.315 9  21944674.608 6         0.000 6      1961.325 6        37.977 6
> 2019 07 03 12 00 59.0000000  0  8       0.000000000000
G07  25347209.445 9 133200438.560 9      2232.184 9        54.131 9  25347210.115 6         0.000 6      1739.365 6        37.977 6
G10  23809773.410 9 125121149.090 9      3498.684 9        54.669 9  23809777.137 6         0.000 6      2726.250 6        37.977 6
G21  21170824.745 9 111253414.259 9     -1284.596 9        55.709 9  21170824.030 6         0.000 6     -1000.984 6        37.977 6
G29  24299641.254 9 127695420.281 9     -3219.501 9        54.475 9  24299642.829 6         0.000 6     -2508.704 6        37.977 6
G27  22004799.443 9 115635974.552 9      2576.227 9        55.374 9  22004801.376 6         0.000 6      2007.450 6        37.977 6
G16  20497218.475 9 107713589.778 9       593.588 9        55.977 9  20497217.648 6         0.000 6       462.536 6        37.977 6
G26  20654370.178 9 108539425.587 9     -1473.083 9        55.873 9  20654372.994 6         0.000 6     -1147.858 6        37.977 6
G20  21944195.351 9 115317491.800 9      2516.598 9        55.315 9  21944195.673 6         0.000 6      1960.986 6        37.977 6
> 2019 07 03 12 01  0.0000000  0  8       0.000000000000
G07  25346784.719 9 133198206.616 9      2231.708 9        54.132 9  25346785.389 6         0.000 6      1738.994 6        37.977 6
G10  23809107.644 9 125117650.475 9      3498.573 9        54.669 9  23809111.370 6         0.000 6      2726.164 6        37.977 6
G21  21171069.232 9 111254699.046 9     -1284.976 9        55.709 9  21171068.518 6         0.000 6     -1001.280 6        37.977 6
G29  24300253.914 9 127698639.819 9     -3219.589 9        54.475 9  24300255.489 6         0.000 6     -2508.773 6        37.977 6
G27  22004309.228 9 115633398.458 9      2575.965 9        55.374 9  22004311.161 6         0.000 6      2007.246 6        37.977 6
G16  20497105.579 9 107712996.506 9       592.959 9        55.977 9  20497104.752 6         0.000 6       462.046 6        37.977 6
G26  20654650.551 9 108540898.955 9     -1473.651 9        55.873 9  20654653.367 6         0.000 6     -1148.300 6        37.977 6
G20  21943716.500 9 115314975.423 9      2516.173 9        55.316 9  21943716.821 6         0.000 6      1960.656 6        37.977 6
> 2019 07 03 12 01  1.0000000  0  8       0.000000000000
G07  25346360.085 9 133195975.152 9      2231.224 9        54.132 9  25346360.755 6         0.000 6      1738.617 6        37.977 6
G10  23808441.898 9 125114151.967 9      3498.470 9        54.670 9  23808445.624 6         0.000 6      2726.084 6        37.977 6
G21  21171313.792 9 111255984.215 9     -1285.361 9        55.709 9  21171313.077 6         0.000 6     -1001.580 6        37.977 6
G29  24300866.590 9 127701859.440 9     -3219.679 9        54.474 9  24300868.165 6         0.000 6     -2508.843 6        37.977 6
G27  22003819.064 9 115630822.633 9      2575.699 9        55.375 9  22003820.997 6         0.000 6      2007.039 6        37.977 6
G16  20496992.803 9 107712403.867 9       592.326 9        55.977 9  20496991.976 6         0.000 6       461.553 6        37.977 6
G26  20654931.032 9 108542372.892 9     -1474.217 9        55.873 9  20654933.848 6         0.000 6     -1148.741 6        37.977 6
G20  21943237.729 9 115312459.467 9      2515.752 9        55.316 9  21943238.049 6         0.000 6      1960.328 6        37.977 6
> 2019 07 03 12 01  2.0000000  0  8       0.000000000000
G07  25345935.543 9 133193744.173 9      2230.742 9        54.132 9  25345936.212 6         0.000 6      1738.241 6        37.977 6
G10  23807776.171 9 125110653.560 9      3498.365 9        54.670 9  23807779.896 6         0.000 6      2726.002 6        37.977 6
G21  21171558.425 9 111257269.770 9     -1285.743 9        55.709 9  21171557.710 6         0.000 6     -1001.878 6        37.977 6
G29  24301479.283 9 127705079.157 9     -3219.768 9        54.474 9  24301480.859 6         0.000 6     -2508.913 6        37.977 6
G27  22003328.950 9 115628247.068 9      2575.435 9        55.375 9  22003330.883 6         0.000 6      2006.833 6        37.977 6
G16  20496880.147 9 107711811.856 9       591.697 9        55.977 9  20496879.320 6         0.000 6       461.063 6        37.977 6
G26  20655211.620 9 108543847.390 9     -1474.782 9        55.873 9  20655214.436 6         0.000 6     -1149.181 6        37.977 6
G20  21942759.037 9 115309943.931 9      2515.332 9        55.316 9  21942759.358 6         0.000 6      1960.000 6        37.977 6
> 2019 07 03 12 01  3.0000000  0  8       0.000000000000
G07  25345511.093 9 133191513.678 9      2230.255 9        54.132 9  25345511.762 6         0.000 6      1737.862 6        37.977 6
G10  23807110.463 9 125107155.253 9      3498.267 9        54.670 9  23807114.188 6         0.000 6      2725.925 6        37.977 6
G21  21171803.130 9 111258555.704 9     -1286.126 9        55.709 9  21171802.416 6         0.000 6     -1002.176 6        37.977 6
G29  24302091.994 9 127708298.961 9     -3219.857 9        54.474 9  24302093.570 6         0.000 6     -2508.982 6        37.977 6
G27  22002838.886 9 115625671.765 9      2575.171 9        55.375 9  22002840.818 6         0.000 6      2006.627 6        37.977 6
G16  20496767.611 9 107711220.472 9       591.068 9        55.977 9  20496766.784 6         0.000 6       460.572 6        37.977 6
G26  20655492.314 9 108545322.449 9     -1475.343 9        55.873 9  20655495.131 6         0.000 6     -1149.618 6        37.977 6
G20  21942280.425 9 115307428.812 9      2514.915 9        55.316 9  21942280.745 6         0.000 6      1959.675 6        37.977 6
> 2019 07 03 12 01  4.0000000  0  8       0.000000000000
G07  25345086.735 9 133189283.664 9      2229.780 9        54.132 9  25345087.404 6         0.000 6      1737.492 6        37.977 6
G10  23806444.776 9 125103657.052 9      3498.156 9        54.670 9  23806448.499 6         0.000 6      2725.838 6        37.977 6
G21  21172047.908 9 111259842.019 9     -1286.512 9        55.709 9  21172047.193 6         0.000 6     -1002.477 6        37.977 6
G29  24302704.721 9 127711518.855 9     -3219.951 9        54.474 9  24302706.298 6         0.000 6     -2509.055 6        37.977 6
G27  22002348.872 9 115623096.725 9      2574.909 9        55.375 9  22002350.804 6         0.000 6      2006.424 6        37.977 6
G16  20496655.193 9 107710629.716 9       590.437 9        55.977 9  20496654.367 6         0.000 6       460.081 6        37.977 6
G26  20655773.116 9 108546798.071 9     -1475.912 9        55.873 9  20655775.933 6         0.000 6     -1150.062 6        37.977 6
G20  21941801.893 9 115304914.113 9      2514.487 9        55.316 9  21941802.213 6         0.000 6      1959.341 6        37.977 6
> 2019 07 03 12 01  5.0000000  0  8       0.000000000000
G07  25344662.467 9 133187054.126 9      2229.312 9        54.132 9  25344663.136 6         0.000 6      1737.127 6        37.977 6
G10  23805779.110 9 125100158.964 9      3498.038 9        54.671 9  23805782.833 6         0.000 6      2725.747 6        37.977 6
G21  21172292.759 9 111261128.721 9     -1286.890 9        55.709 9  21172292.045 6         0.000 6     -1002.772 6        37.977 6
G29  24303317.465 9 127714738.837 9     -3220.038 9        54.474 9  24303319.043 6         0.000 6     -2509.123 6        37.977 6
G27  22001858.908 9 115620521.953 9      2574.649 9        55.375 9  22001860.840 6         0.000 6      2006.220 6        37.977 6
G16  20496542.897 9 107710039.596 9       589.809 9        55.977 9  20496542.070 6         0.000 6       459.592 6        37.977 6
G26  20656054.028 9 108548274.267 9     -1476.482 9        55.872 9  20656056.844 6         0.000 6     -1150.506 6        37.977 6
G20  21941323.443 9 115302399.844 9      2514.058 9        55.317 9  21941323.762 6         0.000 6      1959.008 6        37.977 6
> 2019 07 03 12 01  6.0000000  0  8       0.000000000000
G07  25344238.286 9 133184825.045 9      2228.859 9        54.132 9  25344238.955 6         0.000 6      1736.774 6        37.977 6
G10  23805113.469 9 125096661.006 9      3497.901 9        54.671 9  23805117.191 6         0.000 6      2725.640 6        37.977 6
G21  21172537.683 9 111262415.803 9     -1287.269 9        55.709 9  21172536.969 6         0.000 6     -1003.067 6        37.977 6
G29  24303930.227 9 127717958.911 9     -3220.130 9        54.473 9  24303931.805 6         0.000 6     -2509.194 6        37.977 6
G27  22001368.994 9 115617947.438 9      2574.392 9        55.376 9  22001370.925 6         0.000 6      2006.020 6        37.977 6
G16  20496430.721 9 107709450.105 9       589.180 9        55.977 9  20496429.894 6         0.000 6       459.102 6        37.977 6
G26  20656335.049 9 108549751.041 9     -1477.062 9        55.872 9  20656337.866 6         0.000 6     -1150.958 6        37.977 6
G20  21940845.076 9 115299886.015 9      2513.614 9        55.317 9  21940845.395 6         0.000 6      1958.662 6        37.977 6
> 2019 07 03 12 01  7.0000000  0  8       0.000000000000
G07  25343814.190 9 133182596.405 9      2228.430 9        54.133 9  25343814.858 6         0.000 6      1736.440 6        37.977 6
G10  23804447.855 9 125093163.193 9      3497.742 9        54.671 9  23804451.577 6         0.000 6      2725.516 6        37.977 6
G21  21172782.677 9 111263703.258 9     -1287.645 9        55.708 9  21172781.963 6         0.000 6     -1003.360 6        37.977 6
G29  24304543.005 9 127721179.074 9     -3220.217 9        54.473 9  24304544.585 6         0.000 6     -2509.263 6        37.977 6
G27  22000879.127 9 115615373.175 9      2574.138 9        55.376 9  22000881.059 6         0.000 6      2005.822 6        37.977 6
G16  20496318.663 9 107708861.237 9       588.551 9        55.977 9  20496317.836 6         0.000 6       458.611 6        37.977 6
G26  20656616.180 9 108551228.395 9     -1477.654 9        55.872 9  20656618.997 6         0.000 6     -1151.419 6        37.977 6
G20  21940366.794 9 115297372.632 9      2513.156 9        55.317 9  21940367.113 6         0.000 6      1958.304 6        37.977 6
> 2019 07 03 12 01  8.0000000  0  8       0.000000000000
G07  25343390.172 9 133180368.181 9      2228.029 9        54.133 9  25343390.840 6         0.000 6      1736.127 6        37.977 6
G10  23803782.274 9 125089665.552 9      3497.555 9        54.671 9  23803785.995 6         0.000 6      2725.370 6        37.977 6
G21  21173027.743 9 111264991.085 9     -1288.016 9        55.708 9  21173027.029 6         0.000 6     -1003.649 6        37.977 6
G29  24305155.800 9 127724399.323 9     -3220.308 9        54.473 9  24305157.380 6         0.000 6     -2509.333 6        37.977 6
G27  22000389.308 9 115612799.164 9      2573.893 9        55.376 9  22000391.240 6         0.000 6      2005.631 6        37.977 6
G16  20496206.725 9 107708272.998 9       587.926 9        55.977 9  20496205.898 6         0.000 6       458.124 6        37.977 6
G26  20656897.425 9 108552706.347 9     -1478.258 9        55.872 9  20656900.242 6         0.000 6     -1151.890 6        37.977 6
G20  21939888.601 9 115294859.715 9      2512.679 9        55.317 9  21939888.920 6         0.000 6      1957.933 6        37.977 6
> 2019 07 03 12 01  9.0000000  0  8       0.000000000000
G07  25342966.228 9 133178140.342 9      2227.660 9        54.133 9  25342966.896 6         0.000 6      1735.840 6        37.977 6
G10  23803116.731 9 125086168.114 9      3497.335 9        54.672 9  23803120.452 6         0.000 6      2725.199 6        37.977 6
G21  21173272.879 9 111266279.284 9     -1288.380 9        55.708 9  21173272.165 6         0.000 6     -1003.933 6        37.977 6
G29  24305768.614 9 127727619.672 9     -3220.400 9        54.473 9  24305770.195 6         0.000 6     -2509.405 6        37.977 6
G27  21999899.535 9 115610225.387 9      2573.657 9        55.376 9  21999901.466 6         0.000 6      2005.448 6        37.977 6
G16  20496094.905 9 107707685.380 9       587.305 9        55.977 9  20496094.078 6         0.000 6       457.640 6        37.977 6
G26  20657178.786 9 108554184.908 9     -1478.875 9        55.872 9  20657181.604 6         0.000 6     -1152.371 6        37.977 6
G20  21939410.502 9 115292347.290 9      2512.179 9        55.317 9  21939410.820 6         0.000 6      1957.544 6        37.977 6
> 2019 07 03 12 01 10.0000000  0  8       0.000000000000
G07  25342542.349 9 133175912.848 9      2227.337 9        54.133 9  25342543.017 6         0.000 6      1735.588 6        37.977 6
G10  23802451.235 9 125082670.918 9      3497.072 9        54.672 9  23802454.955 6         0.000 6      2724.994 6        37.977 6
G21  21173518.083 9 111267567.839 9     -1288.738 9        55.708 9  21173517.369 6         0.000 6     -1004.212 6        37.977 6
G29  24306381.444 9 127730840.105 9     -3220.492 9        54.473 9  24306383.025 6         0.000 6     -2509.477 6        37.977 6
G27  21999409.805 9 115607651.844 9      2573.432 9        55.376 9  21999411.736 6         0.000 6      2005.273 6        37.977 6
G16  20495983.203 9 107707098.382 9       586.686 9        55.977 9  20495982.376 6         0.000 6       457.158 6        37.977 6
G26  20657460.267 9 108555664.098 9     -1479.514 9        55.872 9  20657463.085 6         0.000 6     -1152.868 6        37.977 6
G20  21938932.499 9 115289835.375 9      2511.651 9        55.318 9  21938932.818 6         0.000 6      1957.132 6        37.977 6
> 2019 07 03 12 01 11.0000000  0  8       0.000000000000
G07  25342118.529 9 133173685.663 9      2227.053 9        54.133 9  25342119.196 6         0.000 6      1735.367 6        37.977 6
G10  23801785.792 9 125079174.003 9      3496.767 9        54.672 9  23801789.511 6         0.000 6      2724.757 6        37.977 6
G21  21173763.355 9 111268856.749 9     -1289.088 9        55.708 9  21173762.641 6         0.000 6     -1004.484 6        37.977 6
G29  24306994.291 9 127734060.628 9     -3220.579 9        54.472 9  24306995.873 6         0.000 6     -2509.545 6        37.977 6
G27  21998920.118 9 115605078.526 9      2573.213 9        55.377 9  21998922.049 6         0.000 6      2005.102 6        37.977 6
G16  20495871.619 9 107706512.005 9       586.068 9        55.977 9  20495870.792 6         0.000 6       456.676 6        37.977 6
G26  20657741.871 9 108557143.935 9     -1480.173 9        55.872 9  20657744.689 6         0.000 6     -1153.382 6        37.977 6
G20  21938454.600 9 115287324.001 9      2511.095 9        55.318 9  21938454.918 6         0.000 6      1956.699 6        37.977 6
> 2019 07 03 12 01 12.0000000  0  8       0.000000000000
G07  25341694.758 9 133171458.735 9      2226.820 9        54.133 9  25341695.425 6         0.000 6      1735.186 6        37.977 6
G10  23801120.413 9 125075677.419 9      3496.411 9        54.672 9  23801124.131 6         0.000 6      2724.478 6        37.977 6
G21  21174008.693 9 111270146.012 9     -1289.432 9        55.708 9  21174007.979 6         0.000 6     -1004.752 6        37.977 6
G29  24307607.157 9 127737281.247 9     -3220.672 9        54.472 9  24307608.739 6         0.000 6     -2509.617 6        37.977 6
G27  21998430.472 9 115602505.417 9      2573.009 9        55.377 9  21998432.402 6         0.000 6      2004.943 6        37.977 6
G16  20495760.152 9 107705926.244 9       585.454 9        55.977 9  20495759.325 6         0.000 6       456.198 6        37.977 6
G26  20658023.603 9 108558624.446 9     -1480.856 9        55.872 9  20658026.421 6         0.000 6     -1153.914 6        37.977 6
G20  21937976.810 9 115284813.205 9      2510.503 9        55.318 9  21937977.128 6         0.000 6      1956.237 6        37.977 6
> 2019 07 03 12 01 13.0000000  0  8       0.000000000000
G07  25341271.025 9 133169232.008 9      2226.647 9        54.133 9  25341271.692 6         0.000 6      1735.051 6        37.977 6
G10  23800455.107 9 125072181.224 9      3495.996 9        54.673 9  23800458.825 6         0.000 6      2724.155 6        37.977 6
G21  21174254.095 9 111271435.609 9     -1289.762 9        55.708 9  21174253.382 6         0.000 6     -1005.009 6        37.977 6
G29  24308220.039 9 127740501.955 9     -3220.763 9        54.472 9  24308221.622 6         0.000 6     -2509.688 6        37.977 6
G27  21997940.862 9 115599932.506 9      2572.821 9        55.377 9  21997942.793 6         0.000 6      2004.796 6        37.977 6
G16  20495648.802 9 107705341.093 9       584.847 9        55.977 9  20495647.975 6         0.000 6       455.725 6        37.977 6
G26  20658305.468 9 108560105.653 9     -1481.564 9        55.871 9  20658308.286 6         0.000 6     -1154.466 6        37.977 6
G20  21937499.137 9 115282303.019 9      2509.874 9        55.318 9  21937499.455 6         0.000 6      1955.747 6        37.977 6
> 2019 07 03 12 01 14.0000000  0  8       0.000000000000
G07  25340847.320 9 133167005.427 9      2226.533 9        54.134 9  25340847.987 6         0.000 6      1734.962 6        37.977 6
G10  23799789.885 9 125068685.472 9      3495.521 9        54.673 9  23799793.602 6         0.000 6      2723.785 6        37.977 6
G21  21174499.560 9 111272725.531 9     -1290.085 9        55.708 9  21174498.846 6         0.000 6     -1005.261 6        37.977 6
G29  24308832.938 9 127743722.750 9     -3220.853 9        54.472 9  24308834.522 6         0.000 6     -2509.758 6        37.977 6
G27  21997451.288 9 115597359.780 9      2572.643 9        55.377 9  21997453.219 6         0.000 6      2004.657 6        37.977 6
G16  20495537.567 9 107704756.551 9       584.241 9        55.977 9  20495536.740 6         0.000 6       455.253 6        37.977 6
G26  20658587.470 9 108561587.583 9     -1482.303 9        55.871 9  20658590.288 6         0.000 6     -1155.042 6        37.977 6
G20  21937021.587 9 115279793.481 9      2509.204 9        55.318 9  21937021.904 6         0.000 6      1955.225 6        37.977 6
> 2019 07 03 12 01 15.0000000  0  8       0.000000000000
G07  25340423.632 9 133164778.932 9      2226.478 9        54.134 9  25340424.298 6         0.000 6      1734.919 6        37.977 6
G10  23799124.761 9 125065190.230 9      3494.981 9        54.673 9  23799128.477 6         0.000 6      2723.364 6        37.977 6
G21  21174745.086 9 111274015.781 9     -1290.396 9        55.708 9  21174744.372 6         0.000 6     -1005.504 6        37.977 6
G29  24309445.855 9 127746943.639 9     -3220.937 9        54.471 9  24309447.439 6         0.000 6     -2509.823 6        37.977 6
G27  21996961.748 9 115594787.230 9      2572.472 9        55.377 9  21996963.678 6         0.000 6      2004.525 6        37.977 6
G16  20495426.449 9 107704172.621 9       583.633 9        55.977 9  20495425.622 6         0.000 6       454.779 6        37.977 6
G26  20658869.618 9 108563070.276 9     -1483.077 9        55.871 9  20658872.436 6         0.000 6     -1155.645 6        37.977 6
G20  21936544.170 9 115277284.641 9      2508.491 9        55.318 9  21936544.487 6         0.000 6      1954.669 6        37.977 6
> 2019 07 03 12 01 16.0000000  0  8       0.000000000000
G07  25339999.947 9 133162552.458 9      2226.486 9        54.134 9  25340000.613 6         0.000 6      1734.925 6        37.977 6
G10  23798459.744 9 125061695.555 9      3494.379 9        54.673 9  23798463.460 6         0.000 6      2722.896 6        37.977 6
G21  21174990.669 9 111275306.326 9     -1290.696 9        55.708 9  21174989.955 6         0.000 6     -1005.738 6        37.977 6
G29  24310058.786 9 127750164.606 9     -3221.019 9        54.471 9  24310060.371 6         0.000 6     -2509.887 6        37.977 6
G27  21996472.237 9 115592214.838 9      2572.316 9        55.377 9  21996474.167 6         0.000 6      2004.403 6        37.977 6
G16  20495315.444 9 107703589.287 9       583.030 9        55.977 9  20495314.617 6         0.000 6       454.309 6        37.977 6
G26  20659151.913 9 108564553.748 9     -1483.879 9        55.871 9  20659154.731 6         0.000 6     -1156.270 6        37.977 6
G20  21936066.891 9 115274776.527 9      2507.737 9        55.319 9  21936067.208 6         0.000 6      1954.082 6        37.977 6
> 2019 07 03 12 01 17.0000000  0  8       0.000000000000
G07  25339576.255 9 133160325.944 9      2226.566 9        54.134 9  25339576.921 6         0.000 6      1734.987 6        37.977 6
G10  23797794.848 9 125058201.512 9      3493.706 9        54.674 9  23797798.563 6         0.000 6      2722.371 6        37.977 6
G21  21175236.307 9 111276597.162 9     -1290.985 9        55.707 9  21175235.593 6         0.000 6     -1005.963 6        37.977 6
G29  24310671.733 9 127753385.651 9     -3221.097 9        54.471 9  24310673.318 6         0.000 6     -2509.948 6        37.977 6
G27  21995982.755 9 115589642.596 9      2572.174 9        55.378 9  21995984.685 6         0.000 6      2004.292 6        37.977 6
G16  20495204.554 9 107703006.554 9       582.428 9        55.977 9  20495203.727 6         0.000 6       453.840 6        37.977 6
G26  20659434.364 9 108566038.037 9     -1484.718 9        55.871 9  20659437.183 6         0.000 6     -1156.924 6        37.977 6
G20  21935589.759 9 115272269.186 9      2506.936 9        55.319 9  21935590.075 6         0.000 6      1953.458 6        37.977 6
> 2019 07 03 12 01 18.0000000  0  8       0.000000000000
G07  25339152.541 9 133158099.314 9      2226.710 9        54.134 9  25339153.207 6         0.000 6      1735.100 6        37.977 6
G10  23797130.087 9 125054708.183 9      3492.966 9        54.674 9  23797133.802 6         0.000 6      2721.794 6        37.977 6
G21  21175481.999 9 111277888.284 9     -1291.253 9        55.707 9  21175481.286 6         0.000 6     -1006.171 6        37.977 6
G29  24311284.694 9 127756606.771 9     -3221.163 9        54.471 9  24311286.280 6         0.000 6     -2510.000 6        37.977 6
G27  21995493.300 9 115587070.493 9      2572.042 9        55.378 9  21995495.229 6         0.000 6      2004.189 6        37.977 6
G16  20495093.779 9 107702424.427 9       581.832 9        55.977 9  20495092.952 6         0.000 6       453.375 6        37.977 6
G26  20659716.979 9 108567523.187 9     -1485.588 9        55.871 9  20659719.798 6         0.000 6     -1157.601 6        37.977 6
G20  21935112.784 9 115269762.673 9      2506.096 9        55.319 9  21935113.100 6         0.000 6      1952.803 6        37.977 6
> 2019 07 03 12 01 19.0000000  0  8       0.000000000000
G07  25338728.792 9 133155872.505 9      2226.926 9        54.134 9  25338729.458 6         0.000 6      1735.268 6        37.977 6
G10  23796465.474 9 125051215.626 9      3492.153 9        54.674 9  23796469.188 6         0.000 6      2721.161 6        37.977 6
G21  21175727.741 9 111279179.665 9     -1291.509 9        55.707 9  21175727.028 6         0.000 6     -1006.371 6        37.977 6
G29  24311897.667 9 127759827.959 9     -3221.226 9        54.471 9  24311899.254 6         0.000 6     -2510.049 6        37.977 6
G27  21995003.867 9 115584498.511 9      2571.924 9        55.378 9  21995005.797 6         0.000 6      2004.097 6        37.977 6
G16  20494983.116 9 107701842.891 9       581.237 9        55.978 9  20494982.289 6         0.000 6       452.912 6        37.977 6
G26  20659999.763 9 108569009.221 9     -1486.493 9        55.871 9  20660002.581 6         0.000 6     -1158.307 6        37.977 6
G20  21934635.974 9 115267257.021 9      2505.207 9        55.319 9  21934636.290 6         0.000 6      1952.111 6        37.977 6
> 2019 07 03 12 01 20.0000000  0  8       0.000000000000
G07  25338304.997 9 133153645.450 9      2227.204 9        54.134 9  25338305.662 6         0.000 6      1735.485 6        37.977 6
G10  23795801.022 9 125047723.917 9      3491.275 9        54.674 9  23795804.735 6         0.000 6      2720.477 6        37.977 6
G21  21175973.530 9 111280471.295 9     -1291.747 9        55.707 9  21175972.817 6         0.000 6     -1006.557 6        37.977 6
G29  24312510.650 9 127763049.195 9     -3221.272 9        54.470 9  24312512.238 6         0.000 6     -2510.084 6        37.977 6
G27  21994514.458 9 115581926.652 9      2571.808 9        55.378 9  21994516.388 6         0.000 6      2004.007 6        37.977 6
G16  20494872.568 9 107701261.956 9       580.639 9        55.978 9  20494871.741 6         0.000 6       452.446 6        37.977 6
G26  20660282.722 9 108570496.183 9     -1487.436 9        55.871 9  20660285.541 6         0.000 6     -1159.041 6        37.977 6
G20  21934159.336 9 115264752.279 9      2504.280 9        55.319 9  21934159.652 6         0.000 6      1951.388 6        37.977 6
> 2019 07 03 12 01 21.0000000  0  8       0.000000000000
G07  25337881.142 9 133151418.082 9      2227.547 9        54.135 9  25337881.808 6         0.000 6      1735.752 6        37.977 6
G10  23795136.743 9 125044233.121 9      3490.329 9        54.675 9  23795140.456 6         0.000 6      2719.740 6        37.977 6
G21  21176219.363 9 111281763.156 9     -1291.971 9        55.707 9  21176218.650 6         0.000 6     -1006.731 6        37.977 6
G29  24313123.641 9 127766270.474 9     -3221.305 9        54.470 9  24313125.229 6         0.000 6     -2510.110 6        37.977 6
G27  21994025.071 9 115579354.905 9      2571.698 9        55.378 9  21994027.000 6         0.000 6      2003.921 6        37.977 6
G16  20494762.133 9 107700681.620 9       580.039 9        55.978 9  20494761.306 6         0.000 6       451.979 6        37.977 6
G26  20660565.865 9 108571984.106 9     -1488.414 9        55.871 9  20660568.684 6         0.000 6     -1159.804 6        37.977 6
G20  21933682.880 9 115262248.486 9      2503.310 9        55.320 9  21933683.195 6         0.000 6      1950.632 6        37.977 6
> 2019 07 03 12 01 22.0000000  0  8       0.000000000000
G07  25337457.217 9 133149190.340 9      2227.952 9        54.135 9  25337457.881 6         0.000 6      1736.068 6        37.977 6
G10  23794472.651 9 125040743.305 9      3489.315 9        54.675 9  23794476.363 6         0.000 6      2718.950 6        37.977 6
G21  21176465.237 9 111283055.232 9     -1292.177 9        55.707 9  21176464.524 6         0.000 6     -1006.891 6        37.977 6
G29  24313736.636 9 127769491.776 9     -3221.315 9        54.470 9  24313738.225 6         0.000 6     -2510.118 6        37.977 6
G27  21993535.703 9 115576783.266 9      2571.584 9        55.379 9  21993537.632 6         0.000 6      2003.833 6        37.977 6
G16  20494651.813 9 107700101.884 9       579.432 9        55.978 9  20494650.986 6         0.000 6       451.505 6        37.977 6
G26  20660849.197 9 108573473.026 9     -1489.434 9        55.870 9  20660852.016 6         0.000 6     -1160.599 6        37.977 6
G20  21933206.611 9 115259745.683 9      2502.300 9        55.320 9  21933206.926 6         0.000 6      1949.846 6        37.977 6
> 2019 07 03 12 01 23.0000000  0  8       0.000000000000
G07  25337033.207 9 133146962.161 9      2228.424 9        54.135 9  25337033.872 6         0.000 6      1736.435 6        37.977 6
G10  23793808.758 9 125037254.532 9      3488.236 9        54.675 9  23793812.469 6         0.000 6      2718.108 6        37.977 6
G21  21176711.148 9 111284347.498 9     -1292.361 9        55.707 9  21176710.434 6         0.000 6     -1007.035 6        37.977 6
G29  24314349.632 9 127772713.078 9     -3221.311 9        54.470 9  24314351.221 6         0.000 6     -2510.115 6        37.977 6
G27  21993046.357 9 115574211.734 9      2571.482 9        55.379 9  21993048.285 6         0.000 6      2003.753 6        37.977 6
G16  20494541.608 9 107699522.750 9       578.830 9        55.978 9  20494540.781 6         0.000 6       451.036 6        37.977 6
G26  20661132.726 9 108574962.977 9     -1490.484 9        55.870 9  20661135.545 6         0.000 6     -1161.416 6        37.977 6
G20  21932730.538 9 115257243.905 9      2501.253 9        55.320 9  21932730.853 6         0.000 6      1949.030 6        37.977 6
> 2019 07 03 12 01 24.0000000  0  8       0.000000000000
G07  25336609.103 9 133144733.479 9      2228.953 9        54.135 9  25336609.767 6         0.000 6      1736.847 6        37.977 6
G10  23793145.077 9 125033766.874 9      3487.093 9        54.675 9  23793148.787 6         0.000 6      2717.218 6        37.977 6
G21  21176957.091 9 111285639.941 9     -1292.523 9        55.707 9  21176956.378 6         0.000 6     -1007.161 6        37.977 6
G29  24314962.624 9 127775934.363 9     -3221.273 9        54.469 9  24314964.214 6         0.000 6     -2510.086 6        37.977 6
G27  21992557.030 9 115571640.309 9      2571.370 9        55.379 9  21992558.959 6         0.000 6      2003.666 6        37.977 6
G16  20494431.518 9 107698944.224 9       578.218 9        55.978 9  20494430.691 6         0.000 6       450.560 6        37.977 6
G26  20661416.459 9 108576454.000 9     -1491.574 9        55.870 9  20661419.278 6         0.000 6     -1162.266 6        37.977 6
G20  21932254.667 9 115254743.194 9      2500.173 9        55.320 9  21932254.982 6         0.000 6      1948.188 6        37.977 6
> 2019 07 03 12 01 25.0000000  0  8       0.000000000000
G07  25336184.893 9 133142504.248 9      2229.534 9        54.135 9  25336185.558 6         0.000 6      1737.300 6        37.977 6
G10  23792481.618 9 125030280.383 9      3485.894 9        54.676 9  23792485.327 6         0.000 6      2716.283 6        37.977 6
G21  21177203.064 9 111286932.536 9     -1292.668 9        55.707 9  21177202.351 6         0.000 6     -1007.274 6        37.977 6
G29  24315575.606 9 127779155.597 9     -3221.214 9        54.469 9  24315577.197 6         0.000 6     -2510.040 6        37.977 6
G27  21992067.726 9 115569069.000 9      2571.255 9        55.379 9  21992069.654 6         0.000 6      2003.576 6        37.977 6
G16  20494321.545 9 107698366.314 9       577.601 9        55.978 9  20494320.718 6         0.000 6       450.079 6        37.977 6
G26  20661700.402 9 108577946.129 9     -1492.697 9        55.870 9  20661703.221 6         0.000 6     -1163.141 6        37.977 6
G20  21931779.005 9 115252243.576 9      2499.060 9        55.320 9  21931779.319 6         0.000 6      1947.321 6        37.977 6
> 2019 07 03 12 01 26.0000000  0  8       0.000000000000
G07  25335760.566 9 133140274.398 9      2230.175 9        54.135 9  25335761.230 6         0.000 6      1737.800 6        37.977 6
G10  23791818.394 9 125026795.133 9      3484.626 9        54.676 9  23791822.104 6         0.000 6      2715.296 6        37.977 6
G21  21177449.063 9 111288225.265 9     -1292.786 9        55.707 9  21177448.349 6         0.000 6     -1007.366 6        37.977 6
G29  24316188.575 9 127782376.758 9     -3221.116 9        54.469 9  24316190.166 6         0.000 6     -2509.963 6        37.977 6
G27  21991578.444 9 115566497.809 9      2571.126 9        55.379 9  21991580.372 6         0.000 6      2003.476 6        37.977 6
G16  20494211.691 9 107697789.027 9       576.972 9        55.978 9  20494210.864 6         0.000 6       449.589 6        37.977 6
G26  20661984.563 9 108579439.407 9     -1493.864 9        55.870 9  20661987.382 6         0.000 6     -1164.050 6        37.977 6
G20  21931303.559 9 115249745.096 9      2497.913 9        55.321 9  21931303.873 6         0.000 6      1946.427 6        37.977 6
> 2019 07 03 12 01 27.0000000  0  8       0.000000000000
G07  25335336.113 9 133138043.883 9      2230.871 9        54.136 9  25335336.777 6         0.000 6      1738.342 6        37.977 6
G10  23791155.417 9 125023311.174 9      3483.300 9        54.676 9  23791159.126 6         0.000 6      2714.263 6        37.977 6
G21  21177695.081 9 111289518.098 9     -1292.881 9        55.706 9  21177694.367 6         0.000 6     -1007.440 6        37.977 6
G29  24316801.521 9 127785597.801 9     -3220.984 9        54.469 9  24316803.113 6         0.000 6     -2509.861 6        37.977 6
G27  21991089.187 9 115563926.751 9      2570.990 9        55.380 9  21991091.115 6         0.000 6      2003.369 6        37.977 6
G16  20494101.957 9 107697212.369 9       576.337 9        55.978 9  20494101.130 6         0.000 6       449.093 6        37.977 6
G26  20662268.949 9 108580933.864 9     -1495.066 9        55.870 9  20662271.769 6         0.000 6     -1164.987 6        37.977 6
G20  21930828.333 9 115247247.770 9      2496.738 9        55.321 9  21930828.647 6         0.000 6      1945.511 6        37.977 6
> 2019 07 03 12 01 28.0000000  0  8       0.000000000000
G07  25334911.522 9 133135812.649 9      2231.613 9        54.136 9  25334912.186 6         0.000 6      1738.920 6        37.977 6
G10  23790492.698 9 125019828.572 9      3481.919 9        54.676 9  23790496.406 6         0.000 6      2713.187 6        37.977 6
G21  21177941.115 9 111290811.019 9     -1292.947 9        55.706 9  21177940.402 6         0.000 6     -1007.492 6        37.977 6
G29  24317414.438 9 127788818.694 9     -3220.810 9        54.469 9  24317416.031 6         0.000 6     -2509.725 6        37.977 6
G27  21990599.959 9 115561355.841 9      2570.837 9        55.380 9  21990601.887 6         0.000 6      2003.250 6        37.977 6
G16  20493992.346 9 107696636.358 9       575.690 9        55.978 9  20493991.519 6         0.000 6       448.590 6        37.977 6
G26  20662553.569 9 108582429.549 9     -1496.304 9        55.870 9  20662556.388 6         0.000 6     -1165.952 6        37.977 6
G20  21930353.334 9 115244751.638 9      2495.539 9        55.321 9  21930353.648 6         0.000 6      1944.577 6        37.977 6
> 2019 07 03 12 01 29.0000000  0  8       0.000000000000
G07  25334486.785 9 133133580.645 9      2232.405 9        54.136 9  25334487.449 6         0.000 6      1739.537 6        37.977 6
G10  23789830.247 9 125016347.378 9      3480.483 9        54.677 9  23789833.954 6         0.000 6      2712.067 6        37.977 6
G21  21178187.159 9 111292103.986 9     -1292.985 9        55.706 9  21178186.446 6         0.000 6     -1007.521 6        37.977 6
G29  24318027.318 9 127792039.387 9     -3220.586 9        54.468 9  24318028.911 6         0.000 6     -2509.550 6        37.977 6
G27  21990110.761 9 115558785.090 9      2570.663 9        55.380 9  21990112.688 6         0.000 6      2003.115 6        37.977 6
G16  20493882.858 9 107696060.995 9       575.030 9        55.978 9  20493882.031 6         0.000 6       448.075 6        37.977 6
G26  20662838.427 9 108583926.487 9     -1497.582 9        55.870 9  20662841.247 6         0.000 6     -1166.948 6        37.977 6
G20  21929878.565 9 115242256.714 9      2494.317 9        55.321 9  21929878.878 6         0.000 6      1943.625 6        37.977 6
> 2019 07 03 12 01 30.0000000  0  8       0.000000000000
G07  25334061.895 9 133131347.833 9      2233.239 9        54.136 9  25334062.558 6         0.000 6      1740.187 6        37.977 6
G10  23789168.073 9 125012867.643 9      3478.994 9        54.677 9  23789171.780 6         0.000 6      2710.907 6        37.977 6
G21  21178433.207 9 111293396.978 9     -1292.997 9        55.706 9  21178432.494 6         0.000 6     -1007.530 6        37.977 6
G29  24318640.149 9 127795259.827 9     -3220.309 9        54.468 9  24318641.743 6         0.000 6     -2509.334 6        37.977 6
G27  21989621.599 9 115556214.530 9      2570.460 9        55.380 9  21989623.526 6         0.000 6      2002.957 6        37.977 6
G16  20493773.497 9 107695486.304 9       574.350 9        55.978 9  20493772.670 6         0.000 6       447.545 6        37.977 6
G26  20663123.532 9 108585424.722 9     -1498.902 9        55.869 9  20663126.352 6         0.000 6     -1167.976 6        37.977 6
G20  21929404.030 9 115239763.019 9      2493.074 9        55.321 9  21929404.343 6         0.000 6      1942.656 6        37.977 6
> 2019 07 03 12 01 31.0000000  0  8       0.000000000000
G07  25333636.841 9 133129114.164 9      2234.107 9        54.136 9  25333637.504 6         0.000 6      1740.864 6        37.977 6
G10  23788506.188 9 125009389.423 9      3477.464 9        54.677 9  23788509.894 6         0.000 6      2709.715 6        37.977 6
G21  21178679.255 9 111294689.966 9     -1292.975 9        55.706 9  21178678.542 6         0.000 6     -1007.513 6        37.977 6
G29  24319252.923 9 127798479.966 9     -3219.973 9        54.468 9  24319254.518 6         0.000 6     -2509.073 6        37.977 6
G27  21989132.477 9 115553644.182 9      2570.230 9        55.380 9  21989134.405 6         0.000 6      2002.777 6        37.977 6
G16  20493664.268 9 107694912.299 9       573.654 9        55.978 9  20493663.441 6         0.000 6       447.003 6        37.977 6
G26  20663408.892 9 108586924.295 9     -1500.254 9        55.869 9  20663411.711 6         0.000 6     -1169.030 6        37.977 6
G20  21928929.733 9 115237270.577 9      2491.821 9        55.321 9  21928930.046 6         0.000 6      1941.680 6        37.977 6
> 2019 07 03 12 01 32.0000000  0  8       0.000000000000
G07  25333211.618 9 133126879.608 9      2235.010 9        54.136 9  25333212.281 6         0.000 6      1741.567 6        37.977 6
G10  23787844.599 9 125005912.760 9      3475.885 9        54.677 9  23787848.304 6         0.000 6      2708.485 6        37.977 6
G21  21178925.295 9 111295982.915 9     -1292.923 9        55.706 9  21178924.582 6         0.000 6     -1007.472 6        37.977 6
G29  24319865.627 9 127801699.735 9     -3219.575 9        54.468 9  24319867.222 6         0.000 6     -2508.762 6        37.977 6
G27  21988643.403 9 115551074.084 9      2569.964 9        55.381 9  21988645.330 6         0.000 6      2002.570 6        37.977 6
G16  20493555.173 9 107694339.001 9       572.936 9        55.978 9  20493554.346 6         0.000 6       446.444 6        37.977 6
G26  20663694.513 9 108588425.242 9     -1501.647 9        55.869 9  20663697.333 6         0.000 6     -1170.115 6        37.977 6
G20  21928455.676 9 115234779.395 9      2490.554 9        55.322 9  21928455.988 6         0.000 6      1940.693 6        37.977 6
> 2019 07 03 12 01 33.0000000  0  8       0.000000000000
G07  25332786.222 9 133124644.141 9      2235.936 9        54.136 9  25332786.885 6         0.000 6      1742.288 6        37.977 6
G10  23787183.313 9 125002437.687 9      3474.276 9        54.677 9  23787187.017 6         0.000 6      2707.231 6        37.977 6
G21  21179171.321 9 111297275.792 9     -1292.834 9        55.706 9  21179170.608 6         0.000 6     -1007.403 6        37.977 6
G29  24320478.247 9 127804919.066 9     -3219.108 9        54.468 9  24320479.843 6         0.000 6     -2508.398 6        37.977 6
G27  21988154.384 9 115548504.273 9      2569.661 9        55.381 9  21988156.311 6         0.000 6      2002.334 6        37.977 6
G16  20493446.217 9 107693766.431 9       572.199 9        55.978 9  20493445.390 6         0.000 6       445.870 6        37.977 6
G26  20663980.402 9 108589927.597 9     -1503.070 9        55.869 9  20663983.222 6         0.000 6     -1171.224 6        37.977 6
G20  21927981.859 9 115232289.476 9      2489.288 9        55.322 9  21927982.171 6         0.000 6      1939.706 6        37.977 6
> 2019 07 03 12 01 34.0000000  0  8       0.000000000000
G07  25332360.648 9 133122407.738 9      2236.881 9        54.137 9  25332361.311 6         0.000 6      1743.025 6        37.977 6
G10  23786522.336 9 124998964.242 9      3472.632 9        54.678 9  23786526.040 6         0.000 6      2705.950 6        37.977 6
G21  21179417.329 9 111298568.569 9     -1292.711 9        55.706 9  21179416.616 6         0.000 6     -1007.307 6        37.977 6
G29  24321090.772 9 127808137.897 9     -3218.564 9        54.467 9  24321092.369 6         0.000 6     -2507.974 6        37.977 6
G27  21987665.427 9 115545934.790 9      2569.309 9        55.381 9  21987667.354 6         0.000 6      2002.060 6        37.977 6
G16  20493337.404 9 107693194.615 9       571.435 9        55.978 9  20493336.576 6         0.000 6       445.274 6        37.977 6
G26  20664266.565 9 108591431.395 9     -1504.530 9        55.869 9  20664269.385 6         0.000 6     -1172.362 6        37.977 6
G20  21927508.284 9 115229800.828 9      2488.021 9        55.322 9  21927508.596 6         0.000 6      1938.718 6        37.977 6
> 2019 07 03 12 01 35.0000000  0  8       0.000000000000
G07  25331934.893 9 133120170.383 9      2237.835 9        54.137 9  25331935.555 6         0.000 6      1743.769 6        37.977 6
G10  23785861.674 9 124995492.449 9      3470.971 9        54.678 9  23785865.377 6         0.000 6      2704.655 6        37.977 6
G21  21179663.308 9 111299861.199 9     -1292.553 9        55.706 9  21179662.595 6         0.000 6     -1007.184 6        37.977 6
G29  24321703.186 9 127811356.144 9     -3217.941 9        54.467 9  24321704.783 6         0.000 6     -2507.489 6        37.977 6
G27  21987176.541 9 115543365.678 9      2568.910 9        55.381 9  21987178.467 6         0.000 6      2001.749 6        37.977 6
G16  20493228.737 9 107692623.570 9       570.646 9        55.978 9  20493227.910 6         0.000 6       444.659 6        37.977 6
G26  20664553.009 9 108592936.663 9     -1506.019 9        55.869 9  20664555.829 6         0.000 6     -1173.521 6        37.977 6
G20  21927034.949 9 115227313.439 9      2486.764 9        55.322 9  21927035.261 6         0.000 6      1937.739 6        37.977 6
> 2019 07 03 12 01 36.0000000  0  8       0.000000000000
G07  25331508.956 9 133117932.072 9      2238.798 9        54.137 9  25331509.618 6         0.000 6      1744.519 6        37.977 6
G10  23785201.329 9 124992022.326 9      3469.285 9        54.678 9  23785205.032 6         0.000 6      2703.342 6        37.977 6
G21  21179909.254 9 111301153.654 9     -1292.357 9        55.706 9  21179908.542 6         0.000 6     -1007.031 6        37.977 6
G29  24322315.474 9 127814573.726 9     -3217.232 9        54.467 9  24322317.071 6         0.000 6     -2506.937 6        37.977 6
G27  21986687.736 9 115540796.994 9      2568.454 9        55.381 9  21986689.662 6         0.000 6      2001.393 6        37.977 6
G16  20493120.224 9 107692053.331 9       569.825 9        55.978 9  20493119.397 6         0.000 6       444.019 6        37.977 6
G26  20664839.738 9 108594443.435 9     -1507.542 9        55.869 9  20664842.558 6         0.000 6     -1174.708 6        37.977 6
G20  21926561.852 9 115224827.300 9      2485.517 9        55.322 9  21926562.163 6         0.000 6      1936.767 6        37.977 6
> 2019 07 03 12 01 37.0000000  0  8       0.000000000000
G07  25331082.835 9 133115692.794 9      2239.758 9        54.137 9  25331083.497 6         0.000 6      1745.267 6        37.977 6
G10  23784541.308 9 124988553.902 9      3467.588 9        54.678 9  23784545.010 6         0.000 6      2702.019 6        37.977 6
G21  21180155.160 9 111302445.897 9     -1292.120 9        55.705 9  21180154.447 6         0.000 6     -1006.847 6        37.977 6
G29  24322927.618 9 127817790.555 9     -3216.431 9        54.467 9  24322929.216 6         0.000 6     -2506.312 6        37.977 6
G27  21986199.024 9 115538228.797 9      2567.938 9        55.382 9  21986200.950 6         0.000 6      2000.991 6        37.977 6
G16  20493011.871 9 107691483.931 9       568.974 9        55.978 9  20493011.044 6         0.000 6       443.357 6        37.977 6
G26  20665126.762 9 108595951.752 9     -1509.093 9        55.869 9  20665129.582 6         0.000 6     -1175.917 6        37.977 6
G20  21926088.991 9 115222342.407 9      2484.289 9        55.323 9  21926089.303 6         0.000 6      1935.811 6        37.977 6
> 2019 07 03 12 01 38.0000000  0  8       0.000000000000
G07  25330656.533 9 133113452.564 9      2240.711 9        54.137 9  25330657.194 6         0.000 6      1746.009 6        37.977 6
G10  23783881.609 9 124985087.171 9      3465.886 9        54.679 9  23783885.311 6         0.000 6      2700.693 6        37.977 6
G21  21180401.016 9 111303737.876 9     -1291.842 9        55.705 9  21180400.303 6         0.000 6     -1006.630 6        37.977 6
G29  24323539.599 9 127821006.528 9     -3215.526 9        54.466 9  24323541.198 6         0.000 6     -2505.607 6        37.977 6
G27  21985710.416 9 115535661.149 9      2567.352 9        55.382 9  21985712.342 6         0.000 6      2000.535 6        37.977 6
G16  20492903.682 9 107690915.394 9       568.088 9        55.978 9  20492902.855 6         0.000 6       442.666 6        37.977 6
G26  20665414.081 9 108597461.626 9     -1510.672 9        55.868 9  20665416.902 6         0.000 6     -1177.147 6        37.977 6
G20  21925616.361 9 115219858.720 9      2483.088 9        55.323 9  21925616.671 6         0.000 6      1934.875 6        37.977 6
> 2019 07 03 12 01 39.0000000  0  8       0.000000000000
G07  25330230.050 9 133111211.386 9      2241.645 9        54.137 9  25330230.711 6         0.000 6      1746.738 6        37.977 6
G10  23783222.235 9 124981622.150 9      3464.183 9        54.679 9  23783225.936 6         0.000 6      2699.366 6        37.977 6
G21  21180646.816 9 111305029.563 9     -1291.527 9        55.705 9  21180646.103 6         0.000 6     -1006.385 6        37.977 6
G29  24324151.400 9 127824221.555 9     -3214.527 9        54.466 9  24324153.000 6         0.000 6     -2504.829 6        37.977 6
G27  21985221.926 9 115533094.118 9      2566.698 9        55.382 9  21985223.852 6         0.000 6      2000.025 6        37.977 6
G16  20492795.665 9 107690347.763 9       567.165 9        55.978 9  20492794.838 6         0.000 6       441.947 6        37.977 6
G26  20665701.705 9 108598973.097 9     -1512.277 9        55.868 9  20665704.526 6         0.000 6     -1178.398 6        37.977 6
G20  21925143.957 9 115217376.227 9      2481.914 9        55.323 9  21925144.268 6         0.000 6      1933.960 6        37.977 6
> 2019 07 03 12 01 40.0000000  0  8       0.000000000000
G07  25329803.392 9 133108969.289 9      2242.553 9        54.137 9  25329804.053 6         0.000 6      1747.445 6        37.977 6
G10  23782563.185 9 124978158.825 9      3462.493 9        54.679 9  23782566.885 6         0.000 6      2698.049 6        37.977 6
G21  21180892.551 9 111306320.910 9     -1291.164 9        55.705 9  21180891.838 6         0.000 6     -1006.102 6        37.977 6
G29  24324762.999 9 127827435.518 9     -3213.410 9        54.466 9  24324764.600 6         0.000 6     -2503.959 6        37.977 6
G27  21984733.569 9 115530527.786 9      2565.964 9        55.382 9  21984735.494 6         0.000 6      1999.453 6        37.977 6
G16  20492687.829 9 107689781.077 9       566.205 9        55.978 9  20492687.002 6         0.000 6       441.199 6        37.977 6
G26  20665989.637 9 108600486.186 9     -1513.904 9        55.868 9  20665992.457 6         0.000 6     -1179.666 6        37.977 6
G20  21924671.773 9 115214894.887 9      2480.783 9        55.323 9  21924672.083 6         0.000 6      1933.079 6        37.977 6
> 2019 07 03 12 01 41.0000000  0  8       0.000000000000
G07  25329376.564 9 133106726.295 9      2243.428 9        54.138 9  25329377.225 6         0.000 6      1748.127 6        37.977 6
G10  23781904.455 9 124974697.189 9      3460.813 9        54.679 9  23781908.155 6         0.000 6      2696.740 6        37.977 6
G21  21181138.214 9 111307611.879 9     -1290.765 9        55.705 9  21181137.502 6         0.000 6     -1005.791 6        37.977 6
G29  24325374.377 9 127830648.319 9     -3212.190 9        54.466 9  24325375.978 6         0.000 6     -2503.008 6        37.977 6
G27  21984245.358 9 115527962.226 9      2565.150 9        55.382 9  21984247.284 6         0.000 6      1998.819 6        37.977 6
G16  20492580.179 9 107689215.373 9       565.202 9        55.979 9  20492579.352 6         0.000 6       440.417 6        37.977 6
G26  20666277.881 9 108602000.916 9     -1515.555 9        55.868 9  20666280.701 6         0.000 6     -1180.953 6        37.977 6
G20  21924199.801 9 115212414.663 9      2479.689 9        55.323 9  21924200.111 6         0.000 6      1932.226 6        37.977 6
> 2019 07 03 12 01 42.0000000  0  8       0.000000000000
G07  25328949.574 9 133104482.452 9      2244.258 9        54.138 9  25328950.235 6         0.000 6      1748.774 6        37.977 6
G10  23781246.041 9 124971237.211 9      3459.164 9        54.680 9  23781249.740 6         0.000 6      2695.455 6        37.977 6
G21  21181383.797 9 111308902.422 9     -1290.317 9        55.705 9  21181383.084 6         0.000 6     -1005.442 6        37.977 6
G29  24325985.510 9 127833859.836 9     -3210.844 9        54.466 9  24325987.112 6         0.000 6     -2501.959 6        37.977 6
G27  21983757.311 9 115525397.522 9      2564.246 9        55.383 9  21983759.236 6         0.000 6      1998.114 6        37.977 6
G16  20492472.723 9 107688650.688 9       564.156 9        55.979 9  20492471.896 6         0.000 6       439.602 6        37.977 6
G26  20666566.439 9 108603517.299 9     -1517.222 9        55.868 9  20666569.260 6         0.000 6     -1182.251 6        37.977 6
G20  21923728.031 9 115209935.499 9      2478.652 9        55.324 9  21923728.341 6         0.000 6      1931.419 6        37.977 6
> 2019 07 03 12 01 43.0000000  0  8       0.000000000000
G07  25328522.432 9 133102237.809 9      2245.035 9        54.138 9  25328523.092 6         0.000 6      1749.379 6        37.977 6
G10  23780587.938 9 124967778.867 9      3457.549 9        54.680 9  23780591.637 6         0.000 6      2694.197 6        37.977 6
G21  21181629.291 9 111310192.502 9     -1289.829 9        55.705 9  21181628.578 6         0.000 6     -1005.062 6        37.977 6
G29  24326596.376 9 127837069.945 9     -3209.378 9        54.465 9  24326597.978 6         0.000 6     -2500.817 6        37.977 6
G27  21983269.445 9 115522833.774 9      2563.250 9        55.383 9  21983271.370 6         0.000 6      1997.338 6        37.977 6
G16  20492365.471 9 107688087.078 9       563.066 9        55.979 9  20492364.644 6         0.000 6       438.753 6        37.977 6
G26  20666855.317 9 108605035.361 9     -1518.902 9        55.868 9  20666858.138 6         0.000 6     -1183.560 6        37.977 6
G20  21923256.453 9 115207457.346 9      2477.673 9        55.324 9  21923256.763 6         0.000 6      1930.656 6        37.977 6
> 2019 07 03 12 01 44.0000000  0  8       0.000000000000
G07  25328095.147 9 133099992.416 9      2245.746 9        54.138 9  25328095.807 6         0.000 6      1749.933 6        37.977 6
G10  23779930.139 9 124964322.116 9      3455.980 9        54.680 9  23779933.836 6         0.000 6      2692.974 6        37.977 6
G21  21181874.687 9 111311482.065 9     -1289.297 9        55.705 9  21181873.974 6         0.000 6     -1004.647 6        37.977 6
G29  24327206.950 9 127840278.526 9     -3207.784 9        54.465 9  24327208.553 6         0.000 6     -2499.575 6        37.977 6
G27  21982781.777 9 115520271.065 9      2562.154 9        55.383 9  21982783.702 6         0.000 6      1996.485 6        37.977 6
G16  20492258.431 9 107687524.575 9       561.928 9        55.979 9  20492257.603 6         0.000 6       437.866 6        37.977 6
G26  20667144.515 9 108606555.104 9     -1520.594 9        55.868 9  20667147.336 6         0.000 6     -1184.878 6        37.977 6
G20  21922785.055 9 115204980.137 9      2476.762 9        55.324 9  21922785.365 6         0.000 6      1929.946 6        37.977 6
> 2019 07 03 12 01 45.0000000  0  8       0.000000000000
G07  25327667.735 9 133097746.350 9      2246.385 9        54.138 9  25327668.394 6         0.000 6      1750.431 6        37.977 6
G10  23779272.633 9 124960866.910 9      3454.461 9        54.680 9  23779276.330 6         0.000 6      2691.790 6        37.977 6
G21  21182119.977 9 111312771.074 9     -1288.717 9        55.705 9  21182119.265 6         0.000 6     -1004.195 6        37.977 6
G29  24327817.208 9 127843485.442 9     -3206.052 9        54.465 9  24327818.811 6         0.000 6     -2498.225 6        37.977 6
G27  21982294.329 9 115517709.510 9      2560.951 9        55.383 9  21982296.254 6         0.000 6      1995.547 6        37.977 6
G16  20492151.612 9 107686963.240 9       560.738 9        55.979 9  20492150.785 6         0.000 6       436.939 6        37.977 6
G26  20667434.036 9 108608076.547 9     -1522.296 9        55.868 9  20667436.857 6         0.000 6     -1186.205 6        37.977 6
G20  21922313.824 9 115202503.803 9      2475.925 9        55.324 9  21922314.133 6         0.000 6      1929.293 6        37.977 6
> 2019 07 03 12 01 46.0000000  0  8       0.000000000000
G07  25327240.207 9 133095499.678 9      2246.944 9        54.138 9  25327240.866 6         0.000 6      1750.866 6        37.977 6
G10  23778615.411 9 124957413.198 9      3453.002 9        54.681 9  23778619.107 6         0.000 6      2690.654 6        37.977 6
G21  21182365.153 9 111314059.484 9     -1288.095 9        55.705 9  21182364.441 6         0.000 6     -1003.711 6        37.977 6
G29  24328427.124 9 127846690.564 9     -3204.187 9        54.465 9  24328428.728 6         0.000 6     -2496.772 6        37.977 6
G27  21981807.119 9 115515149.206 9      2559.642 9        55.383 9  21981809.043 6         0.000 6      1994.527 6        37.977 6
G16  20492045.024 9 107686403.118 9       559.498 9        55.979 9  20492044.197 6         0.000 6       435.972 6        37.977 6
G26  20667723.882 9 108609599.697 9     -1524.003 9        55.868 9  20667726.703 6         0.000 6     -1187.535 6        37.977 6
G20  21921842.745 9 115200028.271 9      2475.166 9        55.324 9  21921843.054 6         0.000 6      1928.702 6        37.977 6
> 2019 07 03 12 01 47.0000000  0  8       0.000000000000
G07  25326812.582 9 133093252.498 9      2247.408 9        54.138 9  25326813.241 6         0.000 6      1751.228 6        37.977 6
G10  23777958.460 9 124953960.905 9      3451.617 9        54.681 9  23777962.155 6         0.000 6      2689.574 6        37.977 6
G21  21182610.207 9 111315347.248 9     -1287.426 9        55.704 9  21182609.494 6         0.000 6     -1003.189 6        37.977 6
G29  24329036.672 9 127849893.750 9     -3202.175 9        54.464 9  24329038.277 6         0.000 6     -2495.204 6        37.977 6
G27  21981320.168 9 115512590.267 9      2558.215 9        55.383 9  21981322.093 6         0.000 6      1993.415 6        37.977 6
G16  20491938.677 9 107685844.260 9       558.202 9        55.979 9  20491937.850 6         0.000 6       434.963 6        37.977 6
G26  20668014.052 9 108611124.550 9     -1525.712 9        55.867 9  20668016.874 6         0.000 6     -1188.867 6        37.977 6
G20  21921371.801 9 115197553.450 9      2474.500 9        55.324 9  21921372.110 6         0.000 6      1928.183 6        37.977 6
> 2019 07 03 12 01 48.0000000  0  8       0.000000000000
G07  25326384.878 9 133091004.907 9      2247.768 9        54.139 9  25326385.537 6         0.000 6      1751.509 6        37.977 6
G10  23777301.764 9 124950509.958 9      3450.310 9        54.681 9  23777305.459 6         0.000 6      2688.556 6        37.977 6
G21  21182855.129 9 111316634.322 9     -1286.712 9        55.704 9  21182854.417 6         0.000 6     -1002.633 6        37.977 6
G29  24329645.823 9 127853094.849 9     -3200.018 9        54.464 9  24329647.429 6         0.000 6     -2493.523 6        37.977 6
G27  21980833.502 9 115510032.820 9      2556.667 9        55.384 9  21980835.426 6         0.000 6      1992.209 6        37.977 6
G16  20491832.583 9 107685286.731 9       556.850 9        55.979 9  20491831.756 6         0.000 6       433.909 6        37.977 6
G26  20668304.548 9 108612651.116 9     -1527.421 9        55.867 9  20668307.370 6         0.000 6     -1190.198 6        37.977 6
G20  21920900.976 9 115195079.249 9      2473.928 9        55.325 9  21920901.284 6         0.000 6      1927.737 6        37.977 6
> 2019 07 03 12 01 49.0000000  0  8       0.000000000000
G07  25325957.116 9 133088757.006 9      2248.015 9        54.139 9  25325957.775 6         0.000 6      1751.701 6        37.977 6
G10  23776645.310 9 124947060.277 9      3449.094 9        54.681 9  23776649.004 6         0.000 6      2687.608 6        37.977 6
G21  21183099.910 9 111317920.656 9     -1285.951 9        55.704 9  21183099.198 6         0.000 6     -1002.040 6        37.977 6
G29  24330254.548 9 127856293.709 9     -3197.704 9        54.464 9  24330256.154 6         0.000 6     -2491.720 6        37.977 6
G27  21980347.142 9 115507476.986 9      2554.991 9        55.384 9  21980349.066 6         0.000 6      1990.902 6        37.977 6
G16  20491726.752 9 107684730.584 9       555.438 9        55.979 9  20491725.924 6         0.000 6       432.809 6        37.977 6
G26  20668595.370 9 108614179.390 9     -1529.125 9        55.867 9  20668598.191 6         0.000 6     -1191.526 6        37.977 6
G20  21920430.249 9 115192605.569 9      2473.462 9        55.325 9  21920430.557 6         0.000 6      1927.374 6        37.977 6
> 2019 07 03 12 01 50.0000000  0  8       0.000000000000
G07  25325529.320 9 133086508.921 9      2248.136 9        54.139 9  25325529.978 6         0.000 6      1751.795 6        37.977 6
G10  23775989.076 9 124943611.757 9      3447.983 9        54.682 9  23775992.770 6         0.000 6      2686.743 6        37.977 6
G21  21183344.541 9 111319206.198 9     -1285.137 9        55.704 9  21183343.829 6         0.000 6     -1001.406 6        37.977 6
G29  24330862.817 9 127859490.175 9     -3195.224 9        54.464 9  24330864.424 6         0.000 6     -2489.788 6        37.977 6
G27  21979861.113 9 115504922.890 9      2553.179 9        55.384 9  21979863.037 6         0.000 6      1989.491 6        37.977 6
G16  20491621.193 9 107684175.872 9       553.967 9        55.979 9  20491620.366 6         0.000 6       431.663 6        37.977 6
G26  20668886.513 9 108615709.357 9     -1530.817 9        55.867 9  20668889.335 6         0.000 6     -1192.845 6        37.977 6
G20  21919959.599 9 115190132.292 9      2473.115 9        55.325 9  21919959.907 6         0.000 6      1927.104 6        37.977 6
> 2019 07 03 12 01 51.0000000  0  8       0.000000000000
G07  25325101.513 9 133084260.789 9      2248.112 9        54.139 9  25325102.172 6         0.000 6      1751.777 6        37.977 6
G10  23775333.043 9 124940164.292 9      3446.986 9        54.682 9  23775336.737 6         0.000 6      2685.966 6        37.977 6
G21  21183589.014 9 111320490.912 9     -1284.281 9        55.704 9  21183588.302 6         0.000 6     -1000.738 6        37.977 6
G29  24331470.600 9 127862684.082 9     -3192.582 9        54.464 9  24331472.207 6         0.000 6     -2487.729 6        37.977 6
G27  21979375.443 9 115502370.679 9      2551.225 9        55.384 9  21979377.367 6         0.000 6      1987.968 6        37.977 6
G16  20491515.923 9 107683622.671 9       552.428 9        55.979 9  20491515.095 6         0.000 6       430.463 6        37.977 6
G26  20669177.978 9 108617241.015 9     -1532.498 9        55.867 9  20669180.800 6         0.000 6     -1194.155 6        37.977 6
G20  21919489.005 9 115187659.304 9      2472.891 9        55.325 9  21919489.312 6         0.000 6      1926.929 6        37.977 6
> 2019 07 03 12 01 52.0000000  0  8       0.000000000000
G07  25324673.725 9 133082012.748 9      2247.940 9        54.139 9  25324674.383 6         0.000 6      1751.642 6        37.977 6
G10  23774677.189 9 124936717.766 9      3446.115 9        54.682 9  23774680.882 6         0.000 6      2685.287 6        37.977 6
G21  21183833.318 9 111321774.736 9     -1283.367 9        55.704 9  21183832.606 6         0.000 6     -1000.026 6        37.977 6
G29  24332077.861 9 127865875.251 9     -3189.748 9        54.463 9  24332079.468 6         0.000 6     -2485.520 6        37.977 6
G27  21978890.159 9 115499820.498 9      2549.113 9        55.384 9  21978892.083 6         0.000 6      1986.322 6        37.977 6
G16  20491410.951 9 107683071.039 9       550.818 9        55.979 9  20491410.123 6         0.000 6       429.209 6        37.977 6
G26  20669469.762 9 108618774.346 9     -1534.165 9        55.867 9  20669472.584 6         0.000 6     -1195.454 6        37.977 6
G20  21919018.440 9 115185186.473 9      2472.807 9        55.325 9  21919018.746 6         0.000 6      1926.864 6        37.977 6
> 2019 07 03 12 01 53.0000000  0  8       0.000000000000
G07  25324245.987 9 133079764.977 9      2247.593 9        54.139 9  25324246.645 6         0.000 6      1751.372 6        37.977 6
G10  23774021.487 9 124933272.037 9      3445.383 9        54.682 9  23774025.179 6         0.000 6      2684.717 6        37.977 6
G21  21184077.443 9 111323057.620 9     -1282.387 9        55.704 9  21184076.730 6         0.000 6      -999.263 6        37.977 6
G29  24332684.562 9 127869063.478 9     -3186.695 9        54.463 9  24332686.170 6         0.000 6     -2483.141 6        37.977 6
G27  21978405.296 9 115497272.526 9      2546.817 9        55.385 9  21978407.219 6         0.000 6      1984.533 6        37.977 6
G16  20491306.294 9 107682521.066 9       549.125 9        55.979 9  20491305.467 6         0.000 6       427.890 6        37.977 6
G26  20669761.862 9 108620309.339 9     -1535.818 9        55.867 9  20669764.684 6         0.000 6     -1196.742 6        37.977 6
G20  21918547.875 9 115182713.646 9      2472.879 9        55.326 9  21918548.182 6         0.000 6      1926.920 6        37.977 6
> 2019 07 03 12 01 54.0000000  0  8       0.000000000000
G07  25323818.334 9 133077517.644 9      2247.044 9        54.139 9  25323818.991 6         0.000 6      1750.944 6        37.977 6
G10  23773365.909 9 124929826.963 9      3444.812 9        54.683 9  23773369.600 6         0.000 6      2684.272 6        37.977 6
G21  21184321.373 9 111324339.485 9     -1281.332 9        55.704 9  21184320.661 6         0.000 6      -998.440 6        37.977 6
G29  24333290.659 9 127872248.531 9     -3183.381 9        54.463 9  24333292.268 6         0.000 6     -2480.559 6        37.977 6
G27  21977920.888 9 115494726.948 9      2544.302 9        55.385 9  21977922.811 6         0.000 6      1982.574 6        37.977 6
G16  20491201.968 9 107681972.827 9       547.331 9        55.979 9  20491201.140 6         0.000 6       426.492 6        37.977 6
G26  20670054.274 9 108621845.976 9     -1537.460 9        55.867 9  20670057.096 6         0.000 6     -1198.021 6        37.977 6
G20  21918077.281 9 115180240.659 9      2473.134 9        55.326 9  21918077.587 6         0.000 6      1927.119 6        37.977 6
> 2019 07 03 12 01 55.0000000  0  8       0.000000000000
G07  25323390.805 9 133075270.968 9      2246.265 9        54.140 9  25323391.462 6         0.000 6      1750.338 6        37.977 6
G10  23772710.425 9 124926382.379 9      3444.421 9        54.683 9  23772714.115 6         0.000 6      2683.967 6        37.977 6
G21  21184565.096 9 111325620.253 9     -1280.187 9        55.704 9  21184564.384 6         0.000 6      -997.548 6        37.977 6
G29  24333896.096 9 127875430.114 9     -3179.751 9        54.463 9  24333897.706 6         0.000 6     -2477.730 6        37.977 6
G27  21977436.984 9 115492184.017 9      2541.521 9        55.385 9  21977438.907 6         0.000 6      1980.407 6        37.977 6
G16  20491097.995 9 107681426.447 9       545.411 9        55.979 9  20491097.168 6         0.000 6       424.996 6        37.977 6
G26  20670347.000 9 108623384.260 9     -1539.100 9        55.866 9  20670349.822 6         0.000 6     -1199.299 6        37.977 6
G20  21917606.619 9 115177767.320 9      2473.598 9        55.326 9  21917606.925 6         0.000 6      1927.480 6        37.977 6
> 2019 07 03 12 01 56.0000000  0  8       0.000000000000
G07  25322963.452 9 133073025.218 9      2245.193 9        54.140 9  25322964.109 6         0.000 6      1749.502 6        37.977 6
G10  23772054.991 9 124922938.063 9      3444.269 9        54.683 9  23772058.681 6         0.000 6      2683.848 6        37.977 6
G21  21184808.587 9 111326899.808 9     -1278.913 9        55.704 9  21184807.875 6         0.000 6      -996.556 6        37.977 6
G29  24334500.805 9 127878607.869 9     -3175.715 9        54.463 9  24334502.415 6         0.000 6     -2474.586 6        37.977 6
G27  21976953.638 9 115489644.023 9      2538.413 9        55.385 9  21976955.561 6         0.000 6      1977.985 6        37.977 6
G16  20490994.400 9 107680882.051 9       543.347 9        55.979 9  20490993.573 6         0.000 6       423.387 6        37.977 6
G26  20670640.034 9 108624924.164 9     -1540.717 9        55.866 9  20670642.857 6         0.000 6     -1200.559 6        37.977 6
G20  21917135.842 9 115175293.375 9      2474.341 9        55.326 9  21917136.148 6         0.000 6      1928.059 6        37.977 6
> 2019 07 03 12 01 57.0000000  0  8       0.000000000000
G07  25322536.337 9 133070780.718 9      2243.749 9        54.140 9  25322536.994 6         0.000 6      1748.377 6        37.977 6
G10  23771399.561 9 124919493.763 9      3444.410 9        54.683 9  23771403.250 6         0.000 6      2683.958 6        37.977 6
G21  21185051.825 9 111328178.029 9     -1277.505 9        55.703 9  21185051.113 6         0.000 6      -995.459 6        37.977 6
G29  24335104.702 9 127881781.359 9     -3171.206 9        54.462 9  24335106.313 6         0.000 6     -2471.072 6        37.977 6
G27  21976470.922 9 115487107.334 9      2534.904 9        55.385 9  21976472.845 6         0.000 6      1975.250 6        37.977 6
G16  20490891.216 9 107680339.816 9       541.097 9        55.979 9  20490890.389 6         0.000 6       421.634 6        37.977 6
G26  20670933.376 9 108626465.682 9     -1542.313 9        55.866 9  20670936.198 6         0.000 6     -1201.803 6        37.977 6
G20  21916664.894 9 115172818.532 9      2475.416 9        55.326 9  21916665.200 6         0.000 6      1928.897 6        37.977 6
> 2019 07 03 12 01 58.0000000  0  8       0.000000000000
G07  25322109.539 9 133068537.884 9      2241.843 9        54.140 9  25322110.196 6         0.000 6      1746.891 6        37.977 6
G10  23770744.067 9 124916049.132 9      3444.940 9        54.683 9  23770747.756 6         0.000 6      2684.371 6        37.977 6
G21  21185294.779 9 111329454.762 9     -1275.944 9        55.703 9  21185294.067 6         0.000 6      -994.242 6        37.977 6
G29  24335707.691 9 127884950.075 9     -3166.157 9        54.462 9  24335709.302 6         0.000 6     -2467.138 6        37.977 6
G27  21975988.915 9 115484574.375 9      2530.938 9        55.386 9  21975990.838 6         0.000 6      1972.160 6        37.977 6
G16  20490788.478 9 107679799.924 9       538.645 9        55.979 9  20490787.651 6         0.000 6       419.724 6        37.977 6
G26  20671227.015 9 108628008.764 9     -1543.851 9        55.866 9  20671229.838 6         0.000 6     -1203.001 6        37.977 6
G20  21916193.703 9 115170342.409 9      2476.906 9        55.327 9  21916194.008 6         0.000 6      1930.058 6        37.977 6
> 2019 07 03 12 01 59.0000000  0  8       0.000000000000
G07  25321683.157 9 133066297.236 9      2239.359 9        54.140 9  25321683.814 6         0.000 6      1744.956 6        37.977 6
G10  23770088.429 9 124912603.739 9      3445.956 9        54.684 9  23770092.117 6         0.000 6      2685.163 6        37.977 6
G21  21185537.423 9 111330729.865 9     -1274.238 9        55.703 9  21185536.711 6         0.000 6      -992.913 6        37.977 6
G29  24336309.664 9 127888113.458 9     -3160.532 9        54.462 9  24336311.277 6         0.000 6     -2462.754 6        37.977 6
G27  21975507.712 9 115482045.639 9      2526.455 9        55.386 9  21975509.634 6         0.000 6      1968.667 6        37.977 6
G16  20490686.229 9 107679262.602 9       535.963 9        55.979 9  20490685.402 6         0.000 6       417.634 6        37.977 6
G26  20671520.940 9 108629553.349 9     -1545.300 9        55.866 9  20671523.763 6         0.000 6     -1204.130 6        37.977 6
G20  21915722.184 9 115167864.562 9      2478.886 9        55.327 9  21915722.489 6         0.000 6      1931.601 6        37.977 6
> 2019 07 03 12 02  0.0000000  0  8       0.000000000000
G07  25321257.312 9 133064059.409 9      2236.186 9        54.140 9  25321257.969 6         0.000 6      1742.484 6        37.977 6
G10  23769432.541 9 124909157.036 9      3447.579 9        54.684 9  23769436.228 6         0.000 6      2686.428 6        37.977 6
G21  21185779.730 9 111332003.196 9     -1272.406 9        55.703 9  21185779.018 6         0.000 6      -991.485 6        37.977 6
G29  24336910.512 9 127891270.921 9     -3154.333 9        54.462 9  24336912.124 6         0.000 6     -2457.925 6        37.977 6
G27  21975027.414 9 115479521.656 9      2521.439 9        55.386 9  21975029.336 6         0.000 6      1964.759 6        37.977 6
G16  20490584.513 9 107678728.079 9       533.053 9        55.979 9  20490583.685 6         0.000 6       415.366 6        37.977 6
G26  20671815.127 9 108631099.312 9     -1546.595 9        55.866 9  20671817.950 6         0.000 6     -1205.139 6        37.977 6
G20  21915250.234 9 115165384.454 9      2481.435 9        55.327 9  21915250.539 6         0.000 6      1933.587 6        37.977 6
> 2019 07 03 12 02  1.0000000  0  8       0.000000000000
G07  25320832.143 9 133061825.133 9      2232.254 9        54.140 9  25320832.799 6         0.000 6      1739.419 6        37.977 6
G10  23768776.279 9 124905708.369 9      3449.892 9        54.684 9  23768779.966 6         0.000 6      2688.230 6        37.977 6
G21  21186021.680 9 111333274.654 9     -1270.510 9        55.703 9  21186020.969 6         0.000 6      -990.008 6        37.977 6
G29  24337510.132 9 127894421.938 9     -3147.674 9        54.461 9  24337511.745 6         0.000 6     -2452.736 6        37.977 6
G27  21974548.117 9 115477002.939 9      2515.943 9        55.386 9  21974550.039 6         0.000 6      1960.475 6        37.977 6
G16  20490483.370 9 107678196.572 9       529.942 9        55.979 9  20490482.543 6         0.000 6       412.942 6        37.977 6
G26  20672109.542 9 108632646.468 9     -1547.673 9        55.866 9  20672112.364 6         0.000 6     -1205.980 6        37.977 6
G20  21914777.742 9 115162901.498 9      2484.576 9        55.327 9  21914778.047 6         0.000 6      1936.035 6        37.977 6
> 2019 07 03 12 02  2.0000000  0  8       0.000000000000
G07  25320407.790 9 133059595.147 9      2227.611 9        54.141 9  25320408.446 6         0.000 6      1735.802 6        37.977 6
G10  23768119.512 9 124902257.045 9      3452.889 9        54.684 9  23768123.198 6         0.000 6      2690.566 6        37.977 6
G21  21186263.271 9 111334544.223 9     -1268.647 9        55.703 9  21186262.560 6         0.000 6      -988.556 6        37.977 6
G29  24338108.463 9 127897566.177 9     -3140.821 9        54.461 9  24338110.077 6         0.000 6     -2447.395 6        37.977 6
G27  21974069.897 9 115474489.877 9      2510.158 9        55.386 9  21974071.819 6         0.000 6      1955.968 6        37.977 6
G16  20490382.830 9 107677668.231 9       526.732 9        55.979 9  20490382.003 6         0.000 6       410.441 6        37.977 6
G26  20672404.134 9 108634194.562 9     -1548.464 9        55.866 9  20672406.957 6         0.000 6     -1206.596 6        37.977 6
G20  21914304.603 9 115160415.137 9      2488.231 9        55.327 9  21914304.907 6         0.000 6      1938.883 6        37.977 6
> 2019 07 03 12 02  3.0000000  0  8       0.000000000000
G07  25319984.376 9 133057370.093 9      2222.440 9        54.141 9  25319985.031 6         0.000 6      1731.773 6        37.977 6
G10  23767462.119 9 124898802.429 9      3456.440 9        54.685 9  23767465.804 6         0.000 6      2693.333 6        37.977 6
G21  21186504.522 9 111335812.001 9     -1266.940 9        55.703 9  21186503.810 6         0.000 6      -987.226 6        37.977 6
G29  24338705.499 9 127900703.611 9     -3134.123 9        54.461 9  24338707.113 6         0.000 6     -2442.177 6        37.977 6
G27  21973592.784 9 115471982.637 9      2504.354 9        55.387 9  21973594.706 6         0.000 6      1951.445 6        37.977 6
G16  20490282.902 9 107677143.104 9       523.544 9        55.980 9  20490282.074 6         0.000 6       407.956 6        37.977 6
G26  20672698.849 9 108635743.295 9     -1548.951 9        55.865 9  20672701.672 6         0.000 6     -1206.975 6        37.977 6
G20  21913830.733 9 115157924.939 9      2492.209 9        55.327 9  21913831.037 6         0.000 6      1941.982 6        37.977 6
> 2019 07 03 12 02  4.0000000  0  8       0.000000000000
G07  25319561.977 9 133055150.377 9      2216.982 9        54.141 9  25319562.633 6         0.000 6      1727.519 6        37.977 6
G10  23766804.012 9 124895344.063 9      3460.346 9        54.685 9  23766807.696 6         0.000 6      2696.377 6        37.977 6
G21  21186745.469 9 111337078.185 9     -1265.469 9        55.703 9  21186744.757 6         0.000 6      -986.080 6        37.977 6
G29  24339301.299 9 127903834.551 9     -3127.877 9        54.461 9  24339302.914 6         0.000 6     -2437.309 6        37.977 6
G27  21973116.758 9 115469481.106 9      2498.781 9        55.387 9  21973118.680 6         0.000 6      1947.103 6        37.977 6
G16  20490183.569 9 107676621.105 9       520.493 9        55.980 9  20490182.741 6         0.000 6       405.579 6        37.977 6
G26  20672993.628 9 108637292.369 9     -1549.153 9        55.865 9  20672996.451 6         0.000 6     -1207.133 6        37.977 6
G20  21913356.092 9 115155430.691 9      2496.293 9        55.328 9  21913356.396 6         0.000 6      1945.164 6        37.977 6
> 2019 07 03 12 02  5.0000000  0  8       0.000000000000
G07  25319140.625 9 133052936.163 9      2211.465 9        54.141 9  25319141.281 6         0.000 6      1723.220 6        37.977 6
G10  23766145.143 9 124891881.696 9      3464.410 9        54.685 9  23766148.827 6         0.000 6      2699.543 6        37.977 6
G21  21186986.160 9 111338343.027 9     -1264.270 9        55.703 9  21186985.449 6         0.000 6      -985.146 6        37.977 6
G29  24339895.967 9 127906959.546 9     -3122.255 9        54.461 9  24339897.583 6         0.000 6     -2432.928 6        37.977 6
G27  21972641.755 9 115466984.950 9      2493.610 9        55.387 9  21972643.676 6         0.000 6      1943.074 6        37.977 6
G16  20490084.795 9 107676102.048 9       517.653 9        55.980 9  20490083.968 6         0.000 6       403.366 6        37.977 6
G26  20673288.422 9 108638841.517 9     -1549.123 9        55.865 9  20673291.245 6         0.000 6     -1207.109 6        37.977 6
G20  21912880.679 9 115152932.380 9      2500.301 9        55.328 9  21912880.982 6         0.000 6      1948.288 6        37.977 6
> 2019 07 03 12 02  6.0000000  0  8       0.000000000000
G07  25318720.316 9 133050727.424 9      2206.049 9        54.141 9  25318720.971 6         0.000 6      1719.000 6        37.977 6
G10  23765485.500 9 124888415.261 9      3468.470 9        54.685 9  23765489.184 6         0.000 6      2702.707 6        37.977 6
G21  21187226.649 9 111339606.806 9     -1263.330 9        55.703 9  21187225.938 6         0.000 6      -984.413 6        37.977 6
G29  24340489.630 9 127910079.254 9     -3117.291 9        54.460 9  24340491.246 6         0.000 6     -2429.061 6        37.977 6
G27  21972167.693 9 115464493.740 9      2488.898 9        55.387 9  21972169.614 6         0.000 6      1939.401 6        37.977 6
G16  20489986.541 9 107675585.720 9       515.043 9        55.980 9  20489985.714 6         0.000 6       401.332 6        37.977 6
G26  20673583.194 9 108640390.552 9     -1548.929 9        55.865 9  20673586.017 6         0.000 6     -1206.958 6        37.977 6
G20  21912404.520 9 115150430.156 9      2504.117 9        55.328 9  21912404.823 6         0.000 6      1951.262 6        37.977 6
> 2019 07 03 12 02  7.0000000  0  8       0.000000000000
G07  25318301.020 9 133048524.014 9      2200.812 9        54.141 9  25318301.675 6         0.000 6      1714.919 6        37.977 6
G10  23764825.092 9 124884944.804 9      3472.444 9        54.686 9  23764828.775 6         0.000 6      2705.803 6        37.977 6
G21  21187466.982 9 111340869.761 9     -1262.623 9        55.702 9  21187466.270 6         0.000 6      -983.862 6        37.977 6
G29  24341082.408 9 127913194.314 9     -3112.955 9        54.460 9  24341084.025 6         0.000 6     -2425.682 6        37.977 6
G27  21971694.484 9 115462007.011 9      2484.641 9        55.387 9  21971696.405 6         0.000 6      1936.084 6        37.977 6
G16  20489888.763 9 107675071.890 9       512.654 9        55.980 9  20489887.935 6         0.000 6       399.471 6        37.977 6
G26  20673877.917 9 108641939.333 9     -1548.621 9        55.865 9  20673880.741 6         0.000 6     -1206.718 6        37.977 6
G20  21911927.658 9 115147924.232 9      2507.695 9        55.328 9  21911927.961 6         0.000 6      1954.049 6        37.977 6
> 2019 07 03 12 02  8.0000000  0  8       0.000000000000
G07  25317882.701 9 133046325.734 9      2195.796 9        54.142 9  25317883.355 6         0.000 6      1711.011 6        37.977 6
G10  23764163.941 9 124881470.438 9      3476.281 9        54.686 9  23764167.623 6         0.000 6      2708.793 6        37.977 6
G21  21187707.199 9 111342132.110 9     -1262.109 9        55.702 9  21187706.488 6         0.000 6      -983.461 6        37.977 6
G29  24341674.415 9 127916305.320 9     -3109.171 9        54.460 9  24341676.033 6         0.000 6     -2422.733 6        37.977 6
G27  21971222.045 9 115459524.329 9      2480.801 9        55.387 9  21971223.965 6         0.000 6      1933.092 6        37.977 6
G16  20489791.419 9 107674560.346 9       510.468 9        55.980 9  20489790.592 6         0.000 6       397.767 6        37.977 6
G26  20674172.575 9 108643487.767 9     -1548.240 9        55.865 9  20674175.398 6         0.000 6     -1206.421 6        37.977 6
G20  21911450.139 9 115145414.856 9      2511.021 9        55.328 9  21911450.441 6         0.000 6      1956.641 6        37.977 6
> 2019 07 03 12 02  9.0000000  0  8       0.000000000000
G07  25317465.312 9 133044132.346 9      2191.042 9        54.142 9  25317465.966 6         0.000 6      1707.307 6        37.977 6
G10  23763502.074 9 124877992.318 9      3479.936 9        54.686 9  23763505.756 6         0.000 6      2711.641 6        37.977 6
G21  21187947.335 9 111343394.032 9     -1261.765 9        55.702 9  21187946.624 6         0.000 6      -983.194 6        37.977 6
G29  24342265.751 9 127919412.804 9     -3105.900 9        54.460 9  24342267.370 6         0.000 6     -2420.184 6        37.977 6
G27  21970750.297 9 115457045.282 9      2477.363 9        55.388 9  21970752.218 6         0.000 6      1930.414 6        37.977 6
G16  20489694.473 9 107674050.888 9       508.474 9        55.980 9  20489693.645 6         0.000 6       396.213 6        37.977 6
G26  20674467.154 9 108645035.792 9     -1547.816 9        55.865 9  20674469.978 6         0.000 6     -1206.091 6        37.977 6
G20  21910972.011 9 115142902.283 9      2514.079 9        55.329 9  21910972.314 6         0.000 6      1959.023 6        37.977 6
> 2019 07 03 12 02 10.0000000  0  8       0.000000000000
G07  25317048.801 9 133041943.570 9      2186.573 9        54.142 9  25317049.455 6         0.000 6      1703.824 6        37.977 6
G10  23762839.534 9 124874510.654 9      3483.372 9        54.686 9  23762843.214 6         0.000 6      2714.318 6        37.977 6
G21  21188187.420 9 111344655.687 9     -1261.567 9        55.702 9  21188186.709 6         0.000 6      -983.040 6        37.977 6
G29  24342856.509 9 127922517.247 9     -3103.087 9        54.460 9  24342858.128 6         0.000 6     -2417.993 6        37.977 6
G27  21970279.169 9 115454569.491 9      2474.293 9        55.388 9  21970281.090 6         0.000 6      1928.021 6        37.977 6
G16  20489597.890 9 107673543.343 9       506.649 9        55.980 9  20489597.063 6         0.000 6       394.792 6        37.977 6
G26  20674761.653 9 108646583.392 9     -1547.386 9        55.865 9  20674764.477 6         0.000 6     -1205.755 6        37.977 6
G20  21910493.329 9 115140386.795 9      2516.856 9        55.329 9  21910493.631 6         0.000 6      1961.188 6        37.977 6
> 2019 07 03 12 02 11.0000000  0  8       0.000000000000
G07  25316633.111 9 133039759.107 9      2182.420 9        54.142 9  25316633.765 6         0.000 6      1700.588 6        37.977 6
G10  23762176.363 9 124871025.679 9      3486.551 9        54.687 9  23762180.043 6         0.000 6      2716.796 6        37.977 6
G21  21188427.480 9 111345917.210 9     -1261.493 9        55.702 9  21188426.769 6         0.000 6      -982.982 6        37.977 6
G29  24343446.773 9 127925619.095 9     -3100.692 9        54.459 9  24343448.393 6         0.000 6     -2416.126 6        37.977 6
G27  21969808.592 9 115452096.593 9      2471.569 9        55.388 9  21969810.512 6         0.000 6      1925.899 6        37.977 6
G16  20489501.639 9 107673037.543 9       504.982 9        55.980 9  20489500.812 6         0.000 6       393.492 6        37.977 6
G26  20675056.072 9 108648130.570 9     -1546.975 9        55.864 9  20675058.896 6         0.000 6     -1205.436 6        37.977 6
G20  21910014.146 9 115137868.677 9      2519.342 9        55.329 9  21910014.448 6         0.000 6      1963.125 6        37.977 6
> 2019 07 03 12 02 12.0000000  0  8       0.000000000000
G07  25316218.181 9 133037578.639 9      2178.583 9        54.142 9  25316218.835 6         0.000 6      1697.598 6        37.977 6
G10  23761512.612 9 124867537.655 9      3489.469 9        54.687 9  23761516.292 6         0.000 6      2719.069 6        37.977 6
G21  21188667.535 9 111347178.708 9     -1261.522 9        55.702 9  21188666.824 6         0.000 6      -983.004 6        37.977 6
G29  24344036.616 9 127928718.731 9     -3098.664 9        54.459 9  24344038.236 6         0.000 6     -2414.546 6        37.977 6
G27  21969338.502 9 115449626.258 9      2469.160 9        55.388 9  21969340.422 6         0.000 6      1924.022 6        37.977 6
G16  20489405.692 9 107672533.337 9       503.455 9        55.980 9  20489404.865 6         0.000 6       392.303 6        37.977 6
G26  20675350.415 9 108649677.351 9     -1546.601 9        55.864 9  20675353.239 6         0.000 6     -1205.144 6        37.977 6
G20  21909534.517 9 115135348.211 9      2521.546 9        55.329 9  21909534.818 6         0.000 6      1964.842 6        37.977 6
> 2019 07 03 12 02 13.0000000  0  8       0.000000000000
G07  25315803.950 9 133035401.843 9      2175.067 9        54.142 9  25315804.603 6         0.000 6      1694.858 6        37.977 6
G10  23760848.332 9 124864046.850 9      3492.116 9        54.687 9  23760852.011 6         0.000 6      2721.132 6        37.977 6
G21  21188907.603 9 111348440.274 9     -1261.625 9        55.702 9  21188906.892 6         0.000 6      -983.084 6        37.977 6
G29  24344626.106 9 127931816.509 9     -3096.958 9        54.459 9  24344627.727 6         0.000 6     -2413.217 6        37.977 6
G27  21968868.841 9 115447158.177 9      2467.045 9        55.388 9  21968870.761 6         0.000 6      1922.374 6        37.977 6
G16  20489310.021 9 107672030.584 9       502.065 9        55.980 9  20489309.194 6         0.000 6       391.219 6        37.977 6
G26  20675644.690 9 108651223.779 9     -1546.270 9        55.864 9  20675647.515 6         0.000 6     -1204.886 6        37.977 6
G20  21909054.494 9 115132825.681 9      2523.480 9        55.329 9  21909054.795 6         0.000 6      1966.349 6        37.977 6
> 2019 07 03 12 02 14.0000000  0  8       0.000000000000
G07  25315390.359 9 133033228.412 9      2171.851 9        54.142 9  25315391.012 6         0.000 6      1692.352 6        37.977 6
G10  23760183.573 9 124860553.530 9      3494.500 9        54.687 9  23760187.252 6         0.000 6      2722.989 6        37.977 6
G21  21189147.698 9 111349701.980 9     -1261.801 9        55.702 9  21189146.987 6         0.000 6      -983.222 6        37.977 6
G29  24345215.297 9 127934912.718 9     -3095.530 9        54.459 9  24345216.918 6         0.000 6     -2412.104 6        37.977 6
G27  21968399.560 9 115444692.091 9      2465.177 9        55.389 9  21968401.480 6         0.000 6      1920.918 6        37.977 6
G16  20489214.606 9 107671529.172 9       500.777 9        55.980 9  20489213.779 6         0.000 6       390.216 6        37.977 6
G26  20675938.910 9 108652769.909 9     -1546.004 9        55.864 9  20675941.734 6         0.000 6     -1204.679 6        37.977 6
G20  21908574.129 9 115130301.347 9      2525.154 9        55.330 9  21908574.430 6         0.000 6      1967.653 6        37.977 6
> 2019 07 03 12 02 15.0000000  0  8       0.000000000000
G07  25314977.353 9 133031058.057 9      2168.910 9        54.142 9  25314978.006 6         0.000 6      1690.061 6        37.977 6
G10  23759518.384 9 124857057.949 9      3496.645 9        54.688 9  23759522.062 6         0.000 6      2724.661 6        37.977 6
G21  21189387.831 9 111350963.883 9     -1262.021 9        55.702 9  21189387.119 6         0.000 6      -983.393 6        37.977 6
G29  24345804.238 9 127938007.613 9     -3094.326 9        54.458 9  24345805.860 6         0.000 6     -2411.165 6        37.977 6
G27  21967930.614 9 115442227.762 9      2463.524 9        55.389 9  21967932.533 6         0.000 6      1919.630 6        37.977 6
G16  20489119.426 9 107671028.998 9       499.586 9        55.980 9  20489118.599 6         0.000 6       389.288 6        37.977 6
G26  20676233.083 9 108654315.800 9     -1545.792 9        55.864 9  20676235.908 6         0.000 6     -1204.514 6        37.977 6
G20  21908093.466 9 115127775.452 9      2526.606 9        55.330 9  21908093.767 6         0.000 6      1968.785 6        37.977 6
> 2019 07 03 12 02 16.0000000  0  8       0.000000000000
G07  25314564.885 9 133028890.525 9      2166.198 9        54.143 9  25314565.538 6         0.000 6      1687.947 6        37.977 6
G10  23758852.808 9 124853560.329 9      3498.588 9        54.688 9  23758856.485 6         0.000 6      2726.175 6        37.977 6
G21  21189628.010 9 111352226.032 9     -1262.279 9        55.702 9  21189627.298 6         0.000 6      -983.594 6        37.977 6
G29  24346392.968 9 127941101.401 9     -3093.303 9        54.458 9  24346394.591 6         0.000 6     -2410.369 6        37.977 6
G27  21967461.965 9 115439764.999 9      2462.044 9        55.389 9  21967463.884 6         0.000 6      1918.477 6        37.977 6
G16  20489024.466 9 107670529.981 9       498.470 9        55.980 9  20489023.639 6         0.000 6       388.418 6        37.977 6
G26  20676527.223 9 108655861.512 9     -1545.632 9        55.864 9  20676530.047 6         0.000 6     -1204.389 6        37.977 6
G20  21907612.546 9 115125248.206 9      2527.870 9        55.330 9  21907612.847 6         0.000 6      1969.770 6        37.977 6
> 2019 07 03 12 02 17.0000000  0  8       0.000000000000
G07  25314152.916 9 133026725.614 9      2163.665 9        54.143 9  25314153.568 6         0.000 6      1685.973 6        37.977 6
G10  23758186.876 9 124850060.849 9      3500.368 9        54.688 9  23758190.553 6         0.000 6      2727.562 6        37.977 6
G21  21189868.241 9 111353488.457 9     -1262.571 9        55.701 9  21189867.530 6         0.000 6      -983.821 6        37.977 6
G29  24346981.518 9 127944194.243 9     -3092.425 9        54.458 9  24346983.141 6         0.000 6     -2409.684 6        37.977 6
G27  21966993.584 9 115437303.644 9      2460.697 9        55.389 9  21966995.503 6         0.000 6      1917.427 6        37.977 6
G16  20488929.713 9 107670032.050 9       497.408 9        55.980 9  20488928.886 6         0.000 6       387.591 6        37.977 6
G26  20676821.336 9 108657407.084 9     -1545.519 9        55.864 9  20676824.160 6         0.000 6     -1204.301 6        37.977 6
G20  21907131.400 9 115122719.772 9      2528.983 9        55.330 9  21907131.701 6         0.000 6      1970.637 6        37.977 6
> 2019 07 03 12 02 18.0000000  0  8       0.000000000000
G07  25313741.413 9 133024563.157 9      2161.282 9        54.143 9  25313742.066 6         0.000 6      1684.117 6        37.977 6
G10  23757520.619 9 124846559.653 9      3502.017 9        54.688 9  23757524.295 6         0.000 6      2728.847 6        37.977 6
G21  21190108.530 9 111354751.180 9     -1262.884 9        55.701 9  21190107.818 6         0.000 6      -984.066 6        37.977 6
G29  24347569.913 9 127947286.268 9     -3091.659 9        54.458 9  24347571.537 6         0.000 6     -2409.087 6        37.977 6
G27  21966525.447 9 115434843.572 9      2459.461 9        55.389 9  21966527.367 6         0.000 6      1916.464 6        37.977 6
G16  20488835.156 9 107669535.148 9       496.395 9        55.980 9  20488834.328 6         0.000 6       386.801 6        37.977 6
G26  20677115.429 9 108658952.553 9     -1545.439 9        55.864 9  20677118.254 6         0.000 6     -1204.238 6        37.977 6
G20  21906650.054 9 115120190.285 9      2529.976 9        55.330 9  21906650.354 6         0.000 6      1971.411 6        37.977 6
> 2019 07 03 12 02 19.0000000  0  8       0.000000000000
G07  25313330.351 9 133022403.016 9      2159.026 9        54.143 9  25313331.003 6         0.000 6      1682.359 6        37.977 6
G10  23756854.060 9 124843056.870 9      3503.552 9        54.689 9  23756857.735 6         0.000 6      2730.043 6        37.977 6
G21  21190348.880 9 111356014.229 9     -1263.217 9        55.701 9  21190348.169 6         0.000 6      -984.325 6        37.977 6
G29  24348158.172 9 127950377.579 9     -3090.994 9        54.458 9  24348159.796 6         0.000 6     -2408.569 6        37.977 6
G27  21966057.537 9 115432384.688 9      2458.322 9        55.390 9  21966059.456 6         0.000 6      1915.576 6        37.977 6
G16  20488740.788 9 107669039.241 9       495.424 9        55.980 9  20488739.960 6         0.000 6       386.045 6        37.977 6
G26  20677409.511 9 108660497.961 9     -1545.387 9        55.863 9  20677412.336 6         0.000 6     -1204.198 6        37.977 6
G20  21906168.530 9 115117659.862 9      2530.864 9        55.330 9  21906168.829 6         0.000 6      1972.103 6        37.977 6
> 2019 07 03 12 02 20.0000000  0  8       0.000000000000
G07  25312919.706 9 133020245.066 9      2156.900 9        54.143 9  25312920.358 6         0.000 6      1680.702 6        37.977 6
G10  23756187.219 9 124839552.609 9      3504.971 9        54.689 9  23756190.893 6         0.000 6      2731.149 6        37.977 6
G21  21190589.294 9 111357277.613 9     -1263.563 9        55.701 9  21190588.583 6         0.000 6      -984.594 6        37.977 6
G29  24348746.311 9 127953468.261 9     -3090.411 9        54.457 9  24348747.936 6         0.000 6     -2408.115 6        37.977 6
G27  21965589.835 9 115429926.903 9      2457.268 9        55.390 9  21965591.754 6         0.000 6      1914.755 6        37.977 6
G16  20488646.601 9 107668544.285 9       494.490 9        55.980 9  20488645.774 6         0.000 6       385.317 6        37.977 6
G26  20677703.585 9 108662043.332 9     -1545.369 9        55.863 9  20677706.410 6         0.000 6     -1204.184 6        37.977 6
G20  21905686.846 9 115115128.598 9      2531.651 9        55.331 9  21905687.145 6         0.000 6      1972.716 6        37.977 6
> 2019 07 03 12 02 21.0000000  0  8       0.000000000000
G07  25312509.456 9 133018089.188 9      2154.886 9        54.143 9  25312510.107 6         0.000 6      1679.133 6        37.977 6
G10  23755520.118 9 124836046.981 9      3506.288 9        54.689 9  23755523.792 6         0.000 6      2732.175 6        37.977 6
G21  21190829.777 9 111358541.360 9     -1263.923 9        55.701 9  21190829.066 6         0.000 6      -984.875 6        37.977 6
G29  24349334.349 9 127956558.410 9     -3089.909 9        54.457 9  24349335.975 6         0.000 6     -2407.724 6        37.977 6
G27  21965122.327 9 115427470.132 9      2456.293 9        55.390 9  21965124.245 6         0.000 6      1913.995 6        37.977 6
G16  20488552.589 9 107668050.251 9       493.589 9        55.980 9  20488551.762 6         0.000 6       384.615 6        37.977 6
G26  20677997.660 9 108663588.705 9     -1545.381 9        55.863 9  20678000.485 6         0.000 6     -1204.193 6        37.977 6
G20  21905205.021 9 115112596.599 9      2532.347 9        55.331 9  21905205.320 6         0.000 6      1973.258 6        37.977 6
> 2019 07 03 12 02 22.0000000  0  8       0.000000000000
G07  25312099.577 9 133015935.265 9      2152.990 9        54.143 9  25312100.229 6         0.000 6      1677.655 6        37.977 6
G10  23754852.777 9 124832540.087 9      3507.497 9        54.689 9  23754856.450 6         0.000 6      2733.118 6        37.977 6
G21  21191070.329 9 111359805.466 9     -1264.295 9        55.701 9  21191069.618 6         0.000 6      -985.165 6        37.977 6
G29  24349922.296 9 127959648.083 9     -3089.476 9        54.457 9  24349923.922 6         0.000 6     -2407.386 6        37.977 6
G27  21964654.997 9 115425014.302 9      2455.389 9        55.390 9  21964656.916 6         0.000 6      1913.291 6        37.977 6
G16  20488458.746 9 107667557.101 9       492.716 9        55.980 9  20488457.919 6         0.000 6       383.935 6        37.977 6
G26  20678291.741 9 108665134.104 9     -1545.429 9        55.863 9  20678294.566 6         0.000 6     -1204.231 6        37.977 6
G20  21904723.072 9 115110063.945 9      2532.950 9        55.331 9  21904723.371 6         0.000 6      1973.728 6        37.977 6
> 2019 07 03 12 02 23.0000000  0  8       0.000000000000
G07  25311690.049 9 133013783.184 9      2151.199 9        54.144 9  25311690.700 6         0.000 6      1676.260 6        37.977 6
G10  23754185.214 9 124829032.033 9      3508.610 9        54.690 9  23754188.887 6         0.000 6      2733.984 6        37.977 6
G21  21191310.951 9 111361069.945 9     -1264.674 9        55.701 9  21191310.240 6         0.000 6      -985.461 6        37.977 6
G29  24350510.166 9 127962737.353 9     -3089.100 9        54.457 9  24350511.793 6         0.000 6     -2407.094 6        37.977 6
G27  21964187.833 9 115422559.341 9      2454.548 9        55.390 9  21964189.752 6         0.000 6      1912.635 6        37.977 6
G16  20488365.066 9 107667064.808 9       491.869 9        55.980 9  20488364.238 6         0.000 6       383.274 6        37.977 6
G26  20678585.832 9 108666679.565 9     -1545.509 9        55.863 9  20678588.657 6         0.000 6     -1204.293 6        37.977 6
G20  21904241.017 9 115107530.729 9      2533.470 9        55.331 9  21904241.315 6         0.000 6      1974.134 6        37.977 6
> 2019 07 03 12 02 24.0000000  0  8       0.000000000000
G07  25311280.854 9 133011632.850 9      2149.493 9        54.144 9  25311281.505 6         0.000 6      1674.931 6        37.977 6
G10  23753517.448 9 124825522.910 9      3509.643 9        54.690 9  23753521.120 6         0.000 6      2734.790 6        37.977 6
G21  21191551.648 9 111362334.812 9     -1265.055 9        55.701 9  21191550.937 6         0.000 6      -985.758 6        37.977 6
G29  24351097.971 9 127965826.277 9     -3088.776 9        54.457 9  24351099.599 6         0.000 6     -2406.841 6        37.977 6
G27  21963720.825 9 115420105.196 9      2453.763 9        55.390 9  21963722.743 6         0.000 6      1912.024 6        37.977 6
G16  20488271.545 9 107666573.355 9       491.049 9        55.980 9  20488270.718 6         0.000 6       382.635 6        37.977 6
G26  20678879.943 9 108668225.123 9     -1545.610 9        55.863 9  20678882.768 6         0.000 6     -1204.372 6        37.977 6
G20  21903758.869 9 115104997.031 9      2533.926 9        55.331 9  21903759.167 6         0.000 6      1974.489 6        37.977 6
> 2019 07 03 12 02 25.0000000  0  8       0.000000000000
G07  25310871.976 9 133009484.188 9      2147.853 9        54.144 9  25310872.627 6         0.000 6      1673.653 6        37.977 6
G10  23752849.491 9 124822012.782 9      3510.618 9        54.690 9  23752853.162 6         0.000 6      2735.549 6        37.977 6
G21  21191792.416 9 111363600.059 9     -1265.445 9        55.701 9  21191791.705 6         0.000 6      -986.061 6        37.977 6
G29  24351685.717 9 127968914.894 9     -3088.487 9        54.456 9  24351687.346 6         0.000 6     -2406.616 6        37.977 6
G27  21963253.961 9 115417651.813 9      2453.014 9        55.391 9  21963255.879 6         0.000 6      1911.441 6        37.977 6
G16  20488178.179 9 107666082.710 9       490.241 9        55.980 9  20488177.351 6         0.000 6       382.006 6        37.977 6
G26  20679174.073 9 108669770.789 9     -1545.734 9        55.863 9  20679176.899 6         0.000 6     -1204.468 6        37.977 6
G20  21903276.639 9 115102462.900 9      2534.330 9        55.332 9  21903276.937 6         0.000 6      1974.804 6        37.977 6
> 2019 07 03 12 02 26.0000000  0  8       0.000000000000
G07  25310463.405 9 133007337.136 9      2146.271 9        54.144 9  25310464.056 6         0.000 6      1672.420 6        37.977 6
G10  23752181.354 9 124818501.707 9      3511.538 9        54.690 9  23752185.024 6         0.000 6      2736.266 6        37.977 6
G21  21192033.260 9 111364865.698 9     -1265.841 9        55.701 9  21192032.549 6         0.000 6      -986.370 6        37.977 6
G29  24352273.412 9 127972003.241 9     -3088.236 9        54.456 9  24352275.041 6         0.000 6     -2406.420 6        37.977 6
G27  21962787.236 9 115415199.160 9      2452.303 9        55.391 9  21962789.154 6         0.000 6      1910.886 6        37.977 6
G16  20488084.964 9 107665592.866 9       489.447 9        55.980 9  20488084.137 6         0.000 6       381.388 6        37.977 6
G26  20679468.229 9 108671316.588 9     -1545.875 9        55.863 9  20679471.055 6         0.000 6     -1204.579 6        37.977 6
G20  21902794.337 9 115099928.389 9      2534.686 9        55.332 9  21902794.634 6         0.000 6      1975.081 6        37.977 6
> 2019 07 03 12 02 27.0000000  0  8       0.000000000000
G07  25310055.129 9 133005191.637 9      2144.738 9        54.144 9  25310055.780 6         0.000 6      1671.225 6        37.977 6
G10  23751513.047 9 124814989.740 9      3512.415 9        54.691 9  23751516.717 6         0.000 6      2736.949 6        37.977 6
G21  21192274.179 9 111366131.738 9     -1266.235 9        55.700 9  21192273.468 6         0.000 6      -986.677 6        37.977 6
G29  24352861.062 9 127975091.354 9     -3088.011 9        54.456 9  24352862.692 6         0.000 6     -2406.245 6        37.977 6
G27  21962320.643 9 115412747.200 9      2451.625 9        55.391 9  21962322.561 6         0.000 6      1910.358 6        37.977 6
G16  20487991.900 9 107665103.808 9       488.673 9        55.980 9  20487991.072 6         0.000 6       380.784 6        37.977 6
G26  20679762.414 9 108672862.537 9     -1546.025 9        55.862 9  20679765.240 6         0.000 6     -1204.695 6        37.977 6
G20  21902311.972 9 115097393.547 9      2535.008 9        55.332 9  21902312.269 6         0.000 6      1975.332 6        37.977 6
> 2019 07 03 12 02 28.0000000  0  8       0.000000000000
G07  25309647.142 9 133003047.652 9      2143.250 9        54.144 9  25309647.792 6         0.000 6      1670.066 6        37.977 6
G10  23750844.576 9 124811476.913 9      3513.250 9        54.691 9  23750848.245 6         0.000 6      2737.600 6        37.977 6
G21  21192515.174 9 111367398.172 9     -1266.637 9        55.700 9  21192514.463 6         0.000 6      -986.990 6        37.977 6
G29  24353448.672 9 127978179.252 9     -3087.814 9        54.456 9  24353450.302 6         0.000 6     -2406.092 6        37.977 6
G27  21961854.177 9 115410295.908 9      2450.973 9        55.391 9  21961856.095 6         0.000 6      1909.850 6        37.977 6
G16  20487898.982 9 107664615.520 9       487.906 9        55.981 9  20487898.154 6         0.000 6       380.186 6        37.977 6
G26  20680056.628 9 108674408.642 9     -1546.191 9        55.862 9  20680059.454 6         0.000 6     -1204.825 6        37.977 6
G20  21901829.548 9 115094858.396 9      2535.292 9        55.332 9  21901829.845 6         0.000 6      1975.554 6        37.977 6
> 2019 07 03 12 02 29.0000000  0  8       0.000000000000
G07  25309239.434 9 133000905.133 9      2141.806 9        54.144 9  25309240.084 6         0.000 6      1668.941 6        37.977 6
G10  23750175.951 9 124807963.275 9      3514.042 9        54.691 9  23750179.619 6         0.000 6      2738.217 6        37.977 6
G21  21192756.246 9 111368665.014 9     -1267.041 9        55.700 9  21192755.535 6         0.000 6      -987.305 6        37.977 6
G29  24354036.246 9 127981266.967 9     -3087.640 9        54.456 9  24354037.877 6         0.000 6     -2405.955 6        37.977 6
G27  21961387.833 9 115407845.256 9      2450.346 9        55.391 9  21961389.751 6         0.000 6      1909.361 6        37.977 6
G16  20487806.209 9 107664127.998 9       487.149 9        55.981 9  20487805.382 6         0.000 6       379.596 6        37.977 6
G26  20680350.876 9 108675954.924 9     -1546.373 9        55.862 9  20680353.702 6         0.000 6     -1204.966 6        37.977 6
G20  21901347.074 9 115092322.982 9      2535.541 9        55.332 9  21901347.370 6         0.000 6      1975.748 6        37.977 6
> 2019 07 03 12 02 30.0000000  0  8       0.000000000000
G07  25308831.996 9 132998764.035 9      2140.405 9        54.145 9  25308832.645 6         0.000 6      1667.849 6        37.977 6
G10  23749507.178 9 124804448.860 9      3514.796 9        54.691 9  23749510.846 6         0.000 6      2738.805 6        37.977 6
G21  21192997.394 9 111369932.255 9     -1267.451 9        55.700 9  21192996.683 6         0.000 6      -987.624 6        37.977 6
G29  24354623.790 9 127984354.520 9     -3087.492 9        54.455 9  24354625.422 6         0.000 6     -2405.841 6        37.977 6
G27  21960921.605 9 115405395.213 9      2449.746 9        55.392 9  21960923.522 6         0.000 6      1908.893 6        37.977 6
G16  20487713.579 9 107663641.220 9       486.403 9        55.981 9  20487712.751 6         0.000 6       379.015 6        37.977 6
G26  20680645.159 9 108677501.387 9     -1546.566 9        55.862 9  20680647.985 6         0.000 6     -1205.117 6        37.977 6
G20  21900864.554 9 115089787.332 9      2535.756 9        55.333 9  21900864.851 6         0.000 6      1975.915 6        37.977 6
> 2019 07 03 12 02 31.0000000  0  8       0.000000000000
G07  25308424.820 9 132996624.319 9      2139.040 9        54.145 9  25308425.470 6         0.000 6      1666.786 6        37.977 6
G10  23748838.266 9 124800933.714 9      3515.517 9        54.691 9  23748841.933 6         0.000 6      2739.366 6        37.977 6
G21  21193238.621 9 111371199.910 9     -1267.856 9        55.700 9  21193237.910 6         0.000 6      -987.940 6        37.977 6
G29  24355211.307 9 127987441.934 9     -3087.357 9        54.455 9  24355212.940 6         0.000 6     -2405.735 6        37.977 6
G27  21960455.489 9 115402945.762 9      2449.165 9        55.392 9  21960457.406 6         0.000 6      1908.441 6        37.977 6
G16  20487621.090 9 107663155.187 9       485.667 9        55.981 9  20487620.262 6         0.000 6       378.442 6        37.977 6
G26  20680939.480 9 108679048.053 9     -1546.768 9        55.862 9  20680942.306 6         0.000 6     -1205.274 6        37.977 6
G20  21900381.998 9 115087251.485 9      2535.947 9        55.333 9  21900382.294 6         0.000 6      1976.064 6        37.977 6
> 2019 07 03 12 02 32.0000000  0  8       0.000000000000
G07  25308017.902 9 132994485.952 9      2137.711 9        54.145 9  25308018.551 6         0.000 6      1665.749 6        37.977 6
G10  23748169.219 9 124797417.861 9      3516.203 9        54.692 9  23748172.886 6         0.000 6      2739.901 6        37.977 6
G21  21193479.925 9 111372467.975 9     -1268.269 9        55.700 9  21193479.215 6         0.000 6      -988.261 6        37.977 6
G29  24355798.801 9 127990529.224 9     -3087.245 9        54.455 9  24355800.434 6         0.000 6     -2405.648 6        37.977 6
G27  21959989.483 9 115400496.885 9      2448.605 9        55.392 9  21959991.400 6         0.000 6      1908.005 6        37.977 6
G16  20487528.740 9 107662669.889 9       484.937 9        55.981 9  20487527.913 6         0.000 6       377.873 6        37.977 6
G26  20681233.841 9 108680594.930 9     -1546.985 9        55.862 9  20681236.668 6         0.000 6     -1205.443 6        37.977 6
G20  21899899.408 9 115084715.461 9      2536.106 9        55.333 9  21899899.704 6         0.000 6      1976.188 6        37.977 6
> 2019 07 03 12 02 33.0000000  0  8       0.000000000000
G07  25307611.233 9 132992348.894 9      2136.418 9        54.145 9  25307611.882 6         0.000 6      1664.742 6        37.977 6
G10  23747500.046 9 124793901.342 9      3516.856 9        54.692 9  23747503.712 6         0.000 6      2740.410 6        37.977 6
G21  21193721.308 9 111373736.449 9     -1268.683 9        55.700 9  21193720.598 6         0.000 6      -988.584 6        37.977 6
G29  24356386.275 9 127993616.409 9     -3087.151 9        54.455 9  24356387.908 6         0.000 6     -2405.575 6        37.977 6
G27  21959523.581 9 115398048.554 9      2448.065 9        55.392 9  21959525.497 6         0.000 6      1907.584 6        37.977 6
G16  20487436.529 9 107662185.314 9       484.216 9        55.981 9  20487435.701 6         0.000 6       377.311 6        37.977 6
G26  20681528.244 9 108682142.027 9     -1547.213 9        55.862 9  20681531.071 6         0.000 6     -1205.621 6        37.977 6
G20  21899416.790 9 115082179.292 9      2536.238 9        55.333 9  21899417.086 6         0.000 6      1976.290 6        37.977 6
> 2019 07 03 12 02 34.0000000  0  8       0.000000000000
G07  25307204.807 9 132990213.114 9      2135.149 9        54.145 9  25307205.456 6         0.000 6      1663.753 6        37.977 6
G10  23746830.751 9 124790384.184 9      3517.482 9        54.692 9  23746834.417 6         0.000 6      2740.898 6        37.977 6
G21  21193962.771 9 111375005.342 9     -1269.099 9        55.700 9  21193962.060 6         0.000 6      -988.908 6        37.977 6
G29  24356973.733 9 127996703.510 9     -3087.071 9        54.455 9  24356975.367 6         0.000 6     -2405.513 6        37.977 6
G27  21959057.780 9 115395600.757 9      2447.539 9        55.392 9  21959059.696 6         0.000 6      1907.174 6        37.977 6
G16  20487344.454 9 107661701.459 9       483.500 9        55.981 9  20487343.627 6         0.000 6       376.753 6        37.977 6
G26  20681822.692 9 108683689.360 9     -1547.450 9        55.862 9  20681825.519 6         0.000 6     -1205.806 6        37.977 6
G20  21898934.150 9 115079643.006 9      2536.348 9        55.333 9  21898934.445 6         0.000 6      1976.376 6        37.977 6
> 2019 07 03 12 02 35.0000000  0  8       0.000000000000
G07  25306798.619 9 132988078.587 9      2133.916 9        54.145 9  25306799.268 6         0.000 6      1662.792 6        37.977 6
G10  23746161.338 9 124786866.408 9      3518.083 9        54.692 9  23746165.003 6         0.000 6      2741.366 6        37.977 6
G21  21194204.310 9 111376274.641 9     -1269.511 9        55.700 9  21194203.600 6         0.000 6      -989.230 6        37.977 6
G29  24357561.176 9 127999790.533 9     -3087.002 9        54.454 9  24357562.810 6         0.000 6     -2405.458 6        37.977 6
G27  21958592.077 9 115393153.472 9      2447.033 9        55.392 9  21958593.993 6         0.000 6      1906.780 6        37.977 6
G16  20487252.514 9 107661218.308 9       482.794 9        55.981 9  20487251.686 6         0.000 6       376.203 6        37.977 6
G26  20682117.184 9 108685236.924 9     -1547.693 9        55.861 9  20682120.011 6         0.000 6     -1205.995 6        37.977 6
G20  21898451.489 9 115077106.611 9      2536.438 9        55.333 9  21898451.785 6         0.000 6      1976.447 6        37.977 6
> 2019 07 03 12 02 36.0000000  0  8       0.000000000000
G07  25306392.665 9 132985945.285 9      2132.703 9        54.145 9  25306393.313 6         0.000 6      1661.848 6        37.977 6
G10  23745491.814 9 124783348.045 9      3518.659 9        54.693 9  23745495.478 6         0.000 6      2741.815 6        37.977 6
G21  21194445.930 9 111377544.361 9     -1269.929 9        55.700 9  21194445.220 6         0.000 6      -989.555 6        37.977 6
G29  24358148.607 9 128002877.499 9     -3086.947 9        54.454 9  24358150.243 6         0.000 6     -2405.416 6        37.977 6
G27  21958126.469 9 115390706.690 9      2446.537 9        55.393 9  21958128.385 6         0.000 6      1906.394 6        37.977 6
G16  20487160.708 9 107660735.865 9       482.091 9        55.981 9  20487159.881 6         0.000 6       375.655 6        37.977 6
G26  20682411.725 9 108686784.741 9     -1547.948 9        55.861 9  20682414.551 6         0.000 6     -1206.193 6        37.977 6
G20  21897968.814 9 115074570.141 9      2536.507 9        55.334 9  21897969.109 6         0.000 6      1976.500 6        37.977 6
> 2019 07 03 12 02 37.0000000  0  8       0.000000000000
G07  25305986.938 9 132983813.180 9      2131.511 9        54.146 9  25305987.586 6         0.000 6      1660.919 6        37.977 6
G10  23744822.183 9 124779829.120 9      3519.216 9        54.693 9  23744825.847 6         0.000 6      2742.249 6        37.977 6
G21  21194687.629 9 111378814.498 9     -1270.343 9        55.699 9  21194686.919 6         0.000 6      -989.878 6        37.977 6
G29  24358736.030 9 128005964.413 9     -3086.902 9        54.454 9  24358737.666 6         0.000 6     -2405.381 6        37.977 6
G27  21957660.954 9 115388260.397 9      2446.055 9        55.393 9  21957662.870 6         0.000 6      1906.018 6        37.977 6
G16  20487069.036 9 107660254.124 9       481.395 9        55.981 9  20487068.208 6         0.000 6       375.113 6        37.977 6
G26  20682706.314 9 108688332.819 9     -1548.206 9        55.861 9  20682709.141 6         0.000 6     -1206.395 6        37.977 6
G20  21897486.128 9 115072033.614 9      2536.561 9        55.334 9  21897486.423 6         0.000 6      1976.542 6        37.977 6
> 2019 07 03 12 02 38.0000000  0  8       0.000000000000
G07  25305581.436 9 132981682.257 9      2130.345 9        54.146 9  25305582.084 6         0.000 6      1660.010 6        37.977 6
G10  23744152.448 9 124776309.646 9      3519.750 9        54.693 9  23744156.111 6         0.000 6      2742.665 6        37.977 6
G21  21194929.407 9 111380085.049 9     -1270.763 9        55.699 9  21194928.697 6         0.000 6      -990.205 6        37.977 6
G29  24359323.444 9 128009051.285 9     -3086.869 9        54.454 9  24359325.081 6         0.000 6     -2405.355 6        37.977 6
G27  21957195.531 9 115385814.582 9      2445.585 9        55.393 9  21957197.447 6         0.000 6      1905.651 6        37.977 6
G16  20486977.495 9 107659773.076 9       480.702 9        55.981 9  20486976.668 6         0.000 6       374.573 6        37.977 6
G26  20683000.954 9 108689881.157 9     -1548.474 9        55.861 9  20683003.781 6         0.000 6     -1206.604 6        37.977 6
G20  21897003.433 9 115069497.038 9      2536.595 9        55.334 9  21897003.728 6         0.000 6      1976.569 6        37.977 6
> 2019 07 03 12 02 39.0000000  0  8       0.000000000000
G07  25305176.154 9 132979552.491 9      2129.194 9        54.146 9  25305176.802 6         0.000 6      1659.113 6        37.977 6
G10  23743482.612 9 124772789.645 9      3520.271 9        54.693 9  23743486.274 6         0.000 6      2743.071 6        37.977 6
G21  21195171.265 9 111381356.020 9     -1271.181 9        55.699 9  21195170.555 6         0.000 6      -990.531 6        37.977 6
G29  24359910.854 9 128012138.134 9     -3086.845 9        54.453 9  24359912.491 6         0.000 6     -2405.336 6        37.977 6
G27  21956730.195 9 115383369.226 9      2445.126 9        55.393 9  21956732.110 6         0.000 6      1905.294 6        37.977 6
G16  20486886.085 9 107659292.714 9       480.017 9        55.981 9  20486885.258 6         0.000 6       374.039 6        37.977 6
G26  20683295.644 9 108691429.762 9     -1548.744 9        55.861 9  20683298.471 6         0.000 6     -1206.814 6        37.977 6
G20  21896520.733 9 115066960.435 9      2536.619 9        55.334 9  21896521.027 6         0.000 6      1976.587 6        37.977 6
> 2019 07 03 12 02 40.0000000  0  8       0.000000000000
G07  25304771.089 9 132977423.865 9      2128.063 9        54.146 9  25304771.737 6         0.000 6      1658.232 6        37.977 6
G10  23742812.679 9 124769269.136 9      3520.771 9        54.694 9  23742816.341 6         0.000 6      2743.460 6        37.977 6
G21  21195413.203 9 111382627.413 9     -1271.603 9        55.699 9  21195412.493 6         0.000 6      -990.859 6        37.977 6
G29  24360498.260 9 128015224.964 9     -3086.830 9        54.453 9  24360499.898 6         0.000 6     -2405.325 6        37.977 6
G27  21956264.945 9 115380924.326 9      2444.676 9        55.393 9  21956266.861 6         0.000 6      1904.943 6        37.977 6
G16  20486794.806 9 107658813.039 9       479.332 9        55.981 9  20486793.979 6         0.000 6       373.505 6        37.977 6
G26  20683590.387 9 108692978.644 9     -1549.024 9        55.861 9  20683593.214 6         0.000 6     -1207.032 6        37.977 6
G20  21896038.030 9 115064423.820 9      2536.624 9        55.334 9  21896038.324 6         0.000 6      1976.591 6        37.977 6
> 2019 07 03 12 02 41.0000000  0  8       0.000000000000
G07  25304366.239 9 132975296.366 9      2126.948 9        54.146 9  25304366.887 6         0.000 6      1657.363 6        37.977 6
G10  23742142.652 9 124765748.129 9      3521.258 9        54.694 9  23742146.313 6         0.000 6      2743.840 6        37.977 6
G21  21195655.221 9 111383899.222 9     -1272.022 9        55.699 9  21195654.511 6         0.000 6      -991.186 6        37.977 6
G29  24361085.663 9 128018311.777 9     -3086.823 9        54.453 9  24361087.302 6         0.000 6     -2405.319 6        37.977 6
G27  21955799.781 9 115378479.874 9      2444.237 9        55.394 9  21955801.696 6         0.000 6      1904.601 6        37.977 6
G16  20486703.657 9 107658334.045 9       478.654 9        55.981 9  20486702.829 6         0.000 6       372.977 6        37.977 6
G26  20683885.182 9 108694527.805 9     -1549.305 9        55.861 9  20683888.010 6         0.000 6     -1207.251 6        37.977 6
G20  21895555.326 9 115061887.199 9      2536.620 9        55.335 9  21895555.620 6         0.000 6      1976.588 6        37.977 6
> 2019 07 03 12 02 42.0000000  0  8       0.000000000000
G07  25303961.601 9 132973169.984 9      2125.836 9        54.146 9  25303962.249 6         0.000 6      1656.497 6        37.977 6
G10  23741472.532 9 124762226.635 9      3521.738 9        54.694 9  23741476.192 6         0.000 6      2744.214 6        37.977 6
G21  21195897.319 9 111385171.458 9     -1272.447 9        55.699 9  21195896.609 6         0.000 6      -991.517 6        37.977 6
G29  24361673.066 9 128021398.591 9     -3086.823 9        54.453 9  24361674.705 6         0.000 6     -2405.319 6        37.977 6
G27  21955334.700 9 115376035.859 9      2443.799 9        55.394 9  21955336.615 6         0.000 6      1904.260 6        37.977 6
G16  20486612.637 9 107657855.731 9       477.975 9        55.981 9  20486611.809 6         0.000 6       372.448 6        37.977 6
G26  20684180.032 9 108696077.248 9     -1549.591 9        55.861 9  20684182.859 6         0.000 6     -1207.474 6        37.977 6
G20  21895072.624 9 115059350.586 9      2536.607 9        55.335 9  21895072.918 6         0.000 6      1976.578 6        37.977 6
> 2019 07 03 12 02 43.0000000  0  8       0.000000000000
G07  25303557.171 9 132971044.692 9      2124.741 9        54.146 9  25303557.818 6         0.000 6      1655.643 6        37.977 6
G10  23740802.323 9 124758704.675 9      3522.210 9        54.694 9  23740805.983 6         0.000 6      2744.582 6        37.977 6
G21  21196139.498 9 111386444.112 9     -1272.867 9        55.699 9  21196138.788 6         0.000 6      -991.845 6        37.977 6
G29  24362260.470 9 128024485.411 9     -3086.829 9        54.453 9  24362262.110 6         0.000 6     -2405.324 6        37.977 6
G27  21954869.699 9 115373592.267 9      2443.376 9        55.394 9  21954871.614 6         0.000 6      1903.930 6        37.977 6
G16  20486521.744 9 107657378.085 9       477.307 9        55.981 9  20486520.916 6         0.000 6       371.927 6        37.977 6
G26  20684474.936 9 108697626.977 9     -1549.873 9        55.861 9  20684477.763 6         0.000 6     -1207.694 6        37.977 6
G20  21894589.926 9 115056813.995 9      2536.590 9        55.335 9  21894590.219 6         0.000 6      1976.564 6        37.977 6
> 2019 07 03 12 02 44.0000000  0  8       0.000000000000
G07  25303152.950 9 132968920.499 9      2123.658 9        54.147 9  25303153.597 6         0.000 6      1654.800 6        37.977 6
G10  23740132.025 9 124755182.246 9      3522.667 9        54.695 9  23740135.684 6         0.000 6      2744.938 6        37.977 6
G21  21196381.757 9 111387717.194 9     -1273.293 9        55.699 9  21196381.047 6         0.000 6      -992.176 6        37.977 6
G29  24362847.876 9 128027572.239 9     -3086.846 9        54.452 9  24362849.517 6         0.000 6     -2405.337 6        37.977 6
G27  21954404.780 9 115371149.104 9      2442.960 9        55.394 9  21954406.695 6         0.000 6      1903.606 6        37.977 6
G16  20486430.979 9 107656901.114 9       476.638 9        55.981 9  20486430.152 6         0.000 6       371.406 6        37.977 6
G26  20684769.895 9 108699176.994 9     -1550.163 9        55.860 9  20684772.722 6         0.000 6     -1207.919 6        37.977 6
G20  21894107.232 9 115054277.426 9      2536.557 9        55.335 9  21894107.525 6         0.000 6      1976.539 6        37.977 6
> 2019 07 03 12 02 45.0000000  0  8       0.000000000000
G07  25302748.934 9 132966797.386 9      2122.576 9        54.147 9  25302749.581 6         0.000 6      1653.956 6        37.977 6
G10  23739461.641 9 124751659.365 9      3523.119 9        54.695 9  23739465.300 6         0.000 6      2745.290 6        37.977 6
G21  21196624.098 9 111388990.703 9     -1273.721 9        55.699 9  21196623.388 6         0.000 6      -992.510 6        37.977 6
G29  24363435.285 9 128030659.085 9     -3086.864 9        54.452 9  24363436.926 6         0.000 6     -2405.351 6        37.977 6
G27  21953939.941 9 115368706.359 9      2442.540 9        55.394 9  21953941.855 6         0.000 6      1903.279 6        37.977 6
G16  20486340.343 9 107656424.815 9       475.967 9        55.981 9  20486339.515 6         0.000 6       370.883 6        37.977 6
G26  20685064.910 9 108700727.305 9     -1550.457 9        55.860 9  20685067.737 6         0.000 6     -1208.149 6        37.977 6
G20  21893624.545 9 115051740.894 9      2536.520 9        55.335 9  21893624.838 6         0.000 6      1976.510 6        37.977 6
> 2019 07 03 12 02 46.0000000  0  8       0.000000000000
G07  25302345.124 9 132964675.349 9      2121.505 9        54.147 9  25302345.770 6         0.000 6      1653.122 6        37.977 6
G10  23738791.171 9 124748136.032 9      3523.565 9        54.695 9  23738794.829 6         0.000 6      2745.637 6        37.977 6
G21  21196866.519 9 111390264.636 9     -1274.149 9        55.699 9  21196865.810 6         0.000 6      -992.844 6        37.977 6
G29  24364022.698 9 128033745.951 9     -3086.890 9        54.452 9  24364024.340 6         0.000 6     -2405.372 6        37.977 6
G27  21953475.179 9 115366264.024 9      2442.132 9        55.395 9  21953477.094 6         0.000 6      1902.961 6        37.977 6
G16  20486249.832 9 107655949.179 9       475.302 9        55.981 9  20486249.005 6         0.000 6       370.365 6        37.977 6
G26  20685359.979 9 108702277.904 9     -1550.750 9        55.860 9  20685362.807 6         0.000 6     -1208.377 6        37.977 6
G20  21893141.865 9 115049204.397 9      2536.477 9        55.336 9  21893142.158 6         0.000 6      1976.477 6        37.977 6
> 2019 07 03 12 02 47.0000000  0  8       0.000000000000
G07  25301941.515 9 132962554.377 9      2120.445 9        54.147 9  25301942.162 6         0.000 6      1652.296 6        37.977 6
G10  23738120.617 9 124744612.256 9      3524.004 9        54.695 9  23738124.274 6         0.000 6      2745.980 6        37.977 6
G21  21197109.022 9 111391538.995 9     -1274.577 9        55.698 9  21197108.312 6         0.000 6      -993.177 6        37.977 6
G29  24364610.117 9 128036832.848 9     -3086.925 9        54.452 9  24364611.760 6         0.000 6     -2405.399 6        37.977 6
G27  21953010.494 9 115363822.090 9      2441.735 9        55.395 9  21953012.409 6         0.000 6      1902.651 6        37.977 6
G16  20486159.447 9 107655474.203 9       474.644 9        55.981 9  20486158.620 6         0.000 6       369.853 6        37.977 6
G26  20685655.104 9 108703828.794 9     -1551.040 9        55.860 9  20685657.932 6         0.000 6     -1208.603 6        37.977 6
G20  21892659.194 9 115046667.947 9      2536.428 9        55.336 9  21892659.486 6         0.000 6      1976.439 6        37.977 6
> 2019 07 03 12 02 48.0000000  0  8       0.000000000000
G07  25301538.109 9 132960434.468 9      2119.385 9        54.147 9  25301538.755 6         0.000 6      1651.469 6        37.977 6
G10  23737449.980 9 124741088.045 9      3524.438 9        54.696 9  23737453.636 6         0.000 6      2746.318 6        37.977 6
G21  21197351.608 9 111392813.789 9     -1275.008 9        55.698 9  21197350.898 6         0.000 6      -993.513 6        37.977 6
G29  24365197.543 9 128039919.782 9     -3086.962 9        54.452 9  24365199.186 6         0.000 6     -2405.427 6        37.977 6
G27  21952545.886 9 115361380.560 9      2441.335 9        55.395 9  21952547.800 6         0.000 6      1902.339 6        37.977 6
G16  20486069.188 9 107654999.891 9       473.983 9        55.981 9  20486068.361 6         0.000 6       369.338 6        37.977 6
G26  20685950.285 9 108705379.981 9     -1551.335 9        55.860 9  20685953.113 6         0.000 6     -1208.833 6        37.977 6
G20  21892176.533 9 115044131.550 9      2536.374 9        55.336 9  21892176.825 6         0.000 6      1976.397 6        37.977 6
> 2019 07 03 12 02 49.0000000  0  8       0.000000000000
G07  25301134.906 9 132958315.620 9      2118.332 9        54.147 9  25301135.551 6         0.000 6      1650.649 6        37.977 6
G10  23736779.259 9 124737563.394 9      3524.868 9        54.696 9  23736782.915 6         0.000 6      2746.653 6        37.977 6
G21  21197594.274 9 111394089.012 9     -1275.444 9        55.698 9  21197593.565 6         0.000 6      -993.852 6        37.977 6
G29  24365784.976 9 128043006.751 9     -3087.007 9        54.451 9  24365786.620 6         0.000 6     -2405.463 6        37.977 6
G27  21952081.353 9 115358939.428 9      2440.942 9        55.395 9  21952083.268 6         0.000 6      1902.033 6        37.977 6
G16  20485979.055 9 107654526.236 9       473.325 9        55.981 9  20485978.228 6         0.000 6       368.825 6        37.977 6
G26  20686245.522 9 108706931.458 9     -1551.631 9        55.860 9  20686248.350 6         0.000 6     -1209.063 6        37.977 6
G20  21891693.881 9 115041595.203 9      2536.314 9        55.336 9  21891694.173 6         0.000 6      1976.350 6        37.977 6
> 2019 07 03 12 02 50.0000000  0  8       0.000000000000
G07  25300731.900 9 132956197.817 9      2117.281 9        54.147 9  25300732.546 6         0.000 6      1649.830 6        37.977 6
G10  23736108.458 9 124734038.322 9      3525.296 9        54.696 9  23736112.114 6         0.000 6      2746.987 6        37.977 6
G21  21197837.024 9 111395364.670 9     -1275.875 9        55.698 9  21197836.315 6         0.000 6      -994.188 6        37.977 6
G29  24366372.418 9 128046093.770 9     -3087.052 9        54.451 9  24366374.063 6         0.000 6     -2405.498 6        37.977 6
G27  21951616.895 9 115356498.683 9      2440.552 9        55.395 9  21951618.809 6         0.000 6      1901.730 6        37.977 6
G16  20485889.046 9 107654053.238 9       472.671 9        55.981 9  20485888.219 6         0.000 6       368.315 6        37.977 6
G26  20686540.815 9 108708483.234 9     -1551.924 9        55.860 9  20686543.644 6         0.000 6     -1209.292 6        37.977 6
G20  21891211.243 9 115039058.924 9      2536.254 9        55.336 9  21891211.534 6         0.000 6      1976.303 6        37.977 6
> 2019 07 03 12 02 51.0000000  0  8       0.000000000000
G07  25300329.094 9 132954081.059 9      2116.237 9        54.148 9  25300329.739 6         0.000 6      1649.017 6        37.977 6
G10  23735437.577 9 124730512.827 9      3525.719 9        54.696 9  23735441.231 6         0.000 6      2747.316 6        37.977 6
G21  21198079.857 9 111396640.764 9     -1276.310 9        55.698 9  21198079.147 6         0.000 6      -994.528 6        37.977 6
G29  24366959.871 9 128049180.844 9     -3087.107 9        54.451 9  24366961.516 6         0.000 6     -2405.541 6        37.977 6
G27  21951152.509 9 115354058.321 9      2440.170 9        55.395 9  21951154.422 6         0.000 6      1901.432 6        37.977 6
G16  20485799.162 9 107653580.891 9       472.020 9        55.981 9  20485798.334 6         0.000 6       367.808 6        37.977 6
G26  20686836.165 9 108710035.302 9     -1552.217 9        55.860 9  20686838.993 6         0.000 6     -1209.520 6        37.977 6
G20  21890728.617 9 115036522.711 9      2536.187 9        55.337 9  21890728.908 6         0.000 6      1976.250 6        37.977 6
> 2019 07 03 12 02 52.0000000  0  8       0.000000000000
G07  25299926.487 9 132951965.347 9      2115.196 9        54.148 9  25299927.132 6         0.000 6      1648.206 6        37.977 6
G10  23734766.615 9 124726986.906 9      3526.140 9        54.697 9  23734770.268 6         0.000 6      2747.644 6        37.977 6
G21  21198322.772 9 111397917.292 9     -1276.748 9        55.698 9  21198322.063 6         0.000 6      -994.869 6        37.977 6
G29  24367547.333 9 128052267.969 9     -3087.167 9        54.451 9  24367548.979 6         0.000 6     -2405.587 6        37.977 6
G27  21950688.196 9 115351618.344 9      2439.791 9        55.396 9  21950690.110 6         0.000 6      1901.137 6        37.977 6
G16  20485709.401 9 107653109.196 9       471.371 9        55.981 9  20485708.574 6         0.000 6       367.302 6        37.977 6
G26  20687131.570 9 108711587.664 9     -1552.510 9        55.859 9  20687134.398 6         0.000 6     -1209.749 6        37.977 6
G20  21890246.003 9 115033986.563 9      2536.116 9        55.337 9  21890246.293 6         0.000 6      1976.196 6        37.977 6
> 2019 07 03 12 02 53.0000000  0  8       0.000000000000
G07  25299524.077 9 132949850.674 9      2114.157 9        54.148 9  25299524.722 6         0.000 6      1647.396 6        37.977 6
G10  23734095.573 9 124723460.567 9      3526.558 9        54.697 9  23734099.226 6         0.000 6      2747.970 6        37.977 6
G21  21198565.771 9 111399194.260 9     -1277.189 9        55.698 9  21198565.062 6         0.000 6      -995.212 6        37.977 6
G29  24368134.808 9 128055355.158 9     -3087.233 9        54.451 9  24368136.454 6         0.000 6     -2405.638 6        37.977 6
G27  21950223.955 9 115349178.743 9      2439.416 9        55.396 9  21950225.868 6         0.000 6      1900.844 6        37.977 6
G16  20485619.764 9 107652638.149 9       470.723 9        55.981 9  20485618.937 6         0.000 6       366.797 6        37.977 6
G26  20687427.030 9 108713140.319 9     -1552.804 9        55.859 9  20687429.859 6         0.000 6     -1209.977 6        37.977 6
G20  21889763.403 9 115031450.488 9      2536.042 9        55.337 9  21889763.693 6         0.000 6      1976.138 6        37.977 6
> 2019 07 03 12 02 54.0000000  0  8       0.000000000000
G07  25299121.864 9 132947737.035 9      2113.120 9        54.148 9  25299122.509 6         0.000 6      1646.588 6        37.977 6
G10  23733424.452 9 124719933.817 9      3526.974 9        54.697 9  23733428.105 6         0.000 6      2748.294 6        37.977 6
G21  21198808.855 9 111400471.673 9     -1277.631 9        55.698 9  21198808.146 6         0.000 6      -995.557 6        37.977 6
G29  24368722.296 9 128058442.418 9     -3087.303 9        54.450 9  24368723.943 6         0.000 6     -2405.693 6        37.977 6
G27  21949759.785 9 115346739.516 9      2439.044 9        55.396 9  21949761.698 6         0.000 6      1900.555 6        37.977 6
G16  20485530.250 9 107652167.753 9       470.076 9        55.982 9  20485529.423 6         0.000 6       366.293 6        37.977 6
G26  20687722.548 9 108714693.273 9     -1553.097 9        55.859 9  20687725.377 6         0.000 6     -1210.206 6        37.977 6
G20  21889280.819 9 115028914.494 9      2535.965 9        55.337 9  21889281.109 6         0.000 6      1976.078 6        37.977 6
> 2019 07 03 12 02 55.0000000  0  8       0.000000000000
G07  25298719.850 9 132945624.437 9      2112.085 9        54.148 9  25298720.494 6         0.000 6      1645.781 6        37.977 6
G10  23732753.251 9 124716406.643 9      3527.391 9        54.697 9  23732756.903 6         0.000 6      2748.619 6        37.977 6
G21  21199052.022 9 111401749.523 9     -1278.074 9        55.698 9  21199051.313 6         0.000 6      -995.902 6        37.977 6
G29  24369309.797 9 128061529.748 9     -3087.378 9        54.450 9  24369311.445 6         0.000 6     -2405.752 6        37.977 6
G27  21949295.685 9 115344300.656 9      2438.678 9        55.396 9  21949297.598 6         0.000 6      1900.269 6        37.977 6
G16  20485440.859 9 107651697.995 9       469.435 9        55.982 9  20485440.031 6         0.000 6       365.793 6        37.977 6
G26  20688018.120 9 108716246.510 9     -1553.385 9        55.859 9  20688020.948 6         0.000 6     -1210.431 6        37.977 6
G20  21888798.247 9 115026378.570 9      2535.888 9        55.337 9  21888798.537 6         0.000 6      1976.018 6        37.977 6
> 2019 07 03 12 02 56.0000000  0  8       0.000000000000
G07  25298318.032 9 132943512.872 9      2111.048 9        54.148 9  25298318.676 6         0.000 6      1644.973 6        37.977 6
G10  23732081.972 9 124712879.055 9      3527.808 9        54.698 9  23732085.623 6         0.000 6      2748.944 6        37.977 6
G21  21199295.274 9 111403027.818 9     -1278.523 9        55.698 9  21199294.564 6         0.000 6      -996.252 6        37.977 6
G29  24369897.313 9 128064617.153 9     -3087.459 9        54.450 9  24369898.961 6         0.000 6     -2405.815 6        37.977 6
G27  21948831.655 9 115341862.165 9      2438.312 9        55.396 9  21948833.568 6         0.000 6      1899.984 6        37.977 6
G16  20485351.590 9 107651228.883 9       468.791 9        55.982 9  20485350.762 6         0.000 6       365.291 6        37.977 6
G26  20688313.747 9 108717800.040 9     -1553.676 9        55.859 9  20688316.576 6         0.000 6     -1210.657 6        37.977 6
G20  21888315.692 9 115023842.727 9      2535.807 9        55.337 9  21888315.981 6         0.000 6      1975.955 6        37.977 6
> 2019 07 03 12 02 57.0000000  0  8       0.000000000000
G07  25297916.411 9 132941402.347 9      2110.012 9        54.148 9  25297917.055 6         0.000 6      1644.166 6        37.977 6
G10  23731410.612 9 124709351.047 9      3528.227 9        54.698 9  23731414.263 6         0.000 6      2749.270 6        37.977 6
G21  21199538.612 9 111404306.567 9     -1278.972 9        55.697 9  21199537.902 6         0.000 6      -996.601 6        37.977 6
G29  24370484.845 9 128067704.645 9     -3087.545 9        54.450 9  24370486.494 6         0.000 6     -2405.882 6        37.977 6
G27  21948367.694 9 115339424.038 9      2437.951 9        55.397 9  21948369.607 6         0.000 6      1899.703 6        37.977 6
G16  20485262.443 9 107650760.414 9       468.152 9        55.982 9  20485261.616 6         0.000 6       364.793 6        37.977 6
G26  20688609.429 9 108719353.857 9     -1553.961 9        55.859 9  20688612.258 6         0.000 6     -1210.879 6        37.977 6
G20  21887833.151 9 115021306.964 9      2535.727 9        55.338 9  21887833.440 6         0.000 6      1975.892 6        37.977 6
> 2019 07 03 12 02 58.0000000  0  8       0.000000000000
G07  25297514.988 9 132939292.858 9      2108.972 9        54.148 9  25297515.632 6         0.000 6      1643.355 6        37.977 6
G10  23730739.173 9 124705822.620 9      3528.649 9        54.698 9  23730742.823 6         0.000 6      2749.599 6        37.977 6
G21  21199782.035 9 111405585.764 9     -1279.425 9        55.697 9  21199781.326 6         0.000 6      -996.954 6        37.977 6
G29  24371072.393 9 128070792.223 9     -3087.637 9        54.449 9  24371074.043 6         0.000 6     -2405.954 6        37.977 6
G27  21947903.802 9 115336986.271 9      2437.592 9        55.397 9  21947905.715 6         0.000 6      1899.423 6        37.977 6
G16  20485173.418 9 107650292.583 9       467.513 9        55.982 9  20485172.590 6         0.000 6       364.296 6        37.977 6
G26  20688905.165 9 108720907.961 9     -1554.244 9        55.859 9  20688907.994 6         0.000 6     -1211.100 6        37.977 6
G20  21887350.626 9 115018771.282 9      2535.647 9        55.338 9  21887350.915 6         0.000 6      1975.830 6        37.977 6
> 2019 07 03 12 02 59.0000000  0  8       0.000000000000
G07  25297113.762 9 132937184.405 9      2107.936 9        54.149 9  25297114.406 6         0.000 6      1642.548 6        37.977 6
G10  23730067.653 9 124702293.771 9      3529.069 9        54.698 9  23730071.303 6         0.000 6      2749.927 6        37.977 6
G21  21200025.544 9 111406865.410 9     -1279.880 9        55.697 9  21200024.834 6         0.000 6      -997.309 6        37.977 6
G29  24371659.960 9 128073879.897 9     -3087.733 9        54.449 9  24371661.610 6         0.000 6     -2406.028 6        37.977 6
G27  21947439.977 9 115334548.855 9      2437.238 9        55.397 9  21947441.889 6         0.000 6      1899.147 6        37.977 6
G16  20485084.512 9 107649825.383 9       466.877 9        55.982 9  20485083.685 6         0.000 6       363.800 6        37.977 6
G26  20689200.954 9 108722462.340 9     -1554.527 9        55.859 9  20689203.783 6         0.000 6     -1211.320 6        37.977 6
G20  21886868.116 9 115016235.678 9      2535.564 9        55.338 9  21886868.405 6         0.000 6      1975.765 6        37.977 6
> 2019 07 03 12 03  0.0000000  0  8       0.000000000000
G07  25296712.735 9 132935076.993 9      2106.893 9        54.149 9  25296713.378 6         0.000 6      1641.735 6        37.977 6
G10  23729396.053 9 124698764.500 9      3529.497 9        54.699 9  23729399.702 6         0.000 6      2750.260 6        37.977 6
G21  21200269.140 9 111408145.516 9     -1280.337 9        55.697 9  21200268.431 6         0.000 6      -997.665 6        37.977 6
G29  24372247.545 9 128076967.668 9     -3087.836 9        54.449 9  24372249.196 6         0.000 6     -2406.108 6        37.977 6
G27  21946976.220 9 115332111.796 9      2436.887 9        55.397 9  21946978.132 6         0.000 6      1898.873 6        37.977 6
G16  20484995.729 9 107649358.822 9       466.245 9        55.982 9  20484994.902 6         0.000 6       363.307 6        37.977 6
G26  20689496.797 9 108724017.004 9     -1554.802 9        55.858 9  20689499.627 6         0.000 6     -1211.534 6        37.977 6
G20  21886385.622 9 115013700.159 9      2535.484 9        55.338 9  21886385.910 6         0.000 6      1975.703 6        37.977 6
> 2019 07 03 12 03  1.0000000  0  8       0.000000000000
G07  25296311.905 9 132932970.625 9      2105.852 9        54.149 9  25296312.549 6         0.000 6      1640.924 6        37.977 6
G10  23728724.372 9 124695234.802 9      3529.922 9        54.699 9  23728728.020 6         0.000 6      2750.591 6        37.977 6
G21  21200512.824 9 111409426.085 9     -1280.796 9        55.697 9  21200512.115 6         0.000 6      -998.023 6        37.977 6
G29  24372835.151 9 128080055.548 9     -3087.944 9        54.449 9  24372836.803 6         0.000 6     -2406.192 6        37.977 6
G27  21946512.529 9 115329675.089 9      2436.539 9        55.397 9  21946514.441 6         0.000 6      1898.602 6        37.977 6
G16  20484907.066 9 107648892.897 9       465.614 9        55.982 9  20484906.239 6         0.000 6       362.816 6        37.977 6
G26  20689792.693 9 108725571.945 9     -1555.077 9        55.858 9  20689795.523 6         0.000 6     -1211.749 6        37.977 6
G20  21885903.144 9 115011164.722 9      2535.402 9        55.338 9  21885903.432 6         0.000 6      1975.639 6        37.977 6
> 2019 07 03 12 03  2.0000000  0  8       0.000000000000
G07  25295911.275 9 132930865.300 9      2104.805 9        54.149 9  25295911.918 6         0.000 6      1640.109 6        37.977 6
G10  23728052.609 9 124691704.672 9      3530.355 9        54.699 9  23728056.256 6         0.000 6      2750.929 6        37.977 6
G21  21200756.595 9 111410707.111 9     -1281.264 9        55.697 9  21200755.886 6         0.000 6      -998.388 6        37.977 6
G29  24373422.779 9 128083143.540 9     -3088.063 9        54.449 9  24373424.431 6         0.000 6     -2406.285 6        37.977 6
G27  21946048.903 9 115327238.721 9      2436.196 9        55.397 9  21946050.815 6         0.000 6      1898.335 6        37.977 6
G16  20484818.522 9 107648427.594 9       464.985 9        55.982 9  20484817.695 6         0.000 6       362.326 6        37.977 6
G26  20690088.639 9 108727127.151 9     -1555.347 9        55.858 9  20690091.469 6         0.000 6     -1211.959 6        37.977 6
G20  21885420.680 9 115008629.364 9      2535.319 9        55.339 9  21885420.968 6         0.000 6      1975.575 6        37.977 6
> 2019 07 03 12 03  3.0000000  0  8       0.000000000000
G07  25295510.843 9 132928761.018 9      2103.755 9        54.149 9  25295511.485 6         0.000 6      1639.290 6        37.977 6
G10  23727380.764 9 124688174.114 9      3530.792 9        54.699 9  23727384.411 6         0.000 6      2751.269 6        37.977 6
G21  21201000.456 9 111411988.607 9     -1281.729 9        55.697 9  21200999.747 6         0.000 6      -998.750 6        37.977 6
G29  24374010.429 9 128086231.651 9     -3088.182 9        54.448 9  24374012.082 6         0.000 6     -2406.378 6        37.977 6
G27  21945585.343 9 115324802.699 9      2435.855 9        55.398 9  21945587.255 6         0.000 6      1898.069 6        37.977 6
G16  20484730.098 9 107647962.923 9       464.359 9        55.982 9  20484729.271 6         0.000 6       361.838 6        37.977 6
G26  20690384.638 9 108728682.632 9     -1555.612 9        55.858 9  20690387.468 6         0.000 6     -1212.165 6        37.977 6
G20  21884938.233 9 115006094.092 9      2535.241 9        55.339 9  21884938.521 6         0.000 6      1975.514 6        37.977 6
> 2019 07 03 12 03  4.0000000  0  8       0.000000000000
G07  25295110.612 9 132926657.793 9      2102.705 9        54.149 9  25295111.254 6         0.000 6      1638.472 6        37.977 6
G10  23726708.835 9 124684643.113 9      3531.231 9        54.700 9  23726712.481 6         0.000 6      2751.611 6        37.977 6
G21  21201244.406 9 111413270.570 9     -1282.201 9        55.697 9  21201243.697 6         0.000 6      -999.118 6        37.977 6
G29  24374598.101 9 128089319.882 9     -3088.311 9        54.448 9  24374599.755 6         0.000 6     -2406.479 6        37.977 6
G27  21945121.848 9 115322367.019 9      2435.519 9        55.398 9  21945123.760 6         0.000 6      1897.808 6        37.977 6
G16  20484641.793 9 107647498.878 9       463.736 9        55.982 9  20484640.966 6         0.000 6       361.353 6        37.977 6
G26  20690680.686 9 108730238.375 9     -1555.874 9        55.858 9  20690683.516 6         0.000 6     -1212.370 6        37.977 6
G20  21884455.800 9 115003558.894 9      2535.160 9        55.339 9  21884456.087 6         0.000 6      1975.450 6        37.977 6
> 2019 07 03 12 03  5.0000000  0  8       0.000000000000
G07  25294710.581 9 132924555.622 9      2101.641 9        54.149 9  25294711.223 6         0.000 6      1637.644 6        37.977 6
G10  23726036.822 9 124681111.669 9      3531.681 9        54.700 9  23726040.467 6         0.000 6      2751.962 6        37.977 6
G21  21201488.446 9 111414553.009 9     -1282.676 9        55.697 9  21201487.737 6         0.000 6      -999.488 6        37.977 6
G29  24375185.800 9 128092408.248 9     -3088.443 9        54.448 9  24375187.454 6         0.000 6     -2406.581 6        37.977 6
G27  21944658.417 9 115319931.673 9      2435.180 9        55.398 9  21944660.328 6         0.000 6      1897.544 6        37.977 6
G16  20484553.607 9 107647035.456 9       463.112 9        55.982 9  20484552.780 6         0.000 6       360.866 6        37.977 6
G26  20690976.784 9 108731794.378 9     -1556.130 9        55.858 9  20690979.614 6         0.000 6     -1212.569 6        37.977 6
G20  21883973.383 9 115001023.778 9      2535.085 9        55.339 9  21883973.670 6         0.000 6      1975.392 6        37.977 6
> 2019 07 03 12 03  6.0000000  0  8       0.000000000000
G07  25294310.752 9 132922454.510 9      2100.582 9        54.150 9  25294311.394 6         0.000 6      1636.818 6        37.977 6
G10  23725364.723 9 124677579.776 9      3532.130 9        54.700 9  23725368.368 6         0.000 6      2752.312 6        37.977 6
G21  21201732.577 9 111415835.925 9     -1283.160 9        55.697 9  21201731.868 6         0.000 6      -999.865 6        37.977 6
G29  24375773.526 9 128095496.756 9     -3088.589 9        54.448 9  24375775.180 6         0.000 6     -2406.696 6        37.977 6
G27  21944195.048 9 115317496.656 9      2434.852 9        55.398 9  21944196.959 6         0.000 6      1897.288 6        37.977 6
G16  20484465.538 9 107646572.652 9       462.491 9        55.982 9  20484464.711 6         0.000 6       360.383 6        37.977 6
G26  20691272.930 9 108733350.631 9     -1556.384 9        55.858 9  20691275.760 6         0.000 6     -1212.767 6        37.977 6
G20  21883490.980 9 114998488.739 9      2535.005 9        55.339 9  21883491.267 6         0.000 6      1975.329 6        37.977 6
> 2019 07 03 12 03  7.0000000  0  8       0.000000000000
G07  25293911.126 9 132920354.464 9      2099.510 9        54.150 9  25293911.768 6         0.000 6      1635.983 6        37.977 6
G10  23724692.537 9 124674047.427 9      3532.595 9        54.700 9  23724696.181 6         0.000 6      2752.674 6        37.977 6
G21  21201976.799 9 111417119.321 9     -1283.641 9        55.696 9  21201976.090 6         0.000 6     -1000.240 6        37.977 6
G29  24376361.278 9 128098585.406 9     -3088.737 9        54.448 9  24376362.933 6         0.000 6     -2406.810 6        37.977 6
G27  21943731.742 9 115315061.970 9      2434.525 9        55.398 9  21943733.653 6         0.000 6      1897.033 6        37.977 6
G16  20484377.587 9 107646110.466 9       461.877 9        55.982 9  20484376.760 6         0.000 6       359.904 6        37.977 6
G26  20691569.123 9 108734907.134 9     -1556.625 9        55.858 9  20691571.953 6         0.000 6     -1212.955 6        37.977 6
G20  21883008.591 9 114995953.774 9      2534.935 9        55.340 9  21883008.878 6         0.000 6      1975.275 6        37.977 6
> 2019 07 03 12 03  8.0000000  0  8       0.000000000000
G07  25293511.706 9 132918255.501 9      2098.431 9        54.150 9  25293512.348 6         0.000 6      1635.142 6        37.977 6
G10  23724020.261 9 124670514.604 9      3533.066 9        54.701 9  23724023.905 6         0.000 6      2753.041 6        37.977 6
G21  21202221.115 9 111418403.211 9     -1284.131 9        55.696 9  21202220.407 6         0.000 6     -1000.622 6        37.977 6
G29  24376949.061 9 128101674.215 9     -3088.896 9        54.447 9  24376950.717 6         0.000 6     -2406.935 6        37.977 6
G27  21943268.498 9 115312627.609 9      2434.202 9        55.399 9  21943270.409 6         0.000 6      1896.782 6        37.977 6
G16  20484289.754 9 107645648.897 9       461.265 9        55.982 9  20484288.926 6         0.000 6       359.427 6        37.977 6
G26  20691865.361 9 108736463.875 9     -1556.861 9        55.857 9  20691868.191 6         0.000 6     -1213.139 6        37.977 6
G20  21882526.216 9 114993418.877 9      2534.867 9        55.340 9  21882526.502 6         0.000 6      1975.222 6        37.977 6
> 2019 07 03 12 03  9.0000000  0  8       0.000000000000
G07  25293112.491 9 132916157.617 9      2097.339 9        54.150 9  25293113.133 6         0.000 6      1634.291 6        37.977 6
G10  23723347.896 9 124666981.310 9      3533.551 9        54.701 9  23723351.539 6         0.000 6      2753.419 6        37.977 6
G21  21202465.525 9 111419687.590 9     -1284.630 9        55.696 9  21202464.816 6         0.000 6     -1001.011 6        37.977 6
G29  24377536.874 9 128104763.184 9     -3089.068 9        54.447 9  24377538.531 6         0.000 6     -2407.069 6        37.977 6
G27  21942805.316 9 115310193.571 9      2433.883 9        55.399 9  21942807.227 6         0.000 6      1896.533 6        37.977 6
G16  20484202.036 9 107645187.940 9       460.653 9        55.982 9  20484201.209 6         0.000 6       358.951 6        37.977 6
G26  20692161.644 9 108738020.851 9     -1557.088 9        55.857 9  20692164.475 6         0.000 6     -1213.316 6        37.977 6
G20  21882043.853 9 114990884.049 9      2534.802 9        55.340 9  21882044.139 6         0.000 6      1975.172 6        37.977 6
> 2019 07 03 12 03 10.0000000  0  8       0.000000000000
G07  25292713.486 9 132914060.836 9      2096.234 9        54.150 9  25292714.128 6         0.000 6      1633.430 6        37.977 6
G10  23722675.436 9 124663447.519 9      3534.050 9        54.701 9  23722679.078 6         0.000 6      2753.808 6        37.977 6
G21  21202710.030 9 111420972.472 9     -1285.134 9        55.696 9  21202709.321 6         0.000 6     -1001.403 6        37.977 6
G29  24378124.720 9 128107852.326 9     -3089.246 9        54.447 9  24378126.378 6         0.000 6     -2407.208 6        37.977 6
G27  21942342.194 9 115307759.856 9      2433.566 9        55.399 9  21942344.105 6         0.000 6      1896.286 6        37.977 6
G16  20484114.436 9 107644727.595 9       460.046 9        55.982 9  20484113.609 6         0.000 6       358.477 6        37.977 6
G26  20692457.969 9 108739578.049 9     -1557.306 9        55.857 9  20692460.800 6         0.000 6     -1213.485 6        37.977 6
G20  21881561.502 9 114988349.279 9      2534.746 9        55.340 9  21881561.787 6         0.000 6      1975.127 6        37.977 6
> 2019 07 03 12 03 11.0000000  0  8       0.000000000000
G07  25292314.692 9 132911965.160 9      2095.118 9        54.150 9  25292315.333 6         0.000 6      1632.560 6        37.977 6
G10  23722002.880 9 124659913.225 9      3534.562 9        54.701 9  23722006.522 6         0.000 6      2754.207 6        37.977 6
G21  21202954.631 9 111422257.858 9     -1285.647 9        55.696 9  21202953.922 6         0.000 6     -1001.803 6        37.977 6
G29  24378712.602 9 128110941.655 9     -3089.436 9        54.447 9  24378714.260 6         0.000 6     -2407.356 6        37.977 6
G27  21941879.132 9 115305326.446 9      2433.252 9        55.399 9  21941881.042 6         0.000 6      1896.041 6        37.977 6
G16  20484026.949 9 107644267.849 9       459.439 9        55.982 9  20484026.122 6         0.000 6       358.005 6        37.977 6
G26  20692754.334 9 108741135.455 9     -1557.515 9        55.857 9  20692757.165 6         0.000 6     -1213.648 6        37.977 6
G20  21881079.160 9 114985814.563 9      2534.693 9        55.340 9  21881079.446 6         0.000 6      1975.087 6        37.977 6
> 2019 07 03 12 03 12.0000000  0  8       0.000000000000
G07  25291916.112 9 132909870.610 9      2093.989 9        54.150 9  25291916.752 6         0.000 6      1631.681 6        37.977 6
G10  23721330.225 9 124656378.409 9      3535.092 9        54.702 9  23721333.866 6         0.000 6      2754.619 6        37.977 6
G21  21203199.330 9 111423543.762 9     -1286.164 9        55.696 9  21203198.622 6         0.000 6     -1002.206 6        37.977 6
G29  24379300.522 9 128114031.182 9     -3089.638 9        54.447 9  24379302.180 6         0.000 6     -2407.513 6        37.977 6
G27  21941416.128 9 115302893.350 9      2432.946 9        55.399 9  21941418.039 6         0.000 6      1895.803 6        37.977 6
G16  20483939.578 9 107643808.709 9       458.841 9        55.982 9  20483938.750 6         0.000 6       357.539 6        37.977 6
G26  20693050.738 9 108742693.065 9     -1557.708 9        55.857 9  20693053.569 6         0.000 6     -1213.799 6        37.977 6
G20  21880596.828 9 114983279.896 9      2534.650 9        55.341 9  21880597.114 6         0.000 6      1975.053 6        37.977 6
> 2019 07 03 12 03 13.0000000  0  8       0.000000000000
G07  25291517.748 9 132907777.196 9      2092.840 9        54.151 9  25291518.388 6         0.000 6      1630.785 6        37.977 6
G10  23720657.468 9 124652843.058 9      3535.640 9        54.702 9  23720661.108 6         0.000 6      2755.047 6        37.977 6
G21  21203444.130 9 111424830.192 9     -1286.693 9        55.696 9  21203443.421 6         0.000 6     -1002.618 6        37.977 6
G29  24379888.481 9 128117120.917 9     -3089.853 9        54.446 9  24379890.140 6         0.000 6     -2407.680 6        37.977 6
G27  21940953.183 9 115300460.561 9      2432.642 9        55.399 9  21940955.094 6         0.000 6      1895.566 6        37.977 6
G16  20483852.320 9 107643350.169 9       458.244 9        55.982 9  20483851.493 6         0.000 6       357.073 6        37.977 6
G26  20693347.178 9 108744250.868 9     -1557.891 9        55.857 9  20693350.009 6         0.000 6     -1213.942 6        37.977 6
G20  21880114.505 9 114980745.273 9      2534.614 9        55.341 9  21880114.790 6         0.000 6      1975.025 6        37.977 6
> 2019 07 03 12 03 14.0000000  0  8       0.000000000000
G07  25291119.604 9 132905684.943 9      2091.672 9        54.151 9  25291120.245 6         0.000 6      1629.875 6        37.977 6
G10  23719984.604 9 124649307.144 9      3536.210 9        54.702 9  23719988.244 6         0.000 6      2755.491 6        37.977 6
G21  21203689.031 9 111426117.154 9     -1287.233 9        55.696 9  21203688.322 6         0.000 6     -1003.039 6        37.977 6
G29  24380476.482 9 128120210.873 9     -3090.086 9        54.446 9  24380478.142 6         0.000 6     -2407.862 6        37.977 6
G27  21940490.296 9 115298028.073 9      2432.344 9        55.400 9  21940492.206 6         0.000 6      1895.334 6        37.977 6
G16  20483765.176 9 107642892.224 9       457.652 9        55.982 9  20483764.349 6         0.000 6       356.612 6        37.977 6
G26  20693643.651 9 108745808.843 9     -1558.059 9        55.857 9  20693646.483 6         0.000 6     -1214.072 6        37.977 6
G20  21879632.187 9 114978210.678 9      2534.586 9        55.341 9  21879632.471 6         0.000 6      1975.003 6        37.977 6
> 2019 07 03 12 03 15.0000000  0  8       0.000000000000
G07  25290721.684 9 132903593.861 9      2090.490 9        54.151 9  25290722.324 6         0.000 6      1628.954 6        37.977 6
G10  23719311.630 9 124645770.655 9      3536.798 9        54.702 9  23719315.270 6         0.000 6      2755.949 6        37.977 6
G21  21203934.036 9 111427404.661 9     -1287.782 9        55.696 9  21203933.327 6         0.000 6     -1003.466 6        37.977 6
G29  24381064.529 9 128123301.074 9     -3090.331 9        54.446 9  24381066.190 6         0.000 6     -2408.053 6        37.977 6
G27  21940027.463 9 115295595.875 9      2432.052 9        55.400 9  21940029.373 6         0.000 6      1895.106 6        37.977 6
G16  20483678.144 9 107642434.864 9       457.064 9        55.982 9  20483677.316 6         0.000 6       356.154 6        37.977 6
G26  20693940.155 9 108747366.979 9     -1558.213 9        55.857 9  20693942.986 6         0.000 6     -1214.192 6        37.977 6
G20  21879149.873 9 114975676.109 9      2534.567 9        55.341 9  21879150.158 6         0.000 6      1974.989 6        37.977 6
> 2019 07 03 12 03 16.0000000  0  8       0.000000000000
G07  25290323.991 9 132901503.974 9      2089.290 9        54.151 9  25290324.631 6         0.000 6      1628.019 6        37.977 6
G10  23718638.542 9 124642233.563 9      3537.405 9        54.703 9  23718642.181 6         0.000 6      2756.422 6        37.977 6
G21  21204179.145 9 111428692.720 9     -1288.344 9        55.696 9  21204178.437 6         0.000 6     -1003.905 6        37.977 6
G29  24381652.625 9 128126391.526 9     -3090.600 9        54.446 9  24381654.286 6         0.000 6     -2408.262 6        37.977 6
G27  21939564.686 9 115293163.966 9      2431.770 9        55.400 9  21939566.596 6         0.000 6      1894.887 6        37.977 6
G16  20483591.222 9 107641978.089 9       456.484 9        55.982 9  20483590.395 6         0.000 6       355.702 6        37.977 6
G26  20694236.686 9 108748925.258 9     -1558.352 9        55.856 9  20694239.518 6         0.000 6     -1214.301 6        37.977 6
G20  21878667.562 9 114973141.550 9      2534.554 9        55.341 9  21878667.846 6         0.000 6      1974.978 6        37.977 6
> 2019 07 03 12 03 17.0000000  0  8       0.000000000000
G07  25289926.528 9 132899415.296 9      2088.063 9        54.151 9  25289927.168 6         0.000 6      1627.063 6        37.977 6
G10  23717965.336 9 124638695.852 9      3538.045 9        54.703 9  23717968.974 6         0.000 6      2756.921 6        37.977 6
G21  21204424.363 9 111429981.347 9     -1288.918 9        55.695 9  21204423.654 6         0.000 6     -1004.352 6        37.977 6
G29  24382240.773 9 128129482.258 9     -3090.887 9        54.446 9  24382242.435 6         0.000 6     -2408.486 6        37.977 6
G27  21939101.961 9 115290732.333 9      2431.496 9        55.400 9  21939103.871 6         0.000 6      1894.673 6        37.977 6
G16  20483504.410 9 107641521.889 9       455.911 9        55.982 9  20483503.583 6         0.000 6       355.255 6        37.977 6
G26  20694533.242 9 108750483.666 9     -1558.468 9        55.856 9  20694536.073 6         0.000 6     -1214.391 6        37.977 6
G20  21878185.253 9 114970607.001 9      2534.557 9        55.341 9  21878185.536 6         0.000 6      1974.980 6        37.977 6
> 2019 07 03 12 03 18.0000000  0  8       0.000000000000
G07  25289529.302 9 132897327.860 9      2086.817 9        54.151 9  25289529.941 6         0.000 6      1626.092 6        37.977 6
G10  23717292.006 9 124635157.486 9      3538.707 9        54.703 9  23717295.643 6         0.000 6      2757.436 6        37.977 6
G21  21204669.691 9 111431270.556 9     -1289.503 9        55.695 9  21204668.983 6         0.000 6     -1004.808 6        37.977 6
G29  24382828.978 9 128132573.284 9     -3091.192 9        54.445 9  24382830.641 6         0.000 6     -2408.724 6        37.977 6
G27  21938639.289 9 115288300.975 9      2431.229 9        55.400 9  21938641.198 6         0.000 6      1894.465 6        37.977 6
G16  20483417.707 9 107641066.263 9       455.344 9        55.982 9  20483416.880 6         0.000 6       354.813 6        37.977 6
G26  20694829.818 9 108752042.182 9     -1558.568 9        55.856 9  20694832.649 6         0.000 6     -1214.469 6        37.977 6
G20  21877702.941 9 114968072.441 9      2534.568 9        55.342 9  21877703.225 6         0.000 6      1974.990 6        37.977 6
> 2019 07 03 12 03 19.0000000  0  8       0.000000000000
G07  25289132.313 9 132895241.675 9      2085.545 9        54.151 9  25289132.953 6         0.000 6      1625.101 6        37.977 6
G10  23716618.548 9 124631618.452 9      3539.397 9        54.703 9  23716622.185 6         0.000 6      2757.974 6        37.977 6
G21  21204915.133 9 111432560.360 9     -1290.109 9        55.695 9  21204914.425 6         0.000 6     -1005.280 6        37.977 6
G29  24383417.244 9 128135664.633 9     -3091.528 9        54.445 9  24383418.908 6         0.000 6     -2408.985 6        37.977 6
G27  21938176.665 9 115285869.876 9      2430.973 9        55.401 9  21938178.575 6         0.000 6      1894.266 6        37.977 6
G16  20483331.112 9 107640611.200 9       454.783 9        55.982 9  20483330.285 6         0.000 6       354.376 6        37.977 6
G26  20695126.412 9 108753600.793 9     -1558.647 9        55.856 9  20695129.244 6         0.000 6     -1214.531 6        37.977 6
G20  21877220.628 9 114965537.872 9      2534.589 9        55.342 9  21877220.911 6         0.000 6      1975.006 6        37.977 6
> 2019 07 03 12 03 20.0000000  0  8       0.000000000000
G07  25288735.571 9 132893156.781 9      2084.251 9        54.152 9  25288736.210 6         0.000 6      1624.093 6        37.977 6
G10  23715944.955 9 124628078.706 9      3540.116 9        54.704 9  23715948.591 6         0.000 6      2758.534 6        37.977 6
G21  21205160.691 9 111433850.776 9     -1290.730 9        55.695 9  21205159.983 6         0.000 6     -1005.764 6        37.977 6
G29  24384005.577 9 128138756.330 9     -3091.892 9        54.445 9  24384007.241 6         0.000 6     -2409.269 6        37.977 6
G27  21937714.090 9 115283439.026 9      2430.732 9        55.401 9  21937715.999 6         0.000 6      1894.078 6        37.977 6
G16  20483244.622 9 107640156.691 9       454.234 9        55.983 9  20483243.795 6         0.000 6       353.948 6        37.977 6
G26  20695423.018 9 108755159.465 9     -1558.704 9        55.856 9  20695425.850 6         0.000 6     -1214.575 6        37.977 6
G20  21876738.308 9 114963003.269 9      2534.621 9        55.342 9  21876738.591 6         0.000 6      1975.030 6        37.977 6
> 2019 07 03 12 03 21.0000000  0  8       0.000000000000
G07  25288339.076 9 132891073.193 9      2082.928 9        54.152 9  25288339.715 6         0.000 6      1623.062 6        37.977 6
G10  23715271.222 9 124624538.228 9      3540.868 9        54.704 9  23715274.858 6         0.000 6      2759.120 6        37.977 6
G21  21205406.369 9 111435141.823 9     -1291.369 9        55.695 9  21205405.661 6         0.000 6     -1006.262 6        37.977 6
G29  24384593.981 9 128141848.404 9     -3092.287 9        54.445 9  24384595.645 6         0.000 6     -2409.577 6        37.977 6
G27  21937251.559 9 115281008.414 9      2430.505 9        55.401 9  21937253.468 6         0.000 6      1893.901 6        37.977 6
G16  20483158.236 9 107639702.730 9       453.694 9        55.983 9  20483157.409 6         0.000 6       353.528 6        37.977 6
G26  20695719.633 9 108756718.186 9     -1558.735 9        55.856 9  20695722.465 6         0.000 6     -1214.599 6        37.977 6
G20  21876255.982 9 114960468.632 9      2534.665 9        55.342 9  21876256.265 6         0.000 6      1975.065 6        37.977 6
> 2019 07 03 12 03 22.0000000  0  8       0.000000000000
G07  25287942.838 9 132888990.948 9      2081.573 9        54.152 9  25287943.476 6         0.000 6      1622.006 6        37.977 6
G10  23714597.342 9 124620996.976 9      3541.657 9        54.704 9  23714600.977 6         0.000 6      2759.735 6        37.977 6
G21  21205652.171 9 111436433.521 9     -1292.030 9        55.695 9  21205651.463 6         0.000 6     -1006.777 6        37.977 6
G29  24385182.463 9 128144940.890 9     -3092.717 9        54.444 9  24385184.129 6         0.000 6     -2409.912 6        37.977 6
G27  21936789.070 9 115278578.022 9      2430.293 9        55.401 9  21936790.979 6         0.000 6      1893.735 6        37.977 6
G16  20483071.952 9 107639249.303 9       453.166 9        55.983 9  20483071.124 6         0.000 6       353.116 6        37.977 6
G26  20696016.251 9 108758276.922 9     -1558.737 9        55.856 9  20696019.083 6         0.000 6     -1214.601 6        37.977 6
G20  21875773.645 9 114957933.941 9      2534.723 9        55.342 9  21875773.928 6         0.000 6      1975.110 6        37.977 6
> 2019 07 03 12 03 23.0000000  0  8       0.000000000000
G07  25287546.858 9 132886910.067 9      2080.190 9        54.152 9  25287547.497 6         0.000 6      1620.928 6        37.977 6
G10  23713923.310 9 124617454.921 9      3542.482 9        54.704 9  23713926.944 6         0.000 6      2760.378 6        37.977 6
G21  21205898.102 9 111437725.891 9     -1292.715 9        55.695 9  21205897.393 6         0.000 6     -1007.310 6        37.977 6
G29  24385771.032 9 128148033.830 9     -3093.188 9        54.444 9  24385772.698 6         0.000 6     -2410.279 6        37.977 6
G27  21936326.620 9 115276147.830 9      2430.100 9        55.401 9  21936328.528 6         0.000 6      1893.585 6        37.977 6
G16  20482985.767 9 107638796.398 9       452.650 9        55.983 9  20482984.939 6         0.000 6       352.714 6        37.977 6
G26  20696312.867 9 108759835.649 9     -1558.712 9        55.856 9  20696315.699 6         0.000 6     -1214.582 6        37.977 6
G20  21875291.297 9 114955399.189 9      2534.793 9        55.343 9  21875291.580 6         0.000 6      1975.164 6        37.977 6
> 2019 07 03 12 03 24.0000000  0  8       0.000000000000
G07  25287151.146 9 132884830.589 9      2078.767 9        54.152 9  25287151.785 6         0.000 6      1619.819 6        37.977 6
G10  23713249.116 9 124613912.021 9      3543.351 9        54.705 9  23713252.750 6         0.000 6      2761.055 6        37.977 6
G21  21206144.165 9 111439018.965 9     -1293.429 9        55.695 9  21206143.457 6         0.000 6     -1007.867 6        37.977 6
G29  24386359.695 9 128151127.264 9     -3093.707 9        54.444 9  24386361.362 6         0.000 6     -2410.684 6        37.977 6
G27  21935864.204 9 115273717.824 9      2429.927 9        55.402 9  21935866.113 6         0.000 6      1893.450 6        37.977 6
G16  20482899.679 9 107638344.005 9       452.146 9        55.983 9  20482898.852 6         0.000 6       352.322 6        37.977 6
G26  20696609.476 9 108761394.337 9     -1558.654 9        55.855 9  20696612.308 6         0.000 6     -1214.536 6        37.977 6
G20  21874808.935 9 114952864.364 9      2534.876 9        55.343 9  21874809.217 6         0.000 6      1975.229 6        37.977 6
> 2019 07 03 12 03 25.0000000  0  8       0.000000000000
G07  25286755.708 9 132882752.552 9      2077.307 9        54.152 9  25286756.347 6         0.000 6      1618.682 6        37.977 6
G10  23712574.752 9 124610368.224 9      3544.271 9        54.705 9  23712578.385 6         0.000 6      2761.772 6        37.977 6
G21  21206390.366 9 111440312.758 9     -1294.173 9        55.695 9  21206389.658 6         0.000 6     -1008.447 6        37.977 6
G29  24386948.461 9 128154221.240 9     -3094.283 9        54.444 9  24386950.128 6         0.000 6     -2411.132 6        37.977 6
G27  21935401.819 9 115271287.973 9      2429.785 9        55.402 9  21935403.727 6         0.000 6      1893.340 6        37.977 6
G16  20482813.684 9 107637892.099 9       451.665 9        55.983 9  20482812.857 6         0.000 6       351.947 6        37.977 6
G26  20696906.069 9 108762952.940 9     -1558.553 9        55.855 9  20696908.901 6         0.000 6     -1214.457 6        37.977 6
G20  21874326.554 9 114950329.440 9      2534.977 9        55.343 9  21874326.836 6         0.000 6      1975.308 6        37.977 6
> 2019 07 03 12 03 26.0000000  0  8       0.000000000000
G07  25286360.552 9 132880675.993 9      2075.804 9        54.152 9  25286361.190 6         0.000 6      1617.510 6        37.977 6
G10  23711900.209 9 124606823.487 9      3545.240 9        54.705 9  23711903.842 6         0.000 6      2762.527 6        37.977 6
G21  21206636.714 9 111441607.322 9     -1294.958 9        55.695 9  21206636.006 6         0.000 6     -1009.058 6        37.977 6
G29  24387537.345 9 128157315.832 9     -3094.924 9        54.444 9  24387539.012 6         0.000 6     -2411.632 6        37.977 6
G27  21934939.457 9 115268858.247 9      2429.671 9        55.402 9  21934941.365 6         0.000 6      1893.251 6        37.977 6
G16  20482727.780 9 107637440.669 9       451.199 9        55.983 9  20482726.953 6         0.000 6       351.583 6        37.977 6
G26  20697202.639 9 108764511.427 9     -1558.414 9        55.855 9  20697205.472 6         0.000 6     -1214.349 6        37.977 6
G20  21873844.155 9 114947794.417 9      2535.090 9        55.343 9  21873844.436 6         0.000 6      1975.396 6        37.977 6
> 2019 07 03 12 03 27.0000000  0  8       0.000000000000
G07  25285965.687 9 132878600.968 9      2074.259 9        54.152 9  25285966.325 6         0.000 6      1616.307 6        37.977 6
G10  23711225.475 9 124603277.743 9      3546.267 9        54.705 9  23711229.106 6         0.000 6      2763.327 6        37.977 6
G21  21206883.214 9 111442902.686 9     -1295.776 9        55.694 9  21206882.506 6         0.000 6     -1009.696 6        37.977 6
G29  24388126.356 9 128160411.095 9     -3095.639 9        54.443 9  24388128.024 6         0.000 6     -2412.189 6        37.977 6
G27  21934477.114 9 115266428.620 9      2429.601 9        55.402 9  21934479.022 6         0.000 6      1893.197 6        37.977 6
G16  20482641.962 9 107636989.690 9       450.765 9        55.983 9  20482641.135 6         0.000 6       351.245 6        37.977 6
G26  20697499.178 9 108766069.745 9     -1558.221 9        55.855 9  20697502.010 6         0.000 6     -1214.199 6        37.977 6
G20  21873361.730 9 114945259.263 9      2535.221 9        55.343 9  21873362.011 6         0.000 6      1975.498 6        37.977 6
> 2019 07 03 12 03 28.0000000  0  8       0.000000000000
G07  25285571.118 9 132876527.499 9      2072.677 9        54.153 9  25285571.756 6         0.000 6      1615.074 6        37.977 6
G10  23710550.541 9 124599730.956 9      3547.341 9        54.706 9  23710554.172 6         0.000 6      2764.164 6        37.977 6
G21  21207129.874 9 111444198.893 9     -1296.645 9        55.694 9  21207129.166 6         0.000 6     -1010.373 6        37.977 6
G29  24388715.511 9 128163507.118 9     -3096.440 9        54.443 9  24388717.180 6         0.000 6     -2412.813 6        37.977 6
G27  21934014.779 9 115263999.038 9      2429.573 9        55.402 9  21934016.687 6         0.000 6      1893.174 6        37.977 6
G16  20482556.224 9 107636539.135 9       450.351 9        55.983 9  20482555.397 6         0.000 6       350.923 6        37.977 6
G26  20697795.676 9 108767627.853 9     -1557.988 9        55.855 9  20697798.509 6         0.000 6     -1214.017 6        37.977 6
G20  21872879.281 9 114942723.981 9      2535.356 9        55.344 9  21872879.562 6         0.000 6      1975.603 6        37.977 6
> 2019 07 03 12 03 29.0000000  0  8       0.000000000000
G07  25285176.854 9 132874455.628 9      2071.065 9        54.153 9  25285177.491 6         0.000 6      1613.818 6        37.977 6
G10  23709875.399 9 124596183.069 9      3548.463 9        54.706 9  23709879.029 6         0.000 6      2765.039 6        37.977 6
G21  21207376.703 9 111445495.989 9     -1297.556 9        55.694 9  21207375.995 6         0.000 6     -1011.083 6        37.977 6
G29  24389304.828 9 128166603.987 9     -3097.335 9        54.443 9  24389306.497 6         0.000 6     -2413.511 6        37.977 6
G27  21933552.445 9 115261569.458 9      2429.603 9        55.402 9  21933554.353 6         0.000 6      1893.197 6        37.977 6
G16  20482470.561 9 107636088.975 9       449.975 9        55.983 9  20482469.734 6         0.000 6       350.630 6        37.977 6
G26  20698092.125 9 108769185.701 9     -1557.702 9        55.855 9  20698094.958 6         0.000 6     -1213.794 6        37.977 6
G20  21872396.806 9 114940188.560 9      2535.496 9        55.344 9  21872397.087 6         0.000 6      1975.712 6        37.977 6
> 2019 07 03 12 03 30.0000000  0  8       0.000000000000
G07  25284782.900 9 132872385.392 9      2069.407 9        54.153 9  25284783.537 6         0.000 6      1612.526 6        37.977 6
G10  23709200.037 9 124592634.029 9      3549.647 9        54.706 9  23709203.667 6         0.000 6      2765.961 6        37.977 6
G21  21207623.711 9 111446794.024 9     -1298.530 9        55.694 9  21207623.003 6         0.000 6     -1011.842 6        37.977 6
G29  24389894.324 9 128169701.802 9     -3098.339 9        54.443 9  24389895.995 6         0.000 6     -2414.293 6        37.977 6
G27  21933090.100 9 115259139.822 9      2429.686 9        55.403 9  21933092.008 6         0.000 6      1893.262 6        37.977 6
G16  20482384.967 9 107635639.176 9       449.626 9        55.983 9  20482384.140 6         0.000 6       350.358 6        37.977 6
G26  20698388.514 9 108770743.235 9     -1557.363 9        55.855 9  20698391.347 6         0.000 6     -1213.530 6        37.977 6
G20  21871914.303 9 114937652.994 9      2535.642 9        55.344 9  21871914.583 6         0.000 6      1975.826 6        37.977 6
> 2019 07 03 12 03 31.0000000  0  8       0.000000000000
G07  25284389.267 9 132870316.837 9      2067.709 9        54.153 9  25284389.904 6         0.000 6      1611.202 6        37.977 6
G10  23708524.444 9 124589083.774 9      3550.895 9        54.706 9  23708528.073 6         0.000 6      2766.933 6        37.977 6
G21  21207870.911 9 111448093.070 9     -1299.567 9        55.694 9  21207870.204 6         0.000 6     -1012.650 6        37.977 6
G29  24390484.026 9 128172800.695 9     -3099.488 9        54.443 9  24390485.697 6         0.000 6     -2415.188 6        37.977 6
G27  21932627.731 9 115256710.061 9      2429.860 9        55.403 9  21932629.639 6         0.000 6      1893.398 6        37.977 6
G16  20482299.436 9 107635189.703 9       449.334 9        55.983 9  20482298.608 6         0.000 6       350.131 6        37.977 6
G26  20698684.833 9 108772300.397 9     -1556.948 9        55.855 9  20698687.666 6         0.000 6     -1213.207 6        37.977 6
G20  21871431.772 9 114935117.284 9      2535.791 9        55.344 9  21871432.053 6         0.000 6      1975.942 6        37.977 6
> 2019 07 03 12 03 32.0000000  0  8       0.000000000000
G07  25283995.961 9 132868250.002 9      2065.962 9        54.153 9  25283996.597 6         0.000 6      1609.841 6        37.977 6
G10  23707848.607 9 124585532.234 9      3552.216 9        54.706 9  23707852.235 6         0.000 6      2767.963 6        37.977 6
G21  21208118.317 9 111449393.193 9     -1300.692 9        55.694 9  21208117.609 6         0.000 6     -1013.526 6        37.977 6
G29  24391073.961 9 128175900.815 9     -3100.806 9        54.442 9  24391075.633 6         0.000 6     -2416.215 6        37.977 6
G27  21932165.321 9 115254280.083 9      2430.126 9        55.403 9  21932167.229 6         0.000 6      1893.606 6        37.977 6
G16  20482213.955 9 107634740.498 9       449.092 9        55.983 9  20482213.128 6         0.000 6       349.942 6        37.977 6
G26  20698981.065 9 108773857.107 9     -1556.458 9        55.854 9  20698983.898 6         0.000 6     -1212.825 6        37.977 6
G20  21870949.214 9 114932581.424 9      2535.937 9        55.344 9  21870949.493 6         0.000 6      1976.056 6        37.977 6
> 2019 07 03 12 03 33.0000000  0  8       0.000000000000
G07  25283602.990 9 132866184.933 9      2064.176 9        54.153 9  25283603.627 6         0.000 6      1608.449 6        37.977 6
G10  23707172.511 9 124581979.338 9      3553.610 9        54.707 9  23707176.139 6         0.000 6      2769.049 6        37.977 6
G21  21208365.945 9 111450694.487 9     -1301.911 9        55.694 9  21208365.237 6         0.000 6     -1014.476 6        37.977 6
G29  24391664.166 9 128179002.351 9     -3102.322 9        54.442 9  24391665.838 6         0.000 6     -2417.397 6        37.977 6
G27  21931702.849 9 115251849.776 9      2430.514 9        55.403 9  21931704.756 6         0.000 6      1893.907 6        37.977 6
G16  20482128.513 9 107634291.499 9       448.918 9        55.983 9  20482127.686 6         0.000 6       349.806 6        37.977 6
G26  20699277.196 9 108775413.282 9     -1555.879 9        55.854 9  20699280.029 6         0.000 6     -1212.374 6        37.977 6
G20  21870466.628 9 114930045.423 9      2536.073 9        55.345 9  21870466.908 6         0.000 6      1976.162 6        37.977 6
> 2019 07 03 12 03 34.0000000  0  8       0.000000000000
G07  25283210.362 9 132864121.659 9      2062.375 9        54.153 9  25283210.998 6         0.000 6      1607.046 6        37.977 6
G10  23706496.145 9 124578425.019 9      3555.055 9        54.707 9  23706499.772 6         0.000 6      2770.175 6        37.977 6
G21  21208613.815 9 111451997.050 9     -1303.237 9        55.694 9  21208613.107 6         0.000 6     -1015.509 6        37.977 6
G29  24392254.681 9 128182105.519 9     -3104.074 9        54.442 9  24392256.354 6         0.000 6     -2418.762 6        37.977 6
G27  21931240.289 9 115249419.009 9      2431.048 9        55.403 9  21931242.196 6         0.000 6      1894.324 6        37.977 6
G16  20482043.097 9 107633842.635 9       448.821 9        55.983 9  20482042.270 6         0.000 6       349.731 6        37.977 6
G26  20699573.208 9 108776968.834 9     -1555.218 9        55.854 9  20699576.041 6         0.000 6     -1211.858 6        37.977 6
G20  21869984.019 9 114927509.301 9      2536.172 9        55.345 9  21869984.298 6         0.000 6      1976.239 6        37.977 6
> 2019 07 03 12 03 35.0000000  0  8       0.000000000000
G07  25282818.076 9 132862060.187 9      2060.576 9        54.154 9  25282818.712 6         0.000 6      1605.645 6        37.977 6
G10  23705819.499 9 124574869.231 9      3556.544 9        54.707 9  23705823.125 6         0.000 6      2771.335 6        37.977 6
G21  21208861.946 9 111453300.991 9     -1304.675 9        55.694 9  21208861.239 6         0.000 6     -1016.630 6        37.977 6
G29  24392845.555 9 128185210.568 9     -3106.091 9        54.442 9  24392847.228 6         0.000 6     -2420.333 6        37.977 6
G27  21930777.610 9 115246987.619 9      2431.758 9        55.404 9  21930779.517 6         0.000 6      1894.877 6        37.977 6
G16  20481957.690 9 107633393.817 9       448.820 9        55.983 9  20481956.863 6         0.000 6       349.730 6        37.977 6
G26  20699869.084 9 108778523.674 9     -1554.462 9        55.854 9  20699871.918 6         0.000 6     -1211.270 6        37.977 6
G20  21869501.395 9 114924973.100 9      2536.224 9        55.345 9  21869501.674 6         0.000 6      1976.280 6        37.977 6
> 2019 07 03 12 03 36.0000000  0  8       0.000000000000
G07  25282426.130 9 132860000.502 9      2058.818 9        54.154 9  25282426.766 6         0.000 6      1604.275 6        37.977 6
G10  23705142.568 9 124571311.948 9      3558.037 9        54.707 9  23705146.194 6         0.000 6      2772.499 6        37.977 6
G21  21209110.365 9 111454606.440 9     -1306.238 9        55.694 9  21209109.658 6         0.000 6     -1017.848 6        37.977 6
G29  24393436.840 9 128188317.781 9     -3108.409 9        54.442 9  24393438.514 6         0.000 6     -2422.139 6        37.977 6
G27  21930314.780 9 115244555.430 9      2432.670 9        55.404 9  21930316.686 6         0.000 6      1895.588 6        37.977 6
G16  20481872.275 9 107632944.959 9       448.922 9        55.983 9  20481871.448 6         0.000 6       349.810 6        37.977 6
G26  20700164.811 9 108780077.726 9     -1553.628 9        55.854 9  20700167.645 6         0.000 6     -1210.620 6        37.977 6
G20  21869018.769 9 114922436.888 9      2536.192 9        55.345 9  21869019.048 6         0.000 6      1976.255 6        37.977 6
> 2019 07 03 12 03 37.0000000  0  8       0.000000000000
G07  25282034.511 9 132857942.531 9      2057.135 9        54.154 9  25282035.146 6         0.000 6      1602.964 6        37.977 6
G10  23704465.357 9 124567753.188 9      3559.508 9        54.708 9  23704468.982 6         0.000 6      2773.646 6        37.977 6
G21  21209359.094 9 111455913.518 9     -1307.936 9        55.693 9  21209358.387 6         0.000 6     -1019.171 6        37.977 6
G29  24394028.598 9 128191427.481 9     -3111.061 9        54.441 9  24394030.273 6         0.000 6     -2424.206 6        37.977 6
G27  21929851.752 9 115242122.208 9      2433.814 9        55.404 9  21929853.659 6         0.000 6      1896.479 6        37.977 6
G16  20481786.829 9 107632495.939 9       449.139 9        55.983 9  20481786.002 6         0.000 6       349.978 6        37.977 6
G26  20700460.372 9 108781630.909 9     -1552.724 9        55.854 9  20700463.206 6         0.000 6     -1209.915 6        37.977 6
G20  21868536.161 9 114919900.768 9      2536.046 9        55.345 9  21868536.440 6         0.000 6      1976.141 6        37.977 6
> 2019 07 03 12 03 38.0000000  0  8       0.000000000000
G07  25281643.203 9 132855886.197 9      2055.575 9        54.154 9  25281643.838 6         0.000 6      1601.747 6        37.977 6
G10  23703787.869 9 124564192.976 9      3560.914 9        54.708 9  23703791.494 6         0.000 6      2774.741 6        37.977 6
G21  21209608.159 9 111457222.362 9     -1309.774 9        55.693 9  21209607.452 6         0.000 6     -1020.603 6        37.977 6
G29  24394620.894 9 128194540.009 9     -3114.081 9        54.441 9  24394622.570 6         0.000 6     -2426.560 6        37.977 6
G27  21929388.484 9 115239687.720 9      2435.222 9        55.404 9  21929390.391 6         0.000 6      1897.576 6        37.977 6
G16  20481701.331 9 107632046.641 9       449.484 9        55.983 9  20481700.504 6         0.000 6       350.247 6        37.977 6
G26  20700755.755 9 108783183.153 9     -1551.759 9        55.854 9  20700758.589 6         0.000 6     -1209.164 6        37.977 6
G20  21868053.593 9 114917364.859 9      2535.749 9        55.345 9  21868053.871 6         0.000 6      1975.909 6        37.977 6
> 2019 07 03 12 03 39.0000000  0  8       0.000000000000
G07  25281252.175 9 132853831.336 9      2054.194 9        54.154 9  25281252.810 6         0.000 6      1600.671 6        37.977 6
G10  23703110.125 9 124560631.415 9      3562.202 9        54.708 9  23703113.749 6         0.000 6      2775.745 6        37.977 6
G21  21209857.587 9 111458533.112 9     -1311.750 9        55.693 9  21209856.879 6         0.000 6     -1022.143 6        37.977 6
G29  24395213.803 9 128197655.754 9     -3117.497 9        54.441 9  24395215.479 6         0.000 6     -2429.221 6        37.977 6
G27  21928924.920 9 115237251.673 9      2436.928 9        55.404 9  21928926.826 6         0.000 6      1898.906 6        37.977 6
G16  20481615.753 9 107631596.924 9       449.974 9        55.983 9  20481614.926 6         0.000 6       350.629 6        37.977 6
G26  20701050.949 9 108784734.408 9     -1550.752 9        55.854 9  20701053.783 6         0.000 6     -1208.379 6        37.977 6
G20  21867571.099 9 114914829.340 9      2535.261 9        55.346 9  21867571.377 6         0.000 6      1975.529 6        37.977 6
> 2019 07 03 12 03 40.0000000  0  8       0.000000000000
G07  25280861.387 9 132851777.733 9      2053.050 9        54.154 9  25280862.022 6         0.000 6      1599.780 6        37.977 6
G10  23702432.152 9 124557068.655 9      3563.315 9        54.708 9  23702435.775 6         0.000 6      2776.611 6        37.977 6
G21  21210107.404 9 111459845.912 9     -1313.868 9        55.693 9  21210106.697 6         0.000 6     -1023.794 6        37.977 6
G29  24395807.401 9 128200775.125 9     -3121.323 9        54.441 9  24395809.078 6         0.000 6     -2432.202 6        37.977 6
G27  21928460.999 9 115234813.759 9      2438.950 9        55.404 9  21928462.905 6         0.000 6      1900.481 6        37.977 6
G16  20481530.068 9 107631146.645 9       450.605 9        55.983 9  20481529.240 6         0.000 6       351.121 6        37.977 6
G26  20701345.951 9 108786284.651 9     -1549.734 9        55.853 9  20701348.785 6         0.000 6     -1207.586 6        37.977 6
G20  21867088.721 9 114912294.431 9      2534.535 9        55.346 9  21867088.998 6         0.000 6      1974.963 6        37.977 6
> 2019 07 03 12 03 41.0000000  0  8       0.000000000000
G07  25280470.790 9 132849725.136 9      2052.213 9        54.154 9  25280471.425 6         0.000 6      1599.128 6        37.977 6
G10  23701753.988 9 124553504.887 9      3564.190 9        54.709 9  23701757.610 6         0.000 6      2777.294 6        37.977 6
G21  21210357.636 9 111461160.888 9     -1316.108 9        55.693 9  21210356.929 6         0.000 6     -1025.539 6        37.977 6
G29  24396401.767 9 128203898.525 9     -3125.568 9        54.440 9  24396403.444 6         0.000 6     -2435.510 6        37.977 6
G27  21927996.663 9 115232373.657 9      2441.318 9        55.405 9  21927998.569 6         0.000 6      1902.326 6        37.977 6
G16  20481444.247 9 107630695.655 9       451.400 9        55.983 9  20481443.420 6         0.000 6       351.740 6        37.977 6
G26  20701640.759 9 108787833.873 9     -1548.723 9        55.853 9  20701643.593 6         0.000 6     -1206.798 6        37.977 6
G20  21866606.505 9 114909760.373 9      2533.534 9        55.346 9  21866606.782 6         0.000 6      1974.183 6        37.977 6
> 2019 07 03 12 03 42.0000000  0  8       0.000000000000
G07  25280080.320 9 132847673.204 9      2051.732 9        54.154 9  25280080.954 6         0.000 6      1598.753 6        37.977 6
G10  23701075.684 9 124549940.387 9      3564.770 9        54.709 9  23701079.306 6         0.000 6      2777.745 6        37.977 6
G21  21210608.307 9 111462478.172 9     -1318.472 9        55.693 9  21210607.600 6         0.000 6     -1027.381 6        37.977 6
G29  24396996.980 9 128207026.381 9     -3130.240 9        54.440 9  24396998.658 6         0.000 6     -2439.151 6        37.977 6
G27  21927531.843 9 115229931.015 9      2444.041 9        55.405 9  21927533.749 6         0.000 6      1904.448 6        37.977 6
G16  20481358.262 9 107630243.799 9       452.348 9        55.983 9  20481357.435 6         0.000 6       352.479 6        37.977 6
G26  20701935.378 9 108789382.108 9     -1547.756 9        55.853 9  20701938.213 6         0.000 6     -1206.044 6        37.977 6
G20  21866124.509 9 114907227.475 9      2532.213 9        55.346 9  21866124.787 6         0.000 6      1973.154 6        37.977 6
> 2019 07 03 12 03 43.0000000  0  8       0.000000000000
G07  25279689.900 9 132845621.539 9      2051.683 9        54.155 9  25279690.535 6         0.000 6      1598.715 6        37.977 6
G10  23700397.303 9 124546375.482 9      3564.989 9        54.709 9  23700400.924 6         0.000 6      2777.916 6        37.977 6
G21  21210859.437 9 111463797.870 9     -1320.946 9        55.693 9  21210858.730 6         0.000 6     -1029.309 6        37.977 6
G29  24397593.124 9 128210159.126 9     -3135.340 9        54.440 9  24397594.802 6         0.000 6     -2443.125 6        37.977 6
G27  21927066.468 9 115227485.455 9      2447.140 9        55.405 9  21927068.374 6         0.000 6      1906.863 6        37.977 6
G16  20481272.079 9 107629790.904 9       453.459 9        55.983 9  20481271.252 6         0.000 6       353.345 6        37.977 6
G26  20702229.819 9 108790929.402 9     -1546.862 9        55.853 9  20702232.654 6         0.000 6     -1205.347 6        37.977 6
G20  21865642.799 9 114904696.072 9      2530.531 9        55.346 9  21865643.076 6         0.000 6      1971.843 6        37.977 6
> 2019 07 03 12 03 44.0000000  0  8       0.000000000000
G07  25279299.445 9 132843569.687 9      2052.107 9        54.155 9  25279300.079 6         0.000 6      1599.045 6        37.977 6
G10  23699718.920 9 124542810.568 9      3564.789 9        54.709 9  23699722.541 6         0.000 6      2777.760 6        37.977 6
G21  21211111.048 9 111465120.092 9     -1323.501 9        55.693 9  21211110.341 6         0.000 6     -1031.300 6        37.977 6
G29  24398190.276 9 128213297.171 9     -3140.816 9        54.440 9  24398191.955 6         0.000 6     -2447.392 6        37.977 6
G27  21926600.470 9 115225036.620 9      2450.588 9        55.405 9  21926602.375 6         0.000 6      1909.550 6        37.977 6
G16  20481185.671 9 107629336.830 9       454.713 9        55.983 9  20481184.844 6         0.000 6       354.322 6        37.977 6
G26  20702524.101 9 108792475.865 9     -1546.086 9        55.853 9  20702526.936 6         0.000 6     -1204.743 6        37.977 6
G20  21865161.446 9 114902166.551 9      2528.463 9        55.347 9  21865161.723 6         0.000 6      1970.232 6        37.977 6
> 2019 07 03 12 03 45.0000000  0  8       0.000000000000
G07  25278908.863 9 132841517.169 9      2053.015 9        54.155 9  25278909.497 6         0.000 6      1599.753 6        37.977 6
G10  23699040.618 9 124539246.075 9      3564.139 9        54.710 9  23699044.238 6         0.000 6      2777.254 6        37.977 6
G21  21211363.146 9 111466444.876 9     -1326.064 9        55.693 9  21211362.439 6         0.000 6     -1033.297 6        37.977 6
G29  24398788.494 9 128216440.819 9     -3146.515 9        54.440 9  24398790.174 6         0.000 6     -2451.833 6        37.977 6
G27  21926133.788 9 115222584.195 9      2454.292 9        55.405 9  21926135.694 6         0.000 6      1912.436 6        37.977 6
G16  20481099.014 9 107628881.445 9       456.062 9        55.983 9  20481098.187 6         0.000 6       355.373 6        37.977 6
G26  20702818.250 9 108794021.626 9     -1545.479 9        55.853 9  20702821.085 6         0.000 6     -1204.270 6        37.977 6
G20  21864680.521 9 114899639.278 9      2526.035 9        55.347 9  21864680.798 6         0.000 6      1968.340 6        37.977 6
> 2019 07 03 12 03 46.0000000  0  8       0.000000000000
G07  25278518.066 9 132839463.517 9      2054.362 9        54.155 9  25278518.699 6         0.000 6      1600.803 6        37.977 6
G10  23698362.482 9 124535682.454 9      3563.051 9        54.710 9  23698366.101 6         0.000 6      2776.406 6        37.977 6
G21  21211615.726 9 111467772.193 9     -1328.550 9        55.693 9  21211615.020 6         0.000 6     -1035.234 6        37.977 6
G29  24399387.802 9 128219590.191 9     -3152.223 9        54.439 9  24399389.483 6         0.000 6     -2456.281 6        37.977 6
G27  21925666.389 9 115220127.997 9      2458.104 9        55.406 9  21925668.294 6         0.000 6      1915.407 6        37.977 6
G16  20481012.097 9 107628424.692 9       457.434 9        55.983 9  20481011.270 6         0.000 6       356.442 6        37.977 6
G26  20703112.304 9 108795566.885 9     -1545.087 9        55.853 9  20703115.139 6         0.000 6     -1203.964 6        37.977 6
G20  21864200.087 9 114897114.586 9      2523.318 9        55.347 9  21864200.364 6         0.000 6      1966.223 6        37.977 6
> 2019 07 03 12 03 47.0000000  0  8       0.000000000000
G07  25278126.977 9 132837408.337 9      2056.051 9        54.155 9  25278127.611 6         0.000 6      1602.118 6        37.977 6
G10  23697684.589 9 124532120.118 9      3561.591 9        54.710 9  23697688.208 6         0.000 6      2775.269 6        37.977 6
G21  21211868.768 9 111469101.937 9     -1330.911 9        55.692 9  21211868.062 6         0.000 6     -1037.074 6        37.977 6
G29  24399988.182 9 128222745.200 9     -3157.778 9        54.439 9  24399989.864 6         0.000 6     -2460.609 6        37.977 6
G27  21925198.266 9 115217667.997 9      2461.891 9        55.406 9  21925200.171 6         0.000 6      1918.358 6        37.977 6
G16  20480924.924 9 107627966.592 9       458.761 9        55.983 9  20480924.097 6         0.000 6       357.476 6        37.977 6
G26  20703406.305 9 108797111.873 9     -1544.924 9        55.853 9  20703409.141 6         0.000 6     -1203.838 6        37.977 6
G20  21863720.191 9 114894592.720 9      2520.401 9        55.347 9  21863720.467 6         0.000 6      1963.950 6        37.977 6
> 2019 07 03 12 03 48.0000000  0  8       0.000000000000
G07  25277735.541 9 132835351.331 9      2058.008 9        54.155 9  25277736.175 6         0.000 6      1603.644 6        37.977 6
G10  23697007.004 9 124528559.392 9      3559.830 9        54.710 9  23697010.622 6         0.000 6      2773.896 6        37.977 6
G21  21212122.245 9 111470433.963 9     -1333.121 9        55.692 9  21212121.538 6         0.000 6     -1038.796 6        37.977 6
G29  24400589.598 9 128225905.651 9     -3163.103 9        54.439 9  24400591.280 6         0.000 6     -2464.759 6        37.977 6
G27  21924729.429 9 115215204.245 9      2465.594 9        55.406 9  21924731.334 6         0.000 6      1921.243 6        37.977 6
G16  20480837.502 9 107627507.190 9       460.024 9        55.984 9  20480836.675 6         0.000 6       358.460 6        37.977 6
G26  20703700.295 9 108798656.796 9     -1544.967 9        55.852 9  20703703.130 6         0.000 6     -1203.871 6        37.977 6
G20  21863240.863 9 114892073.836 9      2517.353 9        55.347 9  21863241.139 6         0.000 6      1961.575 6        37.977 6
> 2019 07 03 12 03 49.0000000  0  8       0.000000000000
G07  25277343.711 9 132833292.254 9      2060.187 9        54.155 9  25277344.345 6         0.000 6      1605.342 6        37.977 6
G10  23696329.779 9 124525000.562 9      3557.809 9        54.711 9  23696333.397 6         0.000 6      2772.321 6        37.977 6
G21  21212376.129 9 111471768.135 9     -1335.200 9        55.692 9  21212375.423 6         0.000 6     -1040.416 6        37.977 6
G29  24401192.006 9 128229071.318 9     -3168.211 9        54.439 9  24401193.689 6         0.000 6     -2468.739 6        37.977 6
G27  21924259.897 9 115212736.840 9      2469.204 9        55.406 9  21924261.802 6         0.000 6      1924.055 6        37.977 6
G16  20480749.848 9 107627046.563 9       461.217 9        55.984 9  20480749.021 6         0.000 6       359.390 6        37.977 6
G26  20703994.312 9 108800201.863 9     -1545.200 9        55.852 9  20703997.147 6         0.000 6     -1204.052 6        37.977 6
G20  21862762.125 9 114889558.057 9      2514.197 9        55.348 9  21862762.401 6         0.000 6      1959.115 6        37.977 6
> 2019 07 03 12 03 50.0000000  0  8       0.000000000000
G07  25276951.447 9 132831230.893 9      2062.564 9        54.156 9  25276952.080 6         0.000 6      1607.194 6        37.977 6
G10  23695652.962 9 124521443.875 9      3555.556 9        54.711 9  23695656.579 6         0.000 6      2770.566 6        37.977 6
G21  21212630.398 9 111473104.323 9     -1337.155 9        55.692 9  21212629.691 6         0.000 6     -1041.939 6        37.977 6
G29  24401795.367 9 128232241.990 9     -3173.114 9        54.439 9  24401797.051 6         0.000 6     -2472.559 6        37.977 6
G27  21923789.686 9 115210265.868 9      2472.725 9        55.406 9  21923791.591 6         0.000 6      1926.799 6        37.977 6
G16  20480661.973 9 107626584.775 9       462.346 9        55.984 9  20480661.146 6         0.000 6       360.270 6        37.977 6
G26  20704288.389 9 108801747.248 9     -1545.600 9        55.852 9  20704291.225 6         0.000 6     -1204.364 6        37.977 6
G20  21862283.998 9 114887045.485 9      2510.948 9        55.348 9  21862284.273 6         0.000 6      1956.584 6        37.977 6
> 2019 07 03 12 03 51.0000000  0  8       0.000000000000
G07  25276558.715 9 132829167.076 9      2065.098 9        54.156 9  25276559.348 6         0.000 6      1609.168 6        37.977 6
G10  23694976.591 9 124517889.532 9      3553.117 9        54.711 9  23694980.208 6         0.000 6      2768.665 6        37.977 6
G21  21212885.025 9 111474442.400 9     -1338.985 9        55.692 9  21212884.319 6         0.000 6     -1043.365 6        37.977 6
G29  24402399.641 9 128235417.458 9     -3177.805 9        54.438 9  24402401.325 6         0.000 6     -2476.215 6        37.977 6
G27  21923318.814 9 115207791.421 9      2476.147 9        55.406 9  21923320.719 6         0.000 6      1929.466 6        37.977 6
G16  20480573.888 9 107626121.885 9       463.414 9        55.984 9  20480573.061 6         0.000 6       361.102 6        37.977 6
G26  20704582.556 9 108803293.103 9     -1546.145 9        55.852 9  20704585.392 6         0.000 6     -1204.789 6        37.977 6
G20  21861806.494 9 114884536.189 9      2507.641 9        55.348 9  21861806.769 6         0.000 6      1954.007 6        37.977 6
> 2019 07 03 12 03 52.0000000  0  8       0.000000000000
G07  25276165.488 9 132827100.656 9      2067.767 9        54.156 9  25276166.120 6         0.000 6      1611.248 6        37.977 6
G10  23694300.702 9 124514337.720 9      3550.507 9        54.711 9  23694304.318 6         0.000 6      2766.632 6        37.977 6
G21  21213139.992 9 111475782.257 9     -1340.704 9        55.692 9  21213139.285 6         0.000 6     -1044.704 6        37.977 6
G29  24403004.788 9 128238597.519 9     -3182.293 9        54.438 9  24403006.473 6         0.000 6     -2479.711 6        37.977 6
G27  21922847.301 9 115205313.605 9      2479.468 9        55.407 9  21922849.205 6         0.000 6      1932.053 6        37.977 6
G16  20480485.607 9 107625657.965 9       464.415 9        55.984 9  20480484.780 6         0.000 6       361.882 6        37.977 6
G26  20704876.841 9 108804839.578 9     -1546.828 9        55.852 9  20704879.676 6         0.000 6     -1205.321 6        37.977 6
G20  21861329.626 9 114882030.233 9      2504.281 9        55.348 9  21861329.900 6         0.000 6      1951.389 6        37.977 6
> 2019 07 03 12 03 53.0000000  0  8       0.000000000000
G07  25275771.742 9 132825031.514 9      2070.538 9        54.156 9  25275772.375 6         0.000 6      1613.407 6        37.977 6
G10  23693625.322 9 124510788.586 9      3547.761 9        54.712 9  23693628.937 6         0.000 6      2764.492 6        37.977 6
G21  21213395.274 9 111477123.774 9     -1342.316 9        55.692 9  21213394.568 6         0.000 6     -1045.961 6        37.977 6
G29  24403610.769 9 128241781.960 9     -3186.575 9        54.438 9  24403612.455 6         0.000 6     -2483.048 6        37.977 6
G27  21922375.167 9 115202832.526 9      2482.675 9        55.407 9  21922377.071 6         0.000 6      1934.553 6        37.977 6
G16  20480397.142 9 107625193.079 9       465.345 9        55.984 9  20480396.315 6         0.000 6       362.607 6        37.977 6
G26  20705171.267 9 108806386.797 9     -1547.635 9        55.852 9  20705174.103 6         0.000 6     -1205.950 6        37.977 6
G20  21860853.399 9 114879527.650 9      2500.890 9        55.348 9  21860853.673 6         0.000 6      1948.747 6        37.977 6
> 2019 07 03 12 03 54.0000000  0  8       0.000000000000
G07  25275377.460 9 132822959.551 9      2073.397 9        54.156 9  25275378.092 6         0.000 6      1615.635 6        37.977 6
G10  23692950.478 9 124507242.265 9      3544.895 9        54.712 9  23692954.092 6         0.000 6      2762.258 6        37.977 6
G21  21213650.853 9 111478466.850 9     -1343.819 9        55.692 9  21213650.147 6         0.000 6     -1047.132 6        37.977 6
G29  24404217.546 9 128244970.580 9     -3190.648 9        54.438 9  24404219.232 6         0.000 6     -2486.222 6        37.977 6
G27  21921902.433 9 115200348.295 9      2485.769 9        55.407 9  21921904.337 6         0.000 6      1936.964 6        37.977 6
G16  20480308.506 9 107624727.296 9       466.210 9        55.984 9  20480307.679 6         0.000 6       363.281 6        37.977 6
G26  20705465.859 9 108807934.883 9     -1548.553 9        55.852 9  20705468.694 6         0.000 6     -1206.665 6        37.977 6
G20  21860377.820 9 114877028.470 9      2497.484 9        55.348 9  21860378.094 6         0.000 6      1946.093 6        37.977 6
> 2019 07 03 12 03 55.0000000  0  8       0.000000000000
G07  25274982.628 9 132820884.697 9      2076.321 9        54.156 9  25274983.260 6         0.000 6      1617.913 6        37.977 6
G10  23692276.188 9 124503698.858 9      3541.929 9        54.712 9  23692279.802 6         0.000 6      2759.947 6        37.977 6
G21  21213906.709 9 111479811.380 9     -1345.227 9        55.692 9  21213906.003 6         0.000 6     -1048.229 6        37.977 6
G29  24404825.078 9 128248163.171 9     -3194.519 9        54.437 9  24404826.765 6         0.000 6     -2489.238 6        37.977 6
G27  21921429.122 9 115197861.029 9      2488.742 9        55.407 9  21921431.025 6         0.000 6      1939.280 6        37.977 6
G16  20480219.713 9 107624260.682 9       467.002 9        55.984 9  20480218.886 6         0.000 6       363.897 6        37.977 6
G26  20705760.634 9 108809483.938 9     -1549.577 9        55.852 9  20705763.470 6         0.000 6     -1207.463 6        37.977 6
G20  21859902.890 9 114874532.700 9      2494.069 9        55.349 9  21859903.164 6         0.000 6      1943.432 6        37.977 6
> 2019 07 03 12 03 56.0000000  0  8       0.000000000000
G07  25274587.236 9 132818806.901 9      2079.286 9        54.156 9  25274587.868 6         0.000 6      1620.224 6        37.977 6
G10  23691602.469 9 124500158.452 9      3538.891 9        54.712 9  23691606.082 6         0.000 6      2757.580 6        37.977 6
G21  21214162.823 9 111481157.268 9     -1346.529 9        55.691 9  21214162.117 6         0.000 6     -1049.244 6        37.977 6
G29  24405433.326 9 128251359.529 9     -3198.179 9        54.437 9  24405435.014 6         0.000 6     -2492.091 6        37.977 6
G27  21920955.256 9 115195370.853 9      2491.594 9        55.407 9  21920957.160 6         0.000 6      1941.502 6        37.977 6
G16  20480130.775 9 107623793.312 9       467.729 9        55.984 9  20480129.948 6         0.000 6       364.464 6        37.977 6
G26  20706055.613 9 108811034.061 9     -1550.686 9        55.851 9  20706058.449 6         0.000 6     -1208.327 6        37.977 6
G20  21859428.608 9 114872040.335 9      2490.672 9        55.349 9  21859428.882 6         0.000 6      1940.784 6        37.977 6
> 2019 07 03 12 03 57.0000000  0  8       0.000000000000
G07  25274191.276 9 132816726.122 9      2082.275 9        54.157 9  25274191.908 6         0.000 6      1622.553 6        37.977 6
G10  23690929.334 9 124496621.114 9      3535.797 9        54.713 9  23690932.947 6         0.000 6      2755.169 6        37.977 6
G21  21214419.176 9 111482504.410 9     -1347.743 9        55.691 9  21214418.470 6         0.000 6     -1050.189 6        37.977 6
G29  24406042.253 9 128254559.448 9     -3201.637 9        54.437 9  24406043.941 6         0.000 6     -2494.785 6        37.977 6
G27  21920480.860 9 115192877.885 9      2494.314 9        55.408 9  21920482.763 6         0.000 6      1943.622 6        37.977 6
G16  20480041.705 9 107623325.246 9       468.382 9        55.984 9  20480040.878 6         0.000 6       364.973 6        37.977 6
G26  20706350.811 9 108812585.332 9     -1551.880 9        55.851 9  20706353.647 6         0.000 6     -1209.257 6        37.977 6
G20  21858954.971 9 114869551.359 9      2487.295 9        55.349 9  21858955.244 6         0.000 6      1938.153 6        37.977 6
> 2019 07 03 12 03 58.0000000  0  8       0.000000000000
G07  25273794.747 9 132814642.349 9      2085.272 9        54.157 9  25273795.378 6         0.000 6      1624.888 6        37.977 6
G10  23690256.793 9 124493086.894 9      3532.665 9        54.713 9  23690260.405 6         0.000 6      2752.729 6        37.977 6
G21  21214675.751 9 111483852.719 9     -1348.864 9        55.691 9  21214675.044 6         0.000 6     -1051.063 6        37.977 6
G29  24406651.817 9 128257762.720 9     -3204.892 9        54.437 9  24406653.506 6         0.000 6     -2497.321 6        37.977 6
G27  21920005.958 9 115190382.263 9      2496.909 9        55.408 9  21920007.861 6         0.000 6      1945.644 6        37.977 6
G16  20479952.518 9 107622856.562 9       468.970 9        55.984 9  20479951.691 6         0.000 6       365.431 6        37.977 6
G26  20706646.243 9 108814137.836 9     -1553.141 9        55.851 9  20706649.079 6         0.000 6     -1210.240 6        37.977 6
G20  21858481.973 9 114867065.744 9      2483.954 9        55.349 9  21858482.246 6         0.000 6      1935.550 6        37.977 6
> 2019 07 03 12 03 59.0000000  0  8       0.000000000000
G07  25273397.648 9 132812555.586 9      2088.255 9        54.157 9  25273398.279 6         0.000 6      1627.212 6        37.977 6
G10  23689584.849 9 124489555.819 9      3529.510 9        54.713 9  23689588.461 6         0.000 6      2750.270 6        37.977 6
G21  21214932.530 9 111485202.105 9     -1349.898 9        55.691 9  21214931.824 6         0.000 6     -1051.868 6        37.977 6
G29  24407261.981 9 128260969.141 9     -3207.939 9        54.437 9  24407263.671 6         0.000 6     -2499.696 6        37.977 6
G27  21919530.577 9 115187884.119 9      2499.361 9        55.408 9  21919532.480 6         0.000 6      1947.555 6        37.977 6
G16  20479863.226 9 107622387.332 9       469.481 9        55.984 9  20479862.399 6         0.000 6       365.829 6        37.977 6
G26  20706941.921 9 108815691.636 9     -1554.470 9        55.851 9  20706944.758 6         0.000 6     -1211.276 6        37.977 6
G20  21858009.607 9 114864583.448 9      2480.658 9        55.349 9  21858009.880 6         0.000 6      1932.982 6        37.977 6
> 2019 07 03 12 04  0.0000000  0  8       0.000000000000
G07  25272999.985 9 132810465.856 9      2091.206 9        54.157 9  25273000.616 6         0.000 6      1629.512 6        37.977 6
G10  23688913.506 9 124486027.895 9      3526.356 9        54.713 9  23688917.116 6         0.000 6      2747.812 6        37.977 6
G21  21215189.499 9 111486552.485 9     -1350.847 9        55.691 9  21215188.793 6         0.000 6     -1052.608 6        37.977 6
G29  24407872.706 9 128264178.512 9     -3210.782 9        54.436 9  24407874.396 6         0.000 6     -2501.911 6        37.977 6
G27  21919054.741 9 115185383.588 9      2501.676 9        55.408 9  21919056.644 6         0.000 6      1949.358 6        37.977 6
G16  20479773.843 9 107621917.622 9       469.922 9        55.984 9  20479773.016 6         0.000 6       366.173 6        37.977 6
G26  20707237.857 9 108817246.788 9     -1555.850 9        55.851 9  20707240.694 6         0.000 6     -1212.351 6        37.977 6
G20  21857537.862 9 114862104.416 9      2477.424 9        55.350 9  21857538.135 6         0.000 6      1930.461 6        37.977 6
> 2019 07 03 12 04  1.0000000  0  8       0.000000000000
G07  25272601.764 9 132808373.195 9      2094.111 9        54.157 9  25272602.395 6         0.000 6      1631.775 6        37.977 6
G10  23688242.761 9 124482503.119 9      3523.219 9        54.714 9  23688246.371 6         0.000 6      2745.368 6        37.977 6
G21  21215446.641 9 111487903.772 9     -1351.720 9        55.691 9  21215445.935 6         0.000 6     -1053.289 6        37.977 6
G29  24408483.953 9 128267390.626 9     -3213.429 9        54.436 9  24408485.644 6         0.000 6     -2503.974 6        37.977 6
G27  21918578.478 9 115182880.812 9      2503.852 9        55.408 9  21918580.381 6         0.000 6      1951.054 6        37.977 6
G16  20479684.383 9 107621447.505 9       470.293 9        55.984 9  20479683.556 6         0.000 6       366.462 6        37.977 6
G26  20707534.060 9 108818803.340 9     -1557.272 9        55.851 9  20707536.896 6         0.000 6     -1213.459 6        37.977 6
G20  21857066.726 9 114859628.584 9      2474.258 9        55.350 9  21857066.999 6         0.000 6      1927.995 6        37.977 6
> 2019 07 03 12 04  2.0000000  0  8       0.000000000000
G07  25272202.997 9 132806277.658 9      2096.953 9        54.157 9  25272203.627 6         0.000 6      1633.990 6        37.977 6
G10  23687572.612 9 124478981.471 9      3520.113 9        54.714 9  23687576.221 6         0.000 6      2742.948 6        37.977 6
G21  21215703.942 9 111489255.898 9     -1352.514 9        55.691 9  21215703.236 6         0.000 6     -1053.907 6        37.977 6
G29  24409095.685 9 128270605.287 9     -3215.877 9        54.436 9  24409097.376 6         0.000 6     -2505.881 6        37.977 6
G27  21918101.815 9 115180375.935 9      2505.886 9        55.409 9  21918103.718 6         0.000 6      1952.639 6        37.977 6
G16  20479594.860 9 107620977.058 9       470.595 9        55.984 9  20479594.033 6         0.000 6       366.698 6        37.977 6
G26  20707830.538 9 108820361.340 9     -1558.727 9        55.851 9  20707833.374 6         0.000 6     -1214.593 6        37.977 6
G20  21856596.187 9 114857155.885 9      2471.172 9        55.350 9  21856596.459 6         0.000 6      1925.590 6        37.977 6
> 2019 07 03 12 04  3.0000000  0  8       0.000000000000
G07  25271803.694 9 132804179.315 9      2099.726 9        54.157 9  25271804.325 6         0.000 6      1636.151 6        37.977 6
G10  23686903.049 9 124475462.906 9      3517.046 9        54.714 9  23686906.658 6         0.000 6      2740.558 6        37.977 6
G21  21215961.387 9 111490608.777 9     -1353.241 9        55.691 9  21215960.681 6         0.000 6     -1054.474 6        37.977 6
G29  24409707.863 9 128273822.295 9     -3218.137 9        54.436 9  24409709.555 6         0.000 6     -2507.642 6        37.977 6
G27  21917624.779 9 115177869.093 9      2507.779 9        55.409 9  21917626.681 6         0.000 6      1954.115 6        37.977 6
G16  20479505.285 9 107620506.340 9       470.827 9        55.984 9  20479504.458 6         0.000 6       366.878 6        37.977 6
G26  20708127.294 9 108821920.806 9     -1560.214 9        55.851 9  20708130.131 6         0.000 6     -1215.751 6        37.977 6
G20  21856126.225 9 114854686.226 9      2468.166 9        55.350 9  21856126.497 6         0.000 6      1923.247 6        37.977 6
> 2019 07 03 12 04  4.0000000  0  8       0.000000000000
G07  25271403.872 9 132802078.238 9      2102.419 9        54.157 9  25271404.502 6         0.000 6      1638.250 6        37.977 6
G10  23686234.065 9 124471947.382 9      3514.031 9        54.714 9  23686237.674 6         0.000 6      2738.209 6        37.977 6
G21  21216218.964 9 111491962.353 9     -1353.901 9        55.691 9  21216218.258 6         0.000 6     -1054.988 6        37.977 6
G29  24410320.455 9 128277041.475 9     -3220.214 9        54.436 9  24410322.148 6         0.000 6     -2509.261 6        37.977 6
G27  21917147.394 9 115175360.425 9      2509.539 9        55.409 9  21917149.297 6         0.000 6      1955.485 6        37.977 6
G16  20479415.673 9 107620035.424 9       470.995 9        55.984 9  20479414.846 6         0.000 6       367.009 6        37.977 6
G26  20708424.336 9 108823481.768 9     -1561.719 9        55.850 9  20708427.173 6         0.000 6     -1216.924 6        37.977 6
G20  21855656.828 9 114852219.530 9      2465.249 9        55.350 9  21855657.099 6         0.000 6      1920.974 6        37.977 6
> 2019 07 03 12 04  5.0000000  0  8       0.000000000000
G07  25271003.545 9 132799974.509 9      2105.023 9        54.158 9  25271004.175 6         0.000 6      1640.279 6        37.977 6
G10  23685565.650 9 124468434.848 9      3511.078 9        54.715 9  23685569.258 6         0.000 6      2735.908 6        37.977 6
G21  21216476.662 9 111493316.564 9     -1354.505 9        55.691 9  21216475.956 6         0.000 6     -1055.459 6        37.977 6
G29  24410933.426 9 128280262.651 9     -3222.122 9        54.435 9  24410935.120 6         0.000 6     -2510.747 6        37.977 6
G27  21916669.688 9 115172850.064 9      2511.165 9        55.409 9  21916671.590 6         0.000 6      1956.752 6        37.977 6
G16  20479326.035 9 107619564.375 9       471.097 9        55.984 9  20479325.208 6         0.000 6       367.089 6        37.977 6
G26  20708721.667 9 108825044.249 9     -1563.239 9        55.850 9  20708724.504 6         0.000 6     -1218.109 6        37.977 6
G20  21855187.978 9 114849755.713 9      2462.420 9        55.351 9  21855188.250 6         0.000 6      1918.770 6        37.977 6
> 2019 07 03 12 04  6.0000000  0  8       0.000000000000
G07  25270602.731 9 132797868.222 9      2107.543 9        54.158 9  25270603.361 6         0.000 6      1642.242 6        37.977 6
G10  23684897.791 9 124464925.232 9      3508.185 9        54.715 9  23684901.398 6         0.000 6      2733.653 6        37.977 6
G21  21216734.468 9 111494671.344 9     -1355.052 9        55.690 9  21216733.762 6         0.000 6     -1055.885 6        37.977 6
G29  24411546.744 9 128283485.646 9     -3223.871 9        54.435 9  24411548.438 6         0.000 6     -2512.110 6        37.977 6
G27  21916191.685 9 115170338.141 9      2512.669 9        55.409 9  21916193.587 6         0.000 6      1957.925 6        37.977 6
G16  20479236.383 9 107619093.249 9       471.144 9        55.984 9  20479235.556 6         0.000 6       367.125 6        37.977 6
G26  20709019.286 9 108826608.250 9     -1564.769 9        55.850 9  20709022.124 6         0.000 6     -1219.301 6        37.977 6
G20  21854719.657 9 114847294.674 9      2459.679 9        55.351 9  21854719.928 6         0.000 6      1916.634 6        37.977 6
> 2019 07 03 12 04  7.0000000  0  8       0.000000000000
G07  25270201.448 9 132795759.464 9      2109.964 9        54.158 9  25270202.077 6         0.000 6      1644.128 6        37.977 6
G10  23684230.475 9 124461418.475 9      3505.364 9        54.715 9  23684234.081 6         0.000 6      2731.455 6        37.977 6
G21  21216992.375 9 111496026.653 9     -1355.550 9        55.690 9  21216991.669 6         0.000 6     -1056.273 6        37.977 6
G29  24412160.380 9 128286710.315 9     -3225.462 9        54.435 9  24412162.075 6         0.000 6     -2513.350 6        37.977 6
G27  21915713.407 9 115167824.778 9      2514.047 9        55.410 9  21915715.309 6         0.000 6      1958.999 6        37.977 6
G16  20479146.729 9 107618622.112 9       471.130 9        55.984 9  20479145.902 6         0.000 6       367.114 6        37.977 6
G26  20709317.199 9 108828173.788 9     -1566.304 9        55.850 9  20709320.036 6         0.000 6     -1220.497 6        37.977 6
G20  21854251.850 9 114844836.333 9      2457.031 9        55.351 9  21854252.121 6         0.000 6      1914.571 6        37.977 6
> 2019 07 03 12 04  8.0000000  0  8       0.000000000000
G07  25269799.713 9 132793648.337 9      2112.282 9        54.158 9  25269800.342 6         0.000 6      1645.935 6        37.977 6
G10  23683563.688 9 124457914.493 9      3502.628 9        54.715 9  23683567.293 6         0.000 6      2729.323 6        37.977 6
G21  21217250.370 9 111497382.426 9     -1356.000 9        55.690 9  21217249.664 6         0.000 6     -1056.623 6        37.977 6
G29  24412774.304 9 128289936.496 9     -3226.904 9        54.435 9  24412776.000 6         0.000 6     -2514.474 6        37.977 6
G27  21915234.878 9 115165310.092 9      2515.309 9        55.410 9  21915236.779 6         0.000 6      1959.981 6        37.977 6
G16  20479057.080 9 107618151.006 9       471.065 9        55.984 9  20479056.253 6         0.000 6       367.063 6        37.977 6
G26  20709615.401 9 108829740.850 9     -1567.832 9        55.850 9  20709618.239 6         0.000 6     -1221.688 6        37.977 6
G20  21853784.535 9 114842380.584 9      2454.483 9        55.351 9  21853784.806 6         0.000 6      1912.585 6        37.977 6
> 2019 07 03 12 04  9.0000000  0  8       0.000000000000
G07  25269397.547 9 132791534.944 9      2114.495 9        54.158 9  25269398.176 6         0.000 6      1647.659 6        37.977 6
G10  23682897.414 9 124454413.211 9      3499.973 9        54.716 9  23682901.019 6         0.000 6      2727.254 6        37.977 6
G21  21217508.448 9 111498738.637 9     -1356.410 9        55.690 9  21217507.743 6         0.000 6     -1056.943 6        37.977 6
G29  24413388.490 9 128293164.057 9     -3228.212 9        54.434 9  24413390.187 6         0.000 6     -2515.493 6        37.977 6
G27  21914756.120 9 115162794.204 9      2516.456 9        55.410 9  21914758.021 6         0.000 6      1960.875 6        37.977 6
G16  20478967.450 9 107617679.999 9       470.946 9        55.984 9  20478966.624 6         0.000 6       366.971 6        37.977 6
G26  20709913.895 9 108831309.445 9     -1569.356 9        55.850 9  20709916.733 6         0.000 6     -1222.875 6        37.977 6
G20  21853317.698 9 114839927.343 9      2452.027 9        55.351 9  21853317.969 6         0.000 6      1910.672 6        37.977 6
> 2019 07 03 12 04 10.0000000  0  8       0.000000000000
G07  25268994.970 9 132789419.390 9      2116.596 9        54.158 9  25268995.598 6         0.000 6      1649.297 6        37.977 6
G10  23682231.637 9 124450914.541 9      3497.408 9        54.716 9  23682235.242 6         0.000 6      2725.255 6        37.977 6
G21  21217766.601 9 111500095.238 9     -1356.788 9        55.690 9  21217765.896 6         0.000 6     -1057.237 6        37.977 6
G29  24414002.913 9 128296392.860 9     -3229.390 9        54.434 9  24414004.610 6         0.000 6     -2516.411 6        37.977 6
G27  21914277.153 9 115160277.222 9      2517.491 9        55.410 9  21914279.055 6         0.000 6      1961.682 6        37.977 6
G16  20478877.848 9 107617209.133 9       470.775 9        55.984 9  20478877.021 6         0.000 6       366.838 6        37.977 6
G26  20710212.678 9 108832879.557 9     -1570.870 9        55.850 9  20710215.516 6         0.000 6     -1224.055 6        37.977 6
G20  21852851.319 9 114837476.510 9      2449.667 9        55.351 9  21852851.589 6         0.000 6      1908.833 6        37.977 6
> 2019 07 03 12 04 11.0000000  0  8       0.000000000000
G07  25268592.004 9 132787301.795 9      2118.585 9        54.158 9  25268592.633 6         0.000 6      1650.846 6        37.977 6
G10  23681566.339 9 124447418.386 9      3494.938 9        54.716 9  23681569.943 6         0.000 6      2723.331 6        37.977 6
G21  21218024.822 9 111501452.197 9     -1357.125 9        55.690 9  21218024.116 6         0.000 6     -1057.500 6        37.977 6
G29  24414617.548 9 128299622.776 9     -3230.444 9        54.434 9  24414619.246 6         0.000 6     -2517.232 6        37.977 6
G27  21913798.001 9 115157759.259 9      2518.424 9        55.410 9  21913799.902 6         0.000 6      1962.409 6        37.977 6
G16  20478788.282 9 107616738.461 9       470.563 9        55.984 9  20478787.455 6         0.000 6       366.672 6        37.977 6
G26  20710511.747 9 108834451.174 9     -1572.363 9        55.850 9  20710514.585 6         0.000 6     -1225.219 6        37.977 6
G20  21852385.380 9 114835027.984 9      2447.409 9        55.352 9  21852385.649 6         0.000 6      1907.073 6        37.977 6
> 2019 07 03 12 04 12.0000000  0  8       0.000000000000
G07  25268188.670 9 132785182.266 9      2120.461 9        54.159 9  25268189.299 6         0.000 6      1652.308 6        37.977 6
G10  23680901.502 9 124443924.653 9      3492.565 9        54.716 9  23680905.105 6         0.000 6      2721.482 6        37.977 6
G21  21218283.104 9 111502809.476 9     -1357.435 9        55.690 9  21218282.398 6         0.000 6     -1057.742 6        37.977 6
G29  24415232.372 9 128302853.688 9     -3231.390 9        54.434 9  24415234.070 6         0.000 6     -2517.969 6        37.977 6
G27  21913318.680 9 115155240.414 9      2519.262 9        55.410 9  21913320.581 6         0.000 6      1963.062 6        37.977 6
G16  20478698.760 9 107616268.023 9       470.310 9        55.984 9  20478697.933 6         0.000 6       366.475 6        37.977 6
G26  20710811.099 9 108836024.275 9     -1573.836 9        55.849 9  20710813.937 6         0.000 6     -1226.366 6        37.977 6
G20  21851919.860 9 114832581.667 9      2445.246 9        55.352 9  21851920.130 6         0.000 6      1905.388 6        37.977 6
> 2019 07 03 12 04 13.0000000  0  8       0.000000000000
G07  25267784.991 9 132783060.918 9      2122.218 9        54.159 9  25267785.619 6         0.000 6      1653.677 6        37.977 6
G10  23680237.107 9 124440433.243 9      3490.292 9        54.717 9  23680240.709 6         0.000 6      2719.711 6        37.977 6
G21  21218541.443 9 111504167.056 9     -1357.726 9        55.690 9  21218540.737 6         0.000 6     -1057.969 6        37.977 6
G29  24415847.367 9 128306085.496 9     -3232.229 9        54.434 9  24415849.066 6         0.000 6     -2518.623 6        37.977 6
G27  21912839.208 9 115152720.776 9      2519.997 9        55.411 9  21912841.109 6         0.000 6      1963.635 6        37.977 6
G16  20478609.291 9 107615797.857 9       470.008 9        55.984 9  20478608.464 6         0.000 6       366.240 6        37.977 6
G26  20711110.728 9 108837598.836 9     -1575.290 9        55.849 9  20711113.566 6         0.000 6     -1227.499 6        37.977 6
G20  21851454.744 9 114830137.467 9      2443.178 9        55.352 9  21851455.013 6         0.000 6      1903.776 6        37.977 6
> 2019 07 03 12 04 14.0000000  0  8       0.000000000000
G07  25267380.989 9 132780937.879 9      2123.854 9        54.159 9  25267381.617 6         0.000 6      1654.952 6        37.977 6
G10  23679573.133 9 124436944.050 9      3488.126 9        54.717 9  23679576.735 6         0.000 6      2718.023 6        37.977 6
G21  21218799.835 9 111505524.915 9     -1357.992 9        55.690 9  21218799.130 6         0.000 6     -1058.176 6        37.977 6
G29  24416462.511 9 128309318.091 9     -3232.973 9        54.433 9  24416464.211 6         0.000 6     -2519.202 6        37.977 6
G27  21912359.606 9 115150200.452 9      2520.647 9        55.411 9  21912361.507 6         0.000 6      1964.141 6        37.977 6
G16  20478519.883 9 107615328.015 9       469.674 9        55.985 9  20478519.056 6         0.000 6       365.980 6        37.977 6
G26  20711410.631 9 108839174.837 9     -1576.712 9        55.849 9  20711413.470 6         0.000 6     -1228.607 6        37.977 6
G20  21850990.011 9 114827695.283 9      2441.209 9        55.352 9  21850990.280 6         0.000 6      1902.242 6        37.977 6
> 2019 07 03 12 04 15.0000000  0  8       0.000000000000
G07  25266976.685 9 132778813.253 9      2125.373 9        54.159 9  25266977.313 6         0.000 6      1656.136 6        37.977 6
G10  23678909.564 9 124433456.978 9      3486.066 9        54.717 9  23678913.165 6         0.000 6      2716.417 6        37.977 6
G21  21219058.275 9 111506883.028 9     -1358.238 9        55.689 9  21219057.570 6         0.000 6     -1058.368 6        37.977 6
G29  24417077.789 9 128312551.385 9     -3233.624 9        54.433 9  24417079.489 6         0.000 6     -2519.709 6        37.977 6
G27  21911879.887 9 115147679.517 9      2521.210 9        55.411 9  21911881.788 6         0.000 6      1964.580 6        37.977 6
G16  20478430.541 9 107614858.520 9       469.305 9        55.985 9  20478429.714 6         0.000 6       365.693 6        37.977 6
G26  20711710.803 9 108840752.246 9     -1578.103 9        55.849 9  20711713.641 6         0.000 6     -1229.691 6        37.977 6
G20  21850525.644 9 114825255.023 9      2439.338 9        55.352 9  21850525.913 6         0.000 6      1900.784 6        37.977 6
> 2019 07 03 12 04 16.0000000  0  8       0.000000000000
G07  25266572.105 9 132776687.170 9      2126.780 9        54.159 9  25266572.732 6         0.000 6      1657.232 6        37.977 6
G10  23678246.376 9 124429971.914 9      3484.104 9        54.717 9  23678249.977 6         0.000 6      2714.889 6        37.977 6
G21  21219316.763 9 111508241.387 9     -1358.472 9        55.689 9  21219316.057 6         0.000 6     -1058.550 6        37.977 6
G29  24417693.183 9 128315785.293 9     -3234.200 9        54.433 9  24417694.884 6         0.000 6     -2520.159 6        37.977 6
G27  21911400.070 9 115145158.061 9      2521.699 9        55.411 9  21911401.970 6         0.000 6      1964.961 6        37.977 6
G16  20478341.273 9 107614389.415 9       468.906 9        55.985 9  20478340.446 6         0.000 6       365.381 6        37.977 6
G26  20712011.236 9 108842331.033 9     -1579.463 9        55.849 9  20712014.075 6         0.000 6     -1230.751 6        37.977 6
G20  21850061.625 9 114822816.592 9      2437.553 9        55.353 9  21850061.894 6         0.000 6      1899.393 6        37.977 6
> 2019 07 03 12 04 17.0000000  0  8       0.000000000000
G07  25266167.266 9 132774559.732 9      2128.073 9        54.159 9  25266167.893 6         0.000 6      1658.240 6        37.977 6
G10  23677583.552 9 124426488.759 9      3482.247 9        54.718 9  23677587.152 6         0.000 6      2713.442 6        37.977 6
G21  21219575.293 9 111509599.972 9     -1358.698 9        55.689 9  21219574.588 6         0.000 6     -1058.726 6        37.977 6
G29  24418308.681 9 128319019.744 9     -3234.706 9        54.433 9  24418310.382 6         0.000 6     -2520.553 6        37.977 6
G27  21910920.165 9 115142636.146 9      2522.116 9        55.411 9  21910922.065 6         0.000 6      1965.286 6        37.977 6
G16  20478252.083 9 107613920.719 9       468.477 9        55.985 9  20478251.256 6         0.000 6       365.047 6        37.977 6
G26  20712311.925 9 108843911.160 9     -1580.790 9        55.849 9  20712314.763 6         0.000 6     -1231.785 6        37.977 6
G20  21849597.937 9 114820379.901 9      2435.857 9        55.353 9  21849598.206 6         0.000 6      1898.071 6        37.977 6
> 2019 07 03 12 04 18.0000000  0  8       0.000000000000
G07  25265762.194 9 132772431.069 9      2129.248 9        54.159 9  25265762.822 6         0.000 6      1659.155 6        37.977 6
G10  23676921.070 9 124423007.405 9      3480.496 9        54.718 9  23676924.670 6         0.000 6      2712.077 6        37.977 6
G21  21219833.866 9 111510958.783 9     -1358.918 9        55.689 9  21219833.161 6         0.000 6     -1058.898 6        37.977 6
G29  24418924.268 9 128322254.665 9     -3235.148 9        54.432 9  24418925.970 6         0.000 6     -2520.897 6        37.977 6
G27  21910440.189 9 115140113.858 9      2522.461 9        55.412 9  21910442.089 6         0.000 6      1965.555 6        37.977 6
G16  20478162.979 9 107613452.473 9       468.019 9        55.985 9  20478162.152 6         0.000 6       364.690 6        37.977 6
G26  20712612.863 9 108845492.600 9     -1582.082 9        55.849 9  20712615.702 6         0.000 6     -1232.792 6        37.977 6
G20  21849134.564 9 114817944.861 9      2434.248 9        55.353 9  21849134.832 6         0.000 6      1896.817 6        37.977 6
> 2019 07 03 12 04 19.0000000  0  8       0.000000000000
G07  25265356.910 9 132770301.287 9      2130.303 9        54.160 9  25265357.537 6         0.000 6      1659.977 6        37.977 6
G10  23676258.911 9 124419527.746 9      3478.856 9        54.718 9  23676262.510 6         0.000 6      2710.799 6        37.977 6
G21  21220092.480 9 111512317.805 9     -1359.133 9        55.689 9  21220091.775 6         0.000 6     -1059.065 6        37.977 6
G29  24419539.933 9 128325489.995 9     -3235.527 9        54.432 9  24419541.635 6         0.000 6     -2521.192 6        37.977 6
G27  21909960.152 9 115137591.253 9      2522.738 9        55.412 9  21909962.052 6         0.000 6      1965.771 6        37.977 6
G16  20478073.963 9 107612984.691 9       467.535 9        55.985 9  20478073.136 6         0.000 6       364.313 6        37.977 6
G26  20712914.042 9 108847075.305 9     -1583.333 9        55.849 9  20712916.881 6         0.000 6     -1233.767 6        37.977 6
G20  21848671.487 9 114815511.380 9      2432.730 9        55.353 9  21848671.755 6         0.000 6      1895.635 6        37.977 6
> 2019 07 03 12 04 20.0000000  0  8       0.000000000000
G07  25264951.434 9 132768170.502 9      2131.247 9        54.160 9  25264952.061 6         0.000 6      1660.712 6        37.977 6
G10  23675597.055 9 124416049.680 9      3477.322 9        54.718 9  23675600.653 6         0.000 6      2709.604 6        37.977 6
G21  21220351.134 9 111513677.042 9     -1359.347 9        55.689 9  21220350.429 6         0.000 6     -1059.231 6        37.977 6
G29  24420155.665 9 128328725.682 9     -3235.862 9        54.432 9  24420157.369 6         0.000 6     -2521.453 6        37.977 6
G27  21909480.069 9 115135068.398 9      2522.963 9        55.412 9  21909481.968 6         0.000 6      1965.946 6        37.977 6
G16  20477985.041 9 107612517.402 9       467.034 9        55.985 9  20477984.214 6         0.000 6       363.923 6        37.977 6
G26  20713215.456 9 108848659.243 9     -1584.540 9        55.848 9  20713218.295 6         0.000 6     -1234.707 6        37.977 6
G20  21848208.692 9 114813079.379 9      2431.296 9        55.353 9  21848208.959 6         0.000 6      1894.518 6        37.977 6
> 2019 07 03 12 04 21.0000000  0  8       0.000000000000
G07  25264545.790 9 132766038.834 9      2132.078 9        54.160 9  25264546.417 6         0.000 6      1661.360 6        37.977 6
G10  23674935.480 9 124412573.090 9      3475.893 9        54.719 9  23674939.078 6         0.000 6      2708.491 6        37.977 6
G21  21220609.829 9 111515036.492 9     -1359.561 9        55.689 9  21220609.124 6         0.000 6     -1059.398 6        37.977 6
G29  24420771.457 9 128331961.679 9     -3236.149 9        54.432 9  24420773.161 6         0.000 6     -2521.677 6        37.977 6
G27  21908999.948 9 115132545.349 9      2523.131 9        55.412 9  21909001.847 6         0.000 6      1966.076 6        37.977 6
G16  20477896.216 9 107612050.626 9       466.512 9        55.985 9  20477895.390 6         0.000 6       363.516 6        37.977 6
G26  20713517.095 9 108850244.367 9     -1585.707 9        55.848 9  20713519.934 6         0.000 6     -1235.617 6        37.977 6
G20  21847746.161 9 114810648.768 9      2429.944 9        55.353 9  21847746.428 6         0.000 6      1893.464 6        37.977 6
> 2019 07 03 12 04 22.0000000  0  8       0.000000000000
G07  25264140.000 9 132763906.393 9      2132.800 9        54.160 9  25264140.626 6         0.000 6      1661.923 6        37.977 6
G10  23674274.167 9 124409097.876 9      3474.568 9        54.719 9  23674277.764 6         0.000 6      2707.458 6        37.977 6
G21  21220868.565 9 111516396.158 9     -1359.777 9        55.689 9  21220867.860 6         0.000 6     -1059.567 6        37.977 6
G29  24421387.299 9 128335197.940 9     -3236.398 9        54.432 9  24421389.004 6         0.000 6     -2521.871 6        37.977 6
G27  21908519.800 9 115130022.160 9      2523.249 9        55.412 9  21908521.700 6         0.000 6      1966.169 6        37.977 6
G16  20477807.493 9 107611584.383 9       465.974 9        55.985 9  20477806.666 6         0.000 6       363.097 6        37.977 6
G26  20713818.953 9 108851830.637 9     -1586.831 9        55.848 9  20713821.792 6         0.000 6     -1236.492 6        37.977 6
G20  21847283.880 9 114808219.468 9      2428.672 9        55.354 9  21847284.147 6         0.000 6      1892.473 6        37.977 6
> 2019 07 03 12 04 23.0000000  0  8       0.000000000000
G07  25263734.081 9 132761773.281 9      2133.406 9        54.160 9  25263734.708 6         0.000 6      1662.395 6        37.977 6
G10  23673613.097 9 124405623.938 9      3473.352 9        54.719 9  23673616.693 6         0.000 6      2706.511 6        37.977 6
G21  21221127.343 9 111517756.047 9     -1359.997 9        55.689 9  21221126.638 6         0.000 6     -1059.738 6        37.977 6
G29  24422003.187 9 128338434.440 9     -3236.610 9        54.431 9  24422004.892 6         0.000 6     -2522.037 6        37.977 6
G27  21908039.634 9 115127498.874 9      2523.317 9        55.413 9  21908041.534 6         0.000 6      1966.222 6        37.977 6
G16  20477718.874 9 107611118.684 9       465.420 9        55.985 9  20477718.047 6         0.000 6       362.665 6        37.977 6
G26  20714121.020 9 108853418.010 9     -1587.907 9        55.848 9  20714123.860 6         0.000 6     -1237.331 6        37.977 6
G20  21846821.834 9 114805791.404 9      2427.483 9        55.354 9  21846822.101 6         0.000 6      1891.547 6        37.977 6
> 2019 07 03 12 04 24.0000000  0  9       0.000000000000
G07  25263328.057 9 132759639.614 9      2133.914 9        54.160 9  25263328.683 6         0.000 6      1662.791 6        37.977 6
G10  23672952.248 9 124402151.164 9      3472.235 9        54.719 9  23672955.844 6         0.000 6      2705.640 6        37.977 6
G21  21221386.164 9 111519116.156 9     -1360.226 9        55.688 9  21221385.459 6         0.000 6     -1059.917 6        37.977 6
G29  24422619.111 9 128341671.135 9     -3236.798 9        54.431 9  24422620.818 6         0.000 6     -2522.183 6        37.977 6
G27  21907559.460 9 115124975.540 9      2523.348 9        55.413 9  21907561.359 6         0.000 6      1966.246 6        37.977 6
G16  20477630.361 9 107610653.545 9       464.855 9        55.985 9  20477629.534 6         0.000 6       362.225 6        37.977 6
G26  20714423.288 9 108855006.435 9     -1588.940 9        55.848 9  20714426.127 6         0.000 6     -1238.135 6        37.977 6
G20  21846360.007 9 114803364.491 9      2426.365 9        55.354 9  21846360.273 6         0.000 6      1890.675 6        37.977 6
G08  25186047.627 9 132353525.981 9      3300.141 9        54.197 9  25186051.551 6         0.000 6      2571.539 6        37.977 6
> 2019 07 03 12 04 25.0000000  0  9       0.000000000000
G07  25262921.948 9 132757505.498 9      2134.313 9        54.160 9  25262922.574 6         0.000 6      1663.102 6        37.977 6
G10  23672291.602 9 124398679.456 9      3471.218 9        54.720 9  23672295.197 6         0.000 6      2704.848 6        37.977 6
G21  21221645.029 9 111520476.503 9     -1360.466 9        55.688 9  21221644.324 6         0.000 6     -1060.104 6        37.977 6
G29  24423235.069 9 128344908.004 9     -3236.961 9        54.431 9  24423236.776 6         0.000 6     -2522.310 6        37.977 6
G27  21907079.284 9 115122452.204 9      2523.333 9        55.413 9  21907081.183 6         0.000 6      1966.234 6        37.977 6
G16  20477541.958 9 107610188.984 9       464.274 9        55.985 9  20477541.131 6         0.000 6       361.772 6        37.977 6
G26  20714725.749 9 108856595.875 9     -1589.931 9        55.848 9  20714728.588 6         0.000 6     -1238.908 6        37.977 6
G20  21845898.386 9 114800938.659 9      2425.319 9        55.354 9  21845898.652 6         0.000 6      1889.860 6        37.977 6
G08  25185419.586 9 132350225.610 9      3300.482 9        54.197 9  25185423.510 6         0.000 6      2571.806 6        37.977 6
> 2019 07 03 12 04 26.0000000  0  9       0.000000000000
G07  25262515.771 9 132755371.027 9      2134.613 9        54.161 9  25262516.396 6         0.000 6      1663.335 6        37.977 6
G10  23671631.140 9 124395208.716 9      3470.300 9        54.720 9  23671634.734 6         0.000 6      2704.132 6        37.977 6
G21  21221903.941 9 111521837.094 9     -1360.721 9        55.688 9  21221903.236 6         0.000 6     -1060.302 6        37.977 6
G29  24423851.057 9 128348145.034 9     -3237.112 9        54.431 9  24423852.765 6         0.000 6     -2522.428 6        37.977 6
G27  21906599.113 9 115119928.890 9      2523.287 9        55.413 9  21906601.012 6         0.000 6      1966.198 6        37.977 6
G16  20477453.665 9 107609725.002 9       463.683 9        55.985 9  20477452.838 6         0.000 6       361.311 6        37.977 6
G26  20715028.393 9 108858186.278 9     -1590.876 9        55.848 9  20715031.232 6         0.000 6     -1239.644 6        37.977 6
G20  21845436.957 9 114798513.840 9      2424.340 9        55.354 9  21845437.223 6         0.000 6      1889.098 6        37.977 6
G08  25184791.507 9 132346925.036 9      3300.666 9        54.197 9  25184795.430 6         0.000 6      2571.949 6        37.977 6
