     3.00           Observation Data    M (Mixed)           RINEX VERSION / TYPE
SimGEN V6.06.00     Spirent             03-Jul-19 12:00     PGM / RUN BY / DATE 
                                                            MARKER NAME         
1                                                           MARKER NUMBER       
GROUND_CRAFT                                                MARKER TYPE         
                    Spirent                                 OBSERVER / AGENCY   
rec_num             rec_type            rec_vers            REC # / TYPE / VERS 
1                   ant_type                                ANT # / TYPE        
  1000.000                                                  INTERVAL            
  2019     7     3    12     0    0.0000000     GPS         TIME OF FIRST OBS   
  4162707.3820   664032.7760  4770553.5030                  APPROX POSITION XYZ 
        0.0000        0.0000        0.0000                  ANTENNA: DELTA H/E/N
G    8 C1C L1C D1C S1C C2C L2C D2C S2C                      SYS / # / OBS TYPES 
        0.0000        0.0000        0.0000                  ANTENNA: DELTA X/Y/Z
DBHZ                                                        SIGNAL STRENGTH UNIT
                                                            END OF HEADER       
> 2019 07 03 12 00  0.0000000  0  8       0.000000000000
G07  25371831.737 9 133329829.367 9      2226.367 9        54.123 9  25371832.420 6         0.000 6      1734.832 6        37.977 6
G10  23849508.377 9 125329957.117 9      3528.747 9        54.655 9  23849512.143 6         0.000 6      2749.673 6        37.977 6
G21  21156932.130 9 111180408.118 9     -1239.206 9        55.715 9  21156931.413 6         0.000 6      -965.615 6        37.977 6
G29  24264755.307 9 127512093.988 9     -3143.337 9        54.487 9  24264756.844 6         0.000 6     -2449.354 6        37.977 6
G27  22032842.488 9 115783341.585 9      2535.300 9        55.363 9  22032844.430 6         0.000 6      1975.559 6        37.977 6
G16  20503632.400 9 107747295.179 9       603.847 9        55.974 9  20503631.573 6         0.000 6       470.530 6        37.977 6
G26  20637912.330 9 108452939.117 9     -1446.068 9        55.880 9  20637915.140 6         0.000 6     -1126.807 6        37.977 6
G20  21973224.265 9 115470039.505 9      2577.828 9        55.304 9  21973224.604 6         0.000 6      2008.697 6        37.977 6
> 2019 07 03 12 00  1.0000000  0  8       0.000000000000
G07  25371408.106 9 133327603.173 9      2225.972 9        54.123 9  25371408.789 6         0.000 6      1734.525 6        37.977 6
G10  23848836.888 9 125326428.428 9      3528.634 9        54.655 9  23848840.653 6         0.000 6      2749.587 6        37.977 6
G21  21157167.979 9 111181647.509 9     -1239.575 9        55.715 9  21157167.262 6         0.000 6      -965.903 6        37.977 6
G29  24265353.478 9 127515237.386 9     -3143.453 9        54.487 9  24265355.016 6         0.000 6     -2449.446 6        37.977 6
G27  22032360.058 9 115780806.403 9      2535.065 9        55.363 9  22032362.001 6         0.000 6      1975.376 6        37.977 6
G16  20503517.550 9 107746691.640 9       603.231 9        55.974 9  20503516.723 6         0.000 6       470.050 6        37.977 6
G26  20638187.563 9 108454385.475 9     -1446.649 9        55.880 9  20638190.373 6         0.000 6     -1127.259 6        37.977 6
G20  21972733.762 9 115467461.895 9      2577.395 9        55.304 9  21972734.100 6         0.000 6      2008.361 6        37.977 6
> 2019 07 03 12 00  2.0000000  0  8       0.000000000000
G07  25370984.550 9 133325377.377 9      2225.926 9        54.123 9  25370985.233 6         0.000 6      1734.489 6        37.977 6
G10  23848165.432 9 125322899.913 9      3528.177 9        54.655 9  23848169.196 6         0.000 6      2749.232 6        37.977 6
G21  21157403.900 9 111182887.286 9     -1240.108 9        55.715 9  21157403.184 6         0.000 6      -966.318 6        37.977 6
G29  24265951.678 9 127518380.941 9     -3144.100 9        54.487 9  24265953.217 6         0.000 6     -2449.950 6        37.977 6
G27  22031877.663 9 115778271.401 9      2535.295 9        55.363 9  22031879.605 6         0.000 6      1975.555 6        37.977 6
G16  20503402.812 9 107746088.688 9       602.832 9        55.974 9  20503401.985 6         0.000 6       469.739 6        37.977 6
G26  20638462.907 9 108455832.413 9     -1447.242 9        55.880 9  20638465.717 6         0.000 6     -1127.721 6        37.977 6
G20  21972243.351 9 115464884.771 9      2576.577 9        55.304 9  21972243.688 6         0.000 6      2007.723 6        37.977 6
> 2019 07 03 12 00  3.0000000  0  8       0.000000000000
G07  25370560.740 9 133323150.241 9      2228.326 9        54.123 9  25370561.422 6         0.000 6      1736.359 6        37.977 6
G10  23847494.273 9 125319372.964 9      3525.761 9        54.655 9  23847498.037 6         0.000 6      2747.349 6        37.977 6
G21  21157640.031 9 111184128.162 9     -1241.636 9        55.715 9  21157639.315 6         0.000 6      -967.509 6        37.977 6
G29  24266550.370 9 127521527.075 9     -3148.149 9        54.487 9  24266551.909 6         0.000 6     -2453.106 6        37.977 6
G27  22031394.915 9 115775734.547 9      2538.383 9        55.364 9  22031396.857 6         0.000 6      1977.962 6        37.977 6
G16  20503288.007 9 107745485.384 9       603.759 9        55.974 9  20503287.180 6         0.000 6       470.462 6        37.977 6
G26  20638738.371 9 108457279.984 9     -1447.908 9        55.880 9  20638741.181 6         0.000 6     -1128.240 6        37.977 6
G20  21971753.343 9 115462309.769 9      2573.460 9        55.305 9  21971753.680 6         0.000 6      2005.294 6        37.977 6
> 2019 07 03 12 00  4.0000000  0  8       0.000000000000
G07  25370136.419 9 133320920.426 9      2231.350 9        54.124 9  25370137.102 6         0.000 6      1738.715 6        37.977 6
G10  23846823.617 9 125315848.654 9      3522.851 9        54.656 9  23846827.381 6         0.000 6      2745.082 6        37.977 6
G21  21157876.474 9 111185370.676 9     -1243.414 9        55.715 9  21157875.757 6         0.000 6      -968.894 6        37.977 6
G29  24267149.905 9 127524677.643 9     -3153.068 9        54.487 9  24267151.445 6         0.000 6     -2456.939 6        37.977 6
G27  22030911.518 9 115773194.280 9      2542.206 9        55.364 9  22030913.460 6         0.000 6      1980.940 6        37.977 6
G16  20503172.997 9 107744881.000 9       605.031 9        55.974 9  20503172.170 6         0.000 6       471.453 6        37.977 6
G26  20639013.963 9 108458728.229 9     -1448.585 9        55.880 9  20639016.773 6         0.000 6     -1128.768 6        37.977 6
G20  21971263.978 9 115459738.144 9      2569.762 9        55.305 9  21971264.315 6         0.000 6      2002.413 6        37.977 6
> 2019 07 03 12 00  5.0000000  0  8       0.000000000000
G07  25369711.486 9 133318687.393 9      2234.659 9        54.124 9  25369712.168 6         0.000 6      1741.294 6        37.977 6
G10  23846153.546 9 125312327.415 9      3519.698 9        54.656 9  23846157.309 6         0.000 6      2742.625 6        37.977 6
G21  21158113.270 9 111186615.046 9     -1245.285 9        55.714 9  21158112.553 6         0.000 6      -970.352 6        37.977 6
G29  24267750.424 9 127527833.384 9     -3158.313 9        54.486 9  24267751.965 6         0.000 6     -2461.026 6        37.977 6
G27  22030427.353 9 115770649.980 9      2546.307 9        55.364 9  22030429.295 6         0.000 6      1984.136 6        37.977 6
G16  20503057.726 9 107744275.251 9       606.425 9        55.974 9  20503056.900 6         0.000 6       472.539 6        37.977 6
G26  20639289.687 9 108460177.169 9     -1449.301 9        55.879 9  20639292.498 6         0.000 6     -1129.326 6        37.977 6
G20  21970775.352 9 115457170.400 9      2565.805 9        55.305 9  21970775.689 6         0.000 6      1999.330 6        37.977 6
> 2019 07 03 12 00  6.0000000  0  8       0.000000000000
G07  25369285.939 9 133316451.132 9      2237.873 9        54.124 9  25369286.621 6         0.000 6      1743.798 6        37.977 6
G10  23845484.064 9 125308809.272 9      3516.600 9        54.656 9  23845487.825 6         0.000 6      2740.210 6        37.977 6
G21  21158350.407 9 111187861.210 9     -1247.042 9        55.714 9  21158349.691 6         0.000 6      -971.721 6        37.977 6
G29  24268351.902 9 127530994.162 9     -3163.245 9        54.486 9  24268353.443 6         0.000 6     -2464.869 6        37.977 6
G27  22029942.437 9 115768101.733 9      2550.177 9        55.364 9  22029944.379 6         0.000 6      1987.152 6        37.977 6
G16  20502942.204 9 107743668.177 9       607.711 9        55.974 9  20502941.377 6         0.000 6       473.541 6        37.977 6
G26  20639565.551 9 108461626.844 9     -1450.066 9        55.879 9  20639568.362 6         0.000 6     -1129.922 6        37.977 6
G20  21970287.459 9 115454606.512 9      2561.976 9        55.305 9  21970287.796 6         0.000 6      1996.346 6        37.977 6
> 2019 07 03 12 00  7.0000000  0  8       0.000000000000
G07  25368859.774 9 133314211.621 9      2241.170 9        54.124 9  25368860.456 6         0.000 6      1746.367 6        37.977 6
G10  23844815.179 9 125305294.272 9      3513.408 9        54.656 9  23844818.940 6         0.000 6      2737.723 6        37.977 6
G21  21158587.877 9 111189109.119 9     -1248.772 9        55.714 9  21158587.160 6         0.000 6      -973.069 6        37.977 6
G29  24268954.313 9 127534159.843 9     -3168.131 9        54.486 9  24268955.855 6         0.000 6     -2468.676 6        37.977 6
G27  22029456.788 9 115765549.632 9      2554.030 9        55.364 9  22029458.729 6         0.000 6      1990.154 6        37.977 6
G16  20502826.439 9 107743059.831 9       608.980 9        55.974 9  20502825.613 6         0.000 6       474.530 6        37.977 6
G26  20639841.567 9 108463077.316 9     -1450.890 9        55.879 9  20639844.378 6         0.000 6     -1130.564 6        37.977 6
G20  21969800.300 9 115452046.477 9      2558.096 9        55.305 9  21969800.636 6         0.000 6      1993.322 6        37.977 6
> 2019 07 03 12 00  8.0000000  0  8       0.000000000000
G07  25368432.972 9 133311968.768 9      2244.561 9        54.124 9  25368433.654 6         0.000 6      1749.009 6        37.977 6
G10  23844146.912 9 125301782.512 9      3510.118 9        54.657 9  23844150.672 6         0.000 6      2735.160 6        37.977 6
G21  21158825.672 9 111190358.741 9     -1250.461 9        55.714 9  21158824.955 6         0.000 6      -974.385 6        37.977 6
G29  24269557.650 9 127537330.387 9     -3172.963 9        54.486 9  24269559.192 6         0.000 6     -2472.442 6        37.977 6
G27  22028970.406 9 115762993.683 9      2557.873 9        55.365 9  22028972.348 6         0.000 6      1993.148 6        37.977 6
G16  20502710.435 9 107742450.221 9       610.244 9        55.974 9  20502709.608 6         0.000 6       475.515 6        37.977 6
G26  20640117.746 9 108464528.641 9     -1451.768 9        55.879 9  20640120.557 6         0.000 6     -1131.248 6        37.977 6
G20  21969313.884 9 115449490.349 9      2554.167 9        55.306 9  21969314.220 6         0.000 6      1990.261 6        37.977 6
> 2019 07 03 12 00  9.0000000  0  8       0.000000000000
G07  25368005.514 9 133309722.462 9      2248.078 9        54.124 9  25368006.195 6         0.000 6      1751.750 6        37.977 6
G10  23843479.282 9 125298274.108 9      3506.690 9        54.657 9  23843483.042 6         0.000 6      2732.488 6        37.977 6
G21  21159063.785 9 111191610.034 9     -1252.121 9        55.714 9  21159063.069 6         0.000 6      -975.678 6        37.977 6
G29  24270161.901 9 127540505.740 9     -3177.750 9        54.485 9  24270163.444 6         0.000 6     -2476.171 6        37.977 6
G27  22028483.294 9 115760433.895 9      2561.704 9        55.365 9  22028485.235 6         0.000 6      1996.134 6        37.977 6
G16  20502594.190 9 107741839.351 9       611.490 9        55.974 9  20502593.363 6         0.000 6       476.486 6        37.977 6
G26  20640394.098 9 108465980.881 9     -1452.731 9        55.879 9  20640396.909 6         0.000 6     -1131.998 6        37.977 6
G20  21968828.223 9 115446938.187 9      2550.155 9        55.306 9  21968828.559 6         0.000 6      1987.135 6        37.977 6
> 2019 07 03 12 00 10.0000000  0  8       0.000000000000
G07  25367577.371 9 133307472.560 9      2251.757 9        54.124 9  25367578.052 6         0.000 6      1754.616 6        37.977 6
G10  23842812.321 9 125294769.215 9      3503.093 9        54.657 9  23842816.081 6         0.000 6      2729.686 6        37.977 6
G21  21159302.210 9 111192862.963 9     -1253.730 9        55.714 9  21159301.493 6         0.000 6      -976.933 6        37.977 6
G29  24270767.058 9 127543685.853 9     -3182.480 9        54.485 9  24270768.602 6         0.000 6     -2479.857 6        37.977 6
G27  22027995.453 9 115757870.274 9      2565.537 9        55.365 9  22027997.394 6         0.000 6      1999.120 6        37.977 6
G16  20502477.709 9 107741227.239 9       612.731 9        55.974 9  20502476.882 6         0.000 6       477.453 6        37.977 6
G26  20640670.642 9 108467434.128 9     -1453.783 9        55.879 9  20640673.453 6         0.000 6     -1132.818 6        37.977 6
G20  21968343.334 9 115444390.085 9      2546.046 9        55.306 9  21968343.670 6         0.000 6      1983.933 6        37.977 6
> 2019 07 03 12 00 11.0000000  0  8       0.000000000000
G07  25367148.517 9 133305218.920 9      2255.076 9        54.125 9  25367149.198 6         0.000 6      1757.203 6        37.977 6
G10  23842146.058 9 125291267.987 9      3499.747 9        54.657 9  23842149.816 6         0.000 6      2727.078 6        37.977 6
G21  21159540.933 9 111194117.461 9     -1255.083 9        55.714 9  21159540.216 6         0.000 6      -977.987 6        37.977 6
G29  24271373.101 9 127546870.620 9     -3186.444 9        54.485 9  24271374.646 6         0.000 6     -2482.946 6        37.977 6
G27  22027506.889 9 115755302.856 9      2568.772 9        55.365 9  22027508.830 6         0.000 6      2001.641 6        37.977 6
G16  20502360.995 9 107740613.904 9       613.689 9        55.974 9  20502360.168 6         0.000 6       478.200 6        37.977 6
G26  20640947.396 9 108468888.475 9     -1454.904 9        55.879 9  20640950.207 6         0.000 6     -1133.692 6        37.977 6
G20  21967859.232 9 115441846.115 9      2542.327 9        55.306 9  21967859.567 6         0.000 6      1981.035 6        37.977 6
> 2019 07 03 12 00 12.0000000  0  8       0.000000000000
G07  25366719.413 9 133302963.968 9      2255.826 9        54.125 9  25366720.094 6         0.000 6      1757.788 6        37.977 6
G10  23841480.121 9 125287768.477 9      3498.479 9        54.658 9  23841483.879 6         0.000 6      2726.090 6        37.977 6
G21  21159779.771 9 111195372.562 9     -1255.461 9        55.714 9  21159779.054 6         0.000 6      -978.281 6        37.977 6
G29  24271979.399 9 127550056.724 9     -3187.001 9        54.485 9  24271980.943 6         0.000 6     -2483.380 6        37.977 6
G27  22027018.135 9 115752734.439 9      2569.115 9        55.365 9  22027020.076 6         0.000 6      2001.909 6        37.977 6
G16  20502244.296 9 107740000.647 9       613.307 9        55.974 9  20502243.469 6         0.000 6       477.902 6        37.977 6
G26  20641224.342 9 108470343.837 9     -1455.902 9        55.879 9  20641227.153 6         0.000 6     -1134.470 6        37.977 6
G20  21967375.485 9 115439304.012 9      2540.988 9        55.306 9  21967375.820 6         0.000 6      1979.992 6        37.977 6
> 2019 07 03 12 00 13.0000000  0  8       0.000000000000
G07  25366289.782 9 133300706.244 9      2259.718 9        54.125 9  25366290.462 6         0.000 6      1760.820 6        37.977 6
G10  23840814.745 9 125284271.912 9      3494.591 9        54.658 9  23840818.502 6         0.000 6      2723.060 6        37.977 6
G21  21160018.806 9 111196628.698 9     -1256.822 9        55.714 9  21160018.089 6         0.000 6      -979.342 6        37.977 6
G29  24272586.259 9 127553245.786 9     -3191.200 9        54.485 9  24272587.804 6         0.000 6     -2486.652 6        37.977 6
G27  22026528.919 9 115750163.593 9      2572.638 9        55.366 9  22026530.859 6         0.000 6      2004.654 6        37.977 6
G16  20502127.487 9 107739386.814 9       614.382 9        55.974 9  20502126.661 6         0.000 6       478.739 6        37.977 6
G26  20641501.514 9 108471800.383 9     -1457.221 9        55.879 9  20641504.325 6         0.000 6     -1135.497 6        37.977 6
G20  21966892.339 9 115436765.069 9      2536.835 9        55.307 9  21966892.674 6         0.000 6      1976.756 6        37.977 6
> 2019 07 03 12 00 14.0000000  0  8       0.000000000000
G07  25365859.367 9 133298444.401 9      2264.023 9        54.125 9  25365860.047 6         0.000 6      1764.175 6        37.977 6
G10  23840150.149 9 125280779.450 9      3490.302 9        54.658 9  23840153.906 6         0.000 6      2719.718 6        37.977 6
G21  21160258.099 9 111197886.194 9     -1258.155 9        55.714 9  21160257.383 6         0.000 6      -980.381 6        37.977 6
G29  24273193.934 9 127556439.128 9     -3195.484 9        54.484 9  24273195.480 6         0.000 6     -2489.990 6        37.977 6
G27  22026039.012 9 115747589.120 9      2576.313 9        55.366 9  22026040.952 6         0.000 6      2007.517 6        37.977 6
G16  20502010.466 9 107738771.864 9       615.514 9        55.975 9  20502009.640 6         0.000 6       479.622 6        37.977 6
G26  20641778.952 9 108473258.330 9     -1458.706 9        55.878 9  20641781.764 6         0.000 6     -1136.654 6        37.977 6
G20  21966410.016 9 115434230.447 9      2532.387 9        55.307 9  21966410.350 6         0.000 6      1973.290 6        37.977 6
> 2019 07 03 12 00 15.0000000  0  8       0.000000000000
G07  25365428.106 9 133296178.117 9      2268.593 9        54.125 9  25365428.786 6         0.000 6      1767.736 6        37.977 6
G10  23839486.398 9 125277291.426 9      3485.723 9        54.658 9  23839490.154 6         0.000 6      2716.150 6        37.977 6
G21  21160497.637 9 111199144.972 9     -1259.378 9        55.714 9  21160496.921 6         0.000 6      -981.334 6        37.977 6
G29  24273802.410 9 127559636.681 9     -3199.602 9        54.484 9  24273803.956 6         0.000 6     -2493.199 6        37.977 6
G27  22025548.410 9 115745010.990 9      2579.936 9        55.366 9  22025550.350 6         0.000 6      2010.341 6        37.977 6
G16  20501893.233 9 107738155.798 9       616.610 9        55.975 9  20501892.406 6         0.000 6       480.475 6        37.977 6
G26  20642056.690 9 108474717.849 9     -1460.366 9        55.878 9  20642059.501 6         0.000 6     -1137.948 6        37.977 6
G20  21965928.554 9 115431700.353 9      2527.791 9        55.307 9  21965928.888 6         0.000 6      1969.709 6        37.977 6
> 2019 07 03 12 00 16.0000000  0  8       0.000000000000
G07  25364995.953 9 133293907.137 9      2273.325 9        54.125 9  25364996.632 6         0.000 6      1771.423 6        37.977 6
G10  23838823.546 9 125273808.124 9      3480.928 9        54.659 9  23838827.301 6         0.000 6      2712.414 6        37.977 6
G21  21160737.394 9 111200404.902 9     -1260.438 9        55.713 9  21160736.677 6         0.000 6      -982.160 6        37.977 6
G29  24274411.646 9 127562838.228 9     -3203.371 9        54.484 9  24274413.193 6         0.000 6     -2496.136 6        37.977 6
G27  22025057.128 9 115742429.288 9      2583.361 9        55.366 9  22025059.068 6         0.000 6      2013.009 6        37.977 6
G16  20501775.797 9 107737538.667 9       617.594 9        55.975 9  20501774.970 6         0.000 6       481.242 6        37.977 6
G26  20642334.761 9 108476179.124 9     -1462.215 9        55.878 9  20642337.573 6         0.000 6     -1139.389 6        37.977 6
G20  21965447.979 9 115429174.916 9      2523.149 9        55.307 9  21965448.312 6         0.000 6      1966.091 6        37.977 6
> 2019 07 03 12 00 17.0000000  0  8       0.000000000000
G07  25364563.000 9 133291631.957 9      2276.743 9        54.125 9  25364563.679 6         0.000 6      1774.086 6        37.977 6
G10  23838161.528 9 125270329.206 9      3477.173 9        54.659 9  23838165.283 6         0.000 6      2709.488 6        37.977 6
G21  21160977.305 9 111201665.642 9     -1260.934 9        55.713 9  21160976.588 6         0.000 6      -982.546 6        37.977 6
G29  24275021.441 9 127566042.716 9     -3205.240 9        54.484 9  24275022.989 6         0.000 6     -2497.592 6        37.977 6
G27  22024565.324 9 115739844.847 9      2585.200 9        55.366 9  22024567.264 6         0.000 6      2014.442 6        37.977 6
G16  20501658.235 9 107736920.873 9       617.840 9        55.975 9  20501657.408 6         0.000 6       481.434 6        37.977 6
G26  20642613.188 9 108477642.264 9     -1464.051 9        55.878 9  20642616.000 6         0.000 6     -1140.819 6        37.977 6
G20  21964968.189 9 115426653.607 9      2519.752 9        55.307 9  21964968.522 6         0.000 6      1963.444 6        37.977 6
> 2019 07 03 12 00 18.0000000  0  8       0.000000000000
G07  25364129.541 9 133289354.121 9      2278.773 9        54.126 9  25364130.220 6         0.000 6      1775.668 6        37.977 6
G10  23837500.106 9 125266853.421 9      3474.555 9        54.659 9  23837503.860 6         0.000 6      2707.448 6        37.977 6
G21  21161217.257 9 111202926.601 9     -1260.929 9        55.713 9  21161216.541 6         0.000 6      -982.542 6        37.977 6
G29  24275631.408 9 127569248.102 9     -3205.351 9        54.484 9  24275632.956 6         0.000 6     -2497.679 6        37.977 6
G27  22024073.329 9 115737259.395 9      2585.539 9        55.367 9  22024075.268 6         0.000 6      2014.707 6        37.977 6
G16  20501540.698 9 107736303.217 9       617.396 9        55.975 9  20501539.871 6         0.000 6       481.088 6        37.977 6
G26  20642891.954 9 108479107.189 9     -1465.787 9        55.878 9  20642894.766 6         0.000 6     -1142.172 6        37.977 6
G20  21964488.912 9 115424134.995 9      2517.630 9        55.308 9  21964489.245 6         0.000 6      1961.791 6        37.977 6
> 2019 07 03 12 00 19.0000000  0  8       0.000000000000
G07  25363695.770 9 133287074.643 9      2280.110 9        54.126 9  25363696.449 6         0.000 6      1776.710 6        37.977 6
G10  23836839.122 9 125263379.935 9      3472.504 9        54.659 9  23836842.875 6         0.000 6      2705.850 6        37.977 6
G21  21161457.184 9 111204187.424 9     -1260.688 9        55.713 9  21161456.468 6         0.000 6      -982.355 6        37.977 6
G29  24276241.305 9 127572453.122 9     -3204.606 9        54.483 9  24276242.854 6         0.000 6     -2497.098 6        37.977 6
G27  22023581.346 9 115734674.014 9      2585.139 9        55.367 9  22023583.286 6         0.000 6      2014.395 6        37.977 6
G16  20501423.283 9 107735686.194 9       616.608 9        55.975 9  20501422.456 6         0.000 6       480.474 6        37.977 6
G26  20643171.045 9 108480573.819 9     -1467.474 9        55.878 9  20643173.857 6         0.000 6     -1143.487 6        37.977 6
G20  21964009.972 9 115421618.154 9      2516.135 9        55.308 9  21964010.305 6         0.000 6      1960.626 6        37.977 6
> 2019 07 03 12 00 20.0000000  0  8       0.000000000000
G07  25363261.823 9 133284794.237 9      2280.461 9        54.126 9  25363262.501 6         0.000 6      1776.984 6        37.977 6
G10  23836178.462 9 125259908.154 9      3471.294 9        54.660 9  23836182.214 6         0.000 6      2704.907 6        37.977 6
G21  21161697.043 9 111205447.889 9     -1260.185 9        55.713 9  21161696.327 6         0.000 6      -981.962 6        37.977 6
G29  24276850.976 9 127575656.956 9     -3202.845 9        54.483 9  24276852.526 6         0.000 6     -2495.726 6        37.977 6
G27  22023089.515 9 115732089.424 9      2583.830 9        55.367 9  22023091.454 6         0.000 6      2013.375 6        37.977 6
G16  20501306.051 9 107735070.138 9       615.408 9        55.975 9  20501305.224 6         0.000 6       479.539 6        37.977 6
G26  20643450.447 9 108482042.086 9     -1469.019 9        55.878 9  20643453.259 6         0.000 6     -1144.691 6        37.977 6
G20  21963531.248 9 115419102.447 9      2515.501 9        55.308 9  21963531.581 6         0.000 6      1960.132 6        37.977 6
> 2019 07 03 12 00 21.0000000  0  8       0.000000000000
G07  25362827.781 9 133282513.339 9      2281.518 9        54.126 9  25362828.460 6         0.000 6      1777.807 6        37.977 6
G10  23835518.055 9 125256437.706 9      3469.466 9        54.660 9  23835521.807 6         0.000 6      2703.483 6        37.977 6
G21  21161936.809 9 111206707.868 9     -1259.813 9        55.713 9  21161936.093 6         0.000 6      -981.672 6        37.977 6
G29  24277460.333 9 127578859.137 9     -3201.684 9        54.483 9  24277461.883 6         0.000 6     -2494.821 6        37.977 6
G27  22022597.911 9 115729506.033 9      2583.091 9        55.367 9  22022599.850 6         0.000 6      2012.799 6        37.977 6
G16  20501189.038 9 107734455.230 9       614.463 9        55.975 9  20501188.211 6         0.000 6       478.803 6        37.977 6
G26  20643730.148 9 108483511.924 9     -1470.703 9        55.878 9  20643732.961 6         0.000 6     -1146.002 6        37.977 6
G20  21963052.666 9 115416587.486 9      2514.278 9        55.308 9  21963052.998 6         0.000 6      1959.179 6        37.977 6
> 2019 07 03 12 00 22.0000000  0  8       0.000000000000
G07  25362393.515 9 133280231.258 9      2282.608 9        54.126 9  25362394.193 6         0.000 6      1778.657 6        37.977 6
G10  23834858.020 9 125252969.208 9      3467.587 9        54.660 9  23834861.771 6         0.000 6      2702.018 6        37.977 6
G21  21162176.506 9 111207967.485 9     -1259.402 9        55.713 9  21162175.790 6         0.000 6      -981.353 6        37.977 6
G29  24278069.480 9 127582060.215 9     -3200.434 9        54.483 9  24278071.031 6         0.000 6     -2493.847 6        37.977 6
G27  22022106.437 9 115726923.319 9      2582.295 9        55.367 9  22022108.375 6         0.000 6      2012.179 6        37.977 6
G16  20501072.201 9 107733841.246 9       613.485 9        55.975 9  20501071.374 6         0.000 6       478.040 6        37.977 6
G26  20644010.179 9 108484983.494 9     -1472.438 9        55.877 9  20644012.992 6         0.000 6     -1147.354 6        37.977 6
G20  21962574.336 9 115414073.851 9      2513.045 9        55.308 9  21962574.668 6         0.000 6      1958.218 6        37.977 6
> 2019 07 03 12 00 23.0000000  0  8       0.000000000000
G07  25361959.068 9 133277948.227 9      2283.423 9        54.126 9  25361959.746 6         0.000 6      1779.292 6        37.977 6
G10  23834198.321 9 125249502.476 9      3465.933 9        54.660 9  23834202.071 6         0.000 6      2700.730 6        37.977 6
G21  21162416.115 9 111209226.638 9     -1258.887 9        55.713 9  21162415.399 6         0.000 6      -980.951 6        37.977 6
G29  24278678.354 9 127585259.863 9     -3198.831 9        54.482 9  24278679.906 6         0.000 6     -2492.598 6        37.977 6
G27  22021615.142 9 115724341.554 9      2581.203 9        55.368 9  22021617.081 6         0.000 6      2011.328 6        37.977 6
G16  20500955.563 9 107733228.311 9       612.370 9        55.975 9  20500954.736 6         0.000 6       477.172 6        37.977 6
G26  20644290.539 9 108486456.791 9     -1474.151 9        55.877 9  20644293.351 6         0.000 6     -1148.690 6        37.977 6
G20  21962096.217 9 115411561.319 9      2512.067 9        55.308 9  21962096.548 6         0.000 6      1957.456 6        37.977 6
> 2019 07 03 12 00 24.0000000  0  8       0.000000000000
G07  25361524.485 9 133275664.482 9      2284.050 9        54.127 9  25361525.163 6         0.000 6      1779.780 6        37.977 6
G10  23833538.920 9 125246037.311 9      3464.433 9        54.661 9  23833542.670 6         0.000 6      2699.561 6        37.977 6
G21  21162655.618 9 111210485.235 9     -1258.308 9        55.713 9  21162654.902 6         0.000 6      -980.500 6        37.977 6
G29  24279286.899 9 127588457.778 9     -3196.994 9        54.482 9  24279288.452 6         0.000 6     -2491.167 6        37.977 6
G27  22021124.076 9 115721760.987 9      2579.907 9        55.368 9  22021126.015 6         0.000 6      2010.318 6        37.977 6
G16  20500839.146 9 107732616.536 9       611.160 9        55.975 9  20500838.319 6         0.000 6       476.228 6        37.977 6
G26  20644571.222 9 108487931.789 9     -1475.855 9        55.877 9  20644574.034 6         0.000 6     -1150.017 6        37.977 6
G20  21961618.264 9 115409049.668 9      2511.259 9        55.309 9  21961618.596 6         0.000 6      1956.826 6        37.977 6
> 2019 07 03 12 00 25.0000000  0  8       0.000000000000
G07  25361089.796 9 133273380.178 9      2284.543 9        54.127 9  25361090.473 6         0.000 6      1780.165 6        37.977 6
G10  23832879.794 9 125242573.593 9      3463.042 9        54.661 9  23832883.543 6         0.000 6      2698.477 6        37.977 6
G21  21162895.006 9 111211743.226 9     -1257.672 9        55.713 9  21162894.290 6         0.000 6      -980.004 6        37.977 6
G29  24279895.078 9 127591653.767 9     -3194.978 9        54.482 9  24279896.631 6         0.000 6     -2489.596 6        37.977 6
G27  22020633.271 9 115719181.791 9      2578.465 9        55.368 9  22020635.209 6         0.000 6      2009.194 6        37.977 6
G16  20500722.966 9 107732006.007 9       609.884 9        55.975 9  20500722.139 6         0.000 6       475.234 6        37.977 6
G26  20644852.229 9 108489408.488 9     -1477.549 9        55.877 9  20644855.041 6         0.000 6     -1151.337 6        37.977 6
G20  21961140.454 9 115406538.763 9      2510.578 9        55.309 9  21961140.785 6         0.000 6      1956.295 6        37.977 6
> 2019 07 03 12 00 26.0000000  0  8       0.000000000000
G07  25360655.024 9 133271095.438 9      2284.929 9        54.127 9  25360655.701 6         0.000 6      1780.465 6        37.977 6
G10  23832220.925 9 125239111.221 9      3461.737 9        54.661 9  23832224.673 6         0.000 6      2697.460 6        37.977 6
G21  21163134.269 9 111213000.562 9     -1256.992 9        55.712 9  21163133.553 6         0.000 6      -979.474 6        37.977 6
G29  24280502.858 9 127594847.666 9     -3192.817 9        54.482 9  24280504.412 6         0.000 6     -2487.912 6        37.977 6
G27  22020142.753 9 115716604.102 9      2576.902 9        55.368 9  22020144.691 6         0.000 6      2007.976 6        37.977 6
G16  20500607.036 9 107731396.787 9       608.551 9        55.975 9  20500606.209 6         0.000 6       474.196 6        37.977 6
G26  20645133.558 9 108490886.881 9     -1479.238 9        55.877 9  20645136.370 6         0.000 6     -1152.653 6        37.977 6
G20  21960662.764 9 115404028.488 9      2509.997 9        55.309 9  21960663.095 6         0.000 6      1955.843 6        37.977 6
> 2019 07 03 12 00 27.0000000  0  8       0.000000000000
G07  25360220.188 9 133268810.364 9      2285.209 9        54.127 9  25360220.865 6         0.000 6      1780.683 6        37.977 6
G10  23831562.296 9 125235650.114 9      3460.514 9        54.661 9  23831566.044 6         0.000 6      2696.507 6        37.977 6
G21  21163373.399 9 111214257.198 9     -1256.269 9        55.712 9  21163372.683 6         0.000 6      -978.911 6        37.977 6
G29  24281110.214 9 127598039.330 9     -3190.507 9        54.482 9  24281111.768 6         0.000 6     -2486.112 6        37.977 6
G27  22019652.544 9 115714028.040 9      2575.212 9        55.368 9  22019654.482 6         0.000 6      2006.660 6        37.977 6
G16  20500491.364 9 107730788.931 9       607.157 9        55.975 9  20500490.537 6         0.000 6       473.109 6        37.977 6
G26  20645415.209 9 108492366.966 9     -1480.929 9        55.877 9  20645418.022 6         0.000 6     -1153.971 6        37.977 6
G20  21960185.175 9 115401518.747 9      2509.514 9        55.309 9  21960185.506 6         0.000 6      1955.466 6        37.977 6
> 2019 07 03 12 00 28.0000000  0  8       0.000000000000
G07  25359785.309 9 133266525.065 9      2285.373 9        54.127 9  25359785.986 6         0.000 6      1780.811 6        37.977 6
G10  23830903.892 9 125232190.187 9      3459.382 9        54.662 9  23830907.639 6         0.000 6      2695.625 6        37.977 6
G21  21163612.388 9 111215513.090 9     -1255.505 9        55.712 9  21163611.672 6         0.000 6      -978.316 6        37.977 6
G29  24281717.115 9 127601228.610 9     -3188.045 9        54.481 9  24281718.670 6         0.000 6     -2484.194 6        37.977 6
G27  22019162.668 9 115711453.730 9      2573.392 9        55.369 9  22019164.606 6         0.000 6      2005.241 6        37.977 6
G16  20500375.964 9 107730182.499 9       605.699 9        55.975 9  20500375.137 6         0.000 6       471.973 6        37.977 6
G26  20645697.182 9 108493848.741 9     -1482.619 9        55.877 9  20645699.994 6         0.000 6     -1155.288 6        37.977 6
G20  21959707.669 9 115399009.439 9      2509.134 9        55.309 9  21959707.999 6         0.000 6      1955.171 6        37.977 6
> 2019 07 03 12 00 29.0000000  0  8       0.000000000000
G07  25359350.411 9 133264239.664 9      2285.404 9        54.127 9  25359351.087 6         0.000 6      1780.835 6        37.977 6
G10  23830245.693 9 125228731.341 9      3458.361 9        54.662 9  23830249.440 6         0.000 6      2694.830 6        37.977 6
G21  21163851.225 9 111216768.189 9     -1254.689 9        55.712 9  21163850.509 6         0.000 6      -977.680 6        37.977 6
G29  24282323.533 9 127604415.345 9     -3185.417 9        54.481 9  24282325.088 6         0.000 6     -2482.146 6        37.977 6
G27  22018673.152 9 115708881.307 9      2571.433 9        55.369 9  22018675.090 6         0.000 6      2003.715 6        37.977 6
G16  20500260.847 9 107729577.555 9       604.179 9        55.975 9  20500260.020 6         0.000 6       470.789 6        37.977 6
G26  20645979.475 9 108495332.200 9     -1484.295 9        55.877 9  20645982.288 6         0.000 6     -1156.594 6        37.977 6
G20  21959230.223 9 115396500.450 9      2508.880 9        55.310 9  21959230.553 6         0.000 6      1954.972 6        37.977 6
> 2019 07 03 12 00 30.0000000  0  8       0.000000000000
G07  25358915.522 9 133261954.312 9      2285.284 9        54.127 9  25358916.198 6         0.000 6      1780.742 6        37.977 6
G10  23829587.675 9 125225273.445 9      3457.466 9        54.662 9  23829591.421 6         0.000 6      2694.132 6        37.977 6
G21  21164089.902 9 111218022.442 9     -1253.817 9        55.712 9  21164089.186 6         0.000 6      -977.001 6        37.977 6
G29  24282929.433 9 127607599.359 9     -3182.603 9        54.481 9  24282930.989 6         0.000 6     -2479.953 6        37.977 6
G27  22018184.023 9 115706310.919 9      2569.318 9        55.369 9  22018185.960 6         0.000 6      2002.067 6        37.977 6
G16  20500146.025 9 107728974.160 9       602.590 9        55.975 9  20500145.198 6         0.000 6       469.550 6        37.977 6
G26  20646262.084 9 108496817.321 9     -1485.957 9        55.877 9  20646264.897 6         0.000 6     -1157.889 6        37.977 6
G20  21958752.812 9 115393991.640 9      2508.764 9        55.310 9  21958753.142 6         0.000 6      1954.882 6        37.977 6
> 2019 07 03 12 00 31.0000000  0  8       0.000000000000
G07  25358480.671 9 133259669.160 9      2284.992 9        54.128 9  25358481.348 6         0.000 6      1780.514 6        37.977 6
G10  23828929.816 9 125221816.384 9      3456.709 9        54.662 9  23828933.562 6         0.000 6      2693.542 6        37.977 6
G21  21164328.408 9 111219275.803 9     -1252.891 9        55.712 9  21164327.693 6         0.000 6      -976.279 6        37.977 6
G29  24283534.778 9 127610780.462 9     -3179.582 9        54.481 9  24283536.335 6         0.000 6     -2477.599 6        37.977 6
G27  22017695.313 9 115703742.735 9      2567.023 9        55.369 9  22017697.250 6         0.000 6      2000.278 6        37.977 6
G16  20500031.514 9 107728372.403 9       600.913 9        55.975 9  20500030.687 6         0.000 6       468.244 6        37.977 6
G26  20646545.010 9 108498304.105 9     -1487.608 9        55.876 9  20646547.823 6         0.000 6     -1159.176 6        37.977 6
G20  21958275.410 9 115391482.880 9      2508.800 9        55.310 9  21958275.739 6         0.000 6      1954.910 6        37.977 6
> 2019 07 03 12 00 32.0000000  0  8       0.000000000000
G07  25358045.894 9 133257384.395 9      2284.513 9        54.128 9  25358046.570 6         0.000 6      1780.141 6        37.977 6
G10  23828272.086 9 125218360.000 9      3456.106 9        54.662 9  23828275.831 6         0.000 6      2693.072 6        37.977 6
G21  21164566.731 9 111220528.197 9     -1251.883 9        55.712 9  21164566.016 6         0.000 6      -975.493 6        37.977 6
G29  24284139.526 9 127613958.422 9     -3176.306 9        54.480 9  24284141.083 6         0.000 6     -2475.046 6        37.977 6
G27  22017207.059 9 115701176.948 9      2564.518 9        55.369 9  22017208.996 6         0.000 6      1998.327 6        37.977 6
G16  20499917.331 9 107727772.366 9       599.144 9        55.975 9  20499916.504 6         0.000 6       466.865 6        37.977 6
G26  20646828.248 9 108499792.531 9     -1489.246 9        55.876 9  20646831.062 6         0.000 6     -1160.452 6        37.977 6
G20  21957797.984 9 115388973.993 9      2509.015 9        55.310 9  21957798.313 6         0.000 6      1955.078 6        37.977 6
> 2019 07 03 12 00 33.0000000  0  8       0.000000000000
G07  25357611.230 9 133255100.220 9      2283.803 9        54.128 9  25357611.905 6         0.000 6      1779.588 6        37.977 6
G10  23827614.455 9 125214904.135 9      3455.683 9        54.663 9  23827618.199 6         0.000 6      2692.743 6        37.977 6
G21  21164804.855 9 111221779.543 9     -1250.787 9        55.712 9  21164804.139 6         0.000 6      -974.639 6        37.977 6
G29  24284743.620 9 127617132.949 9     -3172.716 9        54.480 9  24284745.178 6         0.000 6     -2472.248 6        37.977 6
G27  22016719.308 9 115698613.800 9      2561.746 9        55.369 9  22016721.245 6         0.000 6      1996.167 6        37.977 6
G16  20499803.497 9 107727174.166 9       597.246 9        55.975 9  20499802.670 6         0.000 6       465.387 6        37.977 6
G26  20647111.799 9 108501282.600 9     -1490.882 9        55.876 9  20647114.613 6         0.000 6     -1161.727 6        37.977 6
G20  21957320.498 9 115386464.791 9      2509.441 9        55.310 9  21957320.826 6         0.000 6      1955.410 6        37.977 6
> 2019 07 03 12 00 34.0000000  0  8       0.000000000000
G07  25357176.726 9 133252816.892 9      2282.809 9        54.128 9  25357177.402 6         0.000 6      1778.813 6        37.977 6
G10  23826956.883 9 125211448.581 9      3455.488 9        54.663 9  23826960.626 6         0.000 6      2692.591 6        37.977 6
G21  21165042.758 9 111223029.732 9     -1249.576 9        55.712 9  21165042.042 6         0.000 6      -973.695 6        37.977 6
G29  24285346.995 9 127620303.697 9     -3168.736 9        54.480 9  24285348.554 6         0.000 6     -2469.148 6        37.977 6
G27  22016232.113 9 115696053.577 9      2558.649 9        55.370 9  22016234.050 6         0.000 6      1993.753 6        37.977 6
G16  20499690.037 9 107726577.930 9       595.198 9        55.976 9  20499689.210 6         0.000 6       463.791 6        37.977 6
G26  20647395.660 9 108502774.294 9     -1492.507 9        55.876 9  20647398.473 6         0.000 6     -1162.993 6        37.977 6
G20  21956842.905 9 115383955.032 9      2510.131 9        55.311 9  21956843.234 6         0.000 6      1955.947 6        37.977 6
> 2019 07 03 12 00 35.0000000  0  8       0.000000000000
G07  25356742.444 9 133250534.728 9      2281.458 9        54.128 9  25356743.119 6         0.000 6      1777.760 6        37.977 6
G10  23826299.322 9 125207993.086 9      3455.580 9        54.663 9  23826303.065 6         0.000 6      2692.663 6        37.977 6
G21  21165280.418 9 111224278.645 9     -1248.227 9        55.712 9  21165279.702 6         0.000 6      -972.645 6        37.977 6
G29  24285949.570 9 127623470.238 9     -3164.284 9        54.480 9  24285951.129 6         0.000 6     -2465.678 6        37.977 6
G27  22015745.544 9 115693496.643 9      2555.153 9        55.370 9  22015747.481 6         0.000 6      1991.029 6        37.977 6
G16  20499576.984 9 107725983.833 9       592.965 9        55.976 9  20499576.157 6         0.000 6       462.051 6        37.977 6
G26  20647679.828 9 108504267.607 9     -1494.115 9        55.876 9  20647682.642 6         0.000 6     -1164.246 6        37.977 6
G20  21956365.152 9 115381444.428 9      2511.151 9        55.311 9  21956365.481 6         0.000 6      1956.742 6        37.977 6
> 2019 07 03 12 00 36.0000000  0  8       0.000000000000
G07  25356308.460 9 133248254.132 9      2279.657 9        54.128 9  25356309.135 6         0.000 6      1776.357 6        37.977 6
G10  23825641.709 9 125204537.319 9      3456.046 9        54.663 9  23825645.452 6         0.000 6      2693.026 6        37.977 6
G21  21165517.807 9 111225526.133 9     -1246.728 9        55.711 9  21165517.092 6         0.000 6      -971.476 6        37.977 6
G29  24286551.247 9 127626632.064 9     -3159.299 9        54.480 9  24286552.807 6         0.000 6     -2461.794 6        37.977 6
G27  22015259.683 9 115690943.430 9      2551.201 9        55.370 9  22015261.620 6         0.000 6      1987.950 6        37.977 6
G16  20499464.375 9 107725392.070 9       590.526 9        55.976 9  20499463.548 6         0.000 6       460.150 6        37.977 6
G26  20647964.298 9 108505762.507 9     -1495.676 9        55.876 9  20647967.112 6         0.000 6     -1165.462 6        37.977 6
G20  21955887.168 9 115378932.605 9      2512.576 9        55.311 9  21955887.495 6         0.000 6      1957.853 6        37.977 6
> 2019 07 03 12 00 37.0000000  0  8       0.000000000000
G07  25355874.871 9 133245975.611 9      2277.291 9        54.128 9  25355875.546 6         0.000 6      1774.514 6        37.977 6
G10  23824983.964 9 125201080.853 9      3456.994 9        54.664 9  23824987.705 6         0.000 6      2693.765 6        37.977 6
G21  21165754.897 9 111226772.045 9     -1245.080 9        55.711 9  21165754.181 6         0.000 6      -970.192 6        37.977 6
G29  24287151.922 9 127629788.618 9     -3153.734 9        54.479 9  24287153.482 6         0.000 6     -2457.458 6        37.977 6
G27  22014774.622 9 115688394.421 9      2546.732 9        55.370 9  22014776.559 6         0.000 6      1984.467 6        37.977 6
G16  20499352.252 9 107724802.858 9       587.853 9        55.976 9  20499351.425 6         0.000 6       458.067 6        37.977 6
G26  20648249.058 9 108507258.926 9     -1497.153 9        55.876 9  20648251.871 6         0.000 6     -1166.614 6        37.977 6
G20  21955408.866 9 115376419.117 9      2514.493 9        55.311 9  21955409.193 6         0.000 6      1959.347 6        37.977 6
> 2019 07 03 12 00 38.0000000  0  8       0.000000000000
G07  25355441.795 9 133243699.784 9      2274.252 9        54.129 9  25355442.470 6         0.000 6      1772.146 6        37.977 6
G10  23824325.984 9 125197623.157 9      3458.530 9        54.664 9  23824329.725 6         0.000 6      2694.961 6        37.977 6
G21  21165991.661 9 111228016.250 9     -1243.310 9        55.711 9  21165990.946 6         0.000 6      -968.813 6        37.977 6
G29  24287751.482 9 127632939.322 9     -3147.610 9        54.479 9  24287753.043 6         0.000 6     -2452.686 6        37.977 6
G27  22014290.464 9 115685850.153 9      2541.731 9        55.370 9  22014292.400 6         0.000 6      1980.570 6        37.977 6
G16  20499240.662 9 107724216.446 9       584.942 9        55.976 9  20499239.835 6         0.000 6       455.799 6        37.977 6
G26  20648534.088 9 108508756.767 9     -1498.495 9        55.876 9  20648536.901 6         0.000 6     -1167.659 6        37.977 6
G20  21954930.148 9 115373903.442 9      2516.966 9        55.311 9  21954930.475 6         0.000 6      1961.274 6        37.977 6
> 2019 07 03 12 00 39.0000000  0  8       0.000000000000
G07  25355009.367 9 133241427.362 9      2270.485 9        54.129 9  25355010.041 6         0.000 6      1769.210 6        37.977 6
G10  23823667.648 9 125194163.590 9      3460.734 9        54.664 9  23823671.389 6         0.000 6      2696.679 6        37.977 6
G21  21166228.081 9 111229258.644 9     -1241.473 9        55.711 9  21166227.366 6         0.000 6      -967.382 6        37.977 6
G29  24288349.833 9 127636083.666 9     -3141.048 9        54.479 9  24288351.395 6         0.000 6     -2447.572 6        37.977 6
G27  22013807.303 9 115683311.127 9      2536.272 9        55.371 9  22013809.239 6         0.000 6      1976.316 6        37.977 6
G16  20499129.645 9 107723633.047 9       581.836 9        55.976 9  20499128.817 6         0.000 6       453.379 6        37.977 6
G26  20648819.354 9 108510255.850 9     -1499.631 9        55.875 9  20648822.168 6         0.000 6     -1168.544 6        37.977 6
G20  21954450.904 9 115371385.000 9      2520.016 9        55.311 9  21954451.231 6         0.000 6      1963.650 6        37.977 6
> 2019 07 03 12 00 40.0000000  0  8       0.000000000000
G07  25354577.724 9 133239159.065 9      2266.014 9        54.129 9  25354578.398 6         0.000 6      1765.726 6        37.977 6
G10  23823008.828 9 125190701.475 9      3463.616 9        54.664 9  23823012.567 6         0.000 6      2698.924 6        37.977 6
G21  21166464.151 9 111230499.200 9     -1239.662 9        55.711 9  21166463.436 6         0.000 6      -965.971 6        37.977 6
G29  24288946.911 9 127639221.323 9     -3134.282 9        54.479 9  24288948.473 6         0.000 6     -2442.300 6        37.977 6
G27  22013325.211 9 115680777.720 9      2530.515 9        55.371 9  22013327.147 6         0.000 6      1971.831 6        37.977 6
G16  20499019.230 9 107723052.813 9       578.615 9        55.976 9  20499018.402 6         0.000 6       450.869 6        37.977 6
G26  20649104.810 9 108511755.932 9     -1500.498 9        55.875 9  20649107.624 6         0.000 6     -1169.220 6        37.977 6
G20  21953971.027 9 115368863.238 9      2523.582 9        55.312 9  21953971.354 6         0.000 6      1966.428 6        37.977 6
> 2019 07 03 12 00 41.0000000  0  8       0.000000000000
G07  25354146.988 9 133236895.535 9      2260.980 9        54.129 9  25354147.661 6         0.000 6      1761.804 6        37.977 6
G10  23822349.402 9 125187236.183 9      3467.073 9        54.665 9  23822353.141 6         0.000 6      2701.618 6        37.977 6
G21  21166699.889 9 111231738.010 9     -1237.985 9        55.711 9  21166699.173 6         0.000 6      -964.664 6        37.977 6
G29  24289542.708 9 127642352.246 9     -3127.624 9        54.479 9  24289544.271 6         0.000 6     -2437.112 6        37.977 6
G27  22012844.224 9 115678250.122 9      2524.699 9        55.371 9  22012846.160 6         0.000 6      1967.299 6        37.977 6
G16  20498909.431 9 107722475.817 9       575.389 9        55.976 9  20498908.604 6         0.000 6       448.355 6        37.977 6
G26  20649390.405 9 108513256.741 9     -1501.072 9        55.875 9  20649393.219 6         0.000 6     -1169.667 6        37.977 6
G20  21953490.437 9 115366337.723 9      2527.503 9        55.312 9  21953490.763 6         0.000 6      1969.484 6        37.977 6
> 2019 07 03 12 00 42.0000000  0  8       0.000000000000
G07  25353717.246 9 133234637.230 9      2255.606 9        54.129 9  25353717.919 6         0.000 6      1757.616 6        37.977 6
G10  23821689.277 9 125183767.213 9      3470.932 9        54.665 9  23821693.016 6         0.000 6      2704.625 6        37.977 6
G21  21166935.326 9 111232975.239 9     -1236.514 9        55.711 9  21166934.610 6         0.000 6      -963.518 6        37.977 6
G29  24290137.270 9 127645476.679 9     -3121.350 9        54.478 9  24290138.833 6         0.000 6     -2432.224 6        37.977 6
G27  22012364.331 9 115675728.268 9      2519.066 9        55.371 9  22012366.266 6         0.000 6      1962.910 6        37.977 6
G16  20498800.237 9 107721901.999 9       572.274 9        55.976 9  20498799.410 6         0.000 6       445.928 6        37.977 6
G26  20649676.081 9 108514757.976 9     -1501.360 9        55.875 9  20649678.895 6         0.000 6     -1169.891 6        37.977 6
G20  21953009.081 9 115363808.184 9      2531.587 9        55.312 9  21953009.407 6         0.000 6      1972.667 6        37.977 6
> 2019 07 03 12 00 43.0000000  0  8       0.000000000000
G07  25353288.541 9 133232384.376 9      2250.117 9        54.129 9  25353289.214 6         0.000 6      1753.339 6        37.977 6
G10  23821028.396 9 125180294.267 9      3474.991 9        54.665 9  23821032.133 6         0.000 6      2707.788 6        37.977 6
G21  21167170.506 9 111234211.118 9     -1235.293 9        55.711 9  21167169.790 6         0.000 6      -962.566 6        37.977 6
G29  24290730.690 9 127648595.112 9     -3115.651 9        54.478 9  24290732.254 6         0.000 6     -2427.783 6        37.977 6
G27  22011885.478 9 115673211.879 9      2513.794 9        55.371 9  22011887.413 6         0.000 6      1958.802 6        37.977 6
G16  20498691.619 9 107721331.208 9       569.348 9        55.976 9  20498690.792 6         0.000 6       443.648 6        37.977 6
G26  20649961.788 9 108516259.376 9     -1501.411 9        55.875 9  20649964.603 6         0.000 6     -1169.931 6        37.977 6
G20  21952526.947 9 115361274.560 9      2535.642 9        55.312 9  21952527.273 6         0.000 6      1975.826 6        37.977 6
> 2019 07 03 12 00 44.0000000  0  8       0.000000000000
G07  25352860.878 9 133230136.994 9      2244.684 9        54.130 9  25352861.551 6         0.000 6      1749.105 6        37.977 6
G10  23820366.736 9 125176817.231 9      3479.089 9        54.665 9  23820370.473 6         0.000 6      2710.981 6        37.977 6
G21  21167405.478 9 111235445.906 9     -1234.331 9        55.711 9  21167404.763 6         0.000 6      -961.817 6        37.977 6
G29  24291323.086 9 127651708.167 9     -3110.602 9        54.478 9  24291324.651 6         0.000 6     -2423.848 6        37.977 6
G27  22011407.586 9 115670700.545 9      2508.969 9        55.372 9  22011409.521 6         0.000 6      1955.041 6        37.977 6
G16  20498583.537 9 107720763.234 9       566.642 9        55.976 9  20498582.710 6         0.000 6       441.539 6        37.977 6
G26  20650247.488 9 108517760.734 9     -1501.286 9        55.875 9  20650250.302 6         0.000 6     -1169.833 6        37.977 6
G20  21952044.056 9 115358736.954 9      2539.535 9        55.312 9  21952044.382 6         0.000 6      1978.859 6        37.977 6
> 2019 07 03 12 00 45.0000000  0  8       0.000000000000
G07  25352434.233 9 133227894.964 9      2239.420 9        54.130 9  25352434.906 6         0.000 6      1745.003 6        37.977 6
G10  23819704.303 9 125173336.131 9      3483.112 9        54.666 9  23819708.039 6         0.000 6      2714.116 6        37.977 6
G21  21167640.290 9 111236679.849 9     -1233.597 9        55.711 9  21167639.575 6         0.000 6      -961.244 6        37.977 6
G29  24291914.584 9 127654816.497 9     -3106.185 9        54.478 9  24291916.149 6         0.000 6     -2420.407 6        37.977 6
G27  22010930.567 9 115668193.798 9      2504.610 9        55.372 9  22010932.502 6         0.000 6      1951.645 6        37.977 6
G16  20498475.948 9 107720197.848 9       564.167 9        55.976 9  20498475.121 6         0.000 6       439.611 6        37.977 6
G26  20650533.150 9 108519261.901 9     -1501.035 9        55.875 9  20650535.965 6         0.000 6     -1169.638 6        37.977 6
G20  21951560.446 9 115356195.570 9      2543.198 9        55.313 9  21951560.771 6         0.000 6      1981.714 6        37.977 6
> 2019 07 03 12 00 46.0000000  0  8       0.000000000000
G07  25352008.570 9 133225658.093 9      2234.375 9        54.130 9  25352009.243 6         0.000 6      1741.073 6        37.977 6
G10  23819041.116 9 125169851.071 9      3486.997 9        54.666 9  23819044.851 6         0.000 6      2717.143 6        37.977 6
G21  21167874.983 9 111237913.166 9     -1233.068 9        55.710 9  21167874.267 6         0.000 6      -960.832 6        37.977 6
G29  24292505.297 9 127657920.708 9     -3102.349 9        54.477 9  24292506.863 6         0.000 6     -2417.417 6        37.977 6
G27  22010454.336 9 115665691.189 9      2500.688 9        55.372 9  22010456.271 6         0.000 6      1948.588 6        37.977 6
G16  20498368.809 9 107719634.833 9       561.900 9        55.976 9  20498367.982 6         0.000 6       437.844 6        37.977 6
G26  20650818.758 9 108520762.776 9     -1500.710 9        55.875 9  20650821.572 6         0.000 6     -1169.385 6        37.977 6
G20  21951076.163 9 115353650.653 9      2546.598 9        55.313 9  21951076.488 6         0.000 6      1984.364 6        37.977 6
> 2019 07 03 12 00 47.0000000  0  8       0.000000000000
G07  25351583.843 9 133223426.143 9      2229.592 9        54.130 9  25351584.516 6         0.000 6      1737.345 6        37.977 6
G10  23818377.205 9 125166362.210 9      3490.700 9        54.666 9  23818380.940 6         0.000 6      2720.028 6        37.977 6
G21  21168109.590 9 111239146.036 9     -1232.705 9        55.710 9  21168108.875 6         0.000 6      -960.549 6        37.977 6
G29  24293095.330 9 127661021.341 9     -3099.029 9        54.477 9  24293096.896 6         0.000 6     -2414.830 6        37.977 6
G27  22009978.812 9 115663192.295 9      2497.177 9        55.372 9  22009980.746 6         0.000 6      1945.853 6        37.977 6
G16  20498262.083 9 107719073.983 9       559.832 9        55.976 9  20498261.256 6         0.000 6       436.233 6        37.977 6
G26  20651104.297 9 108522263.296 9     -1500.336 9        55.874 9  20651107.112 6         0.000 6     -1169.093 6        37.977 6
G20  21950591.258 9 115351102.463 9      2549.730 9        55.313 9  21950591.583 6         0.000 6      1986.804 6        37.977 6
> 2019 07 03 12 00 48.0000000  0  8       0.000000000000
G07  25351159.999 9 133221198.831 9      2225.092 9        54.130 9  25351160.671 6         0.000 6      1733.839 6        37.977 6
G10  23817712.612 9 125162869.758 9      3494.186 9        54.666 9  23817716.346 6         0.000 6      2722.745 6        37.977 6
G21  21168344.144 9 111240378.624 9     -1232.493 9        55.710 9  21168343.429 6         0.000 6      -960.385 6        37.977 6
G29  24293684.778 9 127664118.899 9     -3096.184 9        54.477 9  24293686.345 6         0.000 6     -2412.613 6        37.977 6
G27  22009503.919 9 115660696.717 9      2494.048 9        55.372 9  22009505.853 6         0.000 6      1943.415 6        37.977 6
G16  20498155.733 9 107718515.111 9       557.941 9        55.976 9  20498154.906 6         0.000 6       434.759 6        37.977 6
G26  20651389.765 9 108523763.436 9     -1499.949 9        55.874 9  20651392.580 6         0.000 6     -1168.792 6        37.977 6
G20  21950105.785 9 115348551.290 9      2552.577 9        55.313 9  21950106.110 6         0.000 6      1989.022 6        37.977 6
> 2019 07 03 12 00 49.0000000  0  8       0.000000000000
G07  25350736.983 9 133218975.867 9      2220.901 9        54.130 9  25350737.655 6         0.000 6      1730.573 6        37.977 6
G10  23817047.377 9 125159373.938 9      3497.423 9        54.667 9  23817051.111 6         0.000 6      2725.267 6        37.977 6
G21  21168578.668 9 111241611.058 9     -1232.404 9        55.710 9  21168577.953 6         0.000 6      -960.315 6        37.977 6
G29  24294273.724 9 127667213.823 9     -3093.758 9        54.477 9  24294275.292 6         0.000 6     -2410.723 6        37.977 6
G27  22009029.587 9 115658204.089 9      2491.271 9        55.373 9  22009031.521 6         0.000 6      1941.251 6        37.977 6
G16  20498049.727 9 107717958.043 9       556.215 9        55.976 9  20498048.900 6         0.000 6       433.414 6        37.977 6
G26  20651675.159 9 108525263.189 9     -1499.573 9        55.874 9  20651677.974 6         0.000 6     -1168.499 6        37.977 6
G20  21949619.797 9 115345997.408 9      2555.137 9        55.313 9  21949620.121 6         0.000 6      1991.017 6        37.977 6
> 2019 07 03 12 00 50.0000000  0  8       0.000000000000
G07  25350314.732 9 133216756.931 9      2217.034 9        54.130 9  25350315.404 6         0.000 6      1727.560 6        37.977 6
G10  23816381.553 9 125155875.019 9      3500.391 9        54.667 9  23816385.286 6         0.000 6      2727.580 6        37.977 6
G21  21168813.186 9 111242843.457 9     -1232.415 9        55.710 9  21168812.471 6         0.000 6      -960.324 6        37.977 6
G29  24294862.245 9 127670306.511 9     -3091.703 9        54.477 9  24294863.813 6         0.000 6     -2409.122 6        37.977 6
G27  22008555.752 9 115655714.074 9      2488.820 9        55.373 9  22008557.686 6         0.000 6      1939.341 6        37.977 6
G16  20497944.035 9 107717402.630 9       554.638 9        55.976 9  20497943.208 6         0.000 6       432.185 6        37.977 6
G26  20651960.485 9 108526762.586 9     -1499.231 9        55.874 9  20651963.300 6         0.000 6     -1168.232 6        37.977 6
G20  21949133.349 9 115343441.116 9      2557.407 9        55.314 9  21949133.673 6         0.000 6      1992.786 6        37.977 6
> 2019 07 03 12 00 51.0000000  0  8       0.000000000000
G07  25349893.189 9 133214541.709 9      2213.481 9        54.131 9  25349893.860 6         0.000 6      1724.791 6        37.977 6
G10  23815715.189 9 125152373.260 9      3503.093 9        54.667 9  23815718.921 6         0.000 6      2729.685 6        37.977 6
G21  21169047.715 9 111244075.913 9     -1232.508 9        55.710 9  21169047.000 6         0.000 6      -960.396 6        37.977 6
G29  24295450.407 9 127673397.315 9     -3089.976 9        54.476 9  24295451.976 6         0.000 6     -2407.776 6        37.977 6
G27  22008082.355 9 115653226.359 9      2486.663 9        55.373 9  22008084.289 6         0.000 6      1937.660 6        37.977 6
G16  20497838.630 9 107716848.723 9       553.197 9        55.976 9  20497837.803 6         0.000 6       431.063 6        37.977 6
G26  20652245.749 9 108528261.657 9     -1498.929 9        55.874 9  20652248.564 6         0.000 6     -1167.997 6        37.977 6
G20  21948646.496 9 115340882.688 9      2559.405 9        55.314 9  21948646.820 6         0.000 6      1994.343 6        37.977 6
> 2019 07 03 12 00 52.0000000  0  8       0.000000000000
G07  25349472.291 9 133212329.879 9      2210.236 9        54.131 9  25349472.962 6         0.000 6      1722.263 6        37.977 6
G10  23815048.337 9 125148868.942 9      3505.523 9        54.667 9  23815052.069 6         0.000 6      2731.579 6        37.977 6
G21  21169282.268 9 111245308.500 9     -1232.673 9        55.710 9  21169281.553 6         0.000 6      -960.524 6        37.977 6
G29  24296038.269 9 127676486.537 9     -3088.531 9        54.476 9  24296039.838 6         0.000 6     -2406.650 6        37.977 6
G27  22007609.344 9 115650740.671 9      2484.763 9        55.373 9  22007611.278 6         0.000 6      1936.180 6        37.977 6
G16  20497733.489 9 107716296.202 9       551.868 9        55.976 9  20497732.662 6         0.000 6       430.027 6        37.977 6
G26  20652530.962 9 108529760.462 9     -1498.688 9        55.874 9  20652533.778 6         0.000 6     -1167.809 6        37.977 6
G20  21948159.289 9 115338322.402 9      2561.137 9        55.314 9  21948159.612 6         0.000 6      1995.692 6        37.977 6
> 2019 07 03 12 00 53.0000000  0  8       0.000000000000
G07  25349051.984 9 133210121.154 9      2207.261 9        54.131 9  25349052.655 6         0.000 6      1719.945 6        37.977 6
G10  23814381.046 9 125145362.315 9      3507.718 9        54.668 9  23814384.777 6         0.000 6      2733.289 6        37.977 6
G21  21169516.858 9 111246541.276 9     -1232.887 9        55.710 9  21169516.143 6         0.000 6      -960.692 6        37.977 6
G29  24296625.878 9 127679574.436 9     -3087.317 9        54.476 9  24296627.448 6         0.000 6     -2405.704 6        37.977 6
G27  22007136.672 9 115648256.766 9      2483.082 9        55.373 9  22007138.606 6         0.000 6      1934.869 6        37.977 6
G16  20497628.590 9 107715744.956 9       550.638 9        55.976 9  20497627.763 6         0.000 6       429.068 6        37.977 6
G26  20652816.134 9 108531259.048 9     -1498.498 9        55.874 9  20652818.950 6         0.000 6     -1167.661 6        37.977 6
G20  21947671.774 9 115335760.500 9      2562.644 9        55.314 9  21947672.097 6         0.000 6      1996.867 6        37.977 6
> 2019 07 03 12 00 54.0000000  0  8       0.000000000000
G07  25348632.220 9 133207915.281 9      2204.530 9        54.131 9  25348632.890 6         0.000 6      1717.816 6        37.977 6
G10  23813713.358 9 125141853.601 9      3509.696 9        54.668 9  23813717.088 6         0.000 6      2734.831 6        37.977 6
G21  21169751.492 9 111247774.286 9     -1233.141 9        55.710 9  21169750.777 6         0.000 6      -960.889 6        37.977 6
G29  24297213.275 9 127682661.217 9     -3086.291 9        54.476 9  24297214.846 6         0.000 6     -2404.905 6        37.977 6
G27  22006664.302 9 115645774.449 9      2481.582 9        55.373 9  22006666.236 6         0.000 6      1933.701 6        37.977 6
G16  20497523.918 9 107715194.898 9       549.488 9        55.976 9  20497523.091 6         0.000 6       428.173 6        37.977 6
G26  20653101.275 9 108532757.471 9     -1498.363 9        55.874 9  20653104.091 6         0.000 6     -1167.556 6        37.977 6
G20  21947183.992 9 115333197.190 9      2563.951 9        55.314 9  21947184.315 6         0.000 6      1997.885 6        37.977 6
> 2019 07 03 12 00 55.0000000  0  8       0.000000000000
G07  25348212.958 9 133205712.051 9      2201.979 9        54.131 9  25348213.629 6         0.000 6      1715.828 6        37.977 6
G10  23813045.308 9 125138342.987 9      3511.516 9        54.668 9  23813049.038 6         0.000 6      2736.249 6        37.977 6
G21  21169986.177 9 111249007.565 9     -1233.423 9        55.710 9  21169985.463 6         0.000 6      -961.109 6        37.977 6
G29  24297800.490 9 127685747.043 9     -3085.410 9        54.476 9  24297802.061 6         0.000 6     -2404.218 6        37.977 6
G27  22006192.205 9 115643293.563 9      2480.224 9        55.374 9  22006194.138 6         0.000 6      1932.643 6        37.977 6
G16  20497419.458 9 107714645.958 9       548.404 9        55.976 9  20497418.631 6         0.000 6       427.328 6        37.977 6
G26  20653386.393 9 108534255.777 9     -1498.263 9        55.874 9  20653389.209 6         0.000 6     -1167.478 6        37.977 6
G20  21946695.975 9 115330632.649 9      2565.109 9        55.315 9  21946696.297 6         0.000 6      1998.787 6        37.977 6
> 2019 07 03 12 00 56.0000000  0  8       0.000000000000
G07  25347794.165 9 133203511.280 9      2199.585 9        54.131 9  25347794.835 6         0.000 6      1713.964 6        37.977 6
G10  23812376.929 9 125134830.638 9      3513.192 9        54.668 9  23812380.658 6         0.000 6      2737.555 6        37.977 6
G21  21170220.920 9 111250241.142 9     -1233.733 9        55.710 9  21170220.205 6         0.000 6      -961.351 6        37.977 6
G29  24298387.550 9 127688832.056 9     -3084.650 9        54.475 9  24298389.122 6         0.000 6     -2403.626 6        37.977 6
G27  22005720.354 9 115640813.971 9      2478.982 9        55.374 9  22005722.287 6         0.000 6      1931.675 6        37.977 6
G16  20497315.200 9 107714098.077 9       547.368 9        55.977 9  20497314.373 6         0.000 6       426.520 6        37.977 6
G26  20653671.498 9 108535754.009 9     -1498.202 9        55.873 9  20653674.314 6         0.000 6     -1167.431 6        37.977 6
G20  21946207.752 9 115328067.026 9      2566.135 9        55.315 9  21946208.075 6         0.000 6      1999.587 6        37.977 6
> 2019 07 03 12 00 57.0000000  0  8       0.000000000000
G07  25347375.815 9 133201312.841 9      2197.323 9        54.131 9  25347376.485 6         0.000 6      1712.201 6        37.977 6
G10  23811708.240 9 125131316.666 9      3514.751 9        54.669 9  23811711.968 6         0.000 6      2738.770 6        37.977 6
G21  21170455.722 9 111251475.036 9     -1234.062 9        55.709 9  21170455.007 6         0.000 6      -961.607 6        37.977 6
G29  24298974.474 9 127691916.353 9     -3083.985 9        54.475 9  24298976.047 6         0.000 6     -2403.108 6        37.977 6
G27  22005248.730 9 115638335.576 9      2477.832 9        55.374 9  22005250.663 6         0.000 6      1930.779 6        37.977 6
G16  20497211.135 9 107713551.211 9       546.373 9        55.977 9  20497210.307 6         0.000 6       425.745 6        37.977 6
G26  20653956.593 9 108537252.193 9     -1498.173 9        55.873 9  20653959.409 6         0.000 6     -1167.408 6        37.977 6
G20  21945719.344 9 115325500.426 9      2567.054 9        55.315 9  21945719.666 6         0.000 6      2000.303 6        37.977 6
> 2019 07 03 12 00 58.0000000  0  8       0.000000000000
G07  25346957.885 9 133199116.608 9      2195.179 9        54.132 9  25346958.555 6         0.000 6      1710.530 6        37.977 6
G10  23811039.264 9 125127801.185 9      3516.207 9        54.669 9  23811042.992 6         0.000 6      2739.904 6        37.977 6
G21  21170690.588 9 111252709.266 9     -1234.401 9        55.709 9  21170689.874 6         0.000 6      -961.871 6        37.977 6
G29  24299561.281 9 127695000.030 9     -3083.403 9        54.475 9  24299562.854 6         0.000 6     -2402.654 6        37.977 6
G27  22004777.317 9 115635858.285 9      2476.771 9        55.374 9  22004779.250 6         0.000 6      1929.952 6        37.977 6
G16  20497107.254 9 107713005.317 9       545.421 9        55.977 9  20497106.427 6         0.000 6       425.003 6        37.977 6
G26  20654241.684 9 108538750.356 9     -1498.167 9        55.873 9  20654244.500 6         0.000 6     -1167.403 6        37.977 6
G20  21945230.769 9 115322932.952 9      2567.881 9        55.315 9  21945231.091 6         0.000 6      2000.947 6        37.977 6
> 2019 07 03 12 00 59.0000000  0  8       0.000000000000
G07  25346540.350 9 133196922.452 9      2193.154 9        54.132 9  25346541.020 6         0.000 6      1708.952 6        37.977 6
G10  23810370.023 9 125124284.310 9      3517.551 9        54.669 9  23810373.750 6         0.000 6      2740.951 6        37.977 6
G21  21170925.521 9 111253943.845 9     -1234.761 9        55.709 9  21170924.806 6         0.000 6      -962.151 6        37.977 6
G29  24300147.984 9 127698083.169 9     -3082.904 9        54.475 9  24300149.558 6         0.000 6     -2402.265 6        37.977 6
G27  22004306.097 9 115633382.011 9      2475.788 9        55.374 9  22004308.030 6         0.000 6      1929.186 6        37.977 6
G16  20497003.552 9 107712460.358 9       544.499 9        55.977 9  20497002.725 6         0.000 6       424.285 6        37.977 6
G26  20654526.778 9 108540248.533 9     -1498.196 9        55.873 9  20654529.595 6         0.000 6     -1167.426 6        37.977 6
G20  21944742.047 9 115320364.707 9      2568.606 9        55.315 9  21944742.369 6         0.000 6      2001.513 6        37.977 6
> 2019 07 03 12 01  0.0000000  0  8       0.000000000000
G07  25346123.191 9 133194730.268 9      2191.248 9        54.132 9  25346123.860 6         0.000 6      1707.467 6        37.977 6
G10  23809700.536 9 125120766.141 9      3518.787 9        54.669 9  23809704.262 6         0.000 6      2741.914 6        37.977 6
G21  21171160.523 9 111255178.790 9     -1235.128 9        55.709 9  21171159.809 6         0.000 6      -962.438 6        37.977 6
G29  24300734.598 9 127701165.836 9     -3082.471 9        54.475 9  24300736.173 6         0.000 6     -2401.928 6        37.977 6
G27  22003835.060 9 115630906.695 9      2474.877 9        55.375 9  22003836.992 6         0.000 6      1928.476 6        37.977 6
G16  20496900.024 9 107711916.312 9       543.609 9        55.977 9  20496899.196 6         0.000 6       423.591 6        37.977 6
G26  20654811.882 9 108541746.760 9     -1498.259 9        55.873 9  20654814.698 6         0.000 6     -1167.475 6        37.977 6
G20  21944253.196 9 115317795.780 9      2569.240 9        55.315 9  21944253.517 6         0.000 6      2002.006 6        37.977 6
> 2019 07 03 12 01  1.0000000  0  8       0.000000000000
G07  25345706.383 9 133192539.930 9      2189.447 9        54.132 9  25345707.052 6         0.000 6      1706.063 6        37.977 6
G10  23809030.823 9 125117246.790 9      3519.926 9        54.670 9  23809034.549 6         0.000 6      2742.802 6        37.977 6
G21  21171395.596 9 111256414.104 9     -1235.502 9        55.709 9  21171394.881 6         0.000 6      -962.729 6        37.977 6
G29  24301321.137 9 127704248.108 9     -3082.097 9        54.474 9  24301322.712 6         0.000 6     -2401.636 6        37.977 6
G27  22003364.187 9 115628432.244 9      2474.032 9        55.375 9  22003366.119 6         0.000 6      1927.818 6        37.977 6
G16  20496796.660 9 107711373.134 9       542.749 9        55.977 9  20496795.833 6         0.000 6       422.921 6        37.977 6
G26  20655096.999 9 108543245.061 9     -1498.350 9        55.873 9  20655099.816 6         0.000 6     -1167.546 6        37.977 6
G20  21943764.232 9 115315226.264 9      2569.792 9        55.316 9  21943764.553 6         0.000 6      2002.436 6        37.977 6
> 2019 07 03 12 01  2.0000000  0  8       0.000000000000
G07  25345289.909 9 133190351.351 9      2187.733 9        54.132 9  25345290.578 6         0.000 6      1704.728 6        37.977 6
G10  23808360.902 9 125113726.339 9      3520.985 9        54.670 9  23808364.627 6         0.000 6      2743.627 6        37.977 6
G21  21171630.740 9 111257649.793 9     -1235.882 9        55.709 9  21171630.025 6         0.000 6      -963.025 6        37.977 6
G29  24301907.609 9 127707330.027 9     -3081.774 9        54.474 9  24301909.184 6         0.000 6     -2401.385 6        37.977 6
G27  22002893.470 9 115625958.615 9      2473.242 9        55.375 9  22002895.402 6         0.000 6      1927.202 6        37.977 6
G16  20496693.459 9 107710830.806 9       541.912 9        55.977 9  20496692.631 6         0.000 6       422.269 6        37.977 6
G26  20655382.137 9 108544743.465 9     -1498.466 9        55.873 9  20655384.953 6         0.000 6     -1167.636 6        37.977 6
G20  21943275.170 9 115312656.228 9      2570.275 9        55.316 9  21943275.490 6         0.000 6      2002.813 6        37.977 6
> 2019 07 03 12 01  3.0000000  0  8       0.000000000000
G07  25344873.755 9 133188164.448 9      2186.093 9        54.132 9  25344874.424 6         0.000 6      1703.450 6        37.977 6
G10  23807690.785 9 125110204.864 9      3521.975 9        54.670 9  23807694.510 6         0.000 6      2744.399 6        37.977 6
G21  21171865.958 9 111258885.871 9     -1236.271 9        55.709 9  21171865.243 6         0.000 6      -963.328 6        37.977 6
G29  24302494.024 9 127710411.651 9     -3081.493 9        54.474 9  24302495.600 6         0.000 6     -2401.166 6        37.977 6
G27  22002422.900 9 115623485.751 9      2472.495 9        55.375 9  22002424.831 6         0.000 6      1926.620 6        37.977 6
G16  20496590.415 9 107710289.305 9       541.092 9        55.977 9  20496589.587 6         0.000 6       421.630 6        37.977 6
G26  20655667.298 9 108546241.998 9     -1498.605 9        55.873 9  20655670.115 6         0.000 6     -1167.745 6        37.977 6
G20  21942786.022 9 115310085.743 9      2570.698 9        55.316 9  21942786.342 6         0.000 6      2003.143 6        37.977 6
> 2019 07 03 12 01  4.0000000  0  8       0.000000000000
G07  25344457.907 9 133185979.155 9      2184.507 9        54.132 9  25344458.575 6         0.000 6      1702.214 6        37.977 6
G10  23807020.486 9 125106682.428 9      3522.916 9        54.670 9  23807024.210 6         0.000 6      2745.132 6        37.977 6
G21  21172101.250 9 111260122.339 9     -1236.664 9        55.709 9  21172100.535 6         0.000 6      -963.634 6        37.977 6
G29  24303080.389 9 127713493.007 9     -3081.247 9        54.474 9  24303081.966 6         0.000 6     -2400.974 6        37.977 6
G27  22001952.468 9 115621013.619 9      2471.785 9        55.375 9  22001954.399 6         0.000 6      1926.067 6        37.977 6
G16  20496487.525 9 107709748.619 9       540.290 9        55.977 9  20496486.698 6         0.000 6       421.005 6        37.977 6
G26  20655952.488 9 108547740.680 9     -1498.757 9        55.872 9  20655955.305 6         0.000 6     -1167.863 6        37.977 6
G20  21942296.798 9 115307514.858 9      2571.079 9        55.316 9  21942297.118 6         0.000 6      2003.440 6        37.977 6
> 2019 07 03 12 01  5.0000000  0  8       0.000000000000
G07  25344042.357 9 133183795.429 9      2182.972 9        54.133 9  25344043.025 6         0.000 6      1701.018 6        37.977 6
G10  23806350.011 9 125103159.068 9      3523.809 9        54.670 9  23806353.734 6         0.000 6      2745.828 6        37.977 6
G21  21172336.617 9 111261359.204 9     -1237.061 9        55.709 9  21172335.903 6         0.000 6      -963.943 6        37.977 6
G29  24303666.710 9 127716574.134 9     -3081.027 9        54.474 9  24303668.287 6         0.000 6     -2400.803 6        37.977 6
G27  22001482.168 9 115618542.180 9      2471.103 9        55.376 9  22001484.100 6         0.000 6      1925.536 6        37.977 6
G16  20496384.787 9 107709208.726 9       539.499 9        55.977 9  20496383.960 6         0.000 6       420.389 6        37.977 6
G26  20656237.707 9 108549239.516 9     -1498.926 9        55.872 9  20656240.524 6         0.000 6     -1167.995 6        37.977 6
G20  21941807.504 9 115304943.608 9      2571.419 9        55.316 9  21941807.824 6         0.000 6      2003.704 6        37.977 6
> 2019 07 03 12 01  6.0000000  0  8       0.000000000000
G07  25343627.093 9 133181613.207 9      2181.483 9        54.133 9  25343627.761 6         0.000 6      1699.858 6        37.977 6
G10  23805679.371 9 125099634.842 9      3524.660 9        54.671 9  23805683.094 6         0.000 6      2746.491 6        37.977 6
G21  21172572.061 9 111262596.465 9     -1237.464 9        55.709 9  21172571.346 6         0.000 6      -964.258 6        37.977 6
G29  24304252.991 9 127719655.054 9     -3080.839 9        54.473 9  24304254.569 6         0.000 6     -2400.656 6        37.977 6
G27  22001011.995 9 115616071.407 9      2470.454 9        55.376 9  22001013.926 6         0.000 6      1925.030 6        37.977 6
G16  20496282.198 9 107708669.617 9       538.722 9        55.977 9  20496281.371 6         0.000 6       419.783 6        37.977 6
G26  20656522.961 9 108550738.530 9     -1499.105 9        55.872 9  20656525.778 6         0.000 6     -1168.134 6        37.977 6
G20  21941318.151 9 115302372.041 9      2571.722 9        55.317 9  21941318.470 6         0.000 6      2003.940 6        37.977 6
> 2019 07 03 12 01  7.0000000  0  8       0.000000000000
G07  25343212.110 9 133179432.462 9      2180.037 9        54.133 9  25343212.778 6         0.000 6      1698.731 6        37.977 6
G10  23805008.571 9 125096109.777 9      3525.472 9        54.671 9  23805012.293 6         0.000 6      2747.124 6        37.977 6
G21  21172807.580 9 111263834.128 9     -1237.866 9        55.708 9  21172806.866 6         0.000 6      -964.571 6        37.977 6
G29  24304839.238 9 127722735.793 9     -3080.670 9        54.473 9  24304840.817 6         0.000 6     -2400.525 6        37.977 6
G27  22000541.944 9 115613601.274 9      2469.829 9        55.376 9  22000543.875 6         0.000 6      1924.543 6        37.977 6
G16  20496179.756 9 107708131.281 9       537.957 9        55.977 9  20496178.929 6         0.000 6       419.187 6        37.977 6
G26  20656808.249 9 108552237.726 9     -1499.297 9        55.872 9  20656811.065 6         0.000 6     -1168.284 6        37.977 6
G20  21940828.741 9 115299800.180 9      2571.992 9        55.317 9  21940829.060 6         0.000 6      2004.151 6        37.977 6
> 2019 07 03 12 01  8.0000000  0  8       0.000000000000
G07  25342797.397 9 133177253.133 9      2178.634 9        54.133 9  25342798.065 6         0.000 6      1697.637 6        37.977 6
G10  23804337.622 9 125092583.927 9      3526.245 9        54.671 9  23804341.344 6         0.000 6      2747.726 6        37.977 6
G21  21173043.177 9 111265072.196 9     -1238.271 9        55.708 9  21173042.463 6         0.000 6      -964.886 6        37.977 6
G29  24305425.456 9 127725816.378 9     -3080.525 9        54.473 9  24305427.035 6         0.000 6     -2400.411 6        37.977 6
G27  22000072.009 9 115611131.750 9      2469.230 9        55.376 9  22000073.939 6         0.000 6      1924.076 6        37.977 6
G16  20496077.458 9 107707593.702 9       537.204 9        55.977 9  20496076.631 6         0.000 6       418.600 6        37.977 6
G26  20657093.574 9 108553737.121 9     -1499.499 9        55.872 9  20657096.391 6         0.000 6     -1168.441 6        37.977 6
G20  21940339.284 9 115297228.071 9      2572.230 9        55.317 9  21940339.603 6         0.000 6      2004.336 6        37.977 6
> 2019 07 03 12 01  9.0000000  0  8       0.000000000000
G07  25342382.948 9 133175075.189 9      2177.268 9        54.133 9  25342383.615 6         0.000 6      1696.573 6        37.977 6
G10  23803666.530 9 125089057.321 9      3526.981 9        54.671 9  23803670.250 6         0.000 6      2748.299 6        37.977 6
G21  21173278.851 9 111266310.671 9     -1238.679 9        55.708 9  21173278.137 6         0.000 6      -965.205 6        37.977 6
G29  24306011.648 9 127728896.829 9     -3080.395 9        54.473 9  24306013.228 6         0.000 6     -2400.311 6        37.977 6
G27  21999602.185 9 115608662.813 9      2468.648 9        55.376 9  21999604.116 6         0.000 6      1923.623 6        37.977 6
G16  20495975.303 9 107707056.872 9       536.456 9        55.977 9  20495974.476 6         0.000 6       418.018 6        37.977 6
G26  20657378.940 9 108555236.725 9     -1499.717 9        55.872 9  20657381.757 6         0.000 6     -1168.611 6        37.977 6
G20  21939849.785 9 115294655.739 9      2572.437 9        55.317 9  21939850.103 6         0.000 6      2004.498 6        37.977 6
> 2019 07 03 12 01 10.0000000  0  8       0.000000000000
G07  25341968.754 9 133172898.592 9      2175.939 9        54.133 9  25341969.421 6         0.000 6      1695.538 6        37.977 6
G10  23802995.300 9 125085529.998 9      3527.682 9        54.672 9  23802999.020 6         0.000 6      2748.846 6        37.977 6
G21  21173514.603 9 111267549.554 9     -1239.091 9        55.708 9  21173513.889 6         0.000 6      -965.526 6        37.977 6
G29  24306597.817 9 127731977.160 9     -3080.291 9        54.472 9  24306599.398 6         0.000 6     -2400.230 6        37.977 6
G27  21999132.470 9 115606194.447 9      2468.093 9        55.376 9  21999134.401 6         0.000 6      1923.190 6        37.977 6
G16  20495873.289 9 107706520.784 9       535.720 9        55.977 9  20495872.462 6         0.000 6       417.444 6        37.977 6
G26  20657664.348 9 108556736.554 9     -1499.944 9        55.872 9  20657667.165 6         0.000 6     -1168.788 6        37.977 6
G20  21939360.249 9 115292083.216 9      2572.614 9        55.317 9  21939360.567 6         0.000 6      2004.636 6        37.977 6
> 2019 07 03 12 01 11.0000000  0  8       0.000000000000
G07  25341554.811 9 133170723.309 9      2174.644 9        54.133 9  25341555.478 6         0.000 6      1694.529 6        37.977 6
G10  23802323.940 9 125082001.986 9      3528.354 9        54.672 9  23802327.659 6         0.000 6      2749.369 6        37.977 6
G21  21173750.433 9 111268788.849 9     -1239.503 9        55.708 9  21173749.719 6         0.000 6      -965.846 6        37.977 6
G29  24307183.968 9 127735057.392 9     -3080.202 9        54.472 9  24307185.549 6         0.000 6     -2400.160 6        37.977 6
G27  21998662.859 9 115603726.628 9      2467.556 9        55.377 9  21998664.790 6         0.000 6      1922.772 6        37.977 6
G16  20495771.414 9 107705985.428 9       534.994 9        55.977 9  20495770.587 6         0.000 6       416.878 6        37.977 6
G26  20657949.800 9 108558236.612 9     -1500.180 9        55.872 9  20657952.617 6         0.000 6     -1168.972 6        37.977 6
G20  21938870.681 9 115289510.525 9      2572.767 9        55.318 9  21938870.999 6         0.000 6      2004.755 6        37.977 6
> 2019 07 03 12 01 12.0000000  0  8       0.000000000000
G07  25341141.110 9 133168549.302 9      2173.378 9        54.134 9  25341141.777 6         0.000 6      1693.542 6        37.977 6
G10  23801652.455 9 125078473.322 9      3528.997 9        54.672 9  23801656.174 6         0.000 6      2749.870 6        37.977 6
G21  21173986.342 9 111270028.559 9     -1239.917 9        55.708 9  21173985.628 6         0.000 6      -966.170 6        37.977 6
G29  24307770.104 9 127738137.544 9     -3080.124 9        54.472 9  24307771.686 6         0.000 6     -2400.099 6        37.977 6
G27  21998193.349 9 115601259.339 9      2467.031 9        55.377 9  21998195.279 6         0.000 6      1922.363 6        37.977 6
G16  20495669.677 9 107705450.798 9       534.270 9        55.977 9  20495668.850 6         0.000 6       416.314 6        37.977 6
G26  20658235.299 9 108559736.915 9     -1500.428 9        55.871 9  20658238.116 6         0.000 6     -1169.165 6        37.977 6
G20  21938381.088 9 115286937.698 9      2572.896 9        55.318 9  21938381.406 6         0.000 6      2004.855 6        37.977 6
> 2019 07 03 12 01 13.0000000  0  8       0.000000000000
G07  25340727.648 9 133166376.548 9      2172.140 9        54.134 9  25340728.315 6         0.000 6      1692.577 6        37.977 6
G10  23800980.851 9 125074944.027 9      3529.613 9        54.672 9  23800984.569 6         0.000 6      2750.350 6        37.977 6
G21  21174222.329 9 111271268.681 9     -1240.332 9        55.708 9  21174221.615 6         0.000 6      -966.493 6        37.977 6
G29  24308356.225 9 127741217.621 9     -3080.060 9        54.472 9  24308357.807 6         0.000 6     -2400.049 6        37.977 6
G27  21997723.938 9 115598792.567 9      2466.524 9        55.377 9  21997725.868 6         0.000 6      1921.967 6        37.977 6
G16  20495568.077 9 107704916.887 9       533.555 9        55.977 9  20495567.250 6         0.000 6       415.757 6        37.977 6
G26  20658520.845 9 108561237.470 9     -1500.684 9        55.871 9  20658523.663 6         0.000 6     -1169.364 6        37.977 6
G20  21937891.471 9 115284364.752 9      2573.003 9        55.318 9  21937891.789 6         0.000 6      2004.939 6        37.977 6
> 2019 07 03 12 01 14.0000000  0  8       0.000000000000
G07  25340314.420 9 133164205.019 9      2170.932 9        54.134 9  25340315.086 6         0.000 6      1691.636 6        37.977 6
G10  23800309.131 9 125071414.127 9      3530.202 9        54.673 9  23800312.849 6         0.000 6      2750.809 6        37.977 6
G21  21174458.397 9 111272509.223 9     -1240.747 9        55.708 9  21174457.683 6         0.000 6      -966.816 6        37.977 6
G29  24308942.337 9 127744297.651 9     -3080.013 9        54.472 9  24308943.920 6         0.000 6     -2400.012 6        37.977 6
G27  21997254.620 9 115596326.290 9      2466.036 9        55.377 9  21997256.550 6         0.000 6      1921.587 6        37.977 6
G16  20495466.612 9 107704383.686 9       532.849 9        55.977 9  20495465.785 6         0.000 6       415.207 6        37.977 6
G26  20658806.440 9 108562738.282 9     -1500.947 9        55.871 9  20658809.258 6         0.000 6     -1169.569 6        37.977 6
G20  21937401.837 9 115281791.710 9      2573.087 9        55.318 9  21937402.154 6         0.000 6      2005.004 6        37.977 6
> 2019 07 03 12 01 15.0000000  0  8       0.000000000000
G07  25339901.418 9 133162034.686 9      2169.745 9        54.134 9  25339902.084 6         0.000 6      1690.711 6        37.977 6
G10  23799637.302 9 125067883.649 9      3530.771 9        54.673 9  23799641.018 6         0.000 6      2751.253 6        37.977 6
G21  21174694.542 9 111273750.176 9     -1241.165 9        55.708 9  21174693.829 6         0.000 6      -967.142 6        37.977 6
G29  24309528.440 9 127747377.634 9     -3079.976 9        54.471 9  24309530.024 6         0.000 6     -2399.984 6        37.977 6
G27  21996785.395 9 115593860.495 9      2465.558 9        55.377 9  21996787.324 6         0.000 6      1921.215 6        37.977 6
G16  20495365.281 9 107703851.186 9       532.147 9        55.977 9  20495364.454 6         0.000 6       414.660 6        37.977 6
G26  20659092.086 9 108564239.359 9     -1501.217 9        55.871 9  20659094.904 6         0.000 6     -1169.780 6        37.977 6
G20  21936912.188 9 115279218.591 9      2573.154 9        55.318 9  21936912.505 6         0.000 6      2005.057 6        37.977 6
> 2019 07 03 12 01 16.0000000  0  8       0.000000000000
G07  25339488.641 9 133159865.533 9      2168.579 9        54.134 9  25339489.307 6         0.000 6      1689.803 6        37.977 6
G10  23798965.365 9 125064352.609 9      3531.320 9        54.673 9  23798969.081 6         0.000 6      2751.681 6        37.977 6
G21  21174930.768 9 111274991.550 9     -1241.581 9        55.708 9  21174930.054 6         0.000 6      -967.466 6        37.977 6
G29  24310114.536 9 127750457.581 9     -3079.945 9        54.471 9  24310116.121 6         0.000 6     -2399.960 6        37.977 6
G27  21996316.260 9 115591395.179 9      2465.090 9        55.378 9  21996318.190 6         0.000 6      1920.850 6        37.977 6
G16  20495264.084 9 107703319.392 9       531.450 9        55.977 9  20495263.257 6         0.000 6       414.117 6        37.977 6
G26  20659377.785 9 108565740.713 9     -1501.493 9        55.871 9  20659380.603 6         0.000 6     -1169.995 6        37.977 6
G20  21936422.527 9 115276645.411 9      2573.207 9        55.319 9  21936422.844 6         0.000 6      2005.098 6        37.977 6
> 2019 07 03 12 01 17.0000000  0  8       0.000000000000
G07  25339076.085 9 133157697.536 9      2167.430 9        54.134 9  25339076.750 6         0.000 6      1688.907 6        37.977 6
G10  23798293.326 9 125060821.029 9      3531.853 9        54.673 9  23798297.041 6         0.000 6      2752.096 6        37.977 6
G21  21175167.073 9 111276233.340 9     -1242.003 9        55.707 9  21175166.359 6         0.000 6      -967.795 6        37.977 6
G29  24310700.628 9 127753537.505 9     -3079.927 9        54.471 9  24310702.213 6         0.000 6     -2399.946 6        37.977 6
G27  21995847.213 9 115588930.321 9      2464.632 9        55.378 9  21995849.142 6         0.000 6      1920.493 6        37.977 6
G16  20495163.018 9 107702788.288 9       530.755 9        55.977 9  20495162.191 6         0.000 6       413.575 6        37.977 6
G26  20659663.536 9 108567242.344 9     -1501.777 9        55.871 9  20659666.354 6         0.000 6     -1170.217 6        37.977 6
G20  21935932.858 9 115274072.186 9      2573.243 9        55.319 9  21935933.174 6         0.000 6      2005.126 6        37.977 6
> 2019 07 03 12 01 18.0000000  0  8       0.000000000000
G07  25338663.745 9 133155530.678 9      2166.299 9        54.134 9  25338664.410 6         0.000 6      1688.026 6        37.977 6
G10  23797621.187 9 125057288.925 9      3532.369 9        54.674 9  23797624.901 6         0.000 6      2752.498 6        37.977 6
G21  21175403.458 9 111277475.550 9     -1242.425 9        55.707 9  21175402.744 6         0.000 6      -968.123 6        37.977 6
G29  24311286.718 9 127756617.417 9     -3079.918 9        54.471 9  24311288.304 6         0.000 6     -2399.939 6        37.977 6
G27  21995378.251 9 115586465.914 9      2464.186 9        55.378 9  21995380.180 6         0.000 6      1920.145 6        37.977 6
G16  20495062.084 9 107702257.876 9       530.066 9        55.977 9  20495061.257 6         0.000 6       413.038 6        37.977 6
G26  20659949.341 9 108568744.260 9     -1502.065 9        55.871 9  20659952.159 6         0.000 6     -1170.441 6        37.977 6
G20  21935443.183 9 115271498.933 9      2573.266 9        55.319 9  21935443.499 6         0.000 6      2005.144 6        37.977 6
> 2019 07 03 12 01 19.0000000  0  8       0.000000000000
G07  25338251.617 9 133153364.939 9      2165.185 9        54.135 9  25338252.283 6         0.000 6      1687.158 6        37.977 6
G10  23796948.951 9 125053756.314 9      3532.871 9        54.674 9  23796952.665 6         0.000 6      2752.889 6        37.977 6
G21  21175639.923 9 111278718.179 9     -1242.842 9        55.707 9  21175639.209 6         0.000 6      -968.448 6        37.977 6
G29  24311872.807 9 127759697.324 9     -3079.917 9        54.471 9  24311874.393 6         0.000 6     -2399.938 6        37.977 6
G27  21994909.373 9 115584001.944 9      2463.753 9        55.378 9  21994911.302 6         0.000 6      1919.808 6        37.977 6
G16  20494961.280 9 107701728.145 9       529.386 9        55.978 9  20494960.453 6         0.000 6       412.509 6        37.977 6
G26  20660235.201 9 108570246.463 9     -1502.353 9        55.871 9  20660238.020 6         0.000 6     -1170.665 6        37.977 6
G20  21934953.505 9 115268925.662 9      2573.279 9        55.319 9  21934953.821 6         0.000 6      2005.154 6        37.977 6
> 2019 07 03 12 01 20.0000000  0  8       0.000000000000
G07  25337839.702 9 133151200.314 9      2164.078 9        54.135 9  25337840.368 6         0.000 6      1686.296 6        37.977 6
G10  23796276.621 9 125050223.204 9      3533.367 9        54.674 9  23796280.334 6         0.000 6      2753.276 6        37.977 6
G21  21175876.468 9 111279961.232 9     -1243.264 9        55.707 9  21175875.754 6         0.000 6      -968.777 6        37.977 6
G29  24312458.895 9 127762777.229 9     -3079.919 9        54.470 9  24312460.482 6         0.000 6     -2399.940 6        37.977 6
G27  21994440.578 9 115581538.414 9      2463.321 9        55.378 9  21994442.507 6         0.000 6      1919.472 6        37.977 6
G16  20494860.606 9 107701199.102 9       528.705 9        55.978 9  20494859.779 6         0.000 6       411.978 6        37.977 6
G26  20660521.118 9 108571748.962 9     -1502.645 9        55.871 9  20660523.936 6         0.000 6     -1170.893 6        37.977 6
G20  21934463.826 9 115266352.383 9      2573.285 9        55.319 9  21934464.141 6         0.000 6      2005.158 6        37.977 6
> 2019 07 03 12 01 21.0000000  0  8       0.000000000000
G07  25337427.996 9 133149036.788 9      2162.986 9        54.135 9  25337428.661 6         0.000 6      1685.444 6        37.977 6
G10  23795604.198 9 125046689.608 9      3533.845 9        54.674 9  23795607.910 6         0.000 6      2753.648 6        37.977 6
G21  21176113.093 9 111281204.708 9     -1243.689 9        55.707 9  21176112.380 6         0.000 6      -969.109 6        37.977 6
G29  24313044.986 9 127765857.145 9     -3079.934 9        54.470 9  24313046.573 6         0.000 6     -2399.951 6        37.977 6
G27  21993971.864 9 115579075.309 9      2462.898 9        55.378 9  21993973.793 6         0.000 6      1919.142 6        37.977 6
G16  20494760.062 9 107700670.738 9       528.027 9        55.978 9  20494759.235 6         0.000 6       411.449 6        37.977 6
G26  20660807.090 9 108573251.755 9     -1502.944 9        55.870 9  20660809.909 6         0.000 6     -1171.126 6        37.977 6
G20  21933974.147 9 115263779.108 9      2573.275 9        55.320 9  21933974.462 6         0.000 6      2005.150 6        37.977 6
> 2019 07 03 12 01 22.0000000  0  8       0.000000000000
G07  25337016.497 9 133146874.349 9      2161.898 9        54.135 9  25337017.162 6         0.000 6      1684.597 6        37.977 6
G10  23794931.684 9 125043155.537 9      3534.321 9        54.675 9  23794935.396 6         0.000 6      2754.019 6        37.977 6
G21  21176349.801 9 111282448.612 9     -1244.114 9        55.707 9  21176349.087 6         0.000 6      -969.440 6        37.977 6
G29  24313631.079 9 127768937.077 9     -3079.951 9        54.470 9  24313632.667 6         0.000 6     -2399.964 6        37.977 6
G27  21993503.230 9 115576612.625 9      2462.480 9        55.379 9  21993505.159 6         0.000 6      1918.816 6        37.977 6
G16  20494659.647 9 107700143.052 9       527.351 9        55.978 9  20494658.819 6         0.000 6       410.923 6        37.977 6
G26  20661093.120 9 108574754.850 9     -1503.242 9        55.870 9  20661095.939 6         0.000 6     -1171.358 6        37.977 6
G20  21933484.471 9 115261205.846 9      2573.263 9        55.320 9  21933484.786 6         0.000 6      2005.141 6        37.977 6
> 2019 07 03 12 01 23.0000000  0  8       0.000000000000
G07  25336605.203 9 133144712.989 9      2160.826 9        54.135 9  25336605.868 6         0.000 6      1683.761 6        37.977 6
G10  23794259.082 9 125039620.997 9      3534.784 9        54.675 9  23794262.793 6         0.000 6      2754.380 6        37.977 6
G21  21176586.588 9 111283692.939 9     -1244.540 9        55.707 9  21176585.875 6         0.000 6      -969.772 6        37.977 6
G29  24314217.177 9 127772017.034 9     -3079.979 9        54.470 9  24314218.766 6         0.000 6     -2399.986 6        37.977 6
G27  21993034.675 9 115574150.349 9      2462.073 9        55.379 9  21993036.603 6         0.000 6      1918.499 6        37.977 6
G16  20494559.359 9 107699616.035 9       526.682 9        55.978 9  20494558.531 6         0.000 6       410.402 6        37.977 6
G26  20661379.206 9 108576258.241 9     -1503.542 9        55.870 9  20661382.025 6         0.000 6     -1171.592 6        37.977 6
G20  21932994.797 9 115258632.602 9      2573.239 9        55.320 9  21932995.112 6         0.000 6      2005.122 6        37.977 6
> 2019 07 03 12 01 24.0000000  0  8       0.000000000000
G07  25336194.113 9 133142552.699 9      2159.758 9        54.135 9  25336194.778 6         0.000 6      1682.930 6        37.977 6
G10  23793586.391 9 125036085.995 9      3535.241 9        54.675 9  23793590.102 6         0.000 6      2754.736 6        37.977 6
G21  21176823.457 9 111284937.689 9     -1244.968 9        55.707 9  21176822.743 6         0.000 6      -970.105 6        37.977 6
G29  24314803.280 9 127775097.015 9     -3080.009 9        54.470 9  24314804.870 6         0.000 6     -2400.010 6        37.977 6
G27  21992566.196 9 115571688.481 9      2461.668 9        55.379 9  21992568.124 6         0.000 6      1918.183 6        37.977 6
G16  20494459.198 9 107699089.685 9       526.013 9        55.978 9  20494458.370 6         0.000 6       409.880 6        37.977 6
G26  20661665.349 9 108577761.932 9     -1503.845 9        55.870 9  20661668.168 6         0.000 6     -1171.828 6        37.977 6
G20  21932505.129 9 115256059.381 9      2573.209 9        55.320 9  21932505.443 6         0.000 6      2005.099 6        37.977 6
> 2019 07 03 12 01 25.0000000  0  8       0.000000000000
G07  25335783.227 9 133140393.478 9      2158.699 9        54.135 9  25335783.891 6         0.000 6      1682.104 6        37.977 6
G10  23792913.613 9 125032550.534 9      3535.692 9        54.675 9  23792917.323 6         0.000 6      2755.087 6        37.977 6
G21  21177060.407 9 111286182.873 9     -1245.397 9        55.707 9  21177059.694 6         0.000 6      -970.439 6        37.977 6
G29  24315389.391 9 127778177.035 9     -3080.049 9        54.469 9  24315390.981 6         0.000 6     -2400.041 6        37.977 6
G27  21992097.794 9 115569227.014 9      2461.273 9        55.379 9  21992099.722 6         0.000 6      1917.876 6        37.977 6
G16  20494359.164 9 107698564.005 9       525.350 9        55.978 9  20494358.337 6         0.000 6       409.363 6        37.977 6
G26  20661951.550 9 108579265.924 9     -1504.147 9        55.870 9  20661954.369 6         0.000 6     -1172.063 6        37.977 6
G20  21932015.466 9 115253486.191 9      2573.174 9        55.320 9  21932015.781 6         0.000 6      2005.072 6        37.977 6
> 2019 07 03 12 01 26.0000000  0  8       0.000000000000
G07  25335372.540 9 133138235.311 9      2157.643 9        54.136 9  25335373.204 6         0.000 6      1681.281 6        37.977 6
G10  23792240.751 9 125029014.629 9      3536.141 9        54.676 9  23792244.460 6         0.000 6      2755.437 6        37.977 6
G21  21177297.440 9 111287428.486 9     -1245.828 9        55.707 9  21177296.726 6         0.000 6      -970.775 6        37.977 6
G29  24315975.508 9 127781257.091 9     -3080.092 9        54.469 9  24315977.098 6         0.000 6     -2400.074 6        37.977 6
G27  21991629.468 9 115566765.945 9      2460.879 9        55.379 9  21991631.396 6         0.000 6      1917.569 6        37.977 6
G16  20494259.257 9 107698038.991 9       524.686 9        55.978 9  20494258.430 6         0.000 6       408.847 6        37.977 6
G26  20662237.809 9 108580770.224 9     -1504.449 9        55.870 9  20662240.628 6         0.000 6     -1172.299 6        37.977 6
G20  21931525.811 9 115250913.042 9      2573.135 9        55.320 9  21931526.125 6         0.000 6      2005.042 6        37.977 6
> 2019 07 03 12 01 27.0000000  0  8       0.000000000000
G07  25334962.054 9 133136078.197 9      2156.592 9        54.136 9  25334962.718 6         0.000 6      1680.463 6        37.977 6
G10  23791567.804 9 125025478.278 9      3536.582 9        54.676 9  23791571.513 6         0.000 6      2755.781 6        37.977 6
G21  21177534.554 9 111288674.531 9     -1246.263 9        55.707 9  21177533.841 6         0.000 6      -971.114 6        37.977 6
G29  24316561.634 9 127784337.198 9     -3080.141 9        54.469 9  24316563.226 6         0.000 6     -2400.112 6        37.977 6
G27  21991161.215 9 115564305.264 9      2460.489 9        55.380 9  21991163.143 6         0.000 6      1917.265 6        37.977 6
G16  20494159.476 9 107697514.636 9       524.023 9        55.978 9  20494158.649 6         0.000 6       408.330 6        37.977 6
G26  20662524.125 9 108582274.825 9     -1504.755 9        55.870 9  20662526.944 6         0.000 6     -1172.537 6        37.977 6
G20  21931036.165 9 115248339.934 9      2573.089 9        55.321 9  21931036.478 6         0.000 6      2005.006 6        37.977 6
> 2019 07 03 12 01 28.0000000  0  8       0.000000000000
G07  25334551.768 9 133133922.131 9      2155.548 9        54.136 9  25334552.431 6         0.000 6      1679.648 6        37.977 6
G10  23790894.773 9 125021941.487 9      3537.020 9        54.676 9  23790898.481 6         0.000 6      2756.122 6        37.977 6
G21  21177771.751 9 111289921.006 9     -1246.696 9        55.706 9  21177771.038 6         0.000 6      -971.452 6        37.977 6
G29  24317147.770 9 127787417.350 9     -3080.194 9        54.469 9  24317149.362 6         0.000 6     -2400.154 6        37.977 6
G27  21990693.036 9 115561844.971 9      2460.106 9        55.380 9  21990694.964 6         0.000 6      1916.966 6        37.977 6
G16  20494059.820 9 107696990.942 9       523.365 9        55.978 9  20494058.993 6         0.000 6       407.817 6        37.977 6
G26  20662810.500 9 108583779.730 9     -1505.059 9        55.870 9  20662813.319 6         0.000 6     -1172.774 6        37.977 6
G20  21930546.526 9 115245766.872 9      2573.040 9        55.321 9  21930546.840 6         0.000 6      2004.967 6        37.977 6
> 2019 07 03 12 01 29.0000000  0  8       0.000000000000
G07  25334141.680 9 133131767.106 9      2154.506 9        54.136 9  25334142.343 6         0.000 6      1678.837 6        37.977 6
G10  23790221.659 9 125018404.262 9      3537.455 9        54.676 9  23790225.367 6         0.000 6      2756.461 6        37.977 6
G21  21178009.030 9 111291167.917 9     -1247.132 9        55.706 9  21178008.317 6         0.000 6      -971.792 6        37.977 6
G29  24317733.916 9 127790497.559 9     -3080.252 9        54.468 9  24317735.509 6         0.000 6     -2400.199 6        37.977 6
G27  21990224.930 9 115559385.059 9      2459.724 9        55.380 9  21990226.858 6         0.000 6      1916.669 6        37.977 6
G16  20493960.289 9 107696467.905 9       522.708 9        55.978 9  20493959.462 6         0.000 6       407.305 6        37.977 6
G26  20663096.932 9 108585284.940 9     -1505.364 9        55.869 9  20663099.751 6         0.000 6     -1173.011 6        37.977 6
G20  21930056.898 9 115243193.863 9      2572.987 9        55.321 9  21930057.211 6         0.000 6      2004.926 6        37.977 6
> 2019 07 03 12 01 30.0000000  0  8       0.000000000000
G07  25333731.789 9 133129613.122 9      2153.467 9        54.136 9  25333732.452 6         0.000 6      1678.027 6        37.977 6
G10  23789548.463 9 125014866.604 9      3537.888 9        54.677 9  23789552.170 6         0.000 6      2756.798 6        37.977 6
G21  21178246.395 9 111292415.274 9     -1247.570 9        55.706 9  21178245.681 6         0.000 6      -972.133 6        37.977 6
G29  24318320.075 9 127793577.838 9     -3080.315 9        54.468 9  24318321.669 6         0.000 6     -2400.248 6        37.977 6
G27  21989756.896 9 115556925.526 9      2459.348 9        55.380 9  21989758.823 6         0.000 6      1916.376 6        37.977 6
G16  20493860.884 9 107695945.528 9       522.053 9        55.978 9  20493860.057 6         0.000 6       406.795 6        37.977 6
G26  20663383.423 9 108586790.459 9     -1505.668 9        55.869 9  20663386.242 6         0.000 6     -1173.248 6        37.977 6
G20  21929567.281 9 115240620.914 9      2572.931 9        55.321 9  21929567.594 6         0.000 6      2004.882 6        37.977 6
> 2019 07 03 12 01 31.0000000  0  8       0.000000000000
G07  25333322.096 9 133127460.173 9      2152.437 9        54.136 9  25333322.759 6         0.000 6      1677.225 6        37.977 6
G10  23788875.185 9 125011328.512 9      3538.313 9        54.677 9  23788878.891 6         0.000 6      2757.130 6        37.977 6
G21  21178483.840 9 111293663.058 9     -1248.009 9        55.706 9  21178483.127 6         0.000 6      -972.475 6        37.977 6
G29  24318906.247 9 127796658.177 9     -3080.388 9        54.468 9  24318907.840 6         0.000 6     -2400.305 6        37.977 6
G27  21989288.932 9 115554466.361 9      2458.981 9        55.380 9  21989290.859 6         0.000 6      1916.090 6        37.977 6
G16  20493761.602 9 107695423.794 9       521.404 9        55.978 9  20493760.775 6         0.000 6       406.289 6        37.977 6
G26  20663669.970 9 108588296.271 9     -1505.971 9        55.869 9  20663672.789 6         0.000 6     -1173.484 6        37.977 6
G20  21929077.674 9 115238048.016 9      2572.867 9        55.321 9  21929077.987 6         0.000 6      2004.833 6        37.977 6
> 2019 07 03 12 01 32.0000000  0  8       0.000000000000
G07  25332912.600 9 133125308.261 9      2151.401 9        54.136 9  25332913.263 6         0.000 6      1676.417 6        37.977 6
G10  23788201.825 9 125007789.992 9      3538.746 9        54.677 9  23788205.530 6         0.000 6      2757.467 6        37.977 6
G21  21178721.371 9 111294911.289 9     -1248.449 9        55.706 9  21178720.658 6         0.000 6      -972.817 6        37.977 6
G29  24319492.431 9 127799738.589 9     -3080.460 9        54.468 9  24319494.026 6         0.000 6     -2400.361 6        37.977 6
G27  21988821.039 9 115552007.571 9      2458.614 9        55.381 9  21988822.966 6         0.000 6      1915.803 6        37.977 6
G16  20493662.445 9 107694902.719 9       520.756 9        55.978 9  20493661.617 6         0.000 6       405.784 6        37.977 6
G26  20663956.576 9 108589802.393 9     -1506.270 9        55.869 9  20663959.395 6         0.000 6     -1173.717 6        37.977 6
G20  21928588.079 9 115235475.182 9      2572.809 9        55.322 9  21928588.392 6         0.000 6      2004.787 6        37.977 6
> 2019 07 03 12 01 33.0000000  0  8       0.000000000000
G07  25332503.300 9 133123157.378 9      2150.367 9        54.136 9  25332503.963 6         0.000 6      1675.611 6        37.977 6
G10  23787528.383 9 125004251.045 9      3539.175 9        54.677 9  23787532.088 6         0.000 6      2757.802 6        37.977 6
G21  21178958.985 9 111296159.960 9     -1248.897 9        55.706 9  21178958.272 6         0.000 6      -973.166 6        37.977 6
G29  24320078.631 9 127802819.080 9     -3080.544 9        54.468 9  24320080.226 6         0.000 6     -2400.426 6        37.977 6
G27  21988353.215 9 115549549.142 9      2458.250 9        55.381 9  21988355.142 6         0.000 6      1915.520 6        37.977 6
G16  20493563.410 9 107694382.288 9       520.106 9        55.978 9  20493562.583 6         0.000 6       405.278 6        37.977 6
G26  20664243.238 9 108591308.813 9     -1506.571 9        55.869 9  20664246.058 6         0.000 6     -1173.952 6        37.977 6
G20  21928098.497 9 115232902.412 9      2572.743 9        55.322 9  21928098.809 6         0.000 6      2004.736 6        37.977 6
> 2019 07 03 12 01 34.0000000  0  8       0.000000000000
G07  25332094.198 9 133121007.534 9      2149.336 9        54.137 9  25332094.860 6         0.000 6      1674.808 6        37.977 6
G10  23786854.860 9 125000711.664 9      3539.602 9        54.678 9  23786858.564 6         0.000 6      2758.134 6        37.977 6
G21  21179196.685 9 111297409.079 9     -1249.343 9        55.706 9  21179195.971 6         0.000 6      -973.514 6        37.977 6
G29  24320664.847 9 127805899.652 9     -3080.628 9        54.467 9  24320666.442 6         0.000 6     -2400.492 6        37.977 6
G27  21987885.461 9 115547091.079 9      2457.889 9        55.381 9  21987887.388 6         0.000 6      1915.239 6        37.977 6
G16  20493464.499 9 107693862.507 9       519.460 9        55.978 9  20493463.672 6         0.000 6       404.774 6        37.977 6
G26  20664529.958 9 108592815.532 9     -1506.871 9        55.869 9  20664532.778 6         0.000 6     -1174.186 6        37.977 6
G20  21927608.926 9 115230329.705 9      2572.676 9        55.322 9  21927609.238 6         0.000 6      2004.684 6        37.977 6
> 2019 07 03 12 01 35.0000000  0  8       0.000000000000
G07  25331685.291 9 133118858.714 9      2148.302 9        54.137 9  25331685.952 6         0.000 6      1674.002 6        37.977 6
G10  23786181.256 9 124997171.861 9      3540.033 9        54.678 9  23786184.959 6         0.000 6      2758.470 6        37.977 6
G21  21179434.469 9 111298658.646 9     -1249.790 9        55.706 9  21179433.756 6         0.000 6      -973.863 6        37.977 6
G29  24321251.080 9 127808980.318 9     -3080.716 9        54.467 9  24321252.676 6         0.000 6     -2400.561 6        37.977 6
G27  21987417.774 9 115544633.368 9      2457.531 9        55.381 9  21987419.700 6         0.000 6      1914.960 6        37.977 6
G16  20493365.710 9 107693343.368 9       518.816 9        55.978 9  20493364.883 6         0.000 6       404.272 6        37.977 6
G26  20664816.734 9 108594322.550 9     -1507.167 9        55.869 9  20664819.554 6         0.000 6     -1174.416 6        37.977 6
G20  21927119.369 9 115227757.070 9      2572.611 9        55.322 9  21927119.680 6         0.000 6      2004.633 6        37.977 6
> 2019 07 03 12 01 36.0000000  0  8       0.000000000000
G07  25331276.580 9 133116710.930 9      2147.270 9        54.137 9  25331277.242 6         0.000 6      1673.199 6        37.977 6
G10  23785507.569 9 124993631.625 9      3540.464 9        54.678 9  23785511.272 6         0.000 6      2758.806 6        37.977 6
G21  21179672.339 9 111299908.659 9     -1250.240 9        55.706 9  21179671.626 6         0.000 6      -974.213 6        37.977 6
G29  24321837.330 9 127812061.074 9     -3080.814 9        54.467 9  24321838.927 6         0.000 6     -2400.637 6        37.977 6
G27  21986950.154 9 115542176.013 9      2457.181 9        55.381 9  21986952.080 6         0.000 6      1914.687 6        37.977 6
G16  20493267.043 9 107692824.870 9       518.177 9        55.978 9  20493266.216 6         0.000 6       403.775 6        37.977 6
G26  20665103.566 9 108595829.861 9     -1507.458 9        55.869 9  20665106.386 6         0.000 6     -1174.643 6        37.977 6
G20  21926629.824 9 115225184.499 9      2572.543 9        55.322 9  21926630.135 6         0.000 6      2004.580 6        37.977 6
> 2019 07 03 12 01 37.0000000  0  8       0.000000000000
G07  25330868.067 9 133114564.183 9      2146.235 9        54.137 9  25330868.729 6         0.000 6      1672.392 6        37.977 6
G10  23784833.800 9 124990090.954 9      3540.895 9        54.678 9  23784837.502 6         0.000 6      2759.142 6        37.977 6
G21  21179910.295 9 111301159.127 9     -1250.697 9        55.706 9  21179909.582 6         0.000 6      -974.569 6        37.977 6
G29  24322423.599 9 127815141.927 9     -3080.916 9        54.467 9  24322425.197 6         0.000 6     -2400.716 6        37.977 6
G27  21986482.602 9 115539719.013 9      2456.829 9        55.381 9  21986484.528 6         0.000 6      1914.413 6        37.977 6
G16  20493168.498 9 107692307.014 9       517.535 9        55.978 9  20493167.671 6         0.000 6       403.274 6        37.977 6
G26  20665390.454 9 108597337.464 9     -1507.753 9        55.869 9  20665393.274 6         0.000 6     -1174.873 6        37.977 6
G20  21926140.292 9 115222611.994 9      2572.473 9        55.323 9  21926140.603 6         0.000 6      2004.525 6        37.977 6
> 2019 07 03 12 01 38.0000000  0  8       0.000000000000
G07  25330459.751 9 133112418.473 9      2145.197 9        54.137 9  25330460.413 6         0.000 6      1671.583 6        37.977 6
G10  23784159.948 9 124986549.848 9      3541.333 9        54.679 9  23784163.649 6         0.000 6      2759.483 6        37.977 6
G21  21180148.339 9 111302410.055 9     -1251.155 9        55.705 9  21180147.626 6         0.000 6      -974.926 6        37.977 6
G29  24323009.889 9 127818222.890 9     -3081.025 9        54.467 9  24323011.487 6         0.000 6     -2400.801 6        37.977 6
G27  21986015.116 9 115537262.359 9      2456.483 9        55.382 9  21986017.042 6         0.000 6      1914.144 6        37.977 6
G16  20493070.075 9 107691789.798 9       516.898 9        55.978 9  20493069.248 6         0.000 6       402.778 6        37.977 6
G26  20665677.397 9 108598845.358 9     -1508.039 9        55.868 9  20665680.217 6         0.000 6     -1175.096 6        37.977 6
G20  21925650.773 9 115220039.559 9      2572.405 9        55.323 9  21925651.084 6         0.000 6      2004.473 6        37.977 6
> 2019 07 03 12 01 39.0000000  0  8       0.000000000000
G07  25330051.632 9 133110273.795 9      2144.159 9        54.137 9  25330052.293 6         0.000 6      1670.774 6        37.977 6
G10  23783486.013 9 124983008.309 9      3541.771 9        54.679 9  23783489.714 6         0.000 6      2759.824 6        37.977 6
G21  21180386.469 9 111303661.437 9     -1251.615 9        55.705 9  21180385.757 6         0.000 6      -975.285 6        37.977 6
G29  24323596.199 9 127821303.961 9     -3081.138 9        54.466 9  24323597.798 6         0.000 6     -2400.889 6        37.977 6
G27  21985547.695 9 115534806.048 9      2456.139 9        55.382 9  21985549.621 6         0.000 6      1913.875 6        37.977 6
G16  20492971.773 9 107691273.217 9       516.262 9        55.978 9  20492970.946 6         0.000 6       402.282 6        37.977 6
G26  20665964.394 9 108600353.538 9     -1508.325 9        55.868 9  20665967.215 6         0.000 6     -1175.319 6        37.977 6
G20  21925161.267 9 115217467.194 9      2572.336 9        55.323 9  21925161.578 6         0.000 6      2004.419 6        37.977 6
> 2019 07 03 12 01 40.0000000  0  8       0.000000000000
G07  25329643.712 9 133108130.164 9      2143.117 9        54.137 9  25329644.373 6         0.000 6      1669.962 6        37.977 6
G10  23782811.993 9 124979466.322 9      3542.214 9        54.679 9  23782815.694 6         0.000 6      2760.170 6        37.977 6
G21  21180624.687 9 111304913.280 9     -1252.077 9        55.705 9  21180623.975 6         0.000 6      -975.645 6        37.977 6
G29  24324182.531 9 127824385.148 9     -3081.258 9        54.466 9  24324184.131 6         0.000 6     -2400.983 6        37.977 6
G27  21985080.339 9 115532350.081 9      2455.801 9        55.382 9  21985082.265 6         0.000 6      1913.612 6        37.977 6
G16  20492873.591 9 107690757.269 9       515.631 9        55.978 9  20492872.764 6         0.000 6       401.790 6        37.977 6
G26  20666251.445 9 108601861.996 9     -1508.604 9        55.868 9  20666254.265 6         0.000 6     -1175.536 6        37.977 6
G20  21924671.774 9 115214894.892 9      2572.269 9        55.323 9  21924672.084 6         0.000 6      2004.367 6        37.977 6
> 2019 07 03 12 01 41.0000000  0  8       0.000000000000
G07  25329235.989 9 133105987.571 9      2142.072 9        54.138 9  25329236.650 6         0.000 6      1669.148 6        37.977 6
G10  23782137.890 9 124975923.896 9      3542.662 9        54.679 9  23782141.590 6         0.000 6      2760.518 6        37.977 6
G21  21180862.994 9 111306165.589 9     -1252.543 9        55.705 9  21180862.281 6         0.000 6      -976.007 6        37.977 6
G29  24324768.887 9 127827466.460 9     -3081.383 9        54.466 9  24324770.488 6         0.000 6     -2401.080 6        37.977 6
G27  21984613.047 9 115529894.447 9      2455.466 9        55.382 9  21984614.973 6         0.000 6      1913.350 6        37.977 6
G16  20492775.530 9 107690241.951 9       515.001 9        55.978 9  20492774.703 6         0.000 6       401.299 6        37.977 6
G26  20666538.548 9 108603370.736 9     -1508.880 9        55.868 9  20666541.369 6         0.000 6     -1175.751 6        37.977 6
G20  21924182.294 9 115212322.661 9      2572.203 9        55.323 9  21924182.603 6         0.000 6      2004.315 6        37.977 6
> 2019 07 03 12 01 42.0000000  0  8       0.000000000000
G07  25328828.466 9 133103846.027 9      2141.023 9        54.138 9  25328829.127 6         0.000 6      1668.330 6        37.977 6
G10  23781463.701 9 124972381.020 9      3543.113 9        54.680 9  23781467.400 6         0.000 6      2760.870 6        37.977 6
G21  21181101.390 9 111307418.367 9     -1253.016 9        55.705 9  21181100.677 6         0.000 6      -976.376 6        37.977 6
G29  24325355.269 9 127830547.904 9     -3081.519 9        54.466 9  24325356.870 6         0.000 6     -2401.187 6        37.977 6
G27  21984145.819 9 115527439.147 9      2455.134 9        55.382 9  21984147.744 6         0.000 6      1913.092 6        37.977 6
G16  20492677.588 9 107689727.262 9       514.372 9        55.979 9  20492676.761 6         0.000 6       400.809 6        37.977 6
G26  20666825.704 9 108604879.748 9     -1509.153 9        55.868 9  20666828.525 6         0.000 6     -1175.964 6        37.977 6
G20  21923692.826 9 115209750.497 9      2572.136 9        55.324 9  21923693.136 6         0.000 6      2004.263 6        37.977 6
> 2019 07 03 12 01 43.0000000  0  8       0.000000000000
G07  25328421.144 9 133101705.537 9      2139.971 9        54.138 9  25328421.804 6         0.000 6      1667.511 6        37.977 6
G10  23780789.425 9 124968837.687 9      3543.569 9        54.680 9  23780793.124 6         0.000 6      2761.225 6        37.977 6
G21  21181339.876 9 111308671.620 9     -1253.489 9        55.705 9  21181339.163 6         0.000 6      -976.745 6        37.977 6
G29  24325941.675 9 127833629.480 9     -3081.661 9        54.466 9  24325943.276 6         0.000 6     -2401.297 6        37.977 6
G27  21983678.654 9 115524984.185 9      2454.808 9        55.383 9  21983680.580 6         0.000 6      1912.838 6        37.977 6
G16  20492579.766 9 107689213.207 9       513.748 9        55.979 9  20492578.939 6         0.000 6       400.323 6        37.977 6
G26  20667112.912 9 108606389.034 9     -1509.419 9        55.868 9  20667115.733 6         0.000 6     -1176.171 6        37.977 6
G20  21923203.371 9 115207178.396 9      2572.070 9        55.324 9  21923203.680 6         0.000 6      2004.212 6        37.977 6
> 2019 07 03 12 01 44.0000000  0  8       0.000000000000
G07  25328014.022 9 133099566.101 9      2138.910 9        54.138 9  25328014.682 6         0.000 6      1666.684 6        37.977 6
G10  23780115.062 9 124965293.897 9      3544.035 9        54.680 9  23780118.760 6         0.000 6      2761.588 6        37.977 6
G21  21181578.453 9 111309925.350 9     -1253.968 9        55.705 9  21181577.741 6         0.000 6      -977.118 6        37.977 6
G29  24326528.109 9 127836711.203 9     -3081.810 9        54.465 9  24326529.711 6         0.000 6     -2401.413 6        37.977 6
G27  21983211.552 9 115522529.547 9      2454.482 9        55.383 9  21983213.477 6         0.000 6      1912.584 6        37.977 6
G16  20492482.063 9 107688699.775 9       513.125 9        55.979 9  20492481.236 6         0.000 6       399.837 6        37.977 6
G26  20667400.171 9 108607898.585 9     -1509.679 9        55.868 9  20667402.992 6         0.000 6     -1176.374 6        37.977 6
G20  21922713.928 9 115204606.362 9      2572.009 9        55.324 9  21922714.237 6         0.000 6      2004.164 6        37.977 6
> 2019 07 03 12 01 45.0000000  0  8       0.000000000000
G07  25327607.103 9 133097427.728 9      2137.841 9        54.138 9  25327607.762 6         0.000 6      1665.851 6        37.977 6
G10  23779440.610 9 124961749.636 9      3544.508 9        54.680 9  23779444.307 6         0.000 6      2761.957 6        37.977 6
G21  21181817.121 9 111311179.558 9     -1254.453 9        55.705 9  21181816.409 6         0.000 6      -977.496 6        37.977 6
G29  24327114.573 9 127839793.079 9     -3081.964 9        54.465 9  24327116.176 6         0.000 6     -2401.533 6        37.977 6
G27  21982744.510 9 115520075.227 9      2454.158 9        55.383 9  21982746.435 6         0.000 6      1912.332 6        37.977 6
G16  20492384.478 9 107688186.960 9       512.501 9        55.979 9  20492383.651 6         0.000 6       399.352 6        37.977 6
G26  20667687.477 9 108609408.390 9     -1509.936 9        55.868 9  20667690.298 6         0.000 6     -1176.574 6        37.977 6
G20  21922224.496 9 115202034.386 9      2571.950 9        55.324 9  21922224.805 6         0.000 6      2004.118 6        37.977 6
> 2019 07 03 12 01 46.0000000  0  8       0.000000000000
G07  25327200.388 9 133095290.434 9      2136.767 9        54.138 9  25327201.048 6         0.000 6      1665.014 6        37.977 6
G10  23778766.066 9 124958204.892 9      3544.990 9        54.681 9  23778769.762 6         0.000 6      2762.332 6        37.977 6
G21  21182055.882 9 111312434.254 9     -1254.942 9        55.705 9  21182055.170 6         0.000 6      -977.877 6        37.977 6
G29  24327701.066 9 127842875.111 9     -3082.130 9        54.465 9  24327702.669 6         0.000 6     -2401.662 6        37.977 6
G27  21982277.530 9 115517621.235 9      2453.841 9        55.383 9  21982279.455 6         0.000 6      1912.085 6        37.977 6
G16  20492287.012 9 107687674.770 9       511.884 9        55.979 9  20492286.184 6         0.000 6       398.870 6        37.977 6
G26  20667974.832 9 108610918.448 9     -1510.184 9        55.867 9  20667977.653 6         0.000 6     -1176.767 6        37.977 6
G20  21921735.075 9 115199462.464 9      2571.894 9        55.324 9  21921735.383 6         0.000 6      2004.075 6        37.977 6
> 2019 07 03 12 01 47.0000000  0  8       0.000000000000
G07  25326793.878 9 133093154.212 9      2135.677 9        54.138 9  25326794.538 6         0.000 6      1664.165 6        37.977 6
G10  23778091.430 9 124954659.666 9      3545.486 9        54.681 9  23778095.125 6         0.000 6      2762.719 6        37.977 6
G21  21182294.736 9 111313689.439 9     -1255.439 9        55.705 9  21182294.023 6         0.000 6      -978.264 6        37.977 6
G29  24328287.592 9 127845957.315 9     -3082.304 9        54.465 9  24328289.196 6         0.000 6     -2401.798 6        37.977 6
G27  21981810.609 9 115515167.552 9      2453.525 9        55.383 9  21981812.534 6         0.000 6      1911.838 6        37.977 6
G16  20492189.661 9 107687163.191 9       511.266 9        55.979 9  20492188.834 6         0.000 6       398.389 6        37.977 6
G26  20668262.233 9 108612428.747 9     -1510.424 9        55.867 9  20668265.054 6         0.000 6     -1176.954 6        37.977 6
G20  21921245.664 9 115196890.597 9      2571.845 9        55.325 9  21921245.972 6         0.000 6      2004.036 6        37.977 6
> 2019 07 03 12 01 48.0000000  0  8       0.000000000000
G07  25326387.577 9 133091019.089 9      2134.582 9        54.139 9  25326388.236 6         0.000 6      1663.311 6        37.977 6
G10  23777416.697 9 124951113.934 9      3545.993 9        54.681 9  23777420.392 6         0.000 6      2763.114 6        37.977 6
G21  21182533.685 9 111314945.124 9     -1255.937 9        55.704 9  21182532.973 6         0.000 6      -978.652 6        37.977 6
G29  24328874.151 9 127849039.696 9     -3082.487 9        54.465 9  24328875.756 6         0.000 6     -2401.940 6        37.977 6
G27  21981343.749 9 115512714.187 9      2453.217 9        55.383 9  21981345.673 6         0.000 6      1911.598 6        37.977 6
G16  20492092.429 9 107686652.230 9       510.657 9        55.979 9  20492091.602 6         0.000 6       397.914 6        37.977 6
G26  20668549.679 9 108613939.283 9     -1510.652 9        55.867 9  20668552.500 6         0.000 6     -1177.132 6        37.977 6
G20  21920756.262 9 115194318.776 9      2571.801 9        55.325 9  21920756.570 6         0.000 6      2004.002 6        37.977 6
> 2019 07 03 12 01 49.0000000  0  8       0.000000000000
G07  25325981.485 9 133088885.065 9      2133.467 9        54.139 9  25325982.144 6         0.000 6      1662.443 6        37.977 6
G10  23776741.868 9 124947567.692 9      3546.519 9        54.681 9  23776745.562 6         0.000 6      2763.524 6        37.977 6
G21  21182772.730 9 111316201.316 9     -1256.446 9        55.704 9  21182772.018 6         0.000 6      -979.049 6        37.977 6
G29  24329460.748 9 127852122.271 9     -3082.683 9        54.464 9  24329462.353 6         0.000 6     -2402.093 6        37.977 6
G27  21980876.946 9 115510261.126 9      2452.911 9        55.384 9  21980878.871 6         0.000 6      1911.360 6        37.977 6
G16  20491995.312 9 107686141.879 9       510.048 9        55.979 9  20491994.485 6         0.000 6       397.440 6        37.977 6
G26  20668837.167 9 108615450.045 9     -1510.870 9        55.867 9  20668839.989 6         0.000 6     -1177.302 6        37.977 6
G20  21920266.869 9 115191747.000 9      2571.765 9        55.325 9  21920267.176 6         0.000 6      2003.974 6        37.977 6
> 2019 07 03 12 01 50.0000000  0  8       0.000000000000
G07  25325575.608 9 133086752.169 9      2132.341 9        54.139 9  25325576.267 6         0.000 6      1661.565 6        37.977 6
G10  23776066.936 9 124944020.911 9      3547.057 9        54.682 9  23776070.630 6         0.000 6      2763.943 6        37.977 6
G21  21183011.873 9 111317458.018 9     -1256.963 9        55.704 9  21183011.161 6         0.000 6      -979.452 6        37.977 6
G29  24330047.382 9 127855205.042 9     -3082.889 9        54.464 9  24330048.987 6         0.000 6     -2402.254 6        37.977 6
G27  21980410.203 9 115507808.373 9      2452.607 9        55.384 9  21980412.127 6         0.000 6      1911.123 6        37.977 6
G16  20491898.311 9 107685632.136 9       509.440 9        55.979 9  20491897.484 6         0.000 6       396.966 6        37.977 6
G26  20669124.696 9 108616961.017 9     -1511.081 9        55.867 9  20669127.518 6         0.000 6     -1177.466 6        37.977 6
G20  21919777.480 9 115189175.251 9      2571.734 9        55.325 9  21919777.787 6         0.000 6      2003.949 6        37.977 6
> 2019 07 03 12 01 51.0000000  0  8       0.000000000000
G07  25325169.946 9 133084620.404 9      2131.195 9        54.139 9  25325170.604 6         0.000 6      1660.672 6        37.977 6
G10  23775391.900 9 124940473.584 9      3547.619 9        54.682 9  23775395.593 6         0.000 6      2764.381 6        37.977 6
G21  21183251.115 9 111318715.241 9     -1257.487 9        55.704 9  21183250.403 6         0.000 6      -979.860 6        37.977 6
G29  24330634.056 9 127858288.028 9     -3083.109 9        54.464 9  24330635.663 6         0.000 6     -2402.425 6        37.977 6
G27  21979943.516 9 115505355.919 9      2452.310 9        55.384 9  21979945.440 6         0.000 6      1910.892 6        37.977 6
G16  20491801.425 9 107685122.998 9       508.839 9        55.979 9  20491800.598 6         0.000 6       396.498 6        37.977 6
G26  20669412.264 9 108618472.193 9     -1511.273 9        55.867 9  20669415.086 6         0.000 6     -1177.616 6        37.977 6
G20  21919288.097 9 115186603.531 9      2571.715 9        55.325 9  21919288.404 6         0.000 6      2003.935 6        37.977 6
> 2019 07 03 12 01 52.0000000  0  8       0.000000000000
G07  25324764.503 9 133082489.790 9      2130.037 9        54.139 9  25324765.161 6         0.000 6      1659.770 6        37.977 6
G10  23774716.756 9 124936925.689 9      3548.196 9        54.682 9  23774720.448 6         0.000 6      2764.831 6        37.977 6
G21  21183490.457 9 111319972.994 9     -1258.020 9        55.704 9  21183489.745 6         0.000 6      -980.276 6        37.977 6
G29  24331220.775 9 127861371.245 9     -3083.346 9        54.464 9  24331222.382 6         0.000 6     -2402.610 6        37.977 6
G27  21979476.884 9 115502903.756 9      2452.022 9        55.384 9  21979478.808 6         0.000 6      1910.667 6        37.977 6
G16  20491704.653 9 107684614.456 9       508.245 9        55.979 9  20491703.826 6         0.000 6       396.035 6        37.977 6
G26  20669699.867 9 108619983.556 9     -1511.453 9        55.867 9  20669702.689 6         0.000 6     -1177.756 6        37.977 6
G20  21918798.718 9 115184031.829 9      2571.701 9        55.325 9  21918799.025 6         0.000 6      2003.924 6        37.977 6
> 2019 07 03 12 01 53.0000000  0  8       0.000000000000
G07  25324359.283 9 133080360.346 9      2128.858 9        54.139 9  25324359.941 6         0.000 6      1658.851 6        37.977 6
G10  23774041.500 9 124933377.205 9      3548.794 9        54.682 9  23774045.192 6         0.000 6      2765.297 6        37.977 6
G21  21183729.902 9 111321231.286 9     -1258.565 9        55.704 9  21183729.190 6         0.000 6      -980.700 6        37.977 6
G29  24331807.540 9 127864454.707 9     -3083.597 9        54.463 9  24331809.148 6         0.000 6     -2402.806 6        37.977 6
G27  21979010.307 9 115500451.879 9      2451.736 9        55.384 9  21979012.230 6         0.000 6      1910.445 6        37.977 6
G16  20491607.994 9 107684106.509 9       507.651 9        55.979 9  20491607.167 6         0.000 6       395.572 6        37.977 6
G26  20669987.503 9 108621495.092 9     -1511.621 9        55.867 9  20669990.325 6         0.000 6     -1177.887 6        37.977 6
G20  21918309.340 9 115181460.135 9      2571.696 9        55.326 9  21918309.646 6         0.000 6      2003.920 6        37.977 6
> 2019 07 03 12 01 54.0000000  0  8       0.000000000000
G07  25323954.289 9 133078232.092 9      2127.658 9        54.139 9  25323954.946 6         0.000 6      1657.916 6        37.977 6
G10  23773366.128 9 124929828.112 9      3549.416 9        54.683 9  23773369.819 6         0.000 6      2765.781 6        37.977 6
G21  21183969.453 9 111322490.129 9     -1259.125 9        55.704 9  21183968.740 6         0.000 6      -981.136 6        37.977 6
G29  24332394.354 9 127867538.426 9     -3083.871 9        54.463 9  24332395.963 6         0.000 6     -2403.019 6        37.977 6
G27  21978543.784 9 115498000.288 9      2451.459 9        55.385 9  21978545.708 6         0.000 6      1910.229 6        37.977 6
G16  20491511.448 9 107683599.156 9       507.062 9        55.979 9  20491510.621 6         0.000 6       395.113 6        37.977 6
G26  20670275.170 9 108623006.791 9     -1511.774 9        55.866 9  20670277.992 6         0.000 6     -1178.006 6        37.977 6
G20  21917819.962 9 115178888.442 9      2571.699 9        55.326 9  21917820.268 6         0.000 6      2003.923 6        37.977 6
> 2019 07 03 12 01 55.0000000  0  8       0.000000000000
G07  25323549.525 9 133076105.046 9      2126.438 9        54.140 9  25323550.182 6         0.000 6      1656.966 6        37.977 6
G10  23772690.636 9 124926278.386 9      3550.060 9        54.683 9  23772694.326 6         0.000 6      2766.283 6        37.977 6
G21  21184209.109 9 111323749.534 9     -1259.693 9        55.704 9  21184208.397 6         0.000 6      -981.579 6        37.977 6
G29  24332981.223 9 127870622.429 9     -3084.161 9        54.463 9  24332982.832 6         0.000 6     -2403.245 6        37.977 6
G27  21978077.313 9 115495548.966 9      2451.189 9        55.385 9  21978079.236 6         0.000 6      1910.018 6        37.977 6
G16  20491415.012 9 107683092.384 9       506.479 9        55.979 9  20491414.185 6         0.000 6       394.659 6        37.977 6
G26  20670562.864 9 108624518.630 9     -1511.909 9        55.866 9  20670565.686 6         0.000 6     -1178.112 6        37.977 6
G20  21917330.582 9 115176316.739 9      2571.714 9        55.326 9  21917330.888 6         0.000 6      2003.934 6        37.977 6
> 2019 07 03 12 01 56.0000000  0  8       0.000000000000
G07  25323144.995 9 133073979.232 9      2125.195 9        54.140 9  25323145.652 6         0.000 6      1655.997 6        37.977 6
G10  23772015.018 9 124922728.002 9      3550.733 9        54.683 9  23772018.708 6         0.000 6      2766.808 6        37.977 6
G21  21184448.876 9 111325009.517 9     -1260.271 9        55.704 9  21184448.164 6         0.000 6      -982.030 6        37.977 6
G29  24333568.148 9 127873706.734 9     -3084.471 9        54.463 9  24333569.758 6         0.000 6     -2403.487 6        37.977 6
G27  21977610.892 9 115493097.910 9      2450.930 9        55.385 9  21977612.815 6         0.000 6      1909.816 6        37.977 6
G16  20491318.688 9 107682586.193 9       505.907 9        55.979 9  20491317.860 6         0.000 6       394.213 6        37.977 6
G26  20670850.582 9 108626030.597 9     -1512.022 9        55.866 9  20670853.404 6         0.000 6     -1178.199 6        37.977 6
G20  21916841.199 9 115173745.017 9      2571.743 9        55.326 9  21916841.505 6         0.000 6      2003.957 6        37.977 6
> 2019 07 03 12 01 57.0000000  0  8       0.000000000000
G07  25322740.704 9 133071854.673 9      2123.926 9        54.140 9  25322741.361 6         0.000 6      1655.008 6        37.977 6
G10  23771339.270 9 124919176.931 9      3551.435 9        54.683 9  23771342.959 6         0.000 6      2767.355 6        37.977 6
G21  21184688.755 9 111326270.087 9     -1260.868 9        55.704 9  21184688.043 6         0.000 6      -982.495 6        37.977 6
G29  24334155.136 9 127876791.363 9     -3084.811 9        54.463 9  24334156.746 6         0.000 6     -2403.751 6        37.977 6
G27  21977144.519 9 115490647.109 9      2450.683 9        55.385 9  21977146.442 6         0.000 6      1909.624 6        37.977 6
G16  20491222.471 9 107682080.572 9       505.341 9        55.979 9  20491221.644 6         0.000 6       393.772 6        37.977 6
G26  20671138.320 9 108627542.668 9     -1512.115 9        55.866 9  20671141.142 6         0.000 6     -1178.272 6        37.977 6
G20  21916351.810 9 115171173.262 9      2571.781 9        55.326 9  21916352.115 6         0.000 6      2003.986 6        37.977 6
> 2019 07 03 12 01 58.0000000  0  8       0.000000000000
G07  25322336.656 9 133069731.389 9      2122.636 9        54.140 9  25322337.313 6         0.000 6      1654.003 6        37.977 6
G10  23770663.386 9 124915625.149 9      3552.162 9        54.684 9  23770667.075 6         0.000 6      2767.921 6        37.977 6
G21  21184928.749 9 111327531.261 9     -1261.485 9        55.703 9  21184928.037 6         0.000 6      -982.975 6        37.977 6
G29  24334742.190 9 127879876.346 9     -3085.181 9        54.462 9  24334743.801 6         0.000 6     -2404.039 6        37.977 6
G27  21976678.192 9 115488196.547 9      2450.448 9        55.385 9  21976680.115 6         0.000 6      1909.441 6        37.977 6
G16  20491126.362 9 107681575.513 9       504.781 9        55.979 9  20491125.534 6         0.000 6       393.336 6        37.977 6
G26  20671426.074 9 108629054.823 9     -1512.190 9        55.866 9  20671428.896 6         0.000 6     -1178.330 6        37.977 6
G20  21915862.412 9 115168601.466 9      2571.826 9        55.327 9  21915862.718 6         0.000 6      2004.022 6        37.977 6
> 2019 07 03 12 01 59.0000000  0  8       0.000000000000
G07  25321932.858 9 133067609.418 9      2121.314 9        54.140 9  25321933.515 6         0.000 6      1652.973 6        37.977 6
G10  23769987.359 9 124912072.614 9      3552.927 9        54.684 9  23769991.047 6         0.000 6      2768.517 6        37.977 6
G21  21185168.861 9 111328793.057 9     -1262.118 9        55.703 9  21185168.149 6         0.000 6      -983.468 6        37.977 6
G29  24335329.318 9 127882961.710 9     -3085.579 9        54.462 9  24335330.929 6         0.000 6     -2404.350 6        37.977 6
G27  21976211.909 9 115485746.215 9      2450.226 9        55.386 9  21976213.832 6         0.000 6      1909.268 6        37.977 6
G16  20491030.357 9 107681071.006 9       504.231 9        55.979 9  20491029.530 6         0.000 6       392.907 6        37.977 6
G26  20671713.838 9 108630567.034 9     -1512.238 9        55.866 9  20671716.661 6         0.000 6     -1178.368 6        37.977 6
G20  21915373.004 9 115166029.611 9      2571.888 9        55.327 9  21915373.309 6         0.000 6      2004.070 6        37.977 6
> 2019 07 03 12 02  0.0000000  0  8       0.000000000000
G07  25321529.313 9 133065488.778 9      2119.967 9        54.140 9  25321529.969 6         0.000 6      1651.923 6        37.977 6
G10  23769311.185 9 124908519.307 9      3553.721 9        54.684 9  23769314.873 6         0.000 6      2769.136 6        37.977 6
G21  21185409.096 9 111330055.502 9     -1262.769 9        55.703 9  21185408.384 6         0.000 6      -983.976 6        37.977 6
G29  24335916.525 9 127886047.495 9     -3086.012 9        54.462 9  24335918.137 6         0.000 6     -2404.687 6        37.977 6
G27  21975745.667 9 115483296.097 9      2450.020 9        55.386 9  21975747.589 6         0.000 6      1909.107 6        37.977 6
G16  20490934.457 9 107680567.048 9       503.692 9        55.979 9  20490933.630 6         0.000 6       392.487 6        37.977 6
G26  20672001.611 9 108632079.289 9     -1512.263 9        55.866 9  20672004.434 6         0.000 6     -1178.387 6        37.977 6
G20  21914883.584 9 115163457.696 9      2571.960 9        55.327 9  21914883.888 6         0.000 6      2004.126 6        37.977 6
> 2019 07 03 12 02  1.0000000  0  8       0.000000000000
G07  25321126.028 9 133063369.507 9      2118.585 9        54.140 9  25321126.684 6         0.000 6      1650.847 6        37.977 6
G10  23768634.855 9 124904965.176 9      3554.556 9        54.684 9  23768638.541 6         0.000 6      2769.786 6        37.977 6
G21  21185649.456 9 111331318.601 9     -1263.445 9        55.703 9  21185648.744 6         0.000 6      -984.503 6        37.977 6
G29  24336503.817 9 127889133.726 9     -3086.488 9        54.462 9  24336505.430 6         0.000 6     -2405.058 6        37.977 6
G27  21975279.462 9 115480846.175 9      2449.835 9        55.386 9  21975281.384 6         0.000 6      1908.963 6        37.977 6
G16  20490838.658 9 107680063.618 9       503.165 9        55.979 9  20490837.830 6         0.000 6       392.077 6        37.977 6
G26  20672289.384 9 108633591.544 9     -1512.257 9        55.866 9  20672292.207 6         0.000 6     -1178.382 6        37.977 6
G20  21914394.147 9 115160885.691 9      2572.046 9        55.327 9  21914394.451 6         0.000 6      2004.193 6        37.977 6
> 2019 07 03 12 02  2.0000000  0  8       0.000000000000
G07  25320723.009 9 133061251.633 9      2117.168 9        54.141 9  25320723.666 6         0.000 6      1649.742 6        37.977 6
G10  23767958.362 9 124901410.193 9      3555.435 9        54.684 9  23767962.048 6         0.000 6      2770.471 6        37.977 6
G21  21185889.948 9 111332582.393 9     -1264.146 9        55.703 9  21185889.236 6         0.000 6      -985.049 6        37.977 6
G29  24337091.205 9 127892220.457 9     -3087.008 9        54.462 9  24337092.818 6         0.000 6     -2405.464 6        37.977 6
G27  21974813.290 9 115478396.429 9      2449.671 9        55.386 9  21974815.212 6         0.000 6      1908.835 6        37.977 6
G16  20490742.957 9 107679560.710 9       502.654 9        55.979 9  20490742.130 6         0.000 6       391.678 6        37.977 6
G26  20672577.154 9 108635103.782 9     -1512.217 9        55.865 9  20672579.977 6         0.000 6     -1178.351 6        37.977 6
G20  21913904.693 9 115158313.598 9      2572.149 9        55.327 9  21913904.997 6         0.000 6      2004.273 6        37.977 6
> 2019 07 03 12 02  3.0000000  0  8       0.000000000000
G07  25320320.264 9 133059135.193 9      2115.712 9        54.141 9  25320320.920 6         0.000 6      1648.607 6        37.977 6
G10  23767281.698 9 124897854.310 9      3556.362 9        54.685 9  23767285.383 6         0.000 6      2771.194 6        37.977 6
G21  21186130.576 9 111333846.901 9     -1264.875 9        55.703 9  21186129.864 6         0.000 6      -985.617 6        37.977 6
G29  24337678.697 9 127895307.739 9     -3087.584 9        54.461 9  24337680.311 6         0.000 6     -2405.912 6        37.977 6
G27  21974347.146 9 115475946.830 9      2449.535 9        55.386 9  21974349.068 6         0.000 6      1908.730 6        37.977 6
G16  20490647.353 9 107679058.304 9       502.160 9        55.979 9  20490646.526 6         0.000 6       391.294 6        37.977 6
G26  20672864.912 9 108636615.960 9     -1512.138 9        55.865 9  20672867.735 6         0.000 6     -1178.290 6        37.977 6
G20  21913415.218 9 115155741.396 9      2572.268 9        55.328 9  21913415.522 6         0.000 6      2004.366 6        37.977 6
> 2019 07 03 12 02  4.0000000  0  8       0.000000000000
G07  25319917.799 9 133057020.232 9      2114.210 9        54.141 9  25319918.455 6         0.000 6      1647.437 6        37.977 6
G10  23766604.852 9 124894297.472 9      3557.344 9        54.685 9  23766608.537 6         0.000 6      2771.959 6        37.977 6
G21  21186371.346 9 111335112.156 9     -1265.641 9        55.703 9  21186370.634 6         0.000 6      -986.214 6        37.977 6
G29  24338266.304 9 127898395.628 9     -3088.226 9        54.461 9  24338267.919 6         0.000 6     -2406.413 6        37.977 6
G27  21973881.026 9 115473497.352 9      2449.433 9        55.386 9  21973882.947 6         0.000 6      1908.650 6        37.977 6
G16  20490551.840 9 107678556.383 9       501.688 9        55.979 9  20490551.013 6         0.000 6       390.925 6        37.977 6
G26  20673152.652 9 108638128.040 9     -1512.015 9        55.865 9  20673155.475 6         0.000 6     -1178.194 6        37.977 6
G20  21912925.719 9 115153169.066 9      2572.404 9        55.328 9  21912926.023 6         0.000 6      2004.472 6        37.977 6
> 2019 07 03 12 02  5.0000000  0  8       0.000000000000
G07  25319515.625 9 133054906.794 9      2112.667 9        54.141 9  25319516.280 6         0.000 6      1646.235 6        37.977 6
G10  23765927.814 9 124890739.626 9      3558.377 9        54.685 9  23765931.499 6         0.000 6      2772.764 6        37.977 6
G21  21186612.266 9 111336378.200 9     -1266.450 9        55.703 9  21186611.554 6         0.000 6      -986.844 6        37.977 6
G29  24338854.042 9 127901484.197 9     -3088.941 9        54.461 9  24338855.657 6         0.000 6     -2406.970 6        37.977 6
G27  21973414.921 9 115471047.959 9      2449.364 9        55.387 9  21973416.843 6         0.000 6      1908.596 6        37.977 6
G16  20490456.416 9 107678054.927 9       501.231 9        55.979 9  20490455.589 6         0.000 6       390.570 6        37.977 6
G26  20673440.364 9 108639639.977 9     -1511.854 9        55.865 9  20673443.187 6         0.000 6     -1178.069 6        37.977 6
G20  21912436.193 9 115150596.595 9      2572.551 9        55.328 9  21912436.497 6         0.000 6      2004.586 6        37.977 6
> 2019 07 03 12 02  6.0000000  0  8       0.000000000000
G07  25319113.748 9 133052794.918 9      2111.087 9        54.141 9  25319114.403 6         0.000 6      1645.003 6        37.977 6
G10  23765250.575 9 124887180.721 9      3559.463 9        54.685 9  23765254.259 6         0.000 6      2773.610 6        37.977 6
G21  21186853.344 9 111337645.070 9     -1267.295 9        55.703 9  21186852.632 6         0.000 6      -987.503 6        37.977 6
G29  24339441.923 9 127904573.525 9     -3089.740 9        54.461 9  24339443.539 6         0.000 6     -2407.592 6        37.977 6
G27  21972948.825 9 115468598.608 9      2449.347 9        55.387 9  21972950.746 6         0.000 6      1908.583 6        37.977 6
G16  20490361.076 9 107677553.908 9       500.809 9        55.979 9  20490360.249 6         0.000 6       390.241 6        37.977 6
G26  20673728.041 9 108641151.726 9     -1511.640 9        55.865 9  20673730.864 6         0.000 6     -1177.902 6        37.977 6
G20  21911946.638 9 115148023.971 9      2572.711 9        55.328 9  21911946.941 6         0.000 6      2004.711 6        37.977 6
> 2019 07 03 12 02  7.0000000  0  8       0.000000000000
G07  25318712.174 9 133050684.641 9      2109.470 9        54.141 9  25318712.829 6         0.000 6      1643.744 6        37.977 6
G10  23764573.125 9 124883620.704 9      3560.597 9        54.686 9  23764576.807 6         0.000 6      2774.494 6        37.977 6
G21  21187094.586 9 111338912.805 9     -1268.189 9        55.703 9  21187093.874 6         0.000 6      -988.199 6        37.977 6
G29  24340029.964 9 127907663.690 9     -3090.629 9        54.461 9  24340031.581 6         0.000 6     -2408.285 6        37.977 6
G27  21972482.727 9 115466149.252 9      2449.376 9        55.387 9  21972484.648 6         0.000 6      1908.606 6        37.977 6
G16  20490265.813 9 107677053.299 9       500.410 9        55.980 9  20490264.986 6         0.000 6       389.930 6        37.977 6
G26  20674015.672 9 108642663.237 9     -1511.384 9        55.865 9  20674018.496 6         0.000 6     -1177.702 6        37.977 6
G20  21911457.052 9 115145451.180 9      2572.875 9        55.328 9  21911457.355 6         0.000 6      2004.839 6        37.977 6
> 2019 07 03 12 02  8.0000000  0  8       0.000000000000
G07  25318310.913 9 133048576.001 9      2107.816 9        54.141 9  25318311.568 6         0.000 6      1642.455 6        37.977 6
G10  23763895.453 9 124880059.525 9      3561.786 9        54.686 9  23763899.135 6         0.000 6      2775.421 6        37.977 6
G21  21187336.004 9 111340181.465 9     -1269.136 9        55.702 9  21187335.292 6         0.000 6      -988.937 6        37.977 6
G29  24340618.185 9 127910754.803 9     -3091.631 9        54.460 9  24340619.803 6         0.000 6     -2409.066 6        37.977 6
G27  21972016.618 9 115463699.835 9      2449.473 9        55.387 9  21972018.539 6         0.000 6      1908.681 6        37.977 6
G16  20490170.623 9 107676553.072 9       500.051 9        55.980 9  20490169.796 6         0.000 6       389.650 6        37.977 6
G26  20674303.250 9 108644174.466 9     -1511.070 9        55.865 9  20674306.074 6         0.000 6     -1177.458 6        37.977 6
G20  21910967.434 9 115142878.226 9      2573.043 9        55.329 9  21910967.737 6         0.000 6      2004.970 6        37.977 6
> 2019 07 03 12 02  9.0000000  0  8       0.000000000000
G07  25317909.970 9 133046469.037 9      2106.112 9        54.141 9  25317910.625 6         0.000 6      1641.127 6        37.977 6
G10  23763217.548 9 124876497.123 9      3563.048 9        54.686 9  23763221.230 6         0.000 6      2776.403 6        37.977 6
G21  21187577.608 9 111341451.103 9     -1270.152 9        55.702 9  21187576.897 6         0.000 6      -989.729 6        37.977 6
G29  24341206.609 9 127913846.983 9     -3092.772 9        54.460 9  24341208.227 6         0.000 6     -2409.955 6        37.977 6
G27  21971550.484 9 115461250.285 9      2449.648 9        55.387 9  21971552.405 6         0.000 6      1908.818 6        37.977 6
G16  20490075.498 9 107676053.185 9       499.734 9        55.980 9  20490074.670 6         0.000 6       389.403 6        37.977 6
G26  20674590.762 9 108645685.349 9     -1510.687 9        55.865 9  20674593.585 6         0.000 6     -1177.159 6        37.977 6
G20  21910477.784 9 115140305.100 9      2573.219 9        55.329 9  21910478.086 6         0.000 6      2005.106 6        37.977 6
> 2019 07 03 12 02 10.0000000  0  8       0.000000000000
G07  25317509.357 9 133044363.801 9      2104.361 9        54.142 9  25317510.011 6         0.000 6      1639.763 6        37.977 6
G10  23762539.397 9 124872933.423 9      3564.382 9        54.686 9  23762543.077 6         0.000 6      2777.443 6        37.977 6
G21  21187819.412 9 111342721.789 9     -1271.243 9        55.702 9  21187818.700 6         0.000 6      -990.579 6        37.977 6
G29  24341795.265 9 127916940.377 9     -3094.075 9        54.460 9  24341796.883 6         0.000 6     -2410.970 6        37.977 6
G27  21971084.307 9 115458800.512 9      2449.920 9        55.388 9  21971086.228 6         0.000 6      1909.029 6        37.977 6
G16  20489980.427 9 107675553.584 9       499.473 9        55.980 9  20489979.600 6         0.000 6       389.199 6        37.977 6
G26  20674878.193 9 108647195.809 9     -1510.227 9        55.865 9  20674881.017 6         0.000 6     -1176.801 6        37.977 6
G20  21909988.099 9 115137731.793 9      2573.396 9        55.329 9  21909988.401 6         0.000 6      2005.245 6        37.977 6
> 2019 07 03 12 02 11.0000000  0  8       0.000000000000
G07  25317109.080 9 133042260.334 9      2102.572 9        54.142 9  25317109.734 6         0.000 6      1638.368 6        37.977 6
G10  23761860.985 9 124869368.358 9      3565.785 9        54.687 9  23761864.666 6         0.000 6      2778.536 6        37.977 6
G21  21188061.433 9 111343993.619 9     -1272.427 9        55.702 9  21188060.722 6         0.000 6      -991.502 6        37.977 6
G29  24342384.187 9 127920035.177 9     -3095.576 9        54.460 9  24342385.807 6         0.000 6     -2412.140 6        37.977 6
G27  21970618.068 9 115456350.411 9      2450.311 9        55.388 9  21970619.989 6         0.000 6      1909.334 6        37.977 6
G16  20489885.401 9 107675054.219 9       499.274 9        55.980 9  20489884.574 6         0.000 6       389.045 6        37.977 6
G26  20675165.530 9 108648705.773 9     -1509.685 9        55.864 9  20675168.354 6         0.000 6     -1176.378 6        37.977 6
G20  21909498.383 9 115135158.321 9      2573.561 9        55.329 9  21909498.684 6         0.000 6      2005.373 6        37.977 6
> 2019 07 03 12 02 12.0000000  0  8       0.000000000000
G07  25316709.146 9 133040158.674 9      2100.758 9        54.142 9  25316709.800 6         0.000 6      1636.955 6        37.977 6
G10  23761182.300 9 124865801.855 9      3567.247 9        54.687 9  23761185.980 6         0.000 6      2779.676 6        37.977 6
G21  21188303.689 9 111345266.680 9     -1273.714 9        55.702 9  21188302.977 6         0.000 6      -992.505 6        37.977 6
G29  24342973.417 9 127923131.589 9     -3097.311 9        54.459 9  24342975.037 6         0.000 6     -2413.492 6        37.977 6
G27  21970151.741 9 115453899.847 9      2450.850 9        55.388 9  21970153.661 6         0.000 6      1909.754 6        37.977 6
G16  20489790.405 9 107674555.012 9       499.154 9        55.980 9  20489789.578 6         0.000 6       388.951 6        37.977 6
G26  20675452.754 9 108650215.147 9     -1509.054 9        55.864 9  20675455.579 6         0.000 6     -1175.887 6        37.977 6
G20  21909008.636 9 115132584.692 9      2573.698 9        55.329 9  21909008.938 6         0.000 6      2005.480 6        37.977 6
> 2019 07 03 12 02 13.0000000  0  8       0.000000000000
G07  25316309.558 9 133038058.828 9      2098.941 9        54.142 9  25316310.212 6         0.000 6      1635.539 6        37.977 6
G10  23760503.333 9 124862233.866 9      3568.754 9        54.687 9  23760507.012 6         0.000 6      2780.850 6        37.977 6
G21  21188546.199 9 111346541.079 9     -1275.110 9        55.702 9  21188545.488 6         0.000 6      -993.592 6        37.977 6
G29  24343563.001 9 127926229.864 9     -3099.302 9        54.459 9  24343564.622 6         0.000 6     -2415.043 6        37.977 6
G27  21969685.294 9 115451448.657 9      2451.556 9        55.388 9  21969687.214 6         0.000 6      1910.304 6        37.977 6
G16  20489695.423 9 107674055.876 9       499.122 9        55.980 9  20489694.595 6         0.000 6       388.926 6        37.977 6
G26  20675739.850 9 108651723.844 9     -1508.337 9        55.864 9  20675742.675 6         0.000 6     -1175.328 6        37.977 6
G20  21908518.868 9 115130010.946 9      2573.790 9        55.330 9  21908519.169 6         0.000 6      2005.552 6        37.977 6
> 2019 07 03 12 02 14.0000000  0  8       0.000000000000
G07  25315910.314 9 133035960.788 9      2097.153 9        54.142 9  25315910.967 6         0.000 6      1634.146 6        37.977 6
G10  23759824.076 9 124858664.361 9      3570.278 9        54.687 9  23759827.755 6         0.000 6      2782.038 6        37.977 6
G21  21188788.987 9 111347816.939 9     -1276.626 9        55.702 9  21188788.276 6         0.000 6      -994.773 6        37.977 6
G29  24344152.992 9 127929330.277 9     -3101.591 9        54.459 9  24344154.613 6         0.000 6     -2416.827 6        37.977 6
G27  21969218.695 9 115448996.665 9      2452.467 9        55.388 9  21969220.615 6         0.000 6      1911.014 6        37.977 6
G16  20489600.438 9 107673556.728 9       499.196 9        55.980 9  20489599.611 6         0.000 6       388.984 6        37.977 6
G26  20676026.802 9 108653231.786 9     -1507.535 9        55.864 9  20676029.627 6         0.000 6     -1174.703 6        37.977 6
G20  21908029.089 9 115127437.145 9      2573.809 9        55.330 9  21908029.390 6         0.000 6      2005.566 6        37.977 6
> 2019 07 03 12 02 15.0000000  0  8       0.000000000000
G07  25315511.404 9 133033864.505 9      2095.438 9        54.142 9  25315512.057 6         0.000 6      1632.810 6        37.977 6
G10  23759144.532 9 124855093.339 9      3571.777 9        54.688 9  23759148.209 6         0.000 6      2783.206 6        37.977 6
G21  21189032.076 9 111349094.378 9     -1278.278 9        55.702 9  21189031.365 6         0.000 6      -996.061 6        37.977 6
G29  24344743.449 9 127932433.139 9     -3104.215 9        54.459 9  24344745.071 6         0.000 6     -2418.872 6        37.977 6
G27  21968751.902 9 115446543.652 9      2453.609 9        55.388 9  21968753.822 6         0.000 6      1911.904 6        37.977 6
G16  20489505.428 9 107673057.451 9       499.379 9        55.980 9  20489504.601 6         0.000 6       389.127 6        37.977 6
G26  20676313.595 9 108654738.890 9     -1506.666 9        55.864 9  20676316.420 6         0.000 6     -1174.026 6        37.977 6
G20  21907539.317 9 115124863.378 9      2573.711 9        55.330 9  21907539.617 6         0.000 6      2005.490 6        37.977 6
> 2019 07 03 12 02 16.0000000  0  8       0.000000000000
G07  25315112.810 9 133031769.886 9      2093.832 9        54.142 9  25315113.464 6         0.000 6      1631.559 6        37.977 6
G10  23758464.706 9 124851520.841 9      3573.225 9        54.688 9  23758468.383 6         0.000 6      2784.334 6        37.977 6
G21  21189275.492 9 111350373.536 9     -1280.056 9        55.702 9  21189274.781 6         0.000 6      -997.446 6        37.977 6
G29  24345334.440 9 127935538.804 9     -3107.196 9        54.459 9  24345336.062 6         0.000 6     -2421.195 6        37.977 6
G27  21968284.866 9 115444089.367 9      2455.015 9        55.389 9  21968286.786 6         0.000 6      1913.000 6        37.977 6
G16  20489410.372 9 107672557.925 9       499.698 9        55.980 9  20489409.545 6         0.000 6       389.375 6        37.977 6
G26  20676600.216 9 108656245.090 9     -1505.727 9        55.864 9  20676603.041 6         0.000 6     -1173.294 6        37.977 6
G20  21907049.575 9 115122289.775 9      2573.478 9        55.330 9  21907049.876 6         0.000 6      2005.309 6        37.977 6
> 2019 07 03 12 02 17.0000000  0  8       0.000000000000
G07  25314714.507 9 133029676.792 9      2092.393 9        54.143 9  25314715.160 6         0.000 6      1630.437 6        37.977 6
G10  23757784.614 9 124847946.944 9      3574.565 9        54.688 9  23757788.290 6         0.000 6      2785.378 6        37.977 6
G21  21189519.260 9 111351654.543 9     -1281.982 9        55.702 9  21189518.548 6         0.000 6      -998.947 6        37.977 6
G29  24345926.035 9 127938647.650 9     -3110.575 9        54.458 9  24345927.659 6         0.000 6     -2423.827 6        37.977 6
G27  21967817.535 9 115441633.526 9      2456.715 9        55.389 9  21967819.455 6         0.000 6      1914.324 6        37.977 6
G16  20489315.241 9 107672058.009 9       500.153 9        55.980 9  20489314.414 6         0.000 6       389.729 6        37.977 6
G26  20676886.653 9 108657750.326 9     -1504.747 9        55.864 9  20676889.478 6         0.000 6     -1172.530 6        37.977 6
G20  21906559.896 9 115119716.496 9      2573.055 9        55.330 9  21906560.196 6         0.000 6      2004.979 6        37.977 6
> 2019 07 03 12 02 18.0000000  0  8       0.000000000000
G07  25314316.456 9 133027585.025 9      2091.191 9        54.143 9  25314317.109 6         0.000 6      1629.500 6        37.977 6
G10  23757104.283 9 124844371.791 9      3575.732 9        54.688 9  23757107.959 6         0.000 6      2786.288 6        37.977 6
G21  21189763.407 9 111352937.546 9     -1284.038 9        55.701 9  21189762.696 6         0.000 6     -1000.550 6        37.977 6
G29  24346518.313 9 127941760.078 9     -3114.364 9        54.458 9  24346519.936 6         0.000 6     -2426.780 6        37.977 6
G27  21967349.850 9 115439175.828 9      2458.742 9        55.389 9  21967351.770 6         0.000 6      1915.903 6        37.977 6
G16  20489220.010 9 107671557.565 9       500.764 9        55.980 9  20489219.183 6         0.000 6       390.206 6        37.977 6
G26  20677172.902 9 108659254.571 9     -1503.743 9        55.864 9  20677175.727 6         0.000 6     -1171.748 6        37.977 6
G20  21906070.318 9 115117143.753 9      2572.401 9        55.330 9  21906070.618 6         0.000 6      2004.470 6        37.977 6
> 2019 07 03 12 02 19.0000000  0  8       0.000000000000
G07  25313918.608 9 133025494.321 9      2090.272 9        54.143 9  25313919.261 6         0.000 6      1628.784 6        37.977 6
G10  23756423.750 9 124840795.578 9      3576.676 9        54.689 9  23756427.425 6         0.000 6      2787.023 6        37.977 6
G21  21190007.958 9 111354222.669 9     -1286.229 9        55.701 9  21190007.247 6         0.000 6     -1002.256 6        37.977 6
G29  24347111.351 9 127944876.503 9     -3118.572 9        54.458 9  24347112.975 6         0.000 6     -2430.059 6        37.977 6
G27  21966881.747 9 115436715.933 9      2461.105 9        55.389 9  21966883.667 6         0.000 6      1917.745 6        37.977 6
G16  20489124.647 9 107671056.432 9       501.527 9        55.980 9  20489123.820 6         0.000 6       390.800 6        37.977 6
G26  20677458.960 9 108660757.813 9     -1502.747 9        55.863 9  20677461.785 6         0.000 6     -1170.972 6        37.977 6
G20  21905580.891 9 115114571.797 9      2571.475 9        55.331 9  21905581.190 6         0.000 6      2003.748 6        37.977 6
> 2019 07 03 12 02 20.0000000  0  8       0.000000000000
G07  25313520.902 9 133023404.364 9      2089.712 9        54.143 9  25313521.554 6         0.000 6      1628.348 6        37.977 6
G10  23755743.064 9 124837218.557 9      3577.329 9        54.689 9  23755746.738 6         0.000 6      2787.532 6        37.977 6
G21  21190252.936 9 111355510.037 9     -1288.532 9        55.701 9  21190252.225 6         0.000 6     -1004.051 6        37.977 6
G29  24347705.229 9 127947997.346 9     -3123.203 9        54.458 9  24347706.855 6         0.000 6     -2433.667 6        37.977 6
G27  21966413.160 9 115434253.494 9      2463.832 9        55.389 9  21966415.079 6         0.000 6      1919.870 6        37.977 6
G16  20489029.123 9 107670554.449 9       502.458 9        55.980 9  20489028.296 6         0.000 6       391.526 6        37.977 6
G26  20677744.829 9 108662260.067 9     -1501.782 9        55.863 9  20677747.655 6         0.000 6     -1170.220 6        37.977 6
G20  21905091.667 9 115112000.916 9      2570.236 9        55.331 9  21905091.967 6         0.000 6      2002.782 6        37.977 6
> 2019 07 03 12 02 21.0000000  0  8       0.000000000000
G07  25313123.264 9 133021314.766 9      2089.566 9        54.143 9  25313123.916 6         0.000 6      1628.234 6        37.977 6
G10  23755062.286 9 124833641.057 9      3577.626 9        54.689 9  23755065.960 6         0.000 6      2787.763 6        37.977 6
G21  21190498.365 9 111356799.773 9     -1290.952 9        55.701 9  21190497.654 6         0.000 6     -1005.937 6        37.977 6
G29  24348300.030 9 127951123.035 9     -3128.256 9        54.458 9  24348301.656 6         0.000 6     -2437.605 6        37.977 6
G27  21965944.020 9 115431788.147 9      2466.926 9        55.390 9  21965945.939 6         0.000 6      1922.280 6        37.977 6
G16  20488933.408 9 107670051.460 9       503.546 9        55.980 9  20488932.581 6         0.000 6       392.373 6        37.977 6
G26  20678030.523 9 108663761.395 9     -1500.891 9        55.863 9  20678033.348 6         0.000 6     -1169.526 6        37.977 6
G20  21904602.714 9 115109431.456 9      2568.634 9        55.331 9  21904603.013 6         0.000 6      2001.534 6        37.977 6
> 2019 07 03 12 02 22.0000000  0  8       0.000000000000
G07  25312725.609 9 133019225.078 9      2089.889 9        54.143 9  25312726.261 6         0.000 6      1628.486 6        37.977 6
G10  23754381.491 9 124830063.463 9      3577.513 9        54.689 9  23754385.164 6         0.000 6      2787.675 6        37.977 6
G21  21190744.261 9 111358091.967 9     -1293.444 9        55.701 9  21190743.551 6         0.000 6     -1007.878 6        37.977 6
G29  24348895.829 9 127954253.970 9     -3133.676 9        54.457 9  24348897.456 6         0.000 6     -2441.828 6        37.977 6
G27  21965474.255 9 115429319.522 9      2470.371 9        55.390 9  21965476.174 6         0.000 6      1924.965 6        37.977 6
G16  20488837.470 9 107669547.302 9       504.787 9        55.980 9  20488836.642 6         0.000 6       393.341 6        37.977 6
G26  20678316.056 9 108665261.879 9     -1500.104 9        55.863 9  20678318.881 6         0.000 6     -1168.913 6        37.977 6
G20  21904114.102 9 115106863.786 9      2566.656 9        55.331 9  21904114.401 6         0.000 6      1999.993 6        37.977 6
> 2019 07 03 12 02 23.0000000  0  8       0.000000000000
G07  25312327.848 9 133017134.832 9      2090.693 9        54.143 9  25312328.499 6         0.000 6      1629.112 6        37.977 6
G10  23753700.758 9 124826486.200 9      3576.953 9        54.690 9  23753704.430 6         0.000 6      2787.238 6        37.977 6
G21  21190990.635 9 111359386.668 9     -1295.953 9        55.701 9  21190989.924 6         0.000 6     -1009.834 6        37.977 6
G29  24349492.685 9 127957390.456 9     -3139.331 9        54.457 9  24349494.312 6         0.000 6     -2446.234 6        37.977 6
G27  21965003.809 9 115426847.312 9      2474.081 9        55.390 9  21965005.728 6         0.000 6      1927.856 6        37.977 6
G16  20488741.284 9 107669041.844 9       506.134 9        55.980 9  20488740.457 6         0.000 6       394.390 6        37.977 6
G26  20678601.453 9 108666761.648 9     -1499.476 9        55.863 9  20678604.278 6         0.000 6     -1168.423 6        37.977 6
G20  21903625.901 9 115104298.277 9      2564.312 9        55.331 9  21903626.200 6         0.000 6      1998.167 6        37.977 6
> 2019 07 03 12 02 24.0000000  0  8       0.000000000000
G07  25311929.889 9 133015043.551 9      2091.941 9        54.144 9  25311930.541 6         0.000 6      1630.085 6        37.977 6
G10  23753020.175 9 124822909.725 9      3575.951 9        54.690 9  23753023.847 6         0.000 6      2786.458 6        37.977 6
G21  21191237.482 9 111360683.855 9     -1298.409 9        55.701 9  21191236.771 6         0.000 6     -1011.747 6        37.977 6
G29  24350090.623 9 127960532.630 9     -3145.026 9        54.457 9  24350092.250 6         0.000 6     -2450.672 6        37.977 6
G27  21964532.643 9 115424371.318 9      2477.915 9        55.390 9  21964534.561 6         0.000 6      1930.844 6        37.977 6
G16  20488644.839 9 107668535.020 9       507.512 9        55.980 9  20488644.012 6         0.000 6       395.464 6        37.977 6
G26  20678886.750 9 108668260.893 9     -1499.055 9        55.863 9  20678889.576 6         0.000 6     -1168.096 6        37.977 6
G20  21903138.177 9 115101735.273 9      2561.662 9        55.332 9  21903138.475 6         0.000 6      1996.102 6        37.977 6
> 2019 07 03 12 02 25.0000000  0  8       0.000000000000
G07  25311531.657 9 133012950.827 9      2093.553 9        54.144 9  25311532.308 6         0.000 6      1631.341 6        37.977 6
G10  23752339.822 9 124819334.452 9      3574.565 9        54.690 9  23752343.493 6         0.000 6      2785.378 6        37.977 6
G21  21191484.785 9 111361983.445 9     -1300.752 9        55.701 9  21191484.075 6         0.000 6     -1013.573 6        37.977 6
G29  24350689.635 9 127963680.452 9     -3150.600 9        54.457 9  24350691.264 6         0.000 6     -2455.015 6        37.977 6
G27  21964060.744 9 115421891.476 9      2481.753 9        55.390 9  21964062.662 6         0.000 6      1933.834 6        37.977 6
G16  20488548.132 9 107668026.821 9       508.868 9        55.980 9  20488547.305 6         0.000 6       396.520 6        37.977 6
G26  20679171.988 9 108669759.825 9     -1498.852 9        55.863 9  20679174.813 6         0.000 6     -1167.937 6        37.977 6
G20  21902650.980 9 115099175.039 9      2558.791 9        55.332 9  21902651.278 6         0.000 6      1993.864 6        37.977 6
> 2019 07 03 12 02 26.0000000  0  8       0.000000000000
G07  25311133.091 9 133010856.352 9      2095.450 9        54.144 9  25311133.742 6         0.000 6      1632.819 6        37.977 6
G10  23751659.762 9 124815760.723 9      3572.862 9        54.690 9  23751663.432 6         0.000 6      2784.051 6        37.977 6
G21  21191732.522 9 111363285.309 9     -1302.954 9        55.701 9  21191731.811 6         0.000 6     -1015.289 6        37.977 6
G29  24351289.689 9 127966833.744 9     -3155.963 9        54.457 9  24351291.318 6         0.000 6     -2459.194 6        37.977 6
G27  21963588.121 9 115419407.831 9      2485.521 9        55.391 9  21963590.040 6         0.000 6      1936.771 6        37.977 6
G16  20488451.172 9 107667517.294 9       510.172 9        55.980 9  20488450.345 6         0.000 6       397.537 6        37.977 6
G26  20679457.206 9 108671258.655 9     -1498.851 9        55.863 9  20679460.032 6         0.000 6     -1167.936 6        37.977 6
G20  21902164.343 9 115096617.749 9      2555.773 9        55.332 9  21902164.641 6         0.000 6      1991.512 6        37.977 6
> 2019 07 03 12 02 27.0000000  0  8       0.000000000000
G07  25310734.140 9 133008759.854 9      2097.588 9        54.144 9  25310734.791 6         0.000 6      1634.485 6        37.977 6
G10  23750980.053 9 124812188.841 9      3570.883 9        54.691 9  23750983.723 6         0.000 6      2782.509 6        37.977 6
G21  21191980.665 9 111364589.310 9     -1305.024 9        55.701 9  21191979.955 6         0.000 6     -1016.902 6        37.977 6
G29  24351890.741 9 127969992.286 9     -3161.102 9        54.456 9  24351892.371 6         0.000 6     -2463.199 6        37.977 6
G27  21963114.791 9 115416920.468 9      2489.194 9        55.391 9  21963116.710 6         0.000 6      1939.633 6        37.977 6
G16  20488353.971 9 107667006.499 9       511.409 9        55.980 9  20488353.144 6         0.000 6       398.501 6        37.977 6
G26  20679742.443 9 108672757.587 9     -1499.042 9        55.862 9  20679745.269 6         0.000 6     -1168.085 6        37.977 6
G20  21901678.293 9 115094063.543 9      2552.634 9        55.332 9  21901678.590 6         0.000 6      1989.067 6        37.977 6
> 2019 07 03 12 02 28.0000000  0  8       0.000000000000
G07  25310334.763 9 133006661.117 9      2099.915 9        54.144 9  25310335.413 6         0.000 6      1636.298 6        37.977 6
G10  23750300.743 9 124808619.054 9      3568.680 9        54.691 9  23750304.412 6         0.000 6      2780.792 6        37.977 6
G21  21192229.191 9 111365895.318 9     -1306.974 9        55.700 9  21192228.480 6         0.000 6     -1018.421 6        37.977 6
G29  24352492.752 9 127973155.863 9     -3166.028 9        54.456 9  24352494.383 6         0.000 6     -2467.038 6        37.977 6
G27  21962640.771 9 115414429.474 9      2492.769 9        55.391 9  21962642.689 6         0.000 6      1942.418 6        37.977 6
G16  20488256.540 9 107666494.494 9       512.582 9        55.980 9  20488255.713 6         0.000 6       399.414 6        37.977 6
G26  20680027.733 9 108674256.789 9     -1499.398 9        55.862 9  20680030.559 6         0.000 6     -1168.362 6        37.977 6
G20  21901192.849 9 115091512.522 9      2549.407 9        55.332 9  21901193.146 6         0.000 6      1986.552 6        37.977 6
> 2019 07 03 12 02 29.0000000  0  8       0.000000000000
G07  25309934.926 9 133004559.962 9      2102.418 9        54.144 9  25309935.576 6         0.000 6      1638.249 6        37.977 6
G10  23749621.873 9 124805051.579 9      3566.270 9        54.691 9  23749625.542 6         0.000 6      2778.914 6        37.977 6
G21  21192478.076 9 111367203.217 9     -1308.804 9        55.700 9  21192477.365 6         0.000 6     -1019.847 6        37.977 6
G29  24353095.680 9 127976324.261 9     -3170.749 9        54.456 9  24353097.311 6         0.000 6     -2470.716 6        37.977 6
G27  21962166.080 9 115411934.958 9      2496.251 9        55.391 9  21962167.997 6         0.000 6      1945.131 6        37.977 6
G16  20488158.892 9 107665981.351 9       513.696 9        55.980 9  20488158.065 6         0.000 6       400.283 6        37.977 6
G26  20680313.105 9 108675756.430 9     -1499.903 9        55.862 9  20680315.931 6         0.000 6     -1168.756 6        37.977 6
G20  21900708.027 9 115088964.771 9      2546.104 9        55.333 9  21900708.324 6         0.000 6      1983.978 6        37.977 6
> 2019 07 03 12 02 30.0000000  0  8       0.000000000000
G07  25309534.599 9 133002456.237 9      2105.052 9        54.144 9  25309535.250 6         0.000 6      1640.301 6        37.977 6
G10  23748943.478 9 124801486.597 9      3563.693 9        54.691 9  23748947.146 6         0.000 6      2776.906 6        37.977 6
G21  21192727.298 9 111368512.888 9     -1310.524 9        55.700 9  21192726.588 6         0.000 6     -1021.188 6        37.977 6
G29  24353699.486 9 127979497.272 9     -3175.253 9        54.456 9  24353701.118 6         0.000 6     -2474.226 6        37.977 6
G27  21961690.736 9 115409437.014 9      2499.615 9        55.391 9  21961692.654 6         0.000 6      1947.753 6        37.977 6
G16  20488061.038 9 107665467.126 9       514.738 9        55.980 9  20488060.211 6         0.000 6       401.094 6        37.977 6
G26  20680598.586 9 108677256.642 9     -1500.548 9        55.862 9  20680601.413 6         0.000 6     -1169.259 6        37.977 6
G20  21900223.838 9 115086420.346 9      2542.750 9        55.333 9  21900224.135 6         0.000 6      1981.365 6        37.977 6
> 2019 07 03 12 02 31.0000000  0  8       0.000000000000
G07  25309133.762 9 133000349.824 9      2107.804 9        54.145 9  25309134.412 6         0.000 6      1642.445 6        37.977 6
G10  23748265.586 9 124797924.263 9      3560.968 9        54.692 9  23748269.254 6         0.000 6      2774.783 6        37.977 6
G21  21192976.838 9 111369824.229 9     -1312.135 9        55.700 9  21192976.128 6         0.000 6     -1022.443 6        37.977 6
G29  24354304.130 9 127982674.684 9     -3179.552 9        54.455 9  24354305.762 6         0.000 6     -2477.575 6        37.977 6
G27  21961214.763 9 115406935.762 9      2502.874 9        55.391 9  21961216.681 6         0.000 6      1950.292 6        37.977 6
G16  20487962.992 9 107664951.892 9       515.718 9        55.981 9  20487962.165 6         0.000 6       401.858 6        37.977 6
G26  20680884.202 9 108678757.560 9     -1501.314 9        55.862 9  20680887.028 6         0.000 6     -1169.856 6        37.977 6
G20  21899740.291 9 115083879.292 9      2539.360 9        55.333 9  21899740.587 6         0.000 6      1978.723 6        37.977 6
> 2019 07 03 12 02 32.0000000  0  8       0.000000000000
G07  25308732.392 9 132998240.614 9      2110.634 9        54.145 9  25308733.041 6         0.000 6      1644.651 6        37.977 6
G10  23747588.225 9 124794364.716 9      3558.131 9        54.692 9  23747591.892 6         0.000 6      2772.572 6        37.977 6
G21  21193226.674 9 111371137.126 9     -1313.645 9        55.700 9  21193225.964 6         0.000 6     -1023.620 6        37.977 6
G29  24354909.570 9 127985856.286 9     -3183.640 9        54.455 9  24354911.203 6         0.000 6     -2480.761 6        37.977 6
G27  21960738.182 9 115404431.314 9      2506.009 9        55.392 9  21960740.099 6         0.000 6      1952.735 6        37.977 6
G16  20487864.767 9 107664435.714 9       516.628 9        55.981 9  20487863.940 6         0.000 6       402.567 6        37.977 6
G26  20681169.975 9 108680259.304 9     -1502.191 9        55.862 9  20681172.801 6         0.000 6     -1170.539 6        37.977 6
G20  21899257.391 9 115081341.639 9      2535.955 9        55.333 9  21899257.687 6         0.000 6      1976.070 6        37.977 6
> 2019 07 03 12 02 33.0000000  0  8       0.000000000000
G07  25308330.475 9 132996128.533 9      2113.538 9        54.145 9  25308331.125 6         0.000 6      1646.914 6        37.977 6
G10  23746911.414 9 124790808.061 9      3555.188 9        54.692 9  23746915.080 6         0.000 6      2770.279 6        37.977 6
G21  21193476.787 9 111372451.479 9     -1315.052 9        55.700 9  21193476.077 6         0.000 6     -1024.716 6        37.977 6
G29  24355515.769 9 127989041.872 9     -3187.517 9        54.455 9  24355517.403 6         0.000 6     -2483.782 6        37.977 6
G27  21960261.015 9 115401923.785 9      2509.023 9        55.392 9  21960262.932 6         0.000 6      1955.084 6        37.977 6
G16  20487766.374 9 107663918.655 9       517.470 9        55.981 9  20487765.547 6         0.000 6       403.223 6        37.977 6
G26  20681455.923 9 108681761.972 9     -1503.171 9        55.862 9  20681458.750 6         0.000 6     -1171.303 6        37.977 6
G20  21898775.140 9 115078807.395 9      2532.542 9        55.333 9  21898775.435 6         0.000 6      1973.410 6        37.977 6
> 2019 07 03 12 02 34.0000000  0  8       0.000000000000
G07  25307928.002 9 132994013.526 9      2116.489 9        54.145 9  25307928.652 6         0.000 6      1649.213 6        37.977 6
G10  23746235.171 9 124787254.388 9      3552.165 9        54.692 9  23746238.836 6         0.000 6      2767.924 6        37.977 6
G21  21193727.160 9 111373767.195 9     -1316.367 9        55.700 9  21193726.450 6         0.000 6     -1025.741 6        37.977 6
G29  24356122.686 9 127992231.231 9     -3191.191 9        54.455 9  24356124.320 6         0.000 6     -2486.645 6        37.977 6
G27  21959783.286 9 115399413.309 9      2511.913 9        55.392 9  21959785.204 6         0.000 6      1957.335 6        37.977 6
G16  20487667.828 9 107663400.792 9       518.243 9        55.981 9  20487667.001 6         0.000 6       403.825 6        37.977 6
G26  20681742.068 9 108683265.669 9     -1504.243 9        55.862 9  20681744.894 6         0.000 6     -1172.138 6        37.977 6
G20  21898293.537 9 115076276.561 9      2529.134 9        55.334 9  21898293.832 6         0.000 6      1970.755 6        37.977 6
> 2019 07 03 12 02 35.0000000  0  8       0.000000000000
G07  25307524.964 9 132991895.547 9      2119.469 9        54.145 9  25307525.613 6         0.000 6      1651.535 6        37.977 6
G10  23745559.509 9 124783703.773 9      3549.085 9        54.693 9  23745563.174 6         0.000 6      2765.524 6        37.977 6
G21  21193977.773 9 111375084.174 9     -1317.587 9        55.700 9  21193977.063 6         0.000 6     -1026.691 6        37.977 6
G29  24356730.283 9 127995424.164 9     -3194.660 9        54.455 9  24356731.918 6         0.000 6     -2489.349 6        37.977 6
G27  21959305.019 9 115396900.001 9      2514.677 9        55.392 9  21959306.936 6         0.000 6      1959.489 6        37.977 6
G16  20487569.140 9 107662882.185 9       518.950 9        55.981 9  20487568.313 6         0.000 6       404.377 6        37.977 6
G26  20682028.423 9 108684770.476 9     -1505.392 9        55.862 9  20682031.250 6         0.000 6     -1173.033 6        37.977 6
G20  21897812.581 9 115073749.126 9      2525.750 9        55.334 9  21897812.877 6         0.000 6      1968.118 6        37.977 6
> 2019 07 03 12 02 36.0000000  0  8       0.000000000000
G07  25307121.357 9 132989774.581 9      2122.464 9        54.145 9  25307122.006 6         0.000 6      1653.869 6        37.977 6
G10  23744884.438 9 124780156.263 9      3545.956 9        54.693 9  23744888.102 6         0.000 6      2763.085 6        37.977 6
G21  21194228.611 9 111376402.336 9     -1318.719 9        55.700 9  21194227.901 6         0.000 6     -1027.573 6        37.977 6
G29  24357338.521 9 127998620.466 9     -3197.924 9        54.454 9  24357340.157 6         0.000 6     -2491.891 6        37.977 6
G27  21958826.240 9 115394383.999 9      2517.306 9        55.392 9  21958828.156 6         0.000 6      1961.538 6        37.977 6
G16  20487470.326 9 107662362.912 9       519.585 9        55.981 9  20487469.499 6         0.000 6       404.871 6        37.977 6
G26  20682315.006 9 108686276.476 9     -1506.620 9        55.861 9  20682317.833 6         0.000 6     -1173.990 6        37.977 6
G20  21897332.268 9 115071225.067 9      2522.391 9        55.334 9  21897332.563 6         0.000 6      1965.501 6        37.977 6
> 2019 07 03 12 02 37.0000000  0  8       0.000000000000
G07  25306717.181 9 132987650.626 9      2125.444 9        54.145 9  25306717.829 6         0.000 6      1656.191 6        37.977 6
G10  23744209.964 9 124776611.889 9      3542.810 9        54.693 9  23744213.628 6         0.000 6      2760.634 6        37.977 6
G21  21194479.655 9 111377721.583 9     -1319.765 9        55.700 9  21194478.945 6         0.000 6     -1028.389 6        37.977 6
G29  24357947.361 9 128001819.930 9     -3200.981 9        54.454 9  24357948.997 6         0.000 6     -2494.274 6        37.977 6
G27  21958346.972 9 115391865.432 9      2519.797 9        55.393 9  21958348.888 6         0.000 6      1963.479 6        37.977 6
G16  20487371.396 9 107661843.034 9       520.148 9        55.981 9  20487370.569 6         0.000 6       405.310 6        37.977 6
G26  20682601.827 9 108687783.729 9     -1507.907 9        55.861 9  20682604.654 6         0.000 6     -1174.993 6        37.977 6
G20  21896852.589 9 115068704.339 9      2519.082 9        55.334 9  21896852.883 6         0.000 6      1962.922 6        37.977 6
> 2019 07 03 12 02 38.0000000  0  8       0.000000000000
G07  25306312.441 9 132985523.706 9      2128.400 9        54.145 9  25306313.089 6         0.000 6      1658.494 6        37.977 6
G10  23743536.090 9 124773070.664 9      3539.658 9        54.693 9  23743539.752 6         0.000 6      2758.177 6        37.977 6
G21  21194730.891 9 111379041.836 9     -1320.732 9        55.699 9  21194730.181 6         0.000 6     -1029.142 6        37.977 6
G29  24358556.762 9 128005022.343 9     -3203.839 9        54.454 9  24358558.399 6         0.000 6     -2496.501 6        37.977 6
G27  21957867.245 9 115389344.453 9      2522.148 9        55.393 9  21957869.161 6         0.000 6      1965.311 6        37.977 6
G16  20487272.368 9 107661322.635 9       520.639 9        55.981 9  20487271.541 6         0.000 6       405.693 6        37.977 6
G26  20682888.899 9 108689292.300 9     -1509.250 9        55.861 9  20682891.726 6         0.000 6     -1176.039 6        37.977 6
G20  21896373.534 9 115066186.892 9      2515.826 9        55.334 9  21896373.828 6         0.000 6      1960.385 6        37.977 6
> 2019 07 03 12 02 39.0000000  0  8       0.000000000000
G07  25305907.141 9 132983393.845 9      2131.309 9        54.146 9  25305907.789 6         0.000 6      1660.761 6        37.977 6
G10  23742862.815 9 124769532.592 9      3536.521 9        54.694 9  23742866.477 6         0.000 6      2755.733 6        37.977 6
G21  21194982.303 9 111380363.014 9     -1321.617 9        55.699 9  21194981.593 6         0.000 6     -1029.831 6        37.977 6
G29  24359166.688 9 128008227.514 9     -3206.488 9        54.454 9  24359168.325 6         0.000 6     -2498.564 6        37.977 6
G27  21957387.083 9 115386821.189 9      2524.353 9        55.393 9  21957388.999 6         0.000 6      1967.029 6        37.977 6
G16  20487173.252 9 107660801.777 9       521.058 9        55.981 9  20487172.425 6         0.000 6       406.019 6        37.977 6
G26  20683176.231 9 108690802.238 9     -1510.637 9        55.861 9  20683179.058 6         0.000 6     -1177.120 6        37.977 6
G20  21895895.092 9 115063672.670 9      2512.643 9        55.334 9  21895895.386 6         0.000 6      1957.905 6        37.977 6
> 2019 07 03 12 02 40.0000000  0  8       0.000000000000
G07  25305501.294 9 132981261.107 9      2134.163 9        54.146 9  25305501.942 6         0.000 6      1662.985 6        37.977 6
G10  23742190.133 9 124765997.637 9      3533.413 9        54.694 9  23742193.795 6         0.000 6      2753.311 6        37.977 6
G21  21195233.876 9 111381685.038 9     -1322.427 9        55.699 9  21195233.166 6         0.000 6     -1030.463 6        37.977 6
G29  24359777.099 9 128011435.235 9     -3208.946 9        54.454 9  24359778.737 6         0.000 6     -2500.480 6        37.977 6
G27  21956906.515 9 115384295.791 9      2526.421 9        55.393 9  21956908.432 6         0.000 6      1968.641 6        37.977 6
G16  20487074.062 9 107660280.534 9       521.411 9        55.981 9  20487073.235 6         0.000 6       406.295 6        37.977 6
G26  20683463.829 9 108692313.577 9     -1512.056 9        55.861 9  20683466.657 6         0.000 6     -1178.226 6        37.977 6
G20  21895417.249 9 115061161.590 9      2509.535 9        55.335 9  21895417.543 6         0.000 6      1955.483 6        37.977 6
> 2019 07 03 12 02 41.0000000  0  8       0.000000000000
G07  25305094.910 9 132979125.549 9      2136.948 9        54.146 9  25305095.558 6         0.000 6      1665.155 6        37.977 6
G10  23741518.041 9 124762465.777 9      3530.341 9        54.694 9  23741521.702 6         0.000 6      2750.917 6        37.977 6
G21  21195485.598 9 111383007.846 9     -1323.171 9        55.699 9  21195484.888 6         0.000 6     -1031.043 6        37.977 6
G29  24360387.960 9 128014645.322 9     -3211.214 9        54.453 9  24360389.599 6         0.000 6     -2502.247 6        37.977 6
G27  21956425.569 9 115381768.401 9      2528.345 9        55.393 9  21956427.484 6         0.000 6      1970.140 6        37.977 6
G16  20486974.814 9 107659758.980 9       521.691 9        55.981 9  20486973.987 6         0.000 6       406.513 6        37.977 6
G26  20683751.703 9 108693826.360 9     -1513.509 9        55.861 9  20683754.530 6         0.000 6     -1179.358 6        37.977 6
G20  21894939.990 9 115058653.585 9      2506.505 9        55.335 9  21894940.284 6         0.000 6      1953.122 6        37.977 6
> 2019 07 03 12 02 42.0000000  0  8       0.000000000000
G07  25304688.003 9 132976987.242 9      2139.652 9        54.146 9  25304688.651 6         0.000 6      1667.263 6        37.977 6
G10  23740846.528 9 124758936.963 9      3527.322 9        54.694 9  23740850.188 6         0.000 6      2748.565 6        37.977 6
G21  21195737.455 9 111384331.360 9     -1323.850 9        55.699 9  21195736.745 6         0.000 6     -1031.572 6        37.977 6
G29  24360999.235 9 128017857.583 9     -3213.299 9        54.453 9  24361000.875 6         0.000 6     -2503.872 6        37.977 6
G27  21955944.268 9 115379239.152 9      2530.131 9        55.394 9  21955946.184 6         0.000 6      1971.531 6        37.977 6
G16  20486875.518 9 107659237.175 9       521.905 9        55.981 9  20486874.691 6         0.000 6       406.679 6        37.977 6
G26  20684039.854 9 108695340.602 9     -1514.982 9        55.861 9  20684042.681 6         0.000 6     -1180.506 6        37.977 6
G20  21894463.300 9 115056148.564 9      2503.565 9        55.335 9  21894463.593 6         0.000 6      1950.831 6        37.977 6
> 2019 07 03 12 02 43.0000000  0  8       0.000000000000
G07  25304280.589 9 132974846.271 9      2142.278 9        54.146 9  25304281.236 6         0.000 6      1669.308 6        37.977 6
G10  23740175.584 9 124755411.141 9      3524.356 9        54.695 9  23740179.244 6         0.000 6      2746.254 6        37.977 6
G21  21195989.435 9 111385655.522 9     -1324.473 9        55.699 9  21195988.725 6         0.000 6     -1032.057 6        37.977 6
G29  24361610.890 9 128021071.844 9     -3215.214 9        54.453 9  24361612.531 6         0.000 6     -2505.364 6        37.977 6
G27  21955462.640 9 115376708.182 9      2531.784 9        55.394 9  21955464.556 6         0.000 6      1972.820 6        37.977 6
G16  20486776.187 9 107658715.187 9       522.053 9        55.981 9  20486775.360 6         0.000 6       406.795 6        37.977 6
G26  20684328.287 9 108696856.325 9     -1516.475 9        55.861 9  20684331.114 6         0.000 6     -1181.669 6        37.977 6
G20  21893987.161 9 115053646.439 9      2500.707 9        55.335 9  21893987.454 6         0.000 6      1948.604 6        37.977 6
> 2019 07 03 12 02 44.0000000  0  8       0.000000000000
G07  25303872.684 9 132972702.717 9      2144.815 9        54.146 9  25303873.331 6         0.000 6      1671.285 6        37.977 6
G10  23739505.199 9 124751888.253 9      3521.455 9        54.695 9  23739508.858 6         0.000 6      2743.994 6        37.977 6
G21  21196241.527 9 111386980.277 9     -1325.038 9        55.699 9  21196240.818 6         0.000 6     -1032.497 6        37.977 6
G29  24362222.894 9 128024287.933 9     -3216.965 9        54.453 9  24362224.535 6         0.000 6     -2506.729 6        37.977 6
G27  21954980.710 9 115374175.625 9      2533.312 9        55.394 9  21954982.625 6         0.000 6      1974.010 6        37.977 6
G16  20486676.833 9 107658193.081 9       522.144 9        55.981 9  20486676.006 6         0.000 6       406.865 6        37.977 6
G26  20684617.005 9 108698373.547 9     -1517.975 9        55.860 9  20684619.833 6         0.000 6     -1182.838 6        37.977 6
G20  21893511.556 9 115051147.126 9      2497.943 9        55.335 9  21893511.849 6         0.000 6      1946.450 6        37.977 6
> 2019 07 03 12 02 45.0000000  0  8       0.000000000000
G07  25303464.306 9 132970556.680 9      2147.253 9        54.146 9  25303464.953 6         0.000 6      1673.185 6        37.977 6
G10  23738835.358 9 124748368.225 9      3518.629 9        54.695 9  23738839.016 6         0.000 6      2741.791 6        37.977 6
G21  21196493.723 9 111388305.574 9     -1325.552 9        55.699 9  21196493.014 6         0.000 6     -1032.898 6        37.977 6
G29  24362835.216 9 128027505.698 9     -3218.556 9        54.452 9  24362836.858 6         0.000 6     -2507.968 6        37.977 6
G27  21954498.501 9 115371641.602 9      2534.711 9        55.394 9  21954500.416 6         0.000 6      1975.100 6        37.977 6
G16  20486577.468 9 107657670.914 9       522.173 9        55.981 9  20486576.641 6         0.000 6       406.888 6        37.977 6
G26  20684906.008 9 108699892.268 9     -1519.480 9        55.860 9  20684908.836 6         0.000 6     -1184.011 6        37.977 6
G20  21893036.469 9 115048650.528 9      2495.274 9        55.336 9  21893036.761 6         0.000 6      1944.371 6        37.977 6
> 2019 07 03 12 02 46.0000000  0  8       0.000000000000
G07  25303055.472 9 132968408.250 9      2149.593 9        54.147 9  25303056.119 6         0.000 6      1675.009 6        37.977 6
G10  23738166.049 9 124744850.992 9      3515.878 9        54.695 9  23738169.706 6         0.000 6      2739.648 6        37.977 6
G21  21196746.013 9 111389631.364 9     -1326.020 9        55.699 9  21196745.303 6         0.000 6     -1033.262 6        37.977 6
G29  24363447.827 9 128030724.980 9     -3220.006 9        54.452 9  24363449.470 6         0.000 6     -2509.098 6        37.977 6
G27  21954016.037 9 115369106.243 9      2535.996 9        55.394 9  21954017.953 6         0.000 6      1976.102 6        37.977 6
G16  20486478.104 9 107657148.749 9       522.152 9        55.981 9  20486477.277 6         0.000 6       406.871 6        37.977 6
G26  20685195.299 9 108701412.499 9     -1520.982 9        55.860 9  20685198.127 6         0.000 6     -1185.181 6        37.977 6
G20  21892561.881 9 115046156.556 9      2492.698 9        55.336 9  21892562.173 6         0.000 6      1942.363 6        37.977 6
> 2019 07 03 12 02 47.0000000  0  8       0.000000000000
G07  25302646.204 9 132966257.536 9      2151.827 9        54.147 9  25302646.851 6         0.000 6      1676.749 6        37.977 6
G10  23737497.254 9 124741336.463 9      3513.212 9        54.696 9  23737500.911 6         0.000 6      2737.571 6        37.977 6
G21  21196998.388 9 111390957.604 9     -1326.450 9        55.699 9  21196997.678 6         0.000 6     -1033.598 6        37.977 6
G29  24364060.702 9 128033945.646 9     -3221.316 9        54.452 9  24364062.345 6         0.000 6     -2510.119 6        37.977 6
G27  21953533.340 9 115366569.655 9      2537.161 9        55.394 9  21953535.255 6         0.000 6      1977.009 6        37.977 6
G16  20486378.748 9 107656626.633 9       522.071 9        55.981 9  20486377.921 6         0.000 6       406.809 6        37.977 6
G26  20685484.875 9 108702934.230 9     -1522.483 9        55.860 9  20685487.703 6         0.000 6     -1186.351 6        37.977 6
G20  21892087.774 9 115043665.112 9      2490.217 9        55.336 9  21892088.066 6         0.000 6      1940.430 6        37.977 6
> 2019 07 03 12 02 48.0000000  0  8       0.000000000000
G07  25302236.521 9 132964104.638 9      2153.951 9        54.147 9  25302237.167 6         0.000 6      1678.405 6        37.977 6
G10  23736828.959 9 124737824.558 9      3510.637 9        54.696 9  23736832.615 6         0.000 6      2735.564 6        37.977 6
G21  21197250.841 9 111392284.251 9     -1326.841 9        55.698 9  21197250.131 6         0.000 6     -1033.903 6        37.977 6
G29  24364673.812 9 128037167.551 9     -3222.498 9        54.452 9  24364675.455 6         0.000 6     -2511.040 6        37.977 6
G27  21953050.432 9 115364031.959 9      2538.219 9        55.395 9  21953052.347 6         0.000 6      1977.834 6        37.977 6
G16  20486279.413 9 107656104.620 9       521.945 9        55.981 9  20486278.586 6         0.000 6       406.710 6        37.977 6
G26  20685774.735 9 108704457.455 9     -1523.968 9        55.860 9  20685777.564 6         0.000 6     -1187.508 6        37.977 6
G20  21891614.130 9 115041176.098 9      2487.836 9        55.336 9  21891614.421 6         0.000 6      1938.575 6        37.977 6
> 2019 07 03 12 02 49.0000000  0  8       0.000000000000
G07  25301826.443 9 132961949.670 9      2155.970 9        54.147 9  25301827.090 6         0.000 6      1679.978 6        37.977 6
G10  23736161.145 9 124734315.184 9      3508.150 9        54.696 9  23736164.801 6         0.000 6      2733.626 6        37.977 6
G21  21197503.365 9 111393611.273 9     -1327.199 9        55.698 9  21197502.655 6         0.000 6     -1034.181 6        37.977 6
G29  24365287.136 9 128040390.578 9     -3223.555 9        54.452 9  24365288.780 6         0.000 6     -2511.864 6        37.977 6
G27  21952567.333 9 115361493.256 9      2539.170 9        55.395 9  21952569.247 6         0.000 6      1978.575 6        37.977 6
G16  20486180.106 9 107655582.759 9       521.769 9        55.981 9  20486179.279 6         0.000 6       406.573 6        37.977 6
G26  20686064.877 9 108705982.160 9     -1525.444 9        55.860 9  20686067.706 6         0.000 6     -1188.658 6        37.977 6
G20  21891140.929 9 115038689.419 9      2485.548 9        55.336 9  21891141.221 6         0.000 6      1936.792 6        37.977 6
> 2019 07 03 12 02 50.0000000  0  8       0.000000000000
G07  25301415.993 9 132959792.742 9      2157.869 9        54.147 9  25301416.639 6         0.000 6      1681.457 6        37.977 6
G10  23735493.795 9 124730808.246 9      3505.766 9        54.696 9  23735497.450 6         0.000 6      2731.768 6        37.977 6
G21  21197755.954 9 111394938.639 9     -1327.527 9        55.698 9  21197755.245 6         0.000 6     -1034.437 6        37.977 6
G29  24365900.650 9 128043614.607 9     -3224.499 9        54.451 9  24365902.295 6         0.000 6     -2512.600 6        37.977 6
G27  21952084.062 9 115358953.653 9      2540.021 9        55.395 9  21952085.976 6         0.000 6      1979.238 6        37.977 6
G16  20486080.836 9 107655061.095 9       521.550 9        55.981 9  20486080.009 6         0.000 6       406.402 6        37.977 6
G26  20686355.298 9 108707508.331 9     -1526.896 9        55.860 9  20686358.127 6         0.000 6     -1189.790 6        37.977 6
G20  21890668.155 9 115036204.978 9      2483.364 9        55.337 9  21890668.446 6         0.000 6      1935.090 6        37.977 6
> 2019 07 03 12 02 51.0000000  0  8       0.000000000000
G07  25301005.193 9 132957633.976 9      2159.650 9        54.147 9  25301005.839 6         0.000 6      1682.845 6        37.977 6
G10  23734826.889 9 124727303.642 9      3503.480 9        54.697 9  23734830.544 6         0.000 6      2729.987 6        37.977 6
G21  21198008.604 9 111396266.322 9     -1327.835 9        55.698 9  21198007.895 6         0.000 6     -1034.677 6        37.977 6
G29  24366514.334 9 128046839.525 9     -3225.338 9        54.451 9  24366515.979 6         0.000 6     -2513.253 6        37.977 6
G27  21951600.639 9 115356413.251 9      2540.770 9        55.395 9  21951602.553 6         0.000 6      1979.822 6        37.977 6
G16  20485981.613 9 107654539.675 9       521.282 9        55.981 9  20485980.786 6         0.000 6       406.194 6        37.977 6
G26  20686645.994 9 108709035.946 9     -1528.333 9        55.860 9  20686648.823 6         0.000 6     -1190.909 6        37.977 6
G20  21890195.787 9 115033722.672 9      2481.273 9        55.337 9  21890196.078 6         0.000 6      1933.460 6        37.977 6
> 2019 07 03 12 02 52.0000000  0  8       0.000000000000
G07  25300594.064 9 132955473.483 9      2161.314 9        54.147 9  25300594.710 6         0.000 6      1684.142 6        37.977 6
G10  23734160.409 9 124723801.275 9      3501.301 9        54.697 9  23734164.063 6         0.000 6      2728.289 6        37.977 6
G21  21198261.310 9 111397594.300 9     -1328.119 9        55.698 9  21198260.601 6         0.000 6     -1034.898 6        37.977 6
G29  24367128.168 9 128050065.235 9     -3226.085 9        54.451 9  24367129.814 6         0.000 6     -2513.835 6        37.977 6
G27  21951117.082 9 115353872.143 9      2541.435 9        55.395 9  21951118.996 6         0.000 6      1980.340 6        37.977 6
G16  20485882.445 9 107654018.541 9       520.982 9        55.981 9  20485881.618 6         0.000 6       405.960 6        37.977 6
G26  20686936.961 9 108710564.984 9     -1529.737 9        55.859 9  20686939.790 6         0.000 6     -1192.003 6        37.977 6
G20  21889723.809 9 115031242.412 9      2479.281 9        55.337 9  21889724.099 6         0.000 6      1931.908 6        37.977 6
> 2019 07 03 12 02 53.0000000  0  8       0.000000000000
G07  25300182.631 9 132953311.391 9      2162.865 9        54.148 9  25300183.276 6         0.000 6      1685.350 6        37.977 6
G10  23733494.333 9 124720301.031 9      3499.220 9        54.697 9  23733497.986 6         0.000 6      2726.668 6        37.977 6
G21  21198514.068 9 111398922.552 9     -1328.385 9        55.698 9  21198513.359 6         0.000 6     -1035.105 6        37.977 6
G29  24367742.134 9 128053291.641 9     -3226.740 9        54.451 9  24367743.781 6         0.000 6     -2514.345 6        37.977 6
G27  21950633.407 9 115351330.417 9      2542.013 9        55.396 9  21950635.321 6         0.000 6      1980.790 6        37.977 6
G16  20485783.337 9 107653497.727 9       520.642 9        55.981 9  20485782.510 6         0.000 6       405.695 6        37.977 6
G26  20687228.192 9 108712095.410 9     -1531.117 9        55.859 9  20687231.021 6         0.000 6     -1193.079 6        37.977 6
G20  21889252.199 9 115028764.090 9      2477.381 9        55.337 9  21889252.489 6         0.000 6      1930.428 6        37.977 6
> 2019 07 03 12 02 54.0000000  0  8       0.000000000000
G07  25299770.913 9 132951147.804 9      2164.296 9        54.148 9  25299771.558 6         0.000 6      1686.466 6        37.977 6
G10  23732828.643 9 124716802.818 9      3497.248 9        54.697 9  23732832.295 6         0.000 6      2725.131 6        37.977 6
G21  21198766.876 9 111400251.064 9     -1328.636 9        55.698 9  21198766.166 6         0.000 6     -1035.301 6        37.977 6
G29  24368356.219 9 128056518.665 9     -3227.318 9        54.450 9  24368357.866 6         0.000 6     -2514.796 6        37.977 6
G27  21950149.629 9 115348788.152 9      2542.514 9        55.396 9  21950151.543 6         0.000 6      1981.181 6        37.977 6
G16  20485684.297 9 107652977.270 9       520.272 9        55.981 9  20485683.471 6         0.000 6       405.407 6        37.977 6
G26  20687519.683 9 108713627.205 9     -1532.463 9        55.859 9  20687522.512 6         0.000 6     -1194.127 6        37.977 6
G20  21888780.942 9 115026287.625 9      2475.576 9        55.337 9  21888781.232 6         0.000 6      1929.022 6        37.977 6
> 2019 07 03 12 02 55.0000000  0  8       0.000000000000
G07  25299358.934 9 132948982.840 9      2165.611 9        54.148 9  25299359.579 6         0.000 6      1687.490 6        37.977 6
G10  23732163.319 9 124713306.527 9      3495.380 9        54.698 9  23732166.971 6         0.000 6      2723.675 6        37.977 6
G21  21199019.730 9 111401579.822 9     -1328.877 9        55.698 9  21199019.021 6         0.000 6     -1035.489 6        37.977 6
G29  24368970.406 9 128059746.231 9     -3227.817 9        54.450 9  24368972.054 6         0.000 6     -2515.185 6        37.977 6
G27  21949665.763 9 115346245.422 9      2542.934 9        55.396 9  21949667.677 6         0.000 6      1981.508 6        37.977 6
G16  20485585.331 9 107652457.198 9       519.866 9        55.982 9  20485584.504 6         0.000 6       405.091 6        37.977 6
G26  20687811.427 9 108715160.328 9     -1533.779 9        55.859 9  20687814.256 6         0.000 6     -1195.153 6        37.977 6
G20  21888310.021 9 115023812.921 9      2473.863 9        55.337 9  21888310.311 6         0.000 6      1927.686 6        37.977 6
> 2019 07 03 12 02 56.0000000  0  8       0.000000000000
G07  25298946.716 9 132946816.622 9      2166.810 9        54.148 9  25298947.360 6         0.000 6      1688.424 6        37.977 6
G10  23731498.340 9 124709812.048 9      3493.618 9        54.698 9  23731501.991 6         0.000 6      2722.302 6        37.977 6
G21  21199272.629 9 111402908.815 9     -1329.111 9        55.698 9  21199271.920 6         0.000 6     -1035.671 6        37.977 6
G29  24369584.682 9 128062974.264 9     -3228.257 9        54.450 9  24369586.331 6         0.000 6     -2515.528 6        37.977 6
G27  21949181.824 9 115343702.305 9      2543.289 9        55.396 9  21949183.737 6         0.000 6      1981.784 6        37.977 6
G16  20485486.444 9 107651937.543 9       519.434 9        55.982 9  20485485.617 6         0.000 6       404.754 6        37.977 6
G26  20688103.417 9 108716694.748 9     -1535.059 9        55.859 9  20688106.247 6         0.000 6     -1196.150 6        37.977 6
G20  21887839.417 9 115021339.883 9      2472.237 9        55.338 9  21887839.706 6         0.000 6      1926.420 6        37.977 6
> 2019 07 03 12 02 57.0000000  0  8       0.000000000000
G07  25298534.280 9 132944649.261 9      2167.898 9        54.148 9  25298534.924 6         0.000 6      1689.272 6        37.977 6
G10  23730833.685 9 124706319.277 9      3491.962 9        54.698 9  23730837.336 6         0.000 6      2721.012 6        37.977 6
G21  21199525.571 9 111404238.034 9     -1329.338 9        55.697 9  21199524.862 6         0.000 6     -1035.848 6        37.977 6
G29  24370199.036 9 128066202.703 9     -3228.642 9        54.450 9  24370200.685 6         0.000 6     -2515.827 6        37.977 6
G27  21948697.823 9 115341158.866 9      2543.584 9        55.396 9  21948699.736 6         0.000 6      1982.014 6        37.977 6
G16  20485387.641 9 107651418.332 9       518.981 9        55.982 9  20485386.814 6         0.000 6       404.401 6        37.977 6
G26  20688395.648 9 108718230.426 9     -1536.299 9        55.859 9  20688398.477 6         0.000 6     -1197.116 6        37.977 6
G20  21887369.113 9 115018868.424 9      2470.699 9        55.338 9  21887369.402 6         0.000 6      1925.221 6        37.977 6
> 2019 07 03 12 02 58.0000000  0  8       0.000000000000
G07  25298121.648 9 132942480.872 9      2168.866 9        54.148 9  25298122.293 6         0.000 6      1690.026 6        37.977 6
G10  23730169.336 9 124702828.110 9      3490.415 9        54.698 9  23730172.986 6         0.000 6      2719.807 6        37.977 6
G21  21199778.558 9 111405567.488 9     -1329.563 9        55.697 9  21199777.849 6         0.000 6     -1036.023 6        37.977 6
G29  24370813.458 9 128069431.503 9     -3228.968 9        54.450 9  24370815.108 6         0.000 6     -2516.081 6        37.977 6
G27  21948213.772 9 115338615.167 9      2543.811 9        55.397 9  21948215.686 6         0.000 6      1982.191 6        37.977 6
G16  20485288.928 9 107650899.592 9       518.499 9        55.982 9  20485288.102 6         0.000 6       404.025 6        37.977 6
G26  20688688.111 9 108719767.331 9     -1537.501 9        55.859 9  20688690.941 6         0.000 6     -1198.053 6        37.977 6
G20  21886899.094 9 115016398.464 9      2469.250 9        55.338 9  21886899.383 6         0.000 6      1924.092 6        37.977 6
> 2019 07 03 12 02 59.0000000  0  8       0.000000000000
G07  25297708.844 9 132940311.576 9      2169.722 9        54.148 9  25297709.488 6         0.000 6      1690.693 6        37.977 6
G10  23729505.270 9 124699338.430 9      3488.976 9        54.699 9  23729508.920 6         0.000 6      2718.685 6        37.977 6
G21  21200031.587 9 111406897.162 9     -1329.791 9        55.697 9  21200030.878 6         0.000 6     -1036.201 6        37.977 6
G29  24371427.938 9 128072660.608 9     -3229.258 9        54.449 9  24371429.589 6         0.000 6     -2516.307 6        37.977 6
G27  21947729.684 9 115336071.266 9      2543.989 9        55.397 9  21947731.596 6         0.000 6      1982.330 6        37.977 6
G16  20485190.308 9 107650381.340 9       518.000 9        55.982 9  20485189.481 6         0.000 6       403.636 6        37.977 6
G26  20688980.798 9 108721305.410 9     -1538.660 9        55.859 9  20688983.628 6         0.000 6     -1198.956 6        37.977 6
G20  21886429.342 9 115013929.905 9      2467.883 9        55.338 9  21886429.631 6         0.000 6      1923.026 6        37.977 6
> 2019 07 03 12 03  0.0000000  0  8       0.000000000000
G07  25297295.886 9 132938141.471 9      2170.466 9        54.149 9  25297296.530 6         0.000 6      1691.273 6        37.977 6
G10  23728841.470 9 124695850.145 9      3487.641 9        54.699 9  23728845.118 6         0.000 6      2717.645 6        37.977 6
G21  21200284.659 9 111408227.065 9     -1330.019 9        55.697 9  21200283.950 6         0.000 6     -1036.378 6        37.977 6
G29  24372042.470 9 128075889.982 9     -3229.501 9        54.449 9  24372044.121 6         0.000 6     -2516.497 6        37.977 6
G27  21947245.565 9 115333527.211 9      2544.110 9        55.397 9  21947247.478 6         0.000 6      1982.424 6        37.977 6
G16  20485091.785 9 107649863.596 9       517.478 9        55.982 9  20485090.958 6         0.000 6       403.230 6        37.977 6
G26  20689273.703 9 108722844.632 9     -1539.780 9        55.859 9  20689276.532 6         0.000 6     -1199.829 6        37.977 6
G20  21885959.844 9 115011462.678 9      2466.598 9        55.338 9  21885960.132 6         0.000 6      1922.026 6        37.977 6
> 2019 07 03 12 03  1.0000000  0  8       0.000000000000
G07  25296882.798 9 132935970.678 9      2171.104 9        54.149 9  25296883.441 6         0.000 6      1691.770 6        37.977 6
G10  23728177.913 9 124692363.142 9      3486.410 9        54.699 9  23728181.561 6         0.000 6      2716.686 6        37.977 6
G21  21200537.776 9 111409557.201 9     -1330.252 9        55.697 9  21200537.067 6         0.000 6     -1036.560 6        37.977 6
G29  24372657.045 9 128079119.585 9     -3229.715 9        54.449 9  24372658.697 6         0.000 6     -2516.663 6        37.977 6
G27  21946761.429 9 115330983.060 9      2544.187 9        55.397 9  21946763.342 6         0.000 6      1982.484 6        37.977 6
G16  20484993.363 9 107649346.386 9       516.942 9        55.982 9  20484992.536 6         0.000 6       402.812 6        37.977 6
G26  20689566.817 9 108724384.954 9     -1540.856 9        55.858 9  20689569.647 6         0.000 6     -1200.668 6        37.977 6
G20  21885490.583 9 115008996.699 9      2465.391 9        55.339 9  21885490.871 6         0.000 6      1921.085 6        37.977 6
> 2019 07 03 12 03  2.0000000  0  8       0.000000000000
G07  25296469.598 9 132933799.305 9      2171.631 9        54.149 9  25296470.242 6         0.000 6      1692.181 6        37.977 6
G10  23727514.580 9 124688877.315 9      3485.284 9        54.699 9  23727518.228 6         0.000 6      2715.808 6        37.977 6
G21  21200790.937 9 111410887.575 9     -1330.495 9        55.697 9  21200790.229 6         0.000 6     -1036.749 6        37.977 6
G29  24373271.658 9 128082349.387 9     -3229.906 9        54.449 9  24373273.310 6         0.000 6     -2516.812 6        37.977 6
G27  21946277.283 9 115328438.856 9      2544.223 9        55.397 9  21946279.195 6         0.000 6      1982.512 6        37.977 6
G16  20484895.045 9 107648829.720 9       516.391 9        55.982 9  20484894.218 6         0.000 6       402.383 6        37.977 6
G26  20689860.131 9 108725926.330 9     -1541.887 9        55.858 9  20689862.961 6         0.000 6     -1201.471 6        37.977 6
G20  21885021.543 9 115006531.885 9      2464.260 9        55.339 9  21885021.831 6         0.000 6      1920.204 6        37.977 6
> 2019 07 03 12 03  3.0000000  0  8       0.000000000000
G07  25296056.309 9 132931627.459 9      2172.053 9        54.149 9  25296056.952 6         0.000 6      1692.510 6        37.977 6
G10  23726851.452 9 124685392.562 9      3484.261 9        54.700 9  23726855.099 6         0.000 6      2715.011 6        37.977 6
G21  21201044.146 9 111412218.195 9     -1330.744 9        55.697 9  21201043.437 6         0.000 6     -1036.943 6        37.977 6
G29  24373886.304 9 128085579.365 9     -3230.068 9        54.448 9  24373887.957 6         0.000 6     -2516.939 6        37.977 6
G27  21945793.134 9 115325894.638 9      2544.216 9        55.398 9  21945795.046 6         0.000 6      1982.507 6        37.977 6
G16  20484796.833 9 107648313.614 9       515.826 9        55.982 9  20484796.006 6         0.000 6       401.942 6        37.977 6
G26  20690153.638 9 108727468.715 9     -1542.874 9        55.858 9  20690156.468 6         0.000 6     -1202.240 6        37.977 6
G20  21884552.712 9 115004068.164 9      2463.206 9        55.339 9  21884553.000 6         0.000 6      1919.382 6        37.977 6
> 2019 07 03 12 03  4.0000000  0  8       0.000000000000
G07  25295642.949 9 132929455.239 9      2172.372 9        54.149 9  25295643.592 6         0.000 6      1692.758 6        37.977 6
G10  23726188.509 9 124681908.782 9      3483.336 9        54.700 9  23726192.155 6         0.000 6      2714.291 6        37.977 6
G21  21201297.402 9 111413549.063 9     -1331.002 9        55.697 9  21201296.693 6         0.000 6     -1037.145 6        37.977 6
G29  24374500.980 9 128088809.496 9     -3230.211 9        54.448 9  24374502.634 6         0.000 6     -2517.050 6        37.977 6
G27  21945308.988 9 115323350.440 9      2544.172 9        55.398 9  21945310.900 6         0.000 6      1982.472 6        37.977 6
G16  20484698.729 9 107647798.072 9       515.248 9        55.982 9  20484697.902 6         0.000 6       401.492 6        37.977 6
G26  20690447.327 9 108729012.060 9     -1543.819 9        55.858 9  20690450.157 6         0.000 6     -1202.976 6        37.977 6
G20  21884084.074 9 115001605.459 9      2462.223 9        55.339 9  21884084.362 6         0.000 6      1918.616 6        37.977 6
> 2019 07 03 12 03  5.0000000  0  8       0.000000000000
G07  25295229.537 9 132927282.747 9      2172.596 9        54.149 9  25295230.179 6         0.000 6      1692.933 6        37.977 6
G10  23725525.733 9 124678425.881 9      3482.509 9        54.700 9  23725529.378 6         0.000 6      2713.646 6        37.977 6
G21  21201550.708 9 111414880.196 9     -1331.271 9        55.697 9  21201550.000 6         0.000 6     -1037.354 6        37.977 6
G29  24375115.681 9 128092039.761 9     -3230.343 9        54.448 9  24375117.335 6         0.000 6     -2517.153 6        37.977 6
G27  21944824.855 9 115320806.304 9      2544.102 9        55.398 9  21944826.767 6         0.000 6      1982.417 6        37.977 6
G16  20484600.736 9 107647283.114 9       514.666 9        55.982 9  20484599.909 6         0.000 6       401.038 6        37.977 6
G26  20690741.192 9 108730556.331 9     -1544.715 9        55.858 9  20690744.022 6         0.000 6     -1203.675 6        37.977 6
G20  21883615.617 9 114999143.706 9      2461.307 9        55.339 9  21883615.904 6         0.000 6      1917.903 6        37.977 6
> 2019 07 03 12 03  6.0000000  0  8       0.000000000000
G07  25294816.092 9 132925110.085 9      2172.720 9        54.149 9  25294816.734 6         0.000 6      1693.030 6        37.977 6
G10  23724863.105 9 124674943.758 9      3481.775 9        54.700 9  23724866.750 6         0.000 6      2713.074 6        37.977 6
G21  21201804.068 9 111416211.608 9     -1331.554 9        55.697 9  21201803.359 6         0.000 6     -1037.575 6        37.977 6
G29  24375730.406 9 128095270.151 9     -3230.459 9        54.448 9  24375732.061 6         0.000 6     -2517.243 6        37.977 6
G27  21944340.739 9 115318262.259 9      2543.992 9        55.398 9  21944342.650 6         0.000 6      1982.332 6        37.977 6
G16  20484502.855 9 107646768.749 9       514.067 9        55.982 9  20484502.028 6         0.000 6       400.572 6        37.977 6
G26  20691035.224 9 108732101.479 9     -1545.574 9        55.858 9  20691038.055 6         0.000 6     -1204.344 6        37.977 6
G20  21883147.328 9 114996682.834 9      2460.457 9        55.340 9  21883147.615 6         0.000 6      1917.240 6        37.977 6
> 2019 07 03 12 03  7.0000000  0  8       0.000000000000
G07  25294402.633 9 132922937.344 9      2172.751 9        54.150 9  25294403.275 6         0.000 6      1693.054 6        37.977 6
G10  23724200.607 9 124671462.319 9      3481.136 9        54.701 9  23724204.251 6         0.000 6      2712.576 6        37.977 6
G21  21202057.481 9 111417543.303 9     -1331.847 9        55.696 9  21202056.772 6         0.000 6     -1037.803 6        37.977 6
G29  24376345.152 9 128098500.654 9     -3230.567 9        54.448 9  24376346.808 6         0.000 6     -2517.328 6        37.977 6
G27  21943856.645 9 115315718.331 9      2543.860 9        55.398 9  21943858.556 6         0.000 6      1982.229 6        37.977 6
G16  20484405.088 9 107646254.978 9       513.465 9        55.982 9  20484404.261 6         0.000 6       400.102 6        37.977 6
G26  20691329.415 9 108733647.458 9     -1546.386 9        55.858 9  20691332.245 6         0.000 6     -1204.977 6        37.977 6
G20  21882679.194 9 114994222.777 9      2459.673 9        55.340 9  21882679.481 6         0.000 6      1916.629 6        37.977 6
> 2019 07 03 12 03  8.0000000  0  8       0.000000000000
G07  25293989.176 9 132920764.619 9      2172.692 9        54.150 9  25293989.818 6         0.000 6      1693.008 6        37.977 6
G10  23723538.223 9 124667981.477 9      3480.588 9        54.701 9  23723541.866 6         0.000 6      2712.149 6        37.977 6
G21  21202310.953 9 111418875.306 9     -1332.151 9        55.696 9  21202310.244 6         0.000 6     -1038.040 6        37.977 6
G29  24376959.919 9 128101731.265 9     -3230.670 9        54.447 9  24376961.575 6         0.000 6     -2517.408 6        37.977 6
G27  21943372.579 9 115313174.553 9      2543.705 9        55.399 9  21943374.491 6         0.000 6      1982.108 6        37.977 6
G16  20484307.437 9 107645741.821 9       512.860 9        55.982 9  20484306.610 6         0.000 6       399.631 6        37.977 6
G26  20691623.756 9 108735194.233 9     -1547.151 9        55.858 9  20691626.587 6         0.000 6     -1205.573 6        37.977 6
G20  21882211.204 9 114991763.478 9      2458.952 9        55.340 9  21882211.490 6         0.000 6      1916.067 6        37.977 6
> 2019 07 03 12 03  9.0000000  0  8       0.000000000000
G07  25293575.739 9 132918591.996 9      2172.549 9        54.150 9  25293576.381 6         0.000 6      1692.896 6        37.977 6
G10  23722875.934 9 124664501.138 9      3480.122 9        54.701 9  23722879.577 6         0.000 6      2711.786 6        37.977 6
G21  21202564.483 9 111420207.613 9     -1332.472 9        55.696 9  21202563.774 6         0.000 6     -1038.290 6        37.977 6
G29  24377574.703 9 128104961.970 9     -3230.765 9        54.447 9  24377576.361 6         0.000 6     -2517.482 6        37.977 6
G27  21942888.545 9 115310630.940 9      2543.522 9        55.399 9  21942890.457 6         0.000 6      1981.966 6        37.977 6
G16  20484209.901 9 107645229.267 9       512.244 9        55.982 9  20484209.074 6         0.000 6       399.151 6        37.977 6
G26  20691918.239 9 108736741.749 9     -1547.881 9        55.857 9  20691921.070 6         0.000 6     -1206.142 6        37.977 6
G20  21881743.345 9 114989304.866 9      2458.285 9        55.340 9  21881743.631 6         0.000 6      1915.548 6        37.977 6
> 2019 07 03 12 03 10.0000000  0  8       0.000000000000
G07  25293162.337 9 132916419.559 9      2172.322 9        54.150 9  25293162.979 6         0.000 6      1692.719 6        37.977 6
G10  23722213.727 9 124661021.226 9      3479.737 9        54.701 9  23722217.370 6         0.000 6      2711.486 6        37.977 6
G21  21202818.076 9 111421540.254 9     -1332.806 9        55.696 9  21202817.368 6         0.000 6     -1038.550 6        37.977 6
G29  24378189.507 9 128108192.773 9     -3230.857 9        54.447 9  24378191.165 6         0.000 6     -2517.554 6        37.977 6
G27  21942404.549 9 115308087.525 9      2543.315 9        55.399 9  21942406.460 6         0.000 6      1981.805 6        37.977 6
G16  20484112.485 9 107644717.338 9       511.620 9        55.982 9  20484111.658 6         0.000 6       398.665 6        37.977 6
G26  20692212.859 9 108738289.982 9     -1548.575 9        55.857 9  20692215.689 6         0.000 6     -1206.682 6        37.977 6
G20  21881275.609 9 114986846.899 9      2457.672 9        55.340 9  21881275.894 6         0.000 6      1915.070 6        37.977 6
> 2019 07 03 12 03 11.0000000  0  8       0.000000000000
G07  25292748.985 9 132914247.380 9      2172.027 9        54.150 9  25292749.626 6         0.000 6      1692.490 6        37.977 6
G10  23721551.586 9 124657541.663 9      3479.423 9        54.701 9  23721555.228 6         0.000 6      2711.241 6        37.977 6
G21  21203071.732 9 111422873.227 9     -1333.146 9        55.696 9  21203071.024 6         0.000 6     -1038.816 6        37.977 6
G29  24378804.327 9 128111423.666 9     -3230.947 9        54.447 9  24378805.986 6         0.000 6     -2517.624 6        37.977 6
G27  21941920.592 9 115305544.316 9      2543.097 9        55.399 9  21941922.503 6         0.000 6      1981.635 6        37.977 6
G16  20484015.185 9 107644206.025 9       511.000 9        55.982 9  20484014.358 6         0.000 6       398.182 6        37.977 6
G26  20692507.605 9 108739838.881 9     -1549.227 9        55.857 9  20692510.436 6         0.000 6     -1207.191 6        37.977 6
G20  21880807.983 9 114984389.517 9      2457.109 9        55.340 9  21880808.269 6         0.000 6      1914.631 6        37.977 6
> 2019 07 03 12 03 12.0000000  0  8       0.000000000000
G07  25292335.696 9 132912075.535 9      2171.671 9        54.150 9  25292336.337 6         0.000 6      1692.212 6        37.977 6
G10  23720889.498 9 124654062.377 9      3479.169 9        54.702 9  23720893.139 6         0.000 6      2711.043 6        37.977 6
G21  21203325.456 9 111424206.551 9     -1333.503 9        55.696 9  21203324.747 6         0.000 6     -1039.093 6        37.977 6
G29  24379419.165 9 128114654.649 9     -3231.040 9        54.447 9  24379420.824 6         0.000 6     -2517.696 6        37.977 6
G27  21941436.679 9 115303001.340 9      2542.863 9        55.399 9  21941438.590 6         0.000 6      1981.452 6        37.977 6
G16  20483918.005 9 107643695.340 9       510.373 9        55.982 9  20483917.178 6         0.000 6       397.693 6        37.977 6
G26  20692802.473 9 108741388.421 9     -1549.853 9        55.857 9  20692805.304 6         0.000 6     -1207.678 6        37.977 6
G20  21880340.461 9 114981932.675 9      2456.583 9        55.341 9  21880340.747 6         0.000 6      1914.222 6        37.977 6
> 2019 07 03 12 03 13.0000000  0  8       0.000000000000
G07  25291922.479 9 132909904.068 9      2171.261 9        54.150 9  25291923.120 6         0.000 6      1691.893 6        37.977 6
G10  23720227.454 9 124650583.322 9      3478.968 9        54.702 9  23720231.095 6         0.000 6      2710.887 6        37.977 6
G21  21203579.247 9 111425540.231 9     -1333.866 9        55.696 9  21203578.538 6         0.000 6     -1039.376 6        37.977 6
G29  24380034.019 9 128117885.721 9     -3231.128 9        54.446 9  24380035.679 6         0.000 6     -2517.764 6        37.977 6
G27  21940952.812 9 115300458.603 9      2542.613 9        55.399 9  21940954.722 6         0.000 6      1981.258 6        37.977 6
G16  20483820.944 9 107643185.280 9       509.742 9        55.982 9  20483820.117 6         0.000 6       397.201 6        37.977 6
G26  20693097.457 9 108742938.572 9     -1550.454 9        55.857 9  20693100.288 6         0.000 6     -1208.146 6        37.977 6
G20  21879873.036 9 114979476.342 9      2456.094 9        55.341 9  21879873.321 6         0.000 6      1913.841 6        37.977 6
> 2019 07 03 12 03 14.0000000  0  8       0.000000000000
G07  25291509.343 9 132907733.027 9      2170.824 9        54.151 9  25291509.983 6         0.000 6      1691.552 6        37.977 6
G10  23719565.446 9 124647104.455 9      3478.795 9        54.702 9  23719569.086 6         0.000 6      2710.752 6        37.977 6
G21  21203833.108 9 111426874.280 9     -1334.230 9        55.696 9  21203832.400 6         0.000 6     -1039.660 6        37.977 6
G29  24380648.890 9 128121116.877 9     -3231.212 9        54.446 9  24380650.550 6         0.000 6     -2517.830 6        37.977 6
G27  21940468.994 9 115297916.125 9      2542.357 9        55.400 9  21940470.904 6         0.000 6      1981.058 6        37.977 6
G16  20483724.004 9 107642675.859 9       509.111 9        55.982 9  20483723.177 6         0.000 6       396.710 6        37.977 6
G26  20693392.555 9 108744489.322 9     -1551.039 9        55.857 9  20693395.387 6         0.000 6     -1208.602 6        37.977 6
G20  21879405.702 9 114977020.489 9      2455.625 9        55.341 9  21879405.986 6         0.000 6      1913.475 6        37.977 6
> 2019 07 03 12 03 15.0000000  0  8       0.000000000000
G07  25291096.292 9 132905562.435 9      2170.363 9        54.151 9  25291096.932 6         0.000 6      1691.193 6        37.977 6
G10  23718903.467 9 124643625.744 9      3478.646 9        54.702 9  23718907.106 6         0.000 6      2710.636 6        37.977 6
G21  21204087.038 9 111428208.693 9     -1334.602 9        55.696 9  21204086.330 6         0.000 6     -1039.950 6        37.977 6
G29  24381263.778 9 128124348.123 9     -3231.299 9        54.446 9  24381265.439 6         0.000 6     -2517.898 6        37.977 6
G27  21939985.224 9 115295373.898 9      2542.095 9        55.400 9  21939987.134 6         0.000 6      1980.854 6        37.977 6
G16  20483627.183 9 107642167.060 9       508.478 9        55.982 9  20483626.356 6         0.000 6       396.217 6        37.977 6
G26  20693687.762 9 108746040.644 9     -1551.613 9        55.857 9  20693690.594 6         0.000 6     -1209.050 6        37.977 6
G20  21878938.455 9 114974565.095 9      2455.170 9        55.341 9  21878938.739 6         0.000 6      1913.121 6        37.977 6
> 2019 07 03 12 03 16.0000000  0  8       0.000000000000
G07  25290683.331 9 132903392.316 9      2169.881 9        54.151 9  25290683.972 6         0.000 6      1690.817 6        37.977 6
G10  23718241.516 9 124640147.175 9      3478.517 9        54.703 9  23718245.154 6         0.000 6      2710.535 6        37.977 6
G21  21204341.041 9 111429543.486 9     -1334.977 9        55.695 9  21204340.333 6         0.000 6     -1040.242 6        37.977 6
G29  24381878.681 9 128127579.453 9     -3231.383 9        54.446 9  24381880.343 6         0.000 6     -2517.964 6        37.977 6
G27  21939501.505 9 115292831.944 9      2541.825 9        55.400 9  21939503.415 6         0.000 6      1980.644 6        37.977 6
G16  20483530.484 9 107641658.904 9       507.842 9        55.982 9  20483529.657 6         0.000 6       395.721 6        37.977 6
G26  20693983.079 9 108747592.543 9     -1552.180 9        55.857 9  20693985.911 6         0.000 6     -1209.491 6        37.977 6
G20  21878471.294 9 114972110.153 9      2454.729 9        55.341 9  21878471.578 6         0.000 6      1912.777 6        37.977 6
> 2019 07 03 12 03 17.0000000  0  8       0.000000000000
G07  25290270.462 9 132901222.677 9      2169.400 9        54.151 9  25290271.102 6         0.000 6      1690.443 6        37.977 6
G10  23717579.588 9 124636668.732 9      3478.389 9        54.703 9  23717583.226 6         0.000 6      2710.436 6        37.977 6
G21  21204595.114 9 111430878.647 9     -1335.352 9        55.695 9  21204594.406 6         0.000 6     -1040.534 6        37.977 6
G29  24382493.602 9 128130810.872 9     -3231.472 9        54.445 9  24382495.265 6         0.000 6     -2518.033 6        37.977 6
G27  21939017.836 9 115290290.249 9      2541.562 9        55.400 9  21939019.746 6         0.000 6      1980.438 6        37.977 6
G16  20483433.904 9 107641151.372 9       507.211 9        55.982 9  20483433.077 6         0.000 6       395.229 6        37.977 6
G26  20694278.502 9 108749144.998 9     -1552.742 9        55.856 9  20694281.334 6         0.000 6     -1209.929 6        37.977 6
G20  21878004.216 9 114969655.647 9      2454.288 9        55.342 9  21878004.500 6         0.000 6      1912.433 6        37.977 6
> 2019 07 03 12 03 18.0000000  0  8       0.000000000000
G07  25289857.686 9 132899053.530 9      2168.903 9        54.151 9  25289858.326 6         0.000 6      1690.055 6        37.977 6
G10  23716917.684 9 124633190.413 9      3478.273 9        54.703 9  23716921.321 6         0.000 6      2710.345 6        37.977 6
G21  21204849.260 9 111432214.190 9     -1335.731 9        55.695 9  21204848.552 6         0.000 6     -1040.830 6        37.977 6
G29  24383108.539 9 128134042.376 9     -3231.558 9        54.445 9  24383110.202 6         0.000 6     -2518.100 6        37.977 6
G27  21938534.220 9 115287748.830 9      2541.289 9        55.400 9  21938536.129 6         0.000 6      1980.226 6        37.977 6
G16  20483337.446 9 107640644.483 9       506.574 9        55.982 9  20483336.619 6         0.000 6       394.733 6        37.977 6
G26  20694574.033 9 108750698.021 9     -1553.301 9        55.856 9  20694576.865 6         0.000 6     -1210.365 6        37.977 6
G20  21877537.222 9 114967201.582 9      2453.855 9        55.342 9  21877537.506 6         0.000 6      1912.096 6        37.977 6
> 2019 07 03 12 03 19.0000000  0  8       0.000000000000
G07  25289445.005 9 132896884.875 9      2168.407 9        54.151 9  25289445.644 6         0.000 6      1689.669 6        37.977 6
G10  23716255.801 9 124629712.208 9      3478.159 9        54.703 9  23716259.438 6         0.000 6      2710.256 6        37.977 6
G21  21205103.476 9 111433550.104 9     -1336.108 9        55.695 9  21205102.768 6         0.000 6     -1041.123 6        37.977 6
G29  24383723.492 9 128137273.965 9     -3231.643 9        54.445 9  24383725.156 6         0.000 6     -2518.166 6        37.977 6
G27  21938050.654 9 115285207.675 9      2541.018 9        55.401 9  21938052.563 6         0.000 6      1980.015 6        37.977 6
G16  20483241.108 9 107640138.222 9       505.940 9        55.983 9  20483240.281 6         0.000 6       394.239 6        37.977 6
G26  20694869.668 9 108752251.595 9     -1553.857 9        55.856 9  20694872.500 6         0.000 6     -1210.798 6        37.977 6
G20  21877070.310 9 114964747.945 9      2453.424 9        55.342 9  21877070.594 6         0.000 6      1911.760 6        37.977 6
> 2019 07 03 12 03 20.0000000  0  8       0.000000000000
G07  25289032.418 9 132894716.723 9      2167.917 9        54.151 9  25289033.058 6         0.000 6      1689.287 6        37.977 6
G10  23715593.940 9 124626234.114 9      3478.038 9        54.704 9  23715597.576 6         0.000 6      2710.162 6        37.977 6
G21  21205357.764 9 111434886.396 9     -1336.482 9        55.695 9  21205357.056 6         0.000 6     -1041.415 6        37.977 6
G29  24384338.460 9 128140505.635 9     -3231.728 9        54.445 9  24384340.125 6         0.000 6     -2518.232 6        37.977 6
G27  21937567.140 9 115282666.798 9      2540.750 9        55.401 9  21937569.049 6         0.000 6      1979.806 6        37.977 6
G16  20483144.891 9 107639632.599 9       505.307 9        55.983 9  20483144.064 6         0.000 6       393.746 6        37.977 6
G26  20695165.410 9 108753805.728 9     -1554.416 9        55.856 9  20695168.242 6         0.000 6     -1211.234 6        37.977 6
G20  21876603.479 9 114962294.738 9      2452.989 9        55.342 9  21876603.763 6         0.000 6      1911.421 6        37.977 6
> 2019 07 03 12 03 21.0000000  0  8       0.000000000000
G07  25288619.924 9 132892549.052 9      2167.431 9        54.152 9  25288620.563 6         0.000 6      1688.908 6        37.977 6
G10  23714932.103 9 124622756.146 9      3477.914 9        54.704 9  23714935.738 6         0.000 6      2710.065 6        37.977 6
G21  21205612.123 9 111436223.063 9     -1336.855 9        55.695 9  21205611.415 6         0.000 6     -1041.705 6        37.977 6
G29  24384953.446 9 128143737.397 9     -3231.812 9        54.445 9  24384955.111 6         0.000 6     -2518.298 6        37.977 6
G27  21937083.676 9 115280126.181 9      2540.481 9        55.401 9  21937085.586 6         0.000 6      1979.597 6        37.977 6
G16  20483048.794 9 107639127.606 9       504.674 9        55.983 9  20483047.967 6         0.000 6       393.252 6        37.977 6
G26  20695461.259 9 108755360.419 9     -1554.977 9        55.856 9  20695464.091 6         0.000 6     -1211.671 6        37.977 6
G20  21876136.733 9 114959841.971 9      2452.552 9        55.342 9  21876137.016 6         0.000 6      1911.080 6        37.977 6
> 2019 07 03 12 03 22.0000000  0  8       0.000000000000
G07  25288207.521 9 132890381.867 9      2166.958 9        54.152 9  25288208.160 6         0.000 6      1688.540 6        37.977 6
G10  23714270.291 9 124619278.310 9      3477.774 9        54.704 9  23714273.925 6         0.000 6      2709.957 6        37.977 6
G21  21205866.555 9 111437560.109 9     -1337.230 9        55.695 9  21205865.847 6         0.000 6     -1041.997 6        37.977 6
G29  24385568.448 9 128146969.241 9     -3231.900 9        54.444 9  24385570.113 6         0.000 6     -2518.367 6        37.977 6
G27  21936600.265 9 115277585.841 9      2540.217 9        55.401 9  21936602.174 6         0.000 6      1979.391 6        37.977 6
G16  20482952.819 9 107638623.255 9       504.040 9        55.983 9  20482951.992 6         0.000 6       392.758 6        37.977 6
G26  20695757.216 9 108756915.682 9     -1555.546 9        55.856 9  20695760.048 6         0.000 6     -1212.114 6        37.977 6
G20  21875670.070 9 114957389.648 9      2452.102 9        55.342 9  21875670.353 6         0.000 6      1910.730 6        37.977 6
> 2019 07 03 12 03 23.0000000  0  8       0.000000000000
G07  25287795.207 9 132888215.143 9      2166.504 9        54.152 9  25287795.845 6         0.000 6      1688.186 6        37.977 6
G10  23713608.507 9 124615800.620 9      3477.617 9        54.704 9  23713612.141 6         0.000 6      2709.834 6        37.977 6
G21  21206121.056 9 111438897.521 9     -1337.599 9        55.695 9  21206120.348 6         0.000 6     -1042.285 6        37.977 6
G29  24386183.465 9 128150201.169 9     -3231.986 9        54.444 9  24386185.131 6         0.000 6     -2518.434 6        37.977 6
G27  21936116.903 9 115275045.760 9      2539.956 9        55.401 9  21936118.812 6         0.000 6      1979.188 6        37.977 6
G16  20482856.964 9 107638119.532 9       503.407 9        55.983 9  20482856.137 6         0.000 6       392.265 6        37.977 6
G26  20696053.281 9 108758471.513 9     -1556.124 9        55.856 9  20696056.113 6         0.000 6     -1212.565 6        37.977 6
G20  21875203.494 9 114954937.776 9      2451.642 9        55.343 9  21875203.776 6         0.000 6      1910.371 6        37.977 6
> 2019 07 03 12 03 24.0000000  0  8       0.000000000000
G07  25287382.976 9 132886048.859 9      2166.071 9        54.152 9  25287383.614 6         0.000 6      1687.849 6        37.977 6
G10  23712946.755 9 124612323.103 9      3477.436 9        54.705 9  23712950.388 6         0.000 6      2709.693 6        37.977 6
G21  21206375.628 9 111440235.303 9     -1337.965 9        55.695 9  21206374.920 6         0.000 6     -1042.570 6        37.977 6
G29  24386798.500 9 128153433.190 9     -3232.071 9        54.444 9  24386800.167 6         0.000 6     -2518.499 6        37.977 6
G27  21935633.590 9 115272505.933 9      2539.698 9        55.402 9  21935635.498 6         0.000 6      1978.986 6        37.977 6
G16  20482761.229 9 107637616.440 9       502.773 9        55.983 9  20482760.402 6         0.000 6       391.771 6        37.977 6
G26  20696349.457 9 108760027.929 9     -1556.715 9        55.856 9  20696352.290 6         0.000 6     -1213.025 6        37.977 6
G20  21874737.007 9 114952486.376 9      2451.166 9        55.343 9  21874737.289 6         0.000 6      1910.001 6        37.977 6
> 2019 07 03 12 03 25.0000000  0  8       0.000000000000
G07  25286970.825 9 132883882.997 9      2165.668 9        54.152 9  25286971.464 6         0.000 6      1687.534 6        37.977 6
G10  23712285.040 9 124608845.777 9      3477.229 9        54.705 9  23712288.673 6         0.000 6      2709.531 6        37.977 6
G21  21206630.268 9 111441573.448 9     -1338.322 9        55.695 9  21206629.560 6         0.000 6     -1042.849 6        37.977 6
G29  24387413.551 9 128156665.294 9     -3232.157 9        54.444 9  24387415.219 6         0.000 6     -2518.566 6        37.977 6
G27  21935150.325 9 115269966.362 9      2539.452 9        55.402 9  21935152.233 6         0.000 6      1978.795 6        37.977 6
G16  20482665.614 9 107637113.982 9       502.146 9        55.983 9  20482664.787 6         0.000 6       391.283 6        37.977 6
G26  20696645.747 9 108761584.941 9     -1557.314 9        55.855 9  20696648.580 6         0.000 6     -1213.492 6        37.977 6
G20  21874270.612 9 114950035.458 9      2450.674 9        55.343 9  21874270.894 6         0.000 6      1909.618 6        37.977 6
> 2019 07 03 12 03 26.0000000  0  8       0.000000000000
G07  25286558.748 9 132881717.518 9      2165.297 9        54.152 9  25286559.386 6         0.000 6      1687.245 6        37.977 6
G10  23711623.368 9 124605368.679 9      3476.987 9        54.705 9  23711627.000 6         0.000 6      2709.343 6        37.977 6
G21  21206884.976 9 111442911.949 9     -1338.679 9        55.694 9  21206884.269 6         0.000 6     -1043.127 6        37.977 6
G29  24388028.619 9 128159897.485 9     -3232.246 9        54.443 9  24388030.287 6         0.000 6     -2518.636 6        37.977 6
G27  21934667.106 9 115267427.032 9      2539.211 9        55.402 9  21934669.014 6         0.000 6      1978.607 6        37.977 6
G16  20482570.119 9 107636612.150 9       501.516 9        55.983 9  20482569.291 6         0.000 6       390.792 6        37.977 6
G26  20696942.153 9 108763142.563 9     -1557.935 9        55.855 9  20696944.986 6         0.000 6     -1213.976 6        37.977 6
G20  21873804.313 9 114947585.047 9      2450.157 9        55.343 9  21873804.595 6         0.000 6      1909.214 6        37.977 6
> 2019 07 03 12 03 27.0000000  0  8       0.000000000000
G07  25286146.737 9 132879552.388 9      2164.972 9        54.152 9  25286147.374 6         0.000 6      1686.992 6        37.977 6
G10  23710961.746 9 124601891.843 9      3476.699 9        54.705 9  23710965.378 6         0.000 6      2709.119 6        37.977 6
G21  21207139.751 9 111444250.798 9     -1339.025 9        55.694 9  21207139.043 6         0.000 6     -1043.396 6        37.977 6
G29  24388643.703 9 128163129.764 9     -3232.334 9        54.443 9  24388645.372 6         0.000 6     -2518.705 6        37.977 6
G27  21934183.931 9 115264887.936 9      2538.984 9        55.402 9  21934185.840 6         0.000 6      1978.430 6        37.977 6
G16  20482474.742 9 107636110.944 9       500.891 9        55.983 9  20482473.915 6         0.000 6       390.305 6        37.977 6
G26  20697238.679 9 108764700.813 9     -1558.575 9        55.855 9  20697241.511 6         0.000 6     -1214.475 6        37.977 6
G20  21873338.115 9 114945135.164 9      2449.611 9        55.343 9  21873338.397 6         0.000 6      1908.789 6        37.977 6
> 2019 07 03 12 03 28.0000000  0  8       0.000000000000
G07  25285734.783 9 132877387.561 9      2164.691 9        54.153 9  25285735.421 6         0.000 6      1686.773 6        37.977 6
G10  23710300.184 9 124598415.319 9      3476.366 9        54.706 9  23710303.815 6         0.000 6      2708.860 6        37.977 6
G21  21207394.592 9 111445589.994 9     -1339.366 9        55.694 9  21207393.884 6         0.000 6     -1043.662 6        37.977 6
G29  24389258.805 9 128166362.135 9     -3232.424 9        54.443 9  24389260.474 6         0.000 6     -2518.775 6        37.977 6
G27  21933700.800 9 115262349.065 9      2538.764 9        55.402 9  21933702.708 6         0.000 6      1978.258 6        37.977 6
G16  20482379.486 9 107635610.367 9       500.264 9        55.983 9  20482378.658 6         0.000 6       389.816 6        37.977 6
G26  20697535.329 9 108766259.719 9     -1559.241 9        55.855 9  20697538.162 6         0.000 6     -1214.994 6        37.977 6
G20  21872872.025 9 114942685.847 9      2449.033 9        55.344 9  21872872.306 6         0.000 6      1908.339 6        37.977 6
> 2019 07 03 12 03 29.0000000  0  8       0.000000000000
G07  25285322.878 9 132875222.990 9      2164.460 9        54.153 9  25285323.515 6         0.000 6      1686.593 6        37.977 6
G10  23709638.689 9 124594939.152 9      3475.985 9        54.706 9  23709642.320 6         0.000 6      2708.563 6        37.977 6
G21  21207649.497 9 111446929.526 9     -1339.694 9        55.694 9  21207648.789 6         0.000 6     -1043.917 6        37.977 6
G29  24389873.924 9 128169594.600 9     -3232.515 9        54.443 9  24389875.595 6         0.000 6     -2518.846 6        37.977 6
G27  21933217.708 9 115259810.401 9      2538.561 9        55.403 9  21933219.616 6         0.000 6      1978.100 6        37.977 6
G16  20482284.347 9 107635110.411 9       499.645 9        55.983 9  20482283.520 6         0.000 6       389.334 6        37.977 6
G26  20697832.107 9 108767819.299 9     -1559.927 9        55.855 9  20697834.940 6         0.000 6     -1215.528 6        37.977 6
G20  21872406.047 9 114940237.122 9      2448.426 9        55.344 9  21872406.328 6         0.000 6      1907.865 6        37.977 6
> 2019 07 03 12 03 30.0000000  0  8       0.000000000000
G07  25284911.012 9 132873058.625 9      2164.288 9        54.153 9  25284911.650 6         0.000 6      1686.459 6        37.977 6
G10  23708977.272 9 124591463.393 9      3475.543 9        54.706 9  23708980.902 6         0.000 6      2708.218 6        37.977 6
G21  21207904.463 9 111448269.382 9     -1340.015 9        55.694 9  21207903.755 6         0.000 6     -1044.167 6        37.977 6
G29  24390489.060 9 128172827.150 9     -3232.604 9        54.443 9  24390490.731 6         0.000 6     -2518.915 6        37.977 6
G27  21932734.654 9 115257271.942 9      2538.366 9        55.403 9  21932736.562 6         0.000 6      1977.948 6        37.977 6
G16  20482189.327 9 107634611.077 9       499.022 9        55.983 9  20482188.500 6         0.000 6       388.849 6        37.977 6
G26  20698129.020 9 108769379.581 9     -1560.647 9        55.855 9  20698131.853 6         0.000 6     -1216.089 6        37.977 6
G20  21871940.189 9 114937789.022 9      2447.776 9        55.344 9  21871940.469 6         0.000 6      1907.359 6        37.977 6
> 2019 07 03 12 03 31.0000000  0  8       0.000000000000
G07  25284499.174 9 132870894.404 9      2164.176 9        54.153 9  25284499.811 6         0.000 6      1686.372 6        37.977 6
G10  23708315.945 9 124587988.106 9      3475.040 9        54.706 9  23708319.574 6         0.000 6      2707.826 6        37.977 6
G21  21208159.489 9 111449609.553 9     -1340.323 9        55.694 9  21208158.781 6         0.000 6     -1044.407 6        37.977 6
G29  24391104.213 9 128176059.788 9     -3232.695 9        54.442 9  24391105.884 6         0.000 6     -2518.985 6        37.977 6
G27  21932251.637 9 115254733.672 9      2538.188 9        55.403 9  21932253.545 6         0.000 6      1977.809 6        37.977 6
G16  20482094.426 9 107634112.367 9       498.405 9        55.983 9  20482093.598 6         0.000 6       388.368 6        37.977 6
G26  20698426.072 9 108770940.600 9     -1561.396 9        55.855 9  20698428.905 6         0.000 6     -1216.673 6        37.977 6
G20  21871474.457 9 114935341.591 9      2447.088 9        55.344 9  21871474.737 6         0.000 6      1906.823 6        37.977 6
> 2019 07 03 12 03 32.0000000  0  8       0.000000000000
G07  25284087.351 9 132868730.261 9      2164.124 9        54.153 9  25284087.988 6         0.000 6      1686.331 6        37.977 6
G10  23707654.720 9 124584513.354 9      3474.476 9        54.707 9  23707658.348 6         0.000 6      2707.387 6        37.977 6
G21  21208414.572 9 111450950.022 9     -1340.619 9        55.694 9  21208413.864 6         0.000 6     -1044.638 6        37.977 6
G29  24391719.382 9 128179292.514 9     -3232.782 9        54.442 9  24391721.055 6         0.000 6     -2519.054 6        37.977 6
G27  21931768.652 9 115252195.571 9      2538.021 9        55.403 9  21931770.559 6         0.000 6      1977.680 6        37.977 6
G16  20481999.641 9 107633614.270 9       497.788 9        55.983 9  20481998.814 6         0.000 6       387.887 6        37.977 6
G26  20698723.270 9 108772502.382 9     -1562.177 9        55.855 9  20698726.103 6         0.000 6     -1217.281 6        37.977 6
G20  21871008.861 9 114932894.869 9      2446.360 9        55.344 9  21871009.141 6         0.000 6      1906.255 6        37.977 6
> 2019 07 03 12 03 33.0000000  0  8       0.000000000000
G07  25283675.532 9 132866566.142 9      2164.134 9        54.153 9  25283676.169 6         0.000 6      1686.339 6        37.977 6
G10  23706993.608 9 124581039.195 9      3473.850 9        54.707 9  23706997.235 6         0.000 6      2706.899 6        37.977 6
G21  21208669.710 9 111452290.781 9     -1340.899 9        55.694 9  21208669.003 6         0.000 6     -1044.857 6        37.977 6
G29  24392334.568 9 128182525.324 9     -3232.862 9        54.442 9  24392336.240 6         0.000 6     -2519.116 6        37.977 6
G27  21931285.698 9 115249657.633 9      2537.866 9        55.403 9  21931287.605 6         0.000 6      1977.559 6        37.977 6
G16  20481904.974 9 107633116.791 9       497.172 9        55.983 9  20481904.147 6         0.000 6       387.407 6        37.977 6
G26  20699020.619 9 108774064.961 9     -1562.989 9        55.854 9  20699023.452 6         0.000 6     -1217.914 6        37.977 6
G20  21870543.406 9 114930448.892 9      2445.594 9        55.344 9  21870543.686 6         0.000 6      1905.658 6        37.977 6
> 2019 07 03 12 03 34.0000000  0  8       0.000000000000
G07  25283263.704 9 132864401.974 9      2164.216 9        54.153 9  25283264.340 6         0.000 6      1686.403 6        37.977 6
G10  23706332.622 9 124577565.702 9      3473.149 9        54.707 9  23706336.249 6         0.000 6      2706.352 6        37.977 6
G21  21208924.900 9 111453631.815 9     -1341.165 9        55.694 9  21208924.193 6         0.000 6     -1045.064 6        37.977 6
G29  24392949.769 9 128185758.220 9     -3232.939 9        54.442 9  24392951.443 6         0.000 6     -2519.176 6        37.977 6
G27  21930802.771 9 115247119.837 9      2537.724 9        55.404 9  21930804.678 6         0.000 6      1977.448 6        37.977 6
G16  20481810.423 9 107632619.923 9       496.558 9        55.983 9  20481809.596 6         0.000 6       386.928 6        37.977 6
G26  20699318.126 9 108775628.370 9     -1563.841 9        55.854 9  20699320.960 6         0.000 6     -1218.578 6        37.977 6
G20  21870078.102 9 114928003.709 9      2444.780 9        55.345 9  21870078.382 6         0.000 6      1905.024 6        37.977 6
> 2019 07 03 12 03 35.0000000  0  8       0.000000000000
G07  25282851.855 9 132862237.698 9      2164.361 9        54.154 9  25282852.491 6         0.000 6      1686.516 6        37.977 6
G10  23705671.775 9 124574092.938 9      3472.383 9        54.707 9  23705675.401 6         0.000 6      2705.756 6        37.977 6
G21  21209180.140 9 111454973.110 9     -1341.419 9        55.694 9  21209179.433 6         0.000 6     -1045.262 6        37.977 6
G29  24393564.984 9 128188991.183 9     -3233.011 9        54.441 9  24393566.658 6         0.000 6     -2519.232 6        37.977 6
G27  21930319.871 9 115244582.185 9      2537.592 9        55.404 9  21930321.778 6         0.000 6      1977.345 6        37.977 6
G16  20481715.990 9 107632123.677 9       495.941 9        55.983 9  20481715.163 6         0.000 6       386.447 6        37.977 6
G26  20699615.799 9 108777192.651 9     -1564.728 9        55.854 9  20699618.633 6         0.000 6     -1219.269 6        37.977 6
G20  21869612.957 9 114925559.357 9      2443.923 9        55.345 9  21869613.236 6         0.000 6      1904.357 6        37.977 6
> 2019 07 03 12 03 36.0000000  0  8       0.000000000000
G07  25282439.971 9 132860073.236 9      2164.570 9        54.154 9  25282440.607 6         0.000 6      1686.679 6        37.977 6
G10  23705011.081 9 124570620.980 9      3471.551 9        54.708 9  23705014.707 6         0.000 6      2705.107 6        37.977 6
G21  21209435.427 9 111456314.648 9     -1341.655 9        55.693 9  21209434.720 6         0.000 6     -1045.445 6        37.977 6
G29  24394180.212 9 128192224.219 9     -3233.072 9        54.441 9  24394181.887 6         0.000 6     -2519.279 6        37.977 6
G27  21929836.995 9 115242044.653 9      2537.470 9        55.404 9  21929838.901 6         0.000 6      1977.250 6        37.977 6
G16  20481621.674 9 107631628.041 9       495.325 9        55.983 9  20481620.847 6         0.000 6       385.967 6        37.977 6
G26  20699913.644 9 108778757.836 9     -1565.650 9        55.854 9  20699916.478 6         0.000 6     -1219.988 6        37.977 6
G20  21869147.979 9 114923115.887 9      2443.027 9        55.345 9  21869148.258 6         0.000 6      1903.659 6        37.977 6
> 2019 07 03 12 03 37.0000000  0  8       0.000000000000
G07  25282028.041 9 132857908.534 9      2164.851 9        54.154 9  25282028.677 6         0.000 6      1686.898 6        37.977 6
G10  23704350.552 9 124567149.884 9      3470.647 9        54.708 9  23704354.177 6         0.000 6      2704.403 6        37.977 6
G21  21209690.755 9 111457656.407 9     -1341.872 9        55.693 9  21209690.048 6         0.000 6     -1045.615 6        37.977 6
G29  24394795.449 9 128195457.302 9     -3233.121 9        54.441 9  24394797.125 6         0.000 6     -2519.318 6        37.977 6
G27  21929354.141 9 115239507.242 9      2537.357 9        55.404 9  21929356.047 6         0.000 6      1977.162 6        37.977 6
G16  20481527.475 9 107631133.022 9       494.707 9        55.983 9  20481526.648 6         0.000 6       385.486 6        37.977 6
G26  20700211.668 9 108780323.959 9     -1566.612 9        55.854 9  20700214.502 6         0.000 6     -1220.737 6        37.977 6
G20  21868683.174 9 114920673.326 9      2442.087 9        55.345 9  21868683.453 6         0.000 6      1902.926 6        37.977 6
> 2019 07 03 12 03 38.0000000  0  8       0.000000000000
G07  25281616.052 9 132855743.519 9      2165.194 9        54.154 9  25281616.688 6         0.000 6      1687.165 6        37.977 6
G10  23703690.201 9 124563679.728 9      3469.676 9        54.708 9  23703693.826 6         0.000 6      2703.646 6        37.977 6
G21  21209946.125 9 111458998.382 9     -1342.073 9        55.693 9  21209945.417 6         0.000 6     -1045.771 6        37.977 6
G29  24395410.696 9 128198690.435 9     -3233.158 9        54.441 9  24395412.372 6         0.000 6     -2519.346 6        37.977 6
G27  21928871.308 9 115236969.941 9      2537.248 9        55.404 9  21928873.214 6         0.000 6      1977.077 6        37.977 6
G16  20481433.394 9 107630638.624 9       494.086 9        55.983 9  20481432.567 6         0.000 6       385.002 6        37.977 6
G26  20700509.879 9 108781891.066 9     -1567.611 9        55.854 9  20700512.713 6         0.000 6     -1221.516 6        37.977 6
G20  21868218.553 9 114918231.731 9      2441.108 9        55.345 9  21868218.832 6         0.000 6      1902.163 6        37.977 6
> 2019 07 03 12 03 39.0000000  0  8       0.000000000000
G07  25281203.992 9 132853578.132 9      2165.600 9        54.154 9  25281204.627 6         0.000 6      1687.481 6        37.977 6
G10  23703030.041 9 124560210.575 9      3468.639 9        54.708 9  23703033.665 6         0.000 6      2702.839 6        37.977 6
G21  21210201.530 9 111460340.543 9     -1342.250 9        55.693 9  21210200.822 6         0.000 6     -1045.909 6        37.977 6
G29  24396025.947 9 128201923.590 9     -3233.172 9        54.441 9  24396027.624 6         0.000 6     -2519.358 6        37.977 6
G27  21928388.496 9 115234432.748 9      2537.143 9        55.404 9  21928390.402 6         0.000 6      1976.996 6        37.977 6
G16  20481339.432 9 107630144.849 9       493.463 9        55.983 9  20481338.605 6         0.000 6       384.516 6        37.977 6
G26  20700808.283 9 108783459.189 9     -1568.647 9        55.854 9  20700811.117 6         0.000 6     -1222.323 6        37.977 6
G20  21867754.122 9 114915791.131 9      2440.092 9        55.346 9  21867754.400 6         0.000 6      1901.372 6        37.977 6
> 2019 07 03 12 03 40.0000000  0  8       0.000000000000
G07  25280791.849 9 132851412.308 9      2166.062 9        54.154 9  25280792.484 6         0.000 6      1687.841 6        37.977 6
G10  23702370.084 9 124556742.489 9      3467.544 9        54.709 9  23702373.708 6         0.000 6      2701.985 6        37.977 6
G21  21210456.966 9 111461682.870 9     -1342.405 9        55.693 9  21210456.259 6         0.000 6     -1046.030 6        37.977 6
G29  24396641.199 9 128205156.750 9     -3233.164 9        54.440 9  24396642.876 6         0.000 6     -2519.351 6        37.977 6
G27  21927905.703 9 115231895.659 9      2537.037 9        55.405 9  21927907.609 6         0.000 6      1976.913 6        37.977 6
G16  20481245.588 9 107629651.698 9       492.834 9        55.983 9  20481244.761 6         0.000 6       384.027 6        37.977 6
G26  20701106.888 9 108785028.366 9     -1569.718 9        55.854 9  20701109.722 6         0.000 6     -1223.157 6        37.977 6
G20  21867289.887 9 114913351.564 9      2439.045 9        55.346 9  21867290.165 6         0.000 6      1900.556 6        37.977 6
> 2019 07 03 12 03 41.0000000  0  8       0.000000000000
G07  25280379.612 9 132849245.995 9      2166.583 9        54.154 9  25280380.247 6         0.000 6      1688.247 6        37.977 6
G10  23701710.342 9 124553275.531 9      3466.384 9        54.709 9  23701713.965 6         0.000 6      2701.081 6        37.977 6
G21  21210712.431 9 111463025.346 9     -1342.542 9        55.693 9  21210711.724 6         0.000 6     -1046.137 6        37.977 6
G29  24397256.447 9 128208389.889 9     -3233.134 9        54.440 9  24397258.125 6         0.000 6     -2519.328 6        37.977 6
G27  21927422.932 9 115229358.681 9      2536.928 9        55.405 9  21927424.838 6         0.000 6      1976.828 6        37.977 6
G16  20481151.866 9 107629159.185 9       492.197 9        55.983 9  20481151.039 6         0.000 6       383.530 6        37.977 6
G26  20701405.701 9 108786598.637 9     -1570.830 9        55.853 9  20701408.535 6         0.000 6     -1224.023 6        37.977 6
G20  21866825.855 9 114910913.063 9      2437.962 9        55.346 9  21866826.132 6         0.000 6      1899.712 6        37.977 6
> 2019 07 03 12 03 42.0000000  0  8       0.000000000000
G07  25279967.271 9 132847079.129 9      2167.161 9        54.155 9  25279967.905 6         0.000 6      1688.698 6        37.977 6
G10  23701050.827 9 124549809.766 9      3465.157 9        54.709 9  23701054.449 6         0.000 6      2700.125 6        37.977 6
G21  21210967.920 9 111464367.948 9     -1342.660 9        55.693 9  21210967.213 6         0.000 6     -1046.228 6        37.977 6
G29  24397871.687 9 128211622.987 9     -3233.075 9        54.440 9  24397873.366 6         0.000 6     -2519.282 6        37.977 6
G27  21926940.181 9 115226821.811 9      2536.810 9        55.405 9  21926942.087 6         0.000 6      1976.736 6        37.977 6
G16  20481058.265 9 107628667.309 9       491.547 9        55.983 9  20481057.438 6         0.000 6       383.024 6        37.977 6
G26  20701704.729 9 108788170.038 9     -1571.986 9        55.853 9  20701707.563 6         0.000 6     -1224.924 6        37.977 6
G20  21866362.032 9 114908475.664 9      2436.841 9        55.346 9  21866362.310 6         0.000 6      1898.839 6        37.977 6
> 2019 07 03 12 03 43.0000000  0  8       0.000000000000
G07  25279554.814 9 132844911.655 9      2167.792 9        54.155 9  25279555.448 6         0.000 6      1689.189 6        37.977 6
G10  23700391.551 9 124546345.258 9      3463.877 9        54.709 9  23700395.173 6         0.000 6      2699.128 6        37.977 6
G21  21211223.428 9 111465710.651 9     -1342.745 9        55.693 9  21211222.721 6         0.000 6     -1046.295 6        37.977 6
G29  24398486.913 9 128214856.011 9     -3232.980 9        54.440 9  24398488.593 6         0.000 6     -2519.208 6        37.977 6
G27  21926457.452 9 115224285.059 9      2536.688 9        55.405 9  21926459.358 6         0.000 6      1976.640 6        37.977 6
G16  20480964.788 9 107628176.085 9       490.894 9        55.983 9  20480963.961 6         0.000 6       382.515 6        37.977 6
G26  20702003.980 9 108789742.612 9     -1573.173 9        55.853 9  20702006.815 6         0.000 6     -1225.850 6        37.977 6
G20  21865898.425 9 114906039.398 9      2435.699 9        55.346 9  21865898.703 6         0.000 6      1897.948 6        37.977 6
> 2019 07 03 12 03 44.0000000  0  8       0.000000000000
G07  25279142.232 9 132842743.527 9      2168.479 9        54.155 9  25279142.866 6         0.000 6      1689.725 6        37.977 6
G10  23699732.525 9 124542882.059 9      3462.533 9        54.709 9  23699736.145 6         0.000 6      2698.080 6        37.977 6
G21  21211478.950 9 111467053.428 9     -1342.805 9        55.693 9  21211478.243 6         0.000 6     -1046.342 6        37.977 6
G29  24399102.117 9 128218088.919 9     -3232.849 9        54.440 9  24399103.797 6         0.000 6     -2519.106 6        37.977 6
G27  21925974.749 9 115221748.440 9      2536.553 9        55.405 9  21925976.655 6         0.000 6      1976.536 6        37.977 6
G16  20480871.438 9 107627685.523 9       490.229 9        55.984 9  20480870.611 6         0.000 6       381.996 6        37.977 6
G26  20702303.461 9 108791316.396 9     -1574.403 9        55.853 9  20702306.296 6         0.000 6     -1226.808 6        37.977 6
G20  21865435.039 9 114903604.289 9      2434.526 9        55.346 9  21865435.316 6         0.000 6      1897.034 6        37.977 6
> 2019 07 03 12 03 45.0000000  0  8       0.000000000000
G07  25278729.515 9 132840574.691 9      2169.211 9        54.155 9  25278730.149 6         0.000 6      1690.295 6        37.977 6
G10  23699073.758 9 124539420.228 9      3461.137 9        54.710 9  23699077.378 6         0.000 6      2696.992 6        37.977 6
G21  21211734.481 9 111468396.253 9     -1342.840 9        55.692 9  21211733.774 6         0.000 6     -1046.369 6        37.977 6
G29  24399717.292 9 128221321.675 9     -3232.678 9        54.439 9  24399718.973 6         0.000 6     -2518.973 6        37.977 6
G27  21925492.074 9 115219211.964 9      2536.402 9        55.406 9  21925493.979 6         0.000 6      1976.418 6        37.977 6
G16  20480778.215 9 107627195.633 9       489.549 9        55.984 9  20480777.388 6         0.000 6       381.467 6        37.977 6
G26  20702603.180 9 108792891.427 9     -1575.671 9        55.853 9  20702606.015 6         0.000 6     -1227.796 6        37.977 6
G20  21864971.877 9 114901170.363 9      2433.329 9        55.347 9  21864972.154 6         0.000 6      1896.101 6        37.977 6
> 2019 07 03 12 03 46.0000000  0  8       0.000000000000
G07  25278316.655 9 132838405.101 9      2169.988 9        54.155 9  25278317.289 6         0.000 6      1690.901 6        37.977 6
G10  23698415.262 9 124535959.820 9      3459.688 9        54.710 9  23698418.882 6         0.000 6      2695.863 6        37.977 6
G21  21211990.015 9 111469739.093 9     -1342.839 9        55.692 9  21211989.308 6         0.000 6     -1046.368 6        37.977 6
G29  24400332.429 9 128224554.230 9     -3232.452 9        54.439 9  24400334.110 6         0.000 6     -2518.797 6        37.977 6
G27  21925009.429 9 115216675.653 9      2536.229 9        55.406 9  21925011.334 6         0.000 6      1976.283 6        37.977 6
G16  20480685.123 9 107626706.431 9       488.856 9        55.984 9  20480684.296 6         0.000 6       380.927 6        37.977 6
G26  20702903.144 9 108794467.746 9     -1576.977 9        55.853 9  20702905.979 6         0.000 6     -1228.814 6        37.977 6
G20  21864508.945 9 114898737.642 9      2432.115 9        55.347 9  21864509.221 6         0.000 6      1895.156 6        37.977 6
> 2019 07 03 12 03 47.0000000  0  8       0.000000000000
G07  25277903.643 9 132836234.708 9      2170.803 9        54.155 9  25277904.276 6         0.000 6      1691.536 6        37.977 6
G10  23697757.048 9 124532500.891 9      3458.190 9        54.710 9  23697760.667 6         0.000 6      2694.696 6        37.977 6
G21  21212245.547 9 111471081.921 9     -1342.813 9        55.692 9  21212244.840 6         0.000 6     -1046.348 6        37.977 6
G29  24400947.519 9 128227786.540 9     -3232.176 9        54.439 9  24400949.201 6         0.000 6     -2518.581 6        37.977 6
G27  21924526.819 9 115214139.522 9      2536.029 9        55.406 9  21924528.724 6         0.000 6      1976.127 6        37.977 6
G16  20480592.164 9 107626217.929 9       488.141 9        55.984 9  20480591.337 6         0.000 6       380.370 6        37.977 6
G26  20703203.361 9 108796045.393 9     -1578.325 9        55.853 9  20703206.196 6         0.000 6     -1229.864 6        37.977 6
G20  21864046.246 9 114896306.149 9      2430.883 9        55.347 9  21864046.522 6         0.000 6      1894.195 6        37.977 6
> 2019 07 03 12 03 48.0000000  0  8       0.000000000000
G07  25277490.471 9 132834063.481 9      2171.659 9        54.155 9  25277491.104 6         0.000 6      1692.202 6        37.977 6
G10  23697099.123 9 124529043.484 9      3456.645 9        54.710 9  23697102.742 6         0.000 6      2693.492 6        37.977 6
G21  21212501.070 9 111472424.702 9     -1342.748 9        55.692 9  21212500.363 6         0.000 6     -1046.297 6        37.977 6
G29  24401562.550 9 128231018.541 9     -3231.841 9        54.439 9  24401564.233 6         0.000 6     -2518.320 6        37.977 6
G27  21924044.250 9 115211603.607 9      2535.803 9        55.406 9  21924046.154 6         0.000 6      1975.951 6        37.977 6
G16  20480499.343 9 107625730.152 9       487.412 9        55.984 9  20480498.516 6         0.000 6       379.802 6        37.977 6
G26  20703503.838 9 108797624.408 9     -1579.709 9        55.853 9  20703506.673 6         0.000 6     -1230.942 6        37.977 6
G20  21863583.783 9 114893875.893 9      2429.639 9        55.347 9  21863584.059 6         0.000 6      1893.226 6        37.977 6
> 2019 07 03 12 03 49.0000000  0  8       0.000000000000
G07  25277077.136 9 132831891.391 9      2172.539 9        54.156 9  25277077.769 6         0.000 6      1692.888 6        37.977 6
G10  23696441.495 9 124525587.636 9      3455.061 9        54.711 9  23696445.113 6         0.000 6      2692.258 6        37.977 6
G21  21212756.578 9 111473767.403 9     -1342.652 9        55.692 9  21212755.871 6         0.000 6     -1046.223 6        37.977 6
G29  24402177.511 9 128234250.171 9     -3231.435 9        54.438 9  24402179.195 6         0.000 6     -2518.004 6        37.977 6
G27  21923561.728 9 115209067.940 9      2535.535 9        55.406 9  21923563.632 6         0.000 6      1975.742 6        37.977 6
G16  20480406.663 9 107625243.117 9       486.655 9        55.984 9  20480405.836 6         0.000 6       379.212 6        37.977 6
G26  20703804.581 9 108799204.823 9     -1581.134 9        55.852 9  20703807.416 6         0.000 6     -1232.053 6        37.977 6
G20  21863121.557 9 114891446.881 9      2428.388 9        55.347 9  21863121.832 6         0.000 6      1892.251 6        37.977 6
> 2019 07 03 12 03 50.0000000  0  8       0.000000000000
G07  25276663.630 9 132829718.406 9      2173.438 9        54.156 9  25276664.262 6         0.000 6      1693.589 6        37.977 6
G10  23695784.173 9 124522133.393 9      3453.447 9        54.711 9  23695787.790 6         0.000 6      2691.000 6        37.977 6
G21  21213012.065 9 111475109.997 9     -1342.520 9        55.692 9  21213011.358 6         0.000 6     -1046.120 6        37.977 6
G29  24402792.390 9 128237481.370 9     -3230.964 9        54.438 9  24402794.074 6         0.000 6     -2517.637 6        37.977 6
G27  21923079.260 9 115206532.557 9      2535.231 9        55.407 9  21923081.164 6         0.000 6      1975.505 6        37.977 6
G16  20480314.130 9 107624756.852 9       485.878 9        55.984 9  20480313.303 6         0.000 6       378.606 6        37.977 6
G26  20704105.600 9 108800786.684 9     -1582.589 9        55.852 9  20704108.435 6         0.000 6     -1233.186 6        37.977 6
G20  21862659.570 9 114889019.126 9      2427.139 9        55.348 9  21862659.845 6         0.000 6      1891.278 6        37.977 6
> 2019 07 03 12 03 51.0000000  0  8       0.000000000000
G07  25276249.950 9 132827544.510 9      2174.360 9        54.156 9  25276250.583 6         0.000 6      1694.308 6        37.977 6
G10  23695127.160 9 124518680.779 9      3451.798 9        54.711 9  23695130.777 6         0.000 6      2689.716 6        37.977 6
G21  21213267.522 9 111476452.432 9     -1342.353 9        55.692 9  21213266.815 6         0.000 6     -1045.990 6        37.977 6
G29  24403407.171 9 128240712.055 9     -3230.421 9        54.438 9  24403408.856 6         0.000 6     -2517.214 6        37.977 6
G27  21922596.854 9 115203997.498 9      2534.885 9        55.407 9  21922598.758 6         0.000 6      1975.236 6        37.977 6
G16  20480221.746 9 107624271.371 9       485.076 9        55.984 9  20480220.919 6         0.000 6       377.981 6        37.977 6
G26  20704406.898 9 108802370.014 9     -1584.082 9        55.852 9  20704409.733 6         0.000 6     -1234.350 6        37.977 6
G20  21862197.819 9 114886592.617 9      2425.887 9        55.348 9  21862198.094 6         0.000 6      1890.303 6        37.977 6
> 2019 07 03 12 03 52.0000000  0  8       0.000000000000
G07  25275836.095 9 132825369.691 9      2175.288 9        54.156 9  25275836.728 6         0.000 6      1695.031 6        37.977 6
G10  23694470.463 9 124515229.821 9      3450.132 9        54.711 9  23694474.079 6         0.000 6      2688.417 6        37.977 6
G21  21213522.944 9 111477794.683 9     -1342.146 9        55.692 9  21213522.237 6         0.000 6     -1045.828 6        37.977 6
G29  24404021.841 9 128243942.157 9     -3229.794 9        54.438 9  24404023.526 6         0.000 6     -2516.725 6        37.977 6
G27  21922114.518 9 115201462.810 9      2534.488 9        55.407 9  21922116.422 6         0.000 6      1974.926 6        37.977 6
G16  20480129.518 9 107623786.707 9       484.246 9        55.984 9  20480128.691 6         0.000 6       377.335 6        37.977 6
G26  20704708.482 9 108803954.850 9     -1585.604 9        55.852 9  20704711.318 6         0.000 6     -1235.536 6        37.977 6
G20  21861736.306 9 114884167.352 9      2424.650 9        55.348 9  21861736.581 6         0.000 6      1889.338 6        37.977 6
> 2019 07 03 12 03 53.0000000  0  8       0.000000000000
G07  25275422.064 9 132823193.948 9      2176.216 9        54.156 9  25275422.697 6         0.000 6      1695.754 6        37.977 6
G10  23693814.084 9 124511780.535 9      3448.450 9        54.712 9  23693817.699 6         0.000 6      2687.106 6        37.977 6
G21  21213778.323 9 111479136.711 9     -1341.899 9        55.692 9  21213777.617 6         0.000 6     -1045.636 6        37.977 6
G29  24404636.384 9 128247171.591 9     -3229.078 9        54.438 9  24404638.070 6         0.000 6     -2516.167 6        37.977 6
G27  21921632.264 9 115198928.550 9      2534.033 9        55.407 9  21921634.168 6         0.000 6      1974.572 6        37.977 6
G16  20480037.451 9 107623302.891 9       483.385 9        55.984 9  20480036.623 6         0.000 6       376.664 6        37.977 6
G26  20705010.360 9 108805541.226 9     -1587.157 9        55.852 9  20705013.195 6         0.000 6     -1236.746 6        37.977 6
G20  21861275.027 9 114881743.317 9      2423.428 9        55.348 9  21861275.301 6         0.000 6      1888.387 6        37.977 6
> 2019 07 03 12 03 54.0000000  0  8       0.000000000000
G07  25275007.856 9 132821017.271 9      2177.143 9        54.156 9  25275008.488 6         0.000 6      1696.476 6        37.977 6
G10  23693158.027 9 124508332.943 9      3446.754 9        54.712 9  23693161.641 6         0.000 6      2685.785 6        37.977 6
G21  21214033.652 9 111480478.470 9     -1341.613 9        55.692 9  21214032.945 6         0.000 6     -1045.413 6        37.977 6
G29  24405250.782 9 128250400.263 9     -3228.270 9        54.437 9  24405252.468 6         0.000 6     -2515.537 6        37.977 6
G27  21921150.101 9 115196394.771 9      2533.518 9        55.407 9  21921152.005 6         0.000 6      1974.170 6        37.977 6
G16  20479945.550 9 107622819.950 9       482.491 9        55.984 9  20479944.723 6         0.000 6       375.967 6        37.977 6
G26  20705312.536 9 108807129.171 9     -1588.743 9        55.852 9  20705315.372 6         0.000 6     -1237.982 6        37.977 6
G20  21860813.979 9 114879320.497 9      2422.224 9        55.348 9  21860814.253 6         0.000 6      1887.448 6        37.977 6
> 2019 07 03 12 03 55.0000000  0  8       0.000000000000
G07  25274593.472 9 132818839.674 9      2178.054 9        54.156 9  25274594.104 6         0.000 6      1697.186 6        37.977 6
G10  23692502.293 9 124504887.048 9      3445.058 9        54.712 9  23692505.907 6         0.000 6      2684.463 6        37.977 6
G21  21214288.921 9 111481819.920 9     -1341.283 9        55.691 9  21214288.215 6         0.000 6     -1045.156 6        37.977 6
G29  24405865.016 9 128253628.075 9     -3227.361 9        54.437 9  24405866.703 6         0.000 6     -2514.829 6        37.977 6
G27  21920668.043 9 115193861.542 9      2532.935 9        55.408 9  21920669.947 6         0.000 6      1973.717 6        37.977 6
G16  20479853.823 9 107622337.921 9       481.562 9        55.984 9  20479852.996 6         0.000 6       375.243 6        37.977 6
G26  20705615.017 9 108808718.715 9     -1590.353 9        55.852 9  20705617.853 6         0.000 6     -1239.236 6        37.977 6
G20  21860353.157 9 114876898.867 9      2421.051 9        55.349 9  21860353.431 6         0.000 6      1886.534 6        37.977 6
> 2019 07 03 12 03 56.0000000  0  8       0.000000000000
G07  25274178.917 9 132816661.174 9      2178.949 9        54.157 9  25274179.549 6         0.000 6      1697.883 6        37.977 6
G10  23691846.882 9 124501442.848 9      3443.361 9        54.712 9  23691850.495 6         0.000 6      2683.141 6        37.977 6
G21  21214544.124 9 111483161.016 9     -1340.908 9        55.691 9  21214543.417 6         0.000 6     -1044.863 6        37.977 6
G29  24406479.067 9 128256854.927 9     -3226.347 9        54.437 9  24406480.755 6         0.000 6     -2514.039 6        37.977 6
G27  21920186.102 9 115191328.928 9      2532.283 9        55.408 9  21920188.006 6         0.000 6      1973.208 6        37.977 6
G16  20479762.275 9 107621856.835 9       480.598 9        55.984 9  20479761.448 6         0.000 6       374.492 6        37.977 6
G26  20705917.806 9 108810309.880 9     -1591.990 9        55.852 9  20705920.642 6         0.000 6     -1240.512 6        37.977 6
G20  21859892.555 9 114874478.393 9      2419.908 9        55.349 9  21859892.829 6         0.000 6      1885.643 6        37.977 6
> 2019 07 03 12 03 57.0000000  0  8       0.000000000000
G07  25273764.194 9 132814481.791 9      2179.811 9        54.157 9  25273764.825 6         0.000 6      1698.555 6        37.977 6
G10  23691191.793 9 124498000.343 9      3441.677 9        54.713 9  23691195.405 6         0.000 6      2681.829 6        37.977 6
G21  21214799.251 9 111484501.720 9     -1340.496 9        55.691 9  21214798.545 6         0.000 6     -1044.542 6        37.977 6
G29  24407092.916 9 128260080.713 9     -3225.228 9        54.437 9  24407094.605 6         0.000 6     -2513.168 6        37.977 6
G27  21919704.293 9 115188797.006 9      2531.551 9        55.408 9  21919706.196 6         0.000 6      1972.638 6        37.977 6
G16  20479670.915 9 107621376.737 9       479.591 9        55.984 9  20479670.088 6         0.000 6       373.708 6        37.977 6
G26  20706220.909 9 108811902.699 9     -1593.652 9        55.851 9  20706223.745 6         0.000 6     -1241.807 6        37.977 6
G20  21859432.168 9 114872059.048 9      2418.803 9        55.349 9  21859432.442 6         0.000 6      1884.783 6        37.977 6
> 2019 07 03 12 03 58.0000000  0  8       0.000000000000
G07  25273349.310 9 132812301.568 9      2180.636 9        54.157 9  25273349.941 6         0.000 6      1699.198 6        37.977 6
G10  23690537.022 9 124494559.509 9      3440.017 9        54.713 9  23690540.634 6         0.000 6      2680.535 6        37.977 6
G21  21215054.296 9 111485841.989 9     -1340.031 9        55.691 9  21215053.590 6         0.000 6     -1044.180 6        37.977 6
G29  24407706.541 9 128263305.321 9     -3223.989 9        54.436 9  24407708.230 6         0.000 6     -2512.202 6        37.977 6
G27  21919222.631 9 115186265.857 9      2530.741 9        55.408 9  21919224.534 6         0.000 6      1972.006 6        37.977 6
G16  20479579.751 9 107620897.665 9       478.550 9        55.984 9  20479578.924 6         0.000 6       372.896 6        37.977 6
G26  20706524.330 9 108813497.186 9     -1595.326 9        55.851 9  20706527.167 6         0.000 6     -1243.112 6        37.977 6
G20  21858971.986 9 114869640.779 9      2417.752 9        55.349 9  21858972.260 6         0.000 6      1883.964 6        37.977 6
> 2019 07 03 12 03 59.0000000  0  8       0.000000000000
G07  25272934.274 9 132810120.542 9      2181.414 9        54.157 9  25272934.905 6         0.000 6      1699.804 6        37.977 6
G10  23689882.564 9 124491120.322 9      3438.380 9        54.713 9  23689886.176 6         0.000 6      2679.260 6        37.977 6
G21  21215309.248 9 111487181.770 9     -1339.528 9        55.691 9  21215308.542 6         0.000 6     -1043.788 6        37.977 6
G29  24408319.918 9 128266528.633 9     -3222.633 9        54.436 9  24408321.608 6         0.000 6     -2511.145 6        37.977 6
G27  21918741.131 9 115183735.561 9      2529.838 9        55.408 9  21918743.034 6         0.000 6      1971.303 6        37.977 6
G16  20479488.789 9 107620419.655 9       477.458 9        55.984 9  20479487.962 6         0.000 6       372.045 6        37.977 6
G26  20706828.072 9 108815093.356 9     -1597.025 9        55.851 9  20706830.908 6         0.000 6     -1244.436 6        37.977 6
G20  21858512.000 9 114867223.538 9      2416.748 9        55.349 9  21858512.273 6         0.000 6      1883.181 6        37.977 6
> 2019 07 03 12 04  0.0000000  0  8       0.000000000000
G07  25272519.095 9 132807938.763 9      2182.135 9        54.157 9  25272519.725 6         0.000 6      1700.366 6        37.977 6
G10  23689228.415 9 124487682.756 9      3436.784 9        54.713 9  23689232.026 6         0.000 6      2678.016 6        37.977 6
G21  21215564.099 9 111488521.022 9     -1338.975 9        55.691 9  21215563.393 6         0.000 6     -1043.357 6        37.977 6
G29  24408933.026 9 128269750.524 9     -3221.152 9        54.436 9  24408934.717 6         0.000 6     -2509.991 6        37.977 6
G27  21918259.811 9 115181206.211 9      2528.847 9        55.408 9  21918261.714 6         0.000 6      1970.531 6        37.977 6
G16  20479398.038 9 107619942.754 9       476.329 9        55.984 9  20479397.211 6         0.000 6       371.166 6        37.977 6
G26  20707132.138 9 108816691.230 9     -1598.730 9        55.851 9  20707134.974 6         0.000 6     -1245.764 6        37.977 6
G20  21858052.198 9 114864807.269 9      2415.810 9        55.349 9  21858052.471 6         0.000 6      1882.450 6        37.977 6
> 2019 07 03 12 04  1.0000000  0  8       0.000000000000
G07  25272103.785 9 132805756.299 9      2182.793 9        54.157 9  25272104.415 6         0.000 6      1700.878 6        37.977 6
G10  23688574.566 9 124484246.763 9      3435.228 9        54.714 9  23688578.176 6         0.000 6      2676.803 6        37.977 6
G21  21215818.842 9 111489859.704 9     -1338.382 9        55.691 9  21215818.136 6         0.000 6     -1042.895 6        37.977 6
G29  24409545.840 9 128272970.875 9     -3219.546 9        54.436 9  24409547.532 6         0.000 6     -2508.740 6        37.977 6
G27  21917778.690 9 115178677.903 9      2527.757 9        55.409 9  21917780.592 6         0.000 6      1969.682 6        37.977 6
G16  20479307.507 9 107619467.012 9       475.148 9        55.984 9  20479306.680 6         0.000 6       370.245 6        37.977 6
G26  20707436.529 9 108818290.818 9     -1600.452 9        55.851 9  20707439.366 6         0.000 6     -1247.106 6        37.977 6
G20  21857592.569 9 114862391.908 9      2414.932 9        55.350 9  21857592.842 6         0.000 6      1881.766 6        37.977 6
> 2019 07 03 12 04  2.0000000  0  8       0.000000000000
G07  25271688.357 9 132803573.215 9      2183.367 9        54.157 9  25271688.987 6         0.000 6      1701.326 6        37.977 6
G10  23687921.007 9 124480812.297 9      3433.735 9        54.714 9  23687924.616 6         0.000 6      2675.641 6        37.977 6
G21  21216073.467 9 111491197.767 9     -1337.736 9        55.691 9  21216072.761 6         0.000 6     -1042.392 6        37.977 6
G29  24410158.336 9 128276189.548 9     -3217.797 9        54.436 9  24410160.027 6         0.000 6     -2507.377 6        37.977 6
G27  21917297.786 9 115176150.737 9      2526.561 9        55.409 9  21917299.688 6         0.000 6      1968.750 6        37.977 6
G16  20479217.205 9 107618992.473 9       473.922 9        55.984 9  20479216.378 6         0.000 6       369.290 6        37.977 6
G26  20707741.249 9 108819892.129 9     -1602.173 9        55.851 9  20707744.086 6         0.000 6     -1248.447 6        37.977 6
G20  21857133.100 9 114859977.383 9      2414.141 9        55.350 9  21857133.372 6         0.000 6      1881.150 6        37.977 6
> 2019 07 03 12 04  3.0000000  0  8       0.000000000000
G07  25271272.828 9 132801389.600 9      2183.858 9        54.158 9  25271273.458 6         0.000 6      1701.709 6        37.977 6
G10  23687267.726 9 124477379.294 9      3432.300 9        54.714 9  23687271.335 6         0.000 6      2674.522 6        37.977 6
G21  21216327.966 9 111492535.164 9     -1337.050 9        55.691 9  21216327.259 6         0.000 6     -1041.857 6        37.977 6
G29  24410770.484 9 128279406.402 9     -3215.912 9        54.435 9  24410772.177 6         0.000 6     -2505.908 6        37.977 6
G27  21916817.120 9 115173624.827 9      2525.253 9        55.409 9  21916819.022 6         0.000 6      1967.730 6        37.977 6
G16  20479127.143 9 107618519.192 9       472.637 9        55.984 9  20479126.315 6         0.000 6       368.289 6        37.977 6
G26  20708046.297 9 108821495.168 9     -1603.906 9        55.851 9  20708049.134 6         0.000 6     -1249.798 6        37.977 6
G20  21856673.773 9 114857563.611 9      2413.425 9        55.350 9  21856674.045 6         0.000 6      1880.592 6        37.977 6
> 2019 07 03 12 04  4.0000000  0  8       0.000000000000
G07  25270857.214 9 132799205.534 9      2184.253 9        54.158 9  25270857.844 6         0.000 6      1702.016 6        37.977 6
G10  23686614.713 9 124473947.696 9      3430.943 9        54.714 9  23686618.321 6         0.000 6      2673.464 6        37.977 6
G21  21216582.328 9 111493871.849 9     -1336.311 9        55.690 9  21216581.622 6         0.000 6     -1041.282 6        37.977 6
G29  24411382.262 9 128282621.302 9     -3213.880 9        54.435 9  24411383.955 6         0.000 6     -2504.325 6        37.977 6
G27  21916336.713 9 115171100.275 9      2523.834 9        55.409 9  21916338.615 6         0.000 6      1966.625 6        37.977 6
G16  20479037.329 9 107618047.216 9       471.307 9        55.984 9  20479036.501 6         0.000 6       367.253 6        37.977 6
G26  20708351.676 9 108823099.939 9     -1605.632 9        55.851 9  20708354.513 6         0.000 6     -1251.142 6        37.977 6
G20  21856214.575 9 114855150.513 9      2412.805 9        55.350 9  21856214.847 6         0.000 6      1880.109 6        37.977 6
> 2019 07 03 12 04  5.0000000  0  8       0.000000000000
G07  25270441.535 9 132797021.131 9      2184.541 9        54.158 9  25270442.165 6         0.000 6      1702.241 6        37.977 6
G10  23685961.949 9 124470517.411 9      3429.662 9        54.715 9  23685965.557 6         0.000 6      2672.467 6        37.977 6
G21  21216836.547 9 111495207.774 9     -1335.530 9        55.690 9  21216835.841 6         0.000 6     -1040.673 6        37.977 6
G29  24411993.638 9 128285834.096 9     -3211.701 9        54.435 9  24411995.332 6         0.000 6     -2502.627 6        37.977 6
G27  21915856.588 9 115168577.203 9      2522.291 9        55.409 9  21915858.490 6         0.000 6      1965.422 6        37.977 6
G16  20478947.773 9 107617576.599 9       469.916 9        55.984 9  20478946.946 6         0.000 6       366.168 6        37.977 6
G26  20708657.382 9 108824706.434 9     -1607.361 9        55.850 9  20708660.219 6         0.000 6     -1252.490 6        37.977 6
G20  21855755.486 9 114852737.985 9      2412.278 9        55.350 9  21855755.757 6         0.000 6      1879.698 6        37.977 6
> 2019 07 03 12 04  6.0000000  0  8       0.000000000000
G07  25270025.812 9 132794836.496 9      2184.712 9        54.158 9  25270026.441 6         0.000 6      1702.374 6        37.977 6
G10  23685309.419 9 124467088.355 9      3428.482 9        54.715 9  23685313.026 6         0.000 6      2671.547 6        37.977 6
G21  21217090.610 9 111496542.883 9     -1334.694 9        55.690 9  21217089.904 6         0.000 6     -1040.022 6        37.977 6
G29  24412604.584 9 128289044.626 9     -3209.360 9        54.435 9  24412606.278 6         0.000 6     -2500.803 6        37.977 6
G27  21915376.768 9 115166055.734 9      2520.624 9        55.410 9  21915378.670 6         0.000 6      1964.124 6        37.977 6
G16  20478858.486 9 107617107.394 9       468.474 9        55.984 9  20478857.659 6         0.000 6       365.044 6        37.977 6
G26  20708963.415 9 108826314.646 9     -1609.075 9        55.850 9  20708966.252 6         0.000 6     -1253.825 6        37.977 6
G20  21855296.485 9 114850325.923 9      2411.864 9        55.350 9  21855296.756 6         0.000 6      1879.376 6        37.977 6
> 2019 07 03 12 04  7.0000000  0  8       0.000000000000
G07  25269610.070 9 132792651.758 9      2184.748 9        54.158 9  25269610.699 6         0.000 6      1702.402 6        37.977 6
G10  23684657.106 9 124463660.433 9      3427.405 9        54.715 9  23684660.712 6         0.000 6      2670.708 6        37.977 6
G21  21217344.511 9 111497877.142 9     -1333.816 9        55.690 9  21217343.805 6         0.000 6     -1039.337 6        37.977 6
G29  24413215.068 9 128292252.734 9     -3206.857 9        54.435 9  24413216.763 6         0.000 6     -2498.852 6        37.977 6
G27  21914897.280 9 115163536.009 9      2518.816 9        55.410 9  21914899.181 6         0.000 6      1962.715 6        37.977 6
G16  20478769.482 9 107616639.674 9       466.963 9        55.984 9  20478768.655 6         0.000 6       363.868 6        37.977 6
G26  20709269.775 9 108827924.579 9     -1610.784 9        55.850 9  20709272.612 6         0.000 6     -1255.157 6        37.977 6
G20  21854837.553 9 114847914.224 9      2411.565 9        55.351 9  21854837.824 6         0.000 6      1879.142 6        37.977 6
> 2019 07 03 12 04  8.0000000  0  8       0.000000000000
G07  25269194.334 9 132790467.056 9      2184.643 9        54.158 9  25269194.963 6         0.000 6      1702.320 6        37.977 6
G10  23684004.985 9 124460233.526 9      3426.443 9        54.715 9  23684008.591 6         0.000 6      2669.959 6        37.977 6
G21  21217598.239 9 111499210.491 9     -1332.880 9        55.690 9  21217597.533 6         0.000 6     -1038.608 6        37.977 6
G29  24413825.060 9 128295458.252 9     -3204.175 9        54.434 9  24413826.756 6         0.000 6     -2496.762 6        37.977 6
G27  21914418.149 9 115161018.160 9      2516.866 9        55.410 9  21914420.050 6         0.000 6      1961.195 6        37.977 6
G16  20478680.770 9 107616173.489 9       465.393 9        55.984 9  20478679.943 6         0.000 6       362.644 6        37.977 6
G26  20709576.458 9 108829536.205 9     -1612.475 9        55.850 9  20709579.295 6         0.000 6     -1256.474 6        37.977 6
G20  21854378.665 9 114845502.756 9      2411.395 9        55.351 9  21854378.936 6         0.000 6      1879.010 6        37.977 6
> 2019 07 03 12 04  9.0000000  0  8       0.000000000000
G07  25268778.634 9 132788282.540 9      2184.374 9        54.158 9  25268779.262 6         0.000 6      1702.111 6        37.977 6
G10  23683353.036 9 124456807.520 9      3425.613 9        54.715 9  23683356.641 6         0.000 6      2669.311 6        37.977 6
G21  21217851.785 9 111500542.885 9     -1331.892 9        55.690 9  21217851.079 6         0.000 6     -1037.838 6        37.977 6
G29  24414434.524 9 128298660.995 9     -3201.303 9        54.434 9  24414436.220 6         0.000 6     -2494.524 6        37.977 6
G27  21913939.404 9 115158502.344 9      2514.753 9        55.410 9  21913941.305 6         0.000 6      1959.548 6        37.977 6
G16  20478592.365 9 107615708.917 9       463.748 9        55.984 9  20478591.538 6         0.000 6       361.362 6        37.977 6
G26  20709883.462 9 108831149.521 9     -1614.151 9        55.850 9  20709886.300 6         0.000 6     -1257.780 6        37.977 6
G20  21853919.797 9 114843091.394 9      2411.365 9        55.351 9  21853920.067 6         0.000 6      1878.987 6        37.977 6
> 2019 07 03 12 04 10.0000000  0  8       0.000000000000
G07  25268363.001 9 132786098.377 9      2183.924 9        54.159 9  25268363.629 6         0.000 6      1701.760 6        37.977 6
G10  23682701.231 9 124453382.271 9      3424.928 9        54.716 9  23682704.835 6         0.000 6      2668.778 6        37.977 6
G21  21218105.135 9 111501874.247 9     -1330.835 9        55.690 9  21218104.429 6         0.000 6     -1037.014 6        37.977 6
G29  24415043.420 9 128301860.753 9     -3198.199 9        54.434 9  24415045.117 6         0.000 6     -2492.106 6        37.977 6
G27  21913461.078 9 115155988.725 9      2512.451 9        55.410 9  21913462.979 6         0.000 6      1957.755 6        37.977 6
G16  20478504.279 9 107615246.020 9       462.020 9        55.985 9  20478503.451 6         0.000 6       360.016 6        37.977 6
G26  20710190.782 9 108832764.497 9     -1615.810 9        55.850 9  20710193.620 6         0.000 6     -1259.073 6        37.977 6
G20  21853460.919 9 114840679.977 9      2411.499 9        55.351 9  21853461.189 6         0.000 6      1879.091 6        37.977 6
> 2019 07 03 12 04 11.0000000  0  8       0.000000000000
G07  25267947.472 9 132783914.761 9      2183.270 9        54.159 9  25267948.100 6         0.000 6      1701.251 6        37.977 6
G10  23682049.541 9 124449957.631 9      3424.405 9        54.716 9  23682053.145 6         0.000 6      2668.370 6        37.977 6
G21  21218358.277 9 111503204.516 9     -1329.691 9        55.690 9  21218357.571 6         0.000 6     -1036.123 6        37.977 6
G29  24415651.700 9 128305057.277 9     -3194.820 9        54.434 9  24415653.398 6         0.000 6     -2489.472 6        37.977 6
G27  21912983.211 9 115153477.518 9      2509.927 9        55.411 9  21912985.111 6         0.000 6      1955.788 6        37.977 6
G16  20478416.531 9 107614784.903 9       460.194 9        55.985 9  20478415.704 6         0.000 6       358.592 6        37.977 6
G26  20710498.417 9 108834381.130 9     -1617.456 9        55.850 9  20710501.255 6         0.000 6     -1260.355 6        37.977 6
G20  21853001.999 9 114838268.340 9      2411.819 9        55.351 9  21853002.269 6         0.000 6      1879.341 6        37.977 6
> 2019 07 03 12 04 12.0000000  0  8       0.000000000000
G07  25267532.091 9 132781731.923 9      2182.366 9        54.159 9  25267532.719 6         0.000 6      1700.546 6        37.977 6
G10  23681397.934 9 124446533.420 9      3424.077 9        54.716 9  23681401.537 6         0.000 6      2668.115 6        37.977 6
G21  21218611.192 9 111504533.592 9     -1328.441 9        55.690 9  21218610.486 6         0.000 6     -1035.149 6        37.977 6
G29  24416259.305 9 128308250.254 9     -3191.093 9        54.433 9  24416261.004 6         0.000 6     -2486.568 6        37.977 6
G27  21912505.850 9 115150968.972 9      2507.121 9        55.411 9  21912507.750 6         0.000 6      1953.602 6        37.977 6
G16  20478329.143 9 107614325.677 9       458.240 9        55.985 9  20478328.316 6         0.000 6       357.070 6        37.977 6
G26  20710806.365 9 108835999.404 9     -1619.090 9        55.849 9  20710809.203 6         0.000 6     -1261.629 6        37.977 6
G20  21852542.997 9 114835856.273 9      2412.368 9        55.352 9  21852543.267 6         0.000 6      1879.769 6        37.977 6
> 2019 07 03 12 04 13.0000000  0  8       0.000000000000
G07  25267116.911 9 132779550.140 9      2181.146 9        54.159 9  25267117.538 6         0.000 6      1699.595 6        37.977 6
G10  23680746.366 9 124443109.417 9      3423.997 9        54.716 9  23680749.968 6         0.000 6      2668.052 6        37.977 6
G21  21218863.857 9 111505861.356 9     -1327.065 9        55.690 9  21218863.151 6         0.000 6     -1034.077 6        37.977 6
G29  24416866.163 9 128311439.302 9     -3186.949 9        54.433 9  24416867.862 6         0.000 6     -2483.340 6        37.977 6
G27  21912029.054 9 115148463.396 9      2503.975 9        55.411 9  21912030.954 6         0.000 6      1951.150 6        37.977 6
G16  20478242.141 9 107613868.478 9       456.133 9        55.985 9  20478241.314 6         0.000 6       355.429 6        37.977 6
G26  20711114.622 9 108837619.302 9     -1620.704 9        55.849 9  20711117.460 6         0.000 6     -1262.886 6        37.977 6
G20  21852083.865 9 114833443.520 9      2413.201 9        55.352 9  21852084.134 6         0.000 6      1880.417 6        37.977 6
> 2019 07 03 12 04 14.0000000  0  8       0.000000000000
G07  25266701.998 9 132777369.765 9      2179.532 9        54.159 9  25266702.626 6         0.000 6      1698.338 6        37.977 6
G10  23680094.784 9 124439685.342 9      3424.235 9        54.717 9  23680098.386 6         0.000 6      2668.238 6        37.977 6
G21  21219116.245 9 111507187.666 9     -1325.537 9        55.689 9  21219115.540 6         0.000 6     -1032.886 6        37.977 6
G29  24417472.184 9 128314623.954 9     -3182.295 9        54.433 9  24417473.884 6         0.000 6     -2479.713 6        37.977 6
G27  21911552.895 9 115145961.169 9      2500.413 9        55.411 9  21911554.795 6         0.000 6      1948.374 6        37.977 6
G16  20478155.556 9 107613413.473 9       453.843 9        55.985 9  20478154.729 6         0.000 6       353.644 6        37.977 6
G26  20711423.183 9 108839240.798 9     -1622.283 9        55.849 9  20711426.021 6         0.000 6     -1264.117 6        37.977 6
G20  21851624.541 9 114831029.761 9      2414.390 9        55.352 9  21851624.810 6         0.000 6      1881.344 6        37.977 6
> 2019 07 03 12 04 15.0000000  0  8       0.000000000000
G07  25266287.440 9 132775191.249 9      2177.418 9        54.159 9  25266288.067 6         0.000 6      1696.690 6        37.977 6
G10  23679443.119 9 124436260.830 9      3424.885 9        54.717 9  23679446.720 6         0.000 6      2668.744 6        37.977 6
G21  21219368.329 9 111508512.374 9     -1323.856 9        55.689 9  21219367.624 6         0.000 6     -1031.576 6        37.977 6
G29  24418077.268 9 128317803.680 9     -3177.085 9        54.433 9  24418078.968 6         0.000 6     -2475.653 6        37.977 6
G27  21911077.459 9 115143462.736 9      2496.378 9        55.411 9  21911079.359 6         0.000 6      1945.231 6        37.977 6
G16  20478069.427 9 107612960.860 9       451.348 9        55.985 9  20478068.600 6         0.000 6       351.700 6        37.977 6
G26  20711732.038 9 108840863.841 9     -1623.791 9        55.849 9  20711734.876 6         0.000 6     -1265.292 6        37.977 6
G20  21851164.951 9 114828614.603 9      2416.010 9        55.352 9  21851165.219 6         0.000 6      1882.606 6        37.977 6
> 2019 07 03 12 04 16.0000000  0  8       0.000000000000
G07  25265873.339 9 132773015.139 9      2174.695 9        54.159 9  25265873.966 6         0.000 6      1694.568 6        37.977 6
G10  23678791.284 9 124432835.421 9      3426.051 9        54.717 9  23678794.884 6         0.000 6      2669.653 6        37.977 6
G21  21219620.078 9 111509835.325 9     -1322.032 9        55.689 9  21219619.373 6         0.000 6     -1030.155 6        37.977 6
G29  24418681.303 9 128320977.898 9     -3171.286 9        54.433 9  24418683.004 6         0.000 6     -2471.135 6        37.977 6
G27  21910602.839 9 115140968.596 9      2491.824 9        55.412 9  21910604.739 6         0.000 6      1941.682 6        37.977 6
G16  20477983.794 9 107612510.853 9       448.632 9        55.985 9  20477982.966 6         0.000 6       349.583 6        37.977 6
G26  20712041.170 9 108842488.341 9     -1625.186 9        55.849 9  20712044.008 6         0.000 6     -1266.379 6        37.977 6
G20  21850705.005 9 114826197.577 9      2418.138 9        55.352 9  21850705.274 6         0.000 6      1884.265 6        37.977 6
> 2019 07 03 12 04 17.0000000  0  8       0.000000000000
G07  25265459.823 9 132770842.103 9      2171.262 9        54.160 9  25265460.450 6         0.000 6      1691.893 6        37.977 6
G10  23678139.168 9 124429408.540 9      3427.845 9        54.717 9  23678142.768 6         0.000 6      2671.051 6        37.977 6
G21  21219871.469 9 111511156.392 9     -1320.092 9        55.689 9  21219870.764 6         0.000 6     -1028.643 6        37.977 6
G29  24419284.182 9 128324146.038 9     -3164.938 9        54.432 9  24419285.884 6         0.000 6     -2466.188 6        37.977 6
G27  21910129.135 9 115138479.269 9      2486.758 9        55.412 9  21910131.035 6         0.000 6      1937.734 6        37.977 6
G16  20477898.697 9 107612063.666 9       445.713 9        55.985 9  20477897.870 6         0.000 6       347.309 6        37.977 6
G26  20712350.551 9 108844114.149 9     -1626.394 9        55.849 9  20712353.390 6         0.000 6     -1267.321 6        37.977 6
G20  21850244.601 9 114823778.141 9      2420.838 9        55.352 9  21850244.869 6         0.000 6      1886.369 6        37.977 6
> 2019 07 03 12 04 18.0000000  0  9       0.000000000000
G07  25265047.032 9 132768672.872 9      2167.097 9        54.160 9  25265047.659 6         0.000 6      1688.648 6        37.977 6
G10  23677486.646 9 124425979.525 9      3430.311 9        54.718 9  23677490.245 6         0.000 6      2672.972 6        37.977 6
G21  21220122.488 9 111512475.503 9     -1318.135 9        55.689 9  21220121.782 6         0.000 6     -1027.118 6        37.977 6
G29  24419885.814 9 128327307.625 9     -3158.223 9        54.432 9  24419887.517 6         0.000 6     -2460.956 6        37.977 6
G27  21909656.438 9 115135995.229 9      2481.282 9        55.412 9  21909658.337 6         0.000 6      1933.467 6        37.977 6
G16  20477814.172 9 107611619.484 9       442.638 9        55.985 9  20477813.345 6         0.000 6       344.913 6        37.977 6
G26  20712660.140 9 108845741.047 9     -1627.359 9        55.849 9  20712662.979 6         0.000 6     -1268.072 6        37.977 6
G20  21849783.630 9 114821355.727 9      2424.079 9        55.353 9  21849783.898 6         0.000 6      1888.894 6        37.977 6
G08  25188802.722 9 132368004.076 9      3234.728 9        54.196 9  25188806.648 6         0.000 6      2520.567 6        37.977 6
> 2019 07 03 12 04 19.0000000  0  9       0.000000000000
G07  25264635.097 9 132766508.141 9      2162.273 9        54.160 9  25264635.723 6         0.000 6      1684.889 6        37.977 6
G10  23676833.593 9 124422547.717 9      3433.426 9        54.718 9  23676837.192 6         0.000 6      2675.400 6        37.977 6
G21  21220373.138 9 111513792.679 9     -1316.246 9        55.689 9  21220372.433 6         0.000 6     -1025.646 6        37.977 6
G29  24420486.153 9 128330462.418 9     -3151.400 9        54.432 9  24420487.856 6         0.000 6     -2455.639 6        37.977 6
G27  21909184.806 9 115133516.788 9      2475.592 9        55.412 9  21909186.705 6         0.000 6      1929.033 6        37.977 6
G16  20477730.238 9 107611178.408 9       439.515 9        55.985 9  20477729.411 6         0.000 6       342.479 6        37.977 6
G26  20712969.883 9 108847368.757 9     -1628.011 9        55.849 9  20712972.722 6         0.000 6     -1268.580 6        37.977 6
G20  21849321.997 9 114818929.832 9      2427.779 9        55.353 9  21849322.264 6         0.000 6      1891.777 6        37.977 6
G08  25188187.828 9 132364772.791 9      3227.723 9        54.196 9  25188191.753 6         0.000 6      2515.110 6        37.977 6
> 2019 07 03 12 04 20.0000000  0  9       0.000000000000
G07  25264224.127 9 132764348.484 9      2156.982 9        54.160 9  25264224.753 6         0.000 6      1680.766 6        37.977 6
G10  23676179.896 9 124419112.530 9      3437.042 9        54.718 9  23676183.495 6         0.000 6      2678.217 6        37.977 6
G21  21220623.446 9 111515108.053 9     -1314.539 9        55.689 9  21220622.740 6         0.000 6     -1024.316 6        37.977 6
G29  24421085.210 9 128333610.472 9     -3144.786 9        54.432 9  24421086.914 6         0.000 6     -2450.485 6        37.977 6
G27  21908714.257 9 115131044.043 9      2469.926 9        55.412 9  21908716.156 6         0.000 6      1924.619 6        37.977 6
G16  20477646.895 9 107610740.437 9       436.447 9        55.985 9  20477646.067 6         0.000 6       340.088 6        37.977 6
G26  20713279.722 9 108848996.966 9     -1628.357 9        55.848 9  20713282.560 6         0.000 6     -1268.850 6        37.977 6
G20  21848859.632 9 114816500.092 9      2431.742 9        55.353 9  21848859.899 6         0.000 6      1894.865 6        37.977 6
G08  25187574.286 9 132361548.610 9      3220.691 9        54.196 9  25187578.211 6         0.000 6      2509.631 6        37.977 6
> 2019 07 03 12 04 21.0000000  0  9       0.000000000000
G07  25263814.193 9 132762194.270 9      2151.441 9        54.160 9  25263814.819 6         0.000 6      1676.449 6        37.977 6
G10  23675525.477 9 124415673.541 9      3440.982 9        54.718 9  23675529.074 6         0.000 6      2681.287 6        37.977 6
G21  21220873.450 9 111516421.837 9     -1313.083 9        55.689 9  21220872.745 6         0.000 6     -1023.182 6        37.977 6
G29  24421683.048 9 128336752.121 9     -3138.634 9        54.432 9  24421684.752 6         0.000 6     -2445.692 6        37.977 6
G27  21908244.768 9 115128576.860 9      2464.501 9        55.412 9  21908246.666 6         0.000 6      1920.391 6        37.977 6
G16  20477564.122 9 107610305.463 9       433.528 9        55.985 9  20477563.295 6         0.000 6       337.814 6        37.977 6
G26  20713589.597 9 108850625.369 9     -1628.421 9        55.848 9  20713592.436 6         0.000 6     -1268.900 6        37.977 6
G20  21848396.501 9 114814066.327 9      2435.781 9        55.353 9  21848396.768 6         0.000 6      1898.012 6        37.977 6
G08  25186962.050 9 132358331.297 9      3214.035 9        54.196 9  25186965.975 6         0.000 6      2504.444 6        37.977 6
> 2019 07 03 12 04 22.0000000  0  9       0.000000000000
G07  25263405.318 9 132760045.619 9      2145.879 9        54.160 9  25263405.943 6         0.000 6      1672.114 6        37.977 6
G10  23674870.294 9 124412230.543 9      3445.042 9        54.719 9  23674873.891 6         0.000 6      2684.451 6        37.977 6
G21  21221123.205 9 111517734.302 9     -1311.898 9        55.689 9  21221122.499 6         0.000 6     -1022.258 6        37.977 6
G29  24422279.772 9 128339887.917 9     -3133.095 9        54.431 9  24422281.477 6         0.000 6     -2441.375 6        37.977 6
G27  21907776.275 9 115126114.917 9      2459.469 9        55.413 9  21907778.174 6         0.000 6      1916.470 6        37.977 6
G16  20477481.886 9 107609873.309 9       430.821 9        55.985 9  20477481.058 6         0.000 6       335.705 6        37.977 6
G26  20713899.464 9 108852253.728 9     -1628.265 9        55.848 9  20713902.302 6         0.000 6     -1268.779 6        37.977 6
G20  21847932.610 9 114811628.566 9      2439.721 9        55.353 9  21847932.876 6         0.000 6      1901.082 6        37.977 6
G08  25186351.031 9 132355120.374 9      3207.933 9        54.196 9  25186354.955 6         0.000 6      2499.689 6        37.977 6
> 2019 07 03 12 04 23.0000000  0  9       0.000000000000
G07  25262997.492 9 132757902.486 9      2140.434 9        54.160 9  25262998.118 6         0.000 6      1667.871 6        37.977 6
G10  23674214.338 9 124408783.479 9      3449.086 9        54.719 9  23674217.934 6         0.000 6      2687.602 6        37.977 6
G21  21221372.760 9 111519045.724 9     -1310.981 9        55.688 9  21221372.055 6         0.000 6     -1021.544 6        37.977 6
G29  24422875.505 9 128343018.506 9     -3128.209 9        54.431 9  24422877.211 6         0.000 6     -2437.568 6        37.977 6
G27  21907308.698 9 115123657.786 9      2454.882 9        55.413 9  21907310.596 6         0.000 6      1912.896 6        37.977 6
G16  20477400.143 9 107609443.751 9       428.338 9        55.985 9  20477399.316 6         0.000 6       333.770 6        37.977 6
G26  20714209.285 9 108853881.847 9     -1627.955 9        55.848 9  20714212.124 6         0.000 6     -1268.537 6        37.977 6
G20  21847467.987 9 114809186.961 9      2443.457 9        55.354 9  21847468.253 6         0.000 6      1903.993 6        37.977 6
G08  25185741.113 9 132351915.243 9      3202.448 9        54.197 9  25185745.037 6         0.000 6      2495.415 6        37.977 6
> 2019 07 03 12 04 24.0000000  0  9       0.000000000000
G07  25262590.684 9 132755764.700 9      2135.187 9        54.161 9  25262591.310 6         0.000 6      1663.783 6        37.977 6
G10  23673557.620 9 124405332.417 9      3453.030 9        54.719 9  23673561.216 6         0.000 6      2690.675 6        37.977 6
G21  21221622.162 9 111520356.341 9     -1310.295 9        55.688 9  21221621.457 6         0.000 6     -1021.010 6        37.977 6
G29  24423470.367 9 128346144.515 9     -3123.934 9        54.431 9  24423472.073 6         0.000 6     -2434.237 6        37.977 6
G27  21906841.951 9 115121205.017 9      2450.735 9        55.413 9  21906843.849 6         0.000 6      1909.665 6        37.977 6
G16  20477318.852 9 107609016.563 9       426.072 9        55.985 9  20477318.025 6         0.000 6       332.004 6        37.977 6
G26  20714519.036 9 108855509.598 9     -1627.540 9        55.848 9  20714521.875 6         0.000 6     -1268.213 6        37.977 6
G20  21847002.675 9 114806741.738 9      2446.949 9        55.354 9  21847002.942 6         0.000 6      1906.714 6        37.977 6
G08  25185132.183 9 132348715.298 9      3197.558 9        54.197 9  25185136.106 6         0.000 6      2491.605 6        37.977 6
> 2019 07 03 12 04 25.0000000  0  9       0.000000000000
G07  25262184.852 9 132753632.041 9      2130.189 9        54.161 9  25262185.478 6         0.000 6      1659.888 6        37.977 6
G10  23672900.167 9 124401877.486 9      3456.812 9        54.719 9  23672903.762 6         0.000 6      2693.622 6        37.977 6
G21  21221871.453 9 111521666.373 9     -1309.810 9        55.688 9  21221870.748 6         0.000 6     -1020.631 6        37.977 6
G29  24424064.470 9 128349266.534 9     -3120.220 9        54.431 9  24424066.177 6         0.000 6     -2431.343 6        37.977 6
G27  21906375.952 9 115118756.181 9      2447.009 9        55.413 9  21906377.851 6         0.000 6      1906.761 6        37.977 6
G16  20477237.972 9 107608591.535 9       424.007 9        55.985 9  20477237.145 6         0.000 6       330.395 6        37.977 6
G26  20714828.701 9 108857136.896 9     -1627.064 9        55.848 9  20714831.540 6         0.000 6     -1267.843 6        37.977 6
G20  21846536.724 9 114804293.153 9      2450.171 9        55.354 9  21846536.990 6         0.000 6      1909.225 6        37.977 6
G08  25184524.129 9 132345519.958 9      3193.227 9        54.197 9  25184528.052 6         0.000 6      2488.230 6        37.977 6
> 2019 07 03 12 04 26.0000000  0  9       0.000000000000
G07  25261779.944 9 132751504.239 9      2125.469 9        54.161 9  25261780.569 6         0.000 6      1656.211 6        37.977 6
G10  23672242.013 9 124398418.875 9      3460.397 9        54.720 9  23672245.608 6         0.000 6      2696.416 6        37.977 6
G21  21222120.669 9 111522976.010 9     -1309.492 9        55.688 9  21222119.964 6         0.000 6     -1020.384 6        37.977 6
G29  24424657.915 9 128352385.101 9     -3117.013 9        54.430 9  24424659.623 6         0.000 6     -2428.844 6        37.977 6
G27  21905910.625 9 115116310.872 9      2443.676 9        55.413 9  21905912.523 6         0.000 6      1904.164 6        37.977 6
G16  20477157.468 9 107608168.483 9       422.128 9        55.985 9  20477156.641 6         0.000 6       328.931 6        37.977 6
G26  20715138.272 9 108858763.705 9     -1626.556 9        55.848 9  20715141.112 6         0.000 6     -1267.447 6        37.977 6
G20  21846070.188 9 114801841.490 9      2453.118 9        55.354 9  21846070.453 6         0.000 6      1911.522 6        37.977 6
G08  25183916.848 9 132342328.685 9      3189.412 9        54.197 9  25183920.771 6         0.000 6      2485.258 6        37.977 6
