     3.00           Observation Data    M (Mixed)           RINEX VERSION / TYPE
SimGEN V6.06.00 E1 03-07-2019Spirent             03-Jul-19 12:00     PGM / RUN BY / DATE 
                                                            MARKER NAME         
1                                                           MARKER NUMBER       
GEODETIC                                                    MARKER TYPE         
                    Spirent                                 OBSERVER / AGENCY   
rec_num             rec_type            rec_vers            REC # / TYPE / VERS 
1                   ant_type                                ANT # / TYPE        
  1000.000                                                  INTERVAL            
  2019     7     3    12     0    0.0000000     GPS         TIME OF FIRST OBS   
  4162859.0168   663148.6675  4770544.2199                  APPROX POSITION XYZ 
        0.0000        0.0000        0.0000                  ANTENNA: DELTA H/E/N
G    8 C1C L1C D1C S1C C2C L2C D2C S2C                      SYS / # / OBS TYPES 
        0.0000        0.0000        0.0000                  ANTENNA: DELTA X/Y/Z
DBHZ                                                        SIGNAL STRENGTH UNIT
                                                            END OF HEADER       
> 2019 07 03 12 00  0.0000000  0  8       0.000000000000
G07  25371456.132 9 133327855.554 9      2226.718 9        54.123 9  25371456.815 6         0.000 6      1735.105 6        37.977 6
G10  23849757.837 9 125331268.038 9      3528.627 9        54.655 9  23849761.603 6         0.000 6      2749.580 6        37.977 6
G21  21157224.785 9 111181946.030 9     -1239.594 9        55.715 9  21157224.068 6         0.000 6      -965.917 6        37.977 6
G29  24265626.806 9 127516673.743 9     -3143.440 9        54.487 9  24265628.344 6         0.000 6     -2449.433 6        37.977 6
G27  22032168.075 9 115779797.528 9      2534.887 9        55.363 9  22032170.017 6         0.000 6      1975.237 6        37.977 6
G16  20503311.121 9 107745606.853 9       603.597 9        55.974 9  20503310.294 6         0.000 6       470.335 6        37.977 6
G26  20637814.805 9 108452426.624 9     -1446.241 9        55.880 9  20637817.615 6         0.000 6     -1126.941 6        37.977 6
G20  21973641.666 9 115472232.959 9      2577.740 9        55.304 9  21973642.004 6         0.000 6      2008.628 6        37.977 6
> 2019 07 03 12 00  1.0000000  0  8       0.000000000000
G07  25371032.434 9 133325629.009 9      2226.324 9        54.123 9  25371033.117 6         0.000 6      1734.798 6        37.977 6
G10  23849086.371 9 125327739.469 9      3528.514 9        54.655 9  23849090.136 6         0.000 6      2749.494 6        37.977 6
G21  21157460.707 9 111183185.808 9     -1239.964 9        55.715 9  21157459.990 6         0.000 6      -966.206 6        37.977 6
G29  24266224.997 9 127519817.244 9     -3143.555 9        54.487 9  24266226.535 6         0.000 6     -2449.526 6        37.977 6
G27  22031685.724 9 115777262.759 9      2534.652 9        55.364 9  22031687.666 6         0.000 6      1975.054 6        37.977 6
G16  20503196.319 9 107745003.564 9       602.981 9        55.974 9  20503195.492 6         0.000 6       469.855 6        37.977 6
G26  20638090.071 9 108453873.154 9     -1446.822 9        55.880 9  20638092.881 6         0.000 6     -1127.394 6        37.977 6
G20  21973151.179 9 115469655.438 9      2577.306 9        55.304 9  21973151.517 6         0.000 6      2008.292 6        37.977 6
> 2019 07 03 12 00  2.0000000  0  8       0.000000000000
G07  25370608.822 9 133323402.915 9      2225.873 9        54.123 9  25370609.504 6         0.000 6      1734.448 6        37.977 6
G10  23848414.929 9 125324211.032 9      3528.381 9        54.655 9  23848418.694 6         0.000 6      2749.391 6        37.977 6
G21  21157696.699 9 111184425.956 9     -1240.333 9        55.715 9  21157695.983 6         0.000 6      -966.493 6        37.977 6
G29  24266823.204 9 127522960.833 9     -3143.643 9        54.487 9  24266824.743 6         0.000 6     -2449.594 6        37.977 6
G27  22031203.418 9 115774728.230 9      2534.412 9        55.364 9  22031205.360 6         0.000 6      1974.867 6        37.977 6
G16  20503081.634 9 107744400.892 9       602.364 9        55.974 9  20503080.807 6         0.000 6       469.374 6        37.977 6
G26  20638365.447 9 108455320.264 9     -1447.401 9        55.880 9  20638368.257 6         0.000 6     -1127.845 6        37.977 6
G20  21972660.776 9 115467078.356 9      2576.868 9        55.304 9  21972661.114 6         0.000 6      2007.950 6        37.977 6
> 2019 07 03 12 00  3.0000000  0  8       0.000000000000
G07  25370185.295 9 133321177.270 9      2225.423 9        54.124 9  25370185.977 6         0.000 6      1734.097 6        37.977 6
G10  23847743.513 9 125320682.728 9      3528.249 9        54.655 9  23847747.277 6         0.000 6      2749.288 6        37.977 6
G21  21157932.762 9 111185666.472 9     -1240.701 9        55.715 9  21157932.045 6         0.000 6      -966.780 6        37.977 6
G29  24267421.427 9 127526104.510 9     -3143.731 9        54.486 9  24267422.967 6         0.000 6     -2449.663 6        37.977 6
G27  22030721.159 9 115772193.940 9      2534.172 9        55.364 9  22030723.101 6         0.000 6      1974.680 6        37.977 6
G16  20502967.067 9 107743798.837 9       601.747 9        55.974 9  20502966.240 6         0.000 6       468.894 6        37.977 6
G26  20638640.934 9 108456767.952 9     -1447.980 9        55.880 9  20638643.744 6         0.000 6     -1128.296 6        37.977 6
G20  21972170.456 9 115464501.712 9      2576.429 9        55.305 9  21972170.793 6         0.000 6      2007.608 6        37.977 6
> 2019 07 03 12 00  4.0000000  0  8       0.000000000000
G07  25369761.854 9 133318952.076 9      2224.972 9        54.124 9  25369762.536 6         0.000 6      1733.746 6        37.977 6
G10  23847072.122 9 125317154.556 9      3528.116 9        54.656 9  23847075.886 6         0.000 6      2749.184 6        37.977 6
G21  21158168.895 9 111186907.357 9     -1241.070 9        55.714 9  21158168.178 6         0.000 6      -967.068 6        37.977 6
G29  24268019.668 9 127529248.275 9     -3143.819 9        54.486 9  24268021.208 6         0.000 6     -2449.732 6        37.977 6
G27  22030238.944 9 115769659.891 9      2533.932 9        55.364 9  22030240.886 6         0.000 6      1974.493 6        37.977 6
G16  20502852.617 9 107743197.399 9       601.130 9        55.974 9  20502851.790 6         0.000 6       468.413 6        37.977 6
G26  20638916.530 9 108458216.219 9     -1448.559 9        55.880 9  20638919.340 6         0.000 6     -1128.747 6        37.977 6
G20  21971680.220 9 115461925.507 9      2575.990 9        55.305 9  21971680.557 6         0.000 6      2007.266 6        37.977 6
> 2019 07 03 12 00  5.0000000  0  8       0.000000000000
G07  25369338.499 9 133316727.333 9      2224.522 9        54.124 9  25369339.181 6         0.000 6      1733.395 6        37.977 6
G10  23846400.757 9 125313626.517 9      3527.983 9        54.656 9  23846404.520 6         0.000 6      2749.081 6        37.977 6
G21  21158405.098 9 111188148.611 9     -1241.439 9        55.714 9  21158404.381 6         0.000 6      -967.355 6        37.977 6
G29  24268617.925 9 127532392.128 9     -3143.907 9        54.486 9  24268619.466 6         0.000 6     -2449.800 6        37.977 6
G27  22029756.776 9 115767126.081 9      2533.692 9        55.364 9  22029758.718 6         0.000 6      1974.306 6        37.977 6
G16  20502738.285 9 107742596.577 9       600.513 9        55.974 9  20502737.458 6         0.000 6       467.932 6        37.977 6
G26  20639192.237 9 108459665.066 9     -1449.137 9        55.879 9  20639195.047 6         0.000 6     -1129.198 6        37.977 6
G20  21971190.067 9 115459349.741 9      2575.551 9        55.305 9  21971190.404 6         0.000 6      2006.924 6        37.977 6
> 2019 07 03 12 00  6.0000000  0  8       0.000000000000
G07  25368915.229 9 133314503.040 9      2224.071 9        54.124 9  25368915.911 6         0.000 6      1733.043 6        37.977 6
G10  23845729.417 9 125310098.611 9      3527.851 9        54.656 9  23845733.179 6         0.000 6      2748.977 6        37.977 6
G21  21158641.371 9 111189390.234 9     -1241.808 9        55.714 9  21158640.654 6         0.000 6      -967.642 6        37.977 6
G29  24269216.199 9 127535536.069 9     -3143.995 9        54.486 9  24269217.741 6         0.000 6     -2449.869 6        37.977 6
G27  22029274.653 9 115764592.512 9      2533.452 9        55.365 9  22029276.595 6         0.000 6      1974.119 6        37.977 6
G16  20502624.070 9 107741996.373 9       599.896 9        55.974 9  20502623.243 6         0.000 6       467.451 6        37.977 6
G26  20639468.053 9 108461114.491 9     -1449.716 9        55.879 9  20639470.864 6         0.000 6     -1129.649 6        37.977 6
G20  21970699.998 9 115456774.414 9      2575.112 9        55.305 9  21970700.334 6         0.000 6      2006.582 6        37.977 6
> 2019 07 03 12 00  7.0000000  0  8       0.000000000000
G07  25368492.045 9 133312279.198 9      2223.621 9        54.124 9  25368492.727 6         0.000 6      1732.692 6        37.977 6
G10  23845058.102 9 125306570.838 9      3527.718 9        54.656 9  23845061.863 6         0.000 6      2748.874 6        37.977 6
G21  21158877.714 9 111190632.225 9     -1242.176 9        55.714 9  21158876.997 6         0.000 6      -967.930 6        37.977 6
G29  24269814.490 9 127538680.098 9     -3144.083 9        54.486 9  24269816.032 6         0.000 6     -2449.938 6        37.977 6
G27  22028792.576 9 115762059.182 9      2533.212 9        55.365 9  22028794.517 6         0.000 6      1973.932 6        37.977 6
G16  20502509.972 9 107741396.786 9       599.279 9        55.974 9  20502509.145 6         0.000 6       466.970 6        37.977 6
G26  20639743.980 9 108462564.495 9     -1450.295 9        55.879 9  20639746.791 6         0.000 6     -1130.100 6        37.977 6
G20  21970210.012 9 115454199.526 9      2574.673 9        55.305 9  21970210.348 6         0.000 6      2006.240 6        37.977 6
> 2019 07 03 12 00  8.0000000  0  8       0.000000000000
G07  25368068.947 9 133310055.807 9      2223.170 9        54.124 9  25368069.629 6         0.000 6      1732.341 6        37.977 6
G10  23844386.812 9 125303043.197 9      3527.585 9        54.657 9  23844390.573 6         0.000 6      2748.770 6        37.977 6
G21  21159114.127 9 111191874.584 9     -1242.545 9        55.714 9  21159113.410 6         0.000 6      -968.217 6        37.977 6
G29  24270412.798 9 127541824.215 9     -3144.171 9        54.485 9  24270414.340 6         0.000 6     -2450.006 6        37.977 6
G27  22028310.545 9 115759526.093 9      2532.972 9        55.365 9  22028312.486 6         0.000 6      1973.745 6        37.977 6
G16  20502395.992 9 107740797.816 9       598.661 9        55.974 9  20502395.165 6         0.000 6       466.489 6        37.977 6
G26  20640020.017 9 108464015.077 9     -1450.874 9        55.879 9  20640022.828 6         0.000 6     -1130.551 6        37.977 6
G20  21969720.110 9 115451625.077 9      2574.234 9        55.305 9  21969720.445 6         0.000 6      2005.898 6        37.977 6
> 2019 07 03 12 00  9.0000000  0  8       0.000000000000
G07  25367645.935 9 133307832.866 9      2222.719 9        54.124 9  25367646.616 6         0.000 6      1731.990 6        37.977 6
G10  23843715.548 9 125299515.690 9      3527.451 9        54.657 9  23843719.308 6         0.000 6      2748.666 6        37.977 6
G21  21159350.611 9 111193117.313 9     -1242.913 9        55.714 9  21159349.894 6         0.000 6      -968.504 6        37.977 6
G29  24271011.122 9 127544968.420 9     -3144.259 9        54.485 9  24271012.665 6         0.000 6     -2450.075 6        37.977 6
G27  22027828.559 9 115756993.243 9      2532.732 9        55.365 9  22027830.500 6         0.000 6      1973.558 6        37.977 6
G16  20502282.129 9 107740199.463 9       598.044 9        55.974 9  20502281.302 6         0.000 6       466.009 6        37.977 6
G26  20640296.165 9 108465466.239 9     -1451.453 9        55.879 9  20640298.975 6         0.000 6     -1131.002 6        37.977 6
G20  21969230.291 9 115449051.068 9      2573.794 9        55.306 9  21969230.627 6         0.000 6      2005.555 6        37.977 6
> 2019 07 03 12 00 10.0000000  0  8       0.000000000000
G07  25367223.009 9 133305610.376 9      2222.268 9        54.125 9  25367223.689 6         0.000 6      1731.638 6        37.977 6
G10  23843044.309 9 125295988.316 9      3527.318 9        54.657 9  23843048.068 6         0.000 6      2748.562 6        37.977 6
G21  21159587.164 9 111194360.409 9     -1243.282 9        55.714 9  21159586.448 6         0.000 6      -968.791 6        37.977 6
G29  24271609.463 9 127548112.713 9     -3144.347 9        54.485 9  24271611.007 6         0.000 6     -2450.143 6        37.977 6
G27  22027346.619 9 115754460.634 9      2532.492 9        55.365 9  22027348.560 6         0.000 6      1973.371 6        37.977 6
G16  20502168.384 9 107739601.728 9       597.427 9        55.974 9  20502167.557 6         0.000 6       465.528 6        37.977 6
G26  20640572.422 9 108466917.979 9     -1452.031 9        55.879 9  20640575.233 6         0.000 6     -1131.453 6        37.977 6
G20  21968740.556 9 115446477.498 9      2573.355 9        55.306 9  21968740.891 6         0.000 6      2005.213 6        37.977 6
> 2019 07 03 12 00 11.0000000  0  8       0.000000000000
G07  25366800.168 9 133303388.337 9      2221.817 9        54.125 9  25366800.849 6         0.000 6      1731.287 6        37.977 6
G10  23842373.095 9 125292461.076 9      3527.185 9        54.657 9  23842376.854 6         0.000 6      2748.458 6        37.977 6
G21  21159823.788 9 111195603.874 9     -1243.650 9        55.714 9  21159823.071 6         0.000 6      -969.078 6        37.977 6
G29  24272207.821 9 127551257.094 9     -3144.435 9        54.485 9  24272209.365 6         0.000 6     -2450.212 6        37.977 6
G27  22026864.724 9 115751928.264 9      2532.252 9        55.365 9  22026866.665 6         0.000 6      1973.184 6        37.977 6
G16  20502054.756 9 107739004.609 9       596.810 9        55.975 9  20502053.929 6         0.000 6       465.047 6        37.977 6
G26  20640848.789 9 108468370.298 9     -1452.610 9        55.879 9  20640851.600 6         0.000 6     -1131.904 6        37.977 6
G20  21968250.905 9 115443904.367 9      2572.915 9        55.306 9  21968251.240 6         0.000 6      2004.870 6        37.977 6
> 2019 07 03 12 00 12.0000000  0  8       0.000000000000
G07  25366377.413 9 133301166.750 9      2221.366 9        54.125 9  25366378.094 6         0.000 6      1730.935 6        37.977 6
G10  23841701.907 9 125288933.968 9      3527.051 9        54.658 9  23841705.665 6         0.000 6      2748.354 6        37.977 6
G21  21160060.481 9 111196847.708 9     -1244.018 9        55.714 9  21160059.765 6         0.000 6      -969.365 6        37.977 6
G29  24272806.195 9 127554401.563 9     -3144.523 9        54.485 9  24272807.740 6         0.000 6     -2450.280 6        37.977 6
G27  22026382.876 9 115749396.135 9      2532.012 9        55.366 9  22026384.816 6         0.000 6      1972.997 6        37.977 6
G16  20501941.245 9 107738408.108 9       596.193 9        55.975 9  20501940.419 6         0.000 6       464.566 6        37.977 6
G26  20641125.267 9 108469823.196 9     -1453.189 9        55.879 9  20641128.078 6         0.000 6     -1132.355 6        37.977 6
G20  21967761.337 9 115441331.676 9      2572.476 9        55.306 9  21967761.672 6         0.000 6      2004.528 6        37.977 6
> 2019 07 03 12 00 13.0000000  0  8       0.000000000000
G07  25365954.744 9 133298945.613 9      2220.915 9        54.125 9  25365955.424 6         0.000 6      1730.584 6        37.977 6
G10  23841030.744 9 125285406.994 9      3526.918 9        54.658 9  23841034.501 6         0.000 6      2748.250 6        37.977 6
G21  21160297.245 9 111198091.909 9     -1244.386 9        55.714 9  21160296.529 6         0.000 6      -969.652 6        37.977 6
G29  24273404.586 9 127557546.120 9     -3144.611 9        54.484 9  24273406.132 6         0.000 6     -2450.349 6        37.977 6
G27  22025901.073 9 115746864.246 9      2531.772 9        55.366 9  22025903.013 6         0.000 6      1972.810 6        37.977 6
G16  20501827.853 9 107737812.224 9       595.575 9        55.975 9  20501827.026 6         0.000 6       464.085 6        37.977 6
G26  20641401.854 9 108471276.672 9     -1453.767 9        55.879 9  20641404.666 6         0.000 6     -1132.806 6        37.977 6
G20  21967271.853 9 115438759.425 9      2572.036 9        55.306 9  21967272.187 6         0.000 6      2004.185 6        37.977 6
> 2019 07 03 12 00 14.0000000  0  8       0.000000000000
G07  25365532.161 9 133296724.928 9      2220.463 9        54.125 9  25365532.841 6         0.000 6      1730.232 6        37.977 6
G10  23840359.606 9 125281880.154 9      3526.784 9        54.658 9  23840363.363 6         0.000 6      2748.146 6        37.977 6
G21  21160534.079 9 111199336.479 9     -1244.755 9        55.713 9  21160533.363 6         0.000 6      -969.939 6        37.977 6
G29  24274002.994 9 127560690.765 9     -3144.699 9        54.484 9  24274004.540 6         0.000 6     -2450.417 6        37.977 6
G27  22025419.316 9 115744332.598 9      2531.531 9        55.366 9  22025421.256 6         0.000 6      1972.622 6        37.977 6
G16  20501714.577 9 107737216.958 9       594.958 9        55.975 9  20501713.750 6         0.000 6       463.604 6        37.977 6
G26  20641678.552 9 108472730.726 9     -1454.346 9        55.878 9  20641681.363 6         0.000 6     -1133.257 6        37.977 6
G20  21966782.453 9 115436187.613 9      2571.596 9        55.307 9  21966782.787 6         0.000 6      2003.842 6        37.977 6
> 2019 07 03 12 00 15.0000000  0  8       0.000000000000
G07  25365109.664 9 133294504.694 9      2220.012 9        54.125 9  25365110.344 6         0.000 6      1729.881 6        37.977 6
G10  23839688.494 9 125278353.448 9      3526.650 9        54.658 9  23839692.250 6         0.000 6      2748.042 6        37.977 6
G21  21160770.983 9 111200581.417 9     -1245.123 9        55.713 9  21160770.267 6         0.000 6      -970.226 6        37.977 6
G29  24274601.419 9 127563835.497 9     -3144.786 9        54.484 9  24274602.966 6         0.000 6     -2450.486 6        37.977 6
G27  22024937.604 9 115741801.189 9      2531.291 9        55.366 9  22024939.544 6         0.000 6      1972.435 6        37.977 6
G16  20501601.419 9 107736622.309 9       594.340 9        55.975 9  20501600.592 6         0.000 6       463.122 6        37.977 6
G26  20641955.360 9 108474185.360 9     -1454.924 9        55.878 9  20641958.171 6         0.000 6     -1133.708 6        37.977 6
G20  21966293.136 9 115433616.241 9      2571.156 9        55.307 9  21966293.470 6         0.000 6      2003.500 6        37.977 6
> 2019 07 03 12 00 16.0000000  0  8       0.000000000000
G07  25364687.253 9 133292284.911 9      2219.561 9        54.125 9  25364687.932 6         0.000 6      1729.529 6        37.977 6
G10  23839017.408 9 125274826.875 9      3526.516 9        54.659 9  23839021.163 6         0.000 6      2747.938 6        37.977 6
G21  21161007.957 9 111201826.724 9     -1245.491 9        55.713 9  21161007.241 6         0.000 6      -970.513 6        37.977 6
G29  24275199.860 9 127566980.317 9     -3144.874 9        54.484 9  24275201.408 6         0.000 6     -2450.554 6        37.977 6
G27  22024455.938 9 115739270.021 9      2531.051 9        55.366 9  22024457.878 6         0.000 6      1972.248 6        37.977 6
G16  20501488.379 9 107736028.277 9       593.723 9        55.975 9  20501487.552 6         0.000 6       462.641 6        37.977 6
G26  20642232.278 9 108475640.572 9     -1455.503 9        55.878 9  20642235.089 6         0.000 6     -1134.158 6        37.977 6
G20  21965803.903 9 115431045.309 9      2570.716 9        55.307 9  21965804.237 6         0.000 6      2003.157 6        37.977 6
> 2019 07 03 12 00 17.0000000  0  8       0.000000000000
G07  25364264.927 9 133290065.580 9      2219.109 9        54.126 9  25364265.607 6         0.000 6      1729.177 6        37.977 6
G10  23838346.347 9 125271300.437 9      3526.382 9        54.659 9  23838350.102 6         0.000 6      2747.833 6        37.977 6
G21  21161245.001 9 111203072.398 9     -1245.859 9        55.713 9  21161244.285 6         0.000 6      -970.799 6        37.977 6
G29  24275798.318 9 127570125.225 9     -3144.962 9        54.483 9  24275799.866 6         0.000 6     -2450.622 6        37.977 6
G27  22023974.318 9 115736739.094 9      2530.810 9        55.367 9  22023976.258 6         0.000 6      1972.061 6        37.977 6
G16  20501375.456 9 107735434.863 9       593.106 9        55.975 9  20501374.629 6         0.000 6       462.160 6        37.977 6
G26  20642509.306 9 108477096.362 9     -1456.081 9        55.878 9  20642512.118 6         0.000 6     -1134.609 6        37.977 6
G20  21965314.754 9 115428474.818 9      2570.276 9        55.307 9  21965315.087 6         0.000 6      2002.814 6        37.977 6
> 2019 07 03 12 00 18.0000000  0  8       0.000000000000
G07  25363842.688 9 133287846.700 9      2218.658 9        54.126 9  25363843.367 6         0.000 6      1728.825 6        37.977 6
G10  23837675.311 9 125267774.132 9      3526.248 9        54.659 9  23837679.065 6         0.000 6      2747.729 6        37.977 6
G21  21161482.115 9 111204318.440 9     -1246.227 9        55.713 9  21161481.399 6         0.000 6      -971.086 6        37.977 6
G29  24276396.793 9 127573270.221 9     -3145.050 9        54.483 9  24276398.342 6         0.000 6     -2450.691 6        37.977 6
G27  22023492.744 9 115734208.406 9      2530.570 9        55.367 9  22023494.683 6         0.000 6      1971.873 6        37.977 6
G16  20501262.650 9 107734842.066 9       592.488 9        55.975 9  20501261.823 6         0.000 6       461.679 6        37.977 6
G26  20642786.444 9 108478552.731 9     -1456.660 9        55.878 9  20642789.256 6         0.000 6     -1135.060 6        37.977 6
G20  21964825.688 9 115425904.766 9      2569.836 9        55.307 9  21964826.021 6         0.000 6      2002.471 6        37.977 6
> 2019 07 03 12 00 19.0000000  0  8       0.000000000000
G07  25363420.534 9 133285628.271 9      2218.206 9        54.126 9  25363421.213 6         0.000 6      1728.473 6        37.977 6
G10  23837004.302 9 125264247.962 9      3526.114 9        54.659 9  23837008.055 6         0.000 6      2747.624 6        37.977 6
G21  21161719.299 9 111205564.850 9     -1246.595 9        55.713 9  21161718.583 6         0.000 6      -971.373 6        37.977 6
G29  24276995.284 9 127576415.304 9     -3145.137 9        54.483 9  24276996.834 6         0.000 6     -2450.759 6        37.977 6
G27  22023011.215 9 115731677.959 9      2530.329 9        55.367 9  22023013.154 6         0.000 6      1971.686 6        37.977 6
G16  20501149.962 9 107734249.887 9       591.870 9        55.975 9  20501149.135 6         0.000 6       461.198 6        37.977 6
G26  20643063.692 9 108480009.678 9     -1457.238 9        55.878 9  20643066.504 6         0.000 6     -1135.511 6        37.977 6
G20  21964336.707 9 115423335.154 9      2569.396 9        55.308 9  21964337.039 6         0.000 6      2002.128 6        37.977 6
> 2019 07 03 12 00 20.0000000  0  8       0.000000000000
G07  25362998.467 9 133283410.295 9      2217.754 9        54.126 9  25362999.145 6         0.000 6      1728.121 6        37.977 6
G10  23836333.317 9 125260721.926 9      3525.980 9        54.660 9  23836337.070 6         0.000 6      2747.519 6        37.977 6
G21  21161956.554 9 111206811.629 9     -1246.963 9        55.713 9  21161955.837 6         0.000 6      -971.659 6        37.977 6
G29  24277593.792 9 127579560.476 9     -3145.225 9        54.483 9  24277595.342 6         0.000 6     -2450.827 6        37.977 6
G27  22022529.733 9 115729147.753 9      2530.089 9        55.367 9  22022531.672 6         0.000 6      1971.499 6        37.977 6
G16  20501037.392 9 107733658.325 9       591.253 9        55.975 9  20501036.565 6         0.000 6       460.717 6        37.977 6
G26  20643341.050 9 108481467.203 9     -1457.816 9        55.878 9  20643343.862 6         0.000 6     -1135.961 6        37.977 6
G20  21963847.809 9 115420765.983 9      2568.955 9        55.308 9  21963848.141 6         0.000 6      2001.785 6        37.977 6
> 2019 07 03 12 00 21.0000000  0  8       0.000000000000
G07  25362576.485 9 133281192.770 9      2217.303 9        54.126 9  25362577.163 6         0.000 6      1727.769 6        37.977 6
G10  23835662.358 9 125257196.024 9      3525.845 9        54.660 9  23835666.110 6         0.000 6      2747.415 6        37.977 6
G21  21162193.878 9 111208058.774 9     -1247.331 9        55.713 9  21162193.162 6         0.000 6      -971.946 6        37.977 6
G29  24278192.317 9 127582705.734 9     -3145.313 9        54.483 9  24278193.868 6         0.000 6     -2450.896 6        37.977 6
G27  22022048.295 9 115726617.787 9      2529.848 9        55.367 9  22022050.234 6         0.000 6      1971.311 6        37.977 6
G16  20500924.939 9 107733067.381 9       590.635 9        55.975 9  20500924.112 6         0.000 6       460.235 6        37.977 6
G26  20643618.519 9 108482925.307 9     -1458.395 9        55.878 9  20643621.331 6         0.000 6     -1136.412 6        37.977 6
G20  21963358.995 9 115418197.253 9      2568.515 9        55.308 9  21963359.327 6         0.000 6      2001.441 6        37.977 6
> 2019 07 03 12 00 22.0000000  0  8       0.000000000000
G07  25362154.589 9 133278975.697 9      2216.851 9        54.126 9  25362155.267 6         0.000 6      1727.417 6        37.977 6
G10  23834991.425 9 125253670.257 9      3525.711 9        54.660 9  23834995.176 6         0.000 6      2747.310 6        37.977 6
G21  21162431.272 9 111209306.288 9     -1247.698 9        55.713 9  21162430.556 6         0.000 6      -972.233 6        37.977 6
G29  24278790.859 9 127585851.081 9     -3145.400 9        54.482 9  24278792.410 6         0.000 6     -2450.964 6        37.977 6
G27  22021566.904 9 115724088.062 9      2529.608 9        55.368 9  22021568.843 6         0.000 6      1971.124 6        37.977 6
G16  20500812.603 9 107732477.055 9       590.018 9        55.975 9  20500811.776 6         0.000 6       459.754 6        37.977 6
G26  20643896.097 9 108484383.989 9     -1458.973 9        55.878 9  20643898.909 6         0.000 6     -1136.863 6        37.977 6
G20  21962870.265 9 115415628.962 9      2568.074 9        55.308 9  21962870.596 6         0.000 6      2001.098 6        37.977 6
> 2019 07 03 12 00 23.0000000  0  8       0.000000000000
G07  25361732.780 9 133276759.076 9      2216.399 9        54.126 9  25361733.458 6         0.000 6      1727.065 6        37.977 6
G10  23834320.517 9 125250144.624 9      3525.576 9        54.660 9  23834324.268 6         0.000 6      2747.205 6        37.977 6
G21  21162668.736 9 111210554.170 9     -1248.066 9        55.713 9  21162668.020 6         0.000 6      -972.519 6        37.977 6
G29  24279389.417 9 127588996.515 9     -3145.488 9        54.482 9  24279390.969 6         0.000 6     -2451.032 6        37.977 6
G27  22021085.559 9 115721558.577 9      2529.367 9        55.368 9  22021087.497 6         0.000 6      1970.936 6        37.977 6
G16  20500700.386 9 107731887.347 9       589.400 9        55.975 9  20500699.559 6         0.000 6       459.273 6        37.977 6
G26  20644173.785 9 108485843.250 9     -1459.551 9        55.877 9  20644176.598 6         0.000 6     -1137.313 6        37.977 6
G20  21962381.618 9 115413061.113 9      2567.634 9        55.308 9  21962381.950 6         0.000 6      2000.755 6        37.977 6
> 2019 07 03 12 00 24.0000000  0  8       0.000000000000
G07  25361311.056 9 133274542.907 9      2215.947 9        54.127 9  25361311.734 6         0.000 6      1726.713 6        37.977 6
G10  23833649.635 9 125246619.126 9      3525.441 9        54.661 9  23833653.385 6         0.000 6      2747.100 6        37.977 6
G21  21162906.270 9 111211802.419 9     -1248.434 9        55.713 9  21162905.554 6         0.000 6      -972.806 6        37.977 6
G29  24279987.992 9 127592142.037 9     -3145.576 9        54.482 9  24279989.544 6         0.000 6     -2451.100 6        37.977 6
G27  22020604.259 9 115719029.333 9      2529.126 9        55.368 9  22020606.197 6         0.000 6      1970.749 6        37.977 6
G16  20500588.285 9 107731298.256 9       588.782 9        55.975 9  20500587.458 6         0.000 6       458.791 6        37.977 6
G26  20644451.584 9 108487303.089 9     -1460.130 9        55.877 9  20644454.396 6         0.000 6     -1137.764 6        37.977 6
G20  21961893.056 9 115410493.704 9      2567.193 9        55.309 9  21961893.387 6         0.000 6      2000.411 6        37.977 6
> 2019 07 03 12 00 25.0000000  0  8       0.000000000000
G07  25360889.418 9 133272327.190 9      2215.495 9        54.127 9  25360890.096 6         0.000 6      1726.360 6        37.977 6
G10  23832978.779 9 125243093.763 9      3525.307 9        54.661 9  23832982.528 6         0.000 6      2746.995 6        37.977 6
G21  21163143.874 9 111213051.036 9     -1248.801 9        55.712 9  21163143.158 6         0.000 6      -973.092 6        37.977 6
G29  24280586.583 9 127595287.646 9     -3145.663 9        54.482 9  24280588.136 6         0.000 6     -2451.169 6        37.977 6
G27  22020123.005 9 115716500.330 9      2528.886 9        55.368 9  22020124.943 6         0.000 6      1970.561 6        37.977 6
G16  20500476.303 9 107730709.783 9       588.164 9        55.975 9  20500475.476 6         0.000 6       458.310 6        37.977 6
G26  20644729.492 9 108488763.506 9     -1460.708 9        55.877 9  20644732.305 6         0.000 6     -1138.214 6        37.977 6
G20  21961404.577 9 115407926.736 9      2566.752 9        55.309 9  21961404.908 6         0.000 6      2000.068 6        37.977 6
> 2019 07 03 12 00 26.0000000  0  8       0.000000000000
G07  25360467.867 9 133270111.925 9      2215.043 9        54.127 9  25360468.544 6         0.000 6      1726.008 6        37.977 6
G10  23832307.948 9 125239568.534 9      3525.172 9        54.661 9  23832311.697 6         0.000 6      2746.890 6        37.977 6
G21  21163381.548 9 111214300.020 9     -1249.169 9        55.712 9  21163380.832 6         0.000 6      -973.378 6        37.977 6
G29  24281185.191 9 127598433.343 9     -3145.751 9        54.482 9  24281186.745 6         0.000 6     -2451.237 6        37.977 6
G27  22019641.797 9 115713971.567 9      2528.645 9        55.368 9  22019643.735 6         0.000 6      1970.373 6        37.977 6
G16  20500364.438 9 107730121.927 9       587.546 9        55.975 9  20500363.610 6         0.000 6       457.828 6        37.977 6
G26  20645007.511 9 108490224.501 9     -1461.286 9        55.877 9  20645010.323 6         0.000 6     -1138.665 6        37.977 6
G20  21960916.182 9 115405360.209 9      2566.311 9        55.309 9  21960916.513 6         0.000 6      1999.724 6        37.977 6
> 2019 07 03 12 00 27.0000000  0  8       0.000000000000
G07  25360046.401 9 133267897.112 9      2214.590 9        54.127 9  25360047.078 6         0.000 6      1725.656 6        37.977 6
G10  23831637.143 9 125236043.441 9      3525.037 9        54.661 9  23831640.891 6         0.000 6      2746.784 6        37.977 6
G21  21163619.292 9 111215549.372 9     -1249.536 9        55.712 9  21163618.576 6         0.000 6      -973.665 6        37.977 6
G29  24281783.816 9 127601579.127 9     -3145.838 9        54.481 9  24281785.370 6         0.000 6     -2451.305 6        37.977 6
G27  22019160.635 9 115711443.045 9      2528.404 9        55.369 9  22019162.573 6         0.000 6      1970.186 6        37.977 6
G16  20500252.690 9 107729534.690 9       586.929 9        55.975 9  20500251.863 6         0.000 6       457.347 6        37.977 6
G26  20645285.639 9 108491686.074 9     -1461.864 9        55.877 9  20645288.452 6         0.000 6     -1139.115 6        37.977 6
G20  21960427.871 9 115402794.122 9      2565.870 9        55.309 9  21960428.202 6         0.000 6      1999.381 6        37.977 6
> 2019 07 03 12 00 28.0000000  0  8       0.000000000000
G07  25359625.022 9 133265682.751 9      2214.138 9        54.127 9  25359625.698 6         0.000 6      1725.303 6        37.977 6
G10  23830966.364 9 125232518.483 9      3524.901 9        54.662 9  23830970.111 6         0.000 6      2746.679 6        37.977 6
G21  21163857.106 9 111216799.091 9     -1249.904 9        55.712 9  21163856.390 6         0.000 6      -973.951 6        37.977 6
G29  24282382.457 9 127604724.999 9     -3145.926 9        54.481 9  24282384.012 6         0.000 6     -2451.373 6        37.977 6
G27  22018679.519 9 115708914.764 9      2528.163 9        55.369 9  22018681.456 6         0.000 6      1969.998 6        37.977 6
G16  20500141.060 9 107728948.070 9       586.311 9        55.975 9  20500140.233 6         0.000 6       456.865 6        37.977 6
G26  20645563.878 9 108493148.225 9     -1462.442 9        55.877 9  20645566.690 6         0.000 6     -1139.566 6        37.977 6
G20  21959939.644 9 115400228.477 9      2565.429 9        55.309 9  21959939.975 6         0.000 6      1999.037 6        37.977 6
> 2019 07 03 12 00 29.0000000  0  8       0.000000000000
G07  25359203.728 9 133263468.843 9      2213.686 9        54.127 9  25359204.405 6         0.000 6      1724.951 6        37.977 6
G10  23830295.610 9 125228993.659 9      3524.766 9        54.662 9  23830299.357 6         0.000 6      2746.574 6        37.977 6
G21  21164094.989 9 111218049.178 9     -1250.271 9        55.712 9  21164094.274 6         0.000 6      -974.237 6        37.977 6
G29  24282981.115 9 127607870.959 9     -3146.013 9        54.481 9  24282982.671 6         0.000 6     -2451.441 6        37.977 6
G27  22018198.448 9 115706386.724 9      2527.923 9        55.369 9  22018200.385 6         0.000 6      1969.811 6        37.977 6
G16  20500029.548 9 107728362.069 9       585.693 9        55.975 9  20500028.721 6         0.000 6       456.384 6        37.977 6
G26  20645842.226 9 108494610.955 9     -1463.020 9        55.877 9  20645845.039 6         0.000 6     -1140.016 6        37.977 6
G20  21959451.502 9 115397663.273 9      2564.988 9        55.309 9  21959451.831 6         0.000 6      1998.693 6        37.977 6
> 2019 07 03 12 00 30.0000000  0  8       0.000000000000
G07  25358782.521 9 133261255.388 9      2213.233 9        54.127 9  25358783.197 6         0.000 6      1724.598 6        37.977 6
G10  23829624.883 9 125225468.972 9      3524.631 9        54.662 9  23829628.629 6         0.000 6      2746.468 6        37.977 6
G21  21164332.943 9 111219299.632 9     -1250.638 9        55.712 9  21164332.227 6         0.000 6      -974.524 6        37.977 6
G29  24283579.790 9 127611017.005 9     -3146.101 9        54.481 9  24283581.347 6         0.000 6     -2451.510 6        37.977 6
G27  22017717.423 9 115703858.925 9      2527.682 9        55.369 9  22017719.360 6         0.000 6      1969.623 6        37.977 6
G16  20499918.153 9 107727776.685 9       585.075 9        55.975 9  20499917.326 6         0.000 6       455.902 6        37.977 6
G26  20646120.685 9 108496074.262 9     -1463.598 9        55.877 9  20646123.498 6         0.000 6     -1140.467 6        37.977 6
G20  21958963.443 9 115395098.511 9      2564.547 9        55.310 9  21958963.772 6         0.000 6      1998.349 6        37.977 6
> 2019 07 03 12 00 31.0000000  0  8       0.000000000000
G07  25358361.400 9 133259042.385 9      2212.781 9        54.128 9  25358362.076 6         0.000 6      1724.245 6        37.977 6
G10  23828954.180 9 125221944.419 9      3524.495 9        54.662 9  23828957.926 6         0.000 6      2746.363 6        37.977 6
G21  21164570.966 9 111220550.453 9     -1251.006 9        55.712 9  21164570.251 6         0.000 6      -974.810 6        37.977 6
G29  24284178.482 9 127614163.140 9     -3146.188 9        54.480 9  24284180.039 6         0.000 6     -2451.578 6        37.977 6
G27  22017236.444 9 115701331.366 9      2527.441 9        55.369 9  22017238.381 6         0.000 6      1969.435 6        37.977 6
G16  20499806.876 9 107727191.920 9       584.457 9        55.975 9  20499806.048 6         0.000 6       455.421 6        37.977 6
G26  20646399.253 9 108497538.148 9     -1464.176 9        55.876 9  20646402.066 6         0.000 6     -1140.917 6        37.977 6
G20  21958475.468 9 115392534.189 9      2564.105 9        55.310 9  21958475.797 6         0.000 6      1998.005 6        37.977 6
> 2019 07 03 12 00 32.0000000  0  8       0.000000000000
G07  25357940.365 9 133256829.834 9      2212.328 9        54.128 9  25357941.041 6         0.000 6      1723.893 6        37.977 6
G10  23828283.504 9 125218420.002 9      3524.360 9        54.662 9  23828287.249 6         0.000 6      2746.257 6        37.977 6
G21  21164809.060 9 111221801.642 9     -1251.373 9        55.712 9  21164808.344 6         0.000 6      -975.096 6        37.977 6
G29  24284777.190 9 127617309.361 9     -3146.276 9        54.480 9  24284778.747 6         0.000 6     -2451.646 6        37.977 6
G27  22016755.511 9 115698804.049 9      2527.200 9        55.369 9  22016757.448 6         0.000 6      1969.247 6        37.977 6
G16  20499695.716 9 107726607.772 9       583.839 9        55.976 9  20499694.889 6         0.000 6       454.939 6        37.977 6
G26  20646677.931 9 108499002.611 9     -1464.754 9        55.876 9  20646680.745 6         0.000 6     -1141.367 6        37.977 6
G20  21957987.577 9 115389970.310 9      2563.664 9        55.310 9  21957987.906 6         0.000 6      1997.661 6        37.977 6
> 2019 07 03 12 00 33.0000000  0  8       0.000000000000
G07  25357519.416 9 133254617.736 9      2211.875 9        54.128 9  25357520.091 6         0.000 6      1723.540 6        37.977 6
G10  23827612.854 9 125214895.721 9      3524.224 9        54.663 9  23827616.598 6         0.000 6      2746.151 6        37.977 6
G21  21165047.223 9 111223053.198 9     -1251.740 9        55.712 9  21165046.508 6         0.000 6      -975.382 6        37.977 6
G29  24285375.914 9 127620455.670 9     -3146.363 9        54.480 9  24285377.472 6         0.000 6     -2451.714 6        37.977 6
G27  22016274.624 9 115696276.972 9      2526.959 9        55.370 9  22016276.561 6         0.000 6      1969.060 6        37.977 6
G16  20499584.674 9 107726024.243 9       583.220 9        55.976 9  20499583.847 6         0.000 6       454.457 6        37.977 6
G26  20646956.720 9 108500467.652 9     -1465.332 9        55.876 9  20646959.533 6         0.000 6     -1141.818 6        37.977 6
G20  21957499.770 9 115387406.871 9      2563.222 9        55.310 9  21957500.098 6         0.000 6      1997.317 6        37.977 6
> 2019 07 03 12 00 34.0000000  0  8       0.000000000000
G07  25357098.553 9 133252406.091 9      2211.422 9        54.128 9  25357099.228 6         0.000 6      1723.187 6        37.977 6
G10  23826942.229 9 125211371.576 9      3524.088 9        54.663 9  23826945.973 6         0.000 6      2746.046 6        37.977 6
G21  21165285.456 9 111224305.121 9     -1252.107 9        55.712 9  21165284.741 6         0.000 6      -975.668 6        37.977 6
G29  24285974.655 9 127623602.067 9     -3146.450 9        54.480 9  24285976.214 6         0.000 6     -2451.782 6        37.977 6
G27  22015793.783 9 115693750.137 9      2526.718 9        55.370 9  22015795.719 6         0.000 6      1968.872 6        37.977 6
G16  20499473.750 9 107725441.332 9       582.602 9        55.976 9  20499472.923 6         0.000 6       453.976 6        37.977 6
G26  20647235.618 9 108501933.271 9     -1465.910 9        55.876 9  20647238.432 6         0.000 6     -1142.268 6        37.977 6
G20  21957012.047 9 115384843.875 9      2562.780 9        55.310 9  21957012.375 6         0.000 6      1996.973 6        37.977 6
> 2019 07 03 12 00 35.0000000  0  8       0.000000000000
G07  25356677.776 9 133250194.899 9      2210.970 9        54.128 9  25356678.452 6         0.000 6      1722.834 6        37.977 6
G10  23826271.630 9 125207847.566 9      3523.952 9        54.663 9  23826275.373 6         0.000 6      2745.940 6        37.977 6
G21  21165523.759 9 111225557.410 9     -1252.474 9        55.711 9  21165523.044 6         0.000 6      -975.954 6        37.977 6
G29  24286573.413 9 127626748.550 9     -3146.538 9        54.480 9  24286574.973 6         0.000 6     -2451.850 6        37.977 6
G27  22015312.987 9 115691223.542 9      2526.477 9        55.370 9  22015314.924 6         0.000 6      1968.684 6        37.977 6
G16  20499362.943 9 107724859.039 9       581.984 9        55.976 9  20499362.116 6         0.000 6       453.494 6        37.977 6
G26  20647514.627 9 108503399.469 9     -1466.488 9        55.876 9  20647517.440 6         0.000 6     -1142.718 6        37.977 6
G20  21956524.408 9 115382281.320 9      2562.339 9        55.311 9  21956524.736 6         0.000 6      1996.629 6        37.977 6
> 2019 07 03 12 00 36.0000000  0  8       0.000000000000
G07  25356257.086 9 133247984.159 9      2210.517 9        54.128 9  25356257.761 6         0.000 6      1722.481 6        37.977 6
G10  23825601.057 9 125204323.692 9      3523.816 9        54.663 9  23825604.800 6         0.000 6      2745.834 6        37.977 6
G21  21165762.132 9 111226810.067 9     -1252.841 9        55.711 9  21165761.417 6         0.000 6      -976.240 6        37.977 6
G29  24287172.188 9 127629895.121 9     -3146.625 9        54.479 9  24287173.748 6         0.000 6     -2451.918 6        37.977 6
G27  22014832.238 9 115688697.189 9      2526.236 9        55.370 9  22014834.174 6         0.000 6      1968.496 6        37.977 6
G16  20499252.254 9 107724277.364 9       581.366 9        55.976 9  20499251.427 6         0.000 6       453.012 6        37.977 6
G26  20647793.745 9 108504866.244 9     -1467.066 9        55.876 9  20647796.559 6         0.000 6     -1143.168 6        37.977 6
G20  21956036.853 9 115379719.207 9      2561.897 9        55.311 9  21956037.181 6         0.000 6      1996.284 6        37.977 6
> 2019 07 03 12 00 37.0000000  0  8       0.000000000000
G07  25355836.482 9 133245773.873 9      2210.064 9        54.128 9  25355837.157 6         0.000 6      1722.128 6        37.977 6
G10  23824930.510 9 125200799.954 9      3523.680 9        54.664 9  23824934.252 6         0.000 6      2745.728 6        37.977 6
G21  21166000.575 9 111228063.091 9     -1253.208 9        55.711 9  21165999.859 6         0.000 6      -976.526 6        37.977 6
G29  24287770.979 9 127633041.780 9     -3146.712 9        54.479 9  24287772.540 6         0.000 6     -2451.986 6        37.977 6
G27  22014351.534 9 115686171.077 9      2525.994 9        55.370 9  22014353.470 6         0.000 6      1968.308 6        37.977 6
G16  20499141.682 9 107723696.307 9       580.748 9        55.976 9  20499140.855 6         0.000 6       452.531 6        37.977 6
G26  20648072.973 9 108506333.596 9     -1467.643 9        55.876 9  20648075.787 6         0.000 6     -1143.619 6        37.977 6
G20  21955549.382 9 115377157.536 9      2561.455 9        55.311 9  21955549.710 6         0.000 6      1995.940 6        37.977 6
> 2019 07 03 12 00 38.0000000  0  8       0.000000000000
G07  25355415.964 9 133243564.039 9      2209.610 9        54.129 9  25355416.638 6         0.000 6      1721.775 6        37.977 6
G10  23824259.989 9 125197276.353 9      3523.544 9        54.664 9  23824263.730 6         0.000 6      2745.622 6        37.977 6
G21  21166239.087 9 111229316.482 9     -1253.575 9        55.711 9  21166238.372 6         0.000 6      -976.812 6        37.977 6
G29  24288369.787 9 127636188.525 9     -3146.799 9        54.479 9  24288371.348 6         0.000 6     -2452.054 6        37.977 6
G27  22013870.876 9 115683645.206 9      2525.753 9        55.371 9  22013872.812 6         0.000 6      1968.120 6        37.977 6
G16  20499031.229 9 107723115.869 9       580.129 9        55.976 9  20499030.402 6         0.000 6       452.049 6        37.977 6
G26  20648352.311 9 108507801.527 9     -1468.221 9        55.876 9  20648355.125 6         0.000 6     -1144.069 6        37.977 6
G20  21955061.996 9 115374596.307 9      2561.013 9        55.311 9  21955062.323 6         0.000 6      1995.595 6        37.977 6
> 2019 07 03 12 00 39.0000000  0  8       0.000000000000
G07  25354995.532 9 133241354.659 9      2209.157 9        54.129 9  25354996.206 6         0.000 6      1721.422 6        37.977 6
G10  23823589.494 9 125193752.887 9      3523.408 9        54.664 9  23823593.234 6         0.000 6      2745.515 6        37.977 6
G21  21166477.669 9 111230570.240 9     -1253.942 9        55.711 9  21166476.954 6         0.000 6      -977.098 6        37.977 6
G29  24288968.611 9 127639335.358 9     -3146.887 9        54.479 9  24288970.173 6         0.000 6     -2452.122 6        37.977 6
G27  22013390.264 9 115681119.576 9      2525.512 9        55.371 9  22013392.200 6         0.000 6      1967.932 6        37.977 6
G16  20498920.893 9 107722536.049 9       579.511 9        55.976 9  20498920.066 6         0.000 6       451.567 6        37.977 6
G26  20648631.760 9 108509270.035 9     -1468.799 9        55.876 9  20648634.574 6         0.000 6     -1144.519 6        37.977 6
G20  21954574.694 9 115372035.520 9      2560.570 9        55.311 9  21954575.021 6         0.000 6      1995.251 6        37.977 6
> 2019 07 03 12 00 40.0000000  0  8       0.000000000000
G07  25354575.187 9 133239145.732 9      2208.704 9        54.129 9  25354575.861 6         0.000 6      1721.069 6        37.977 6
G10  23822919.025 9 125190229.558 9      3523.272 9        54.664 9  23822922.764 6         0.000 6      2745.409 6        37.977 6
G21  21166716.322 9 111231824.364 9     -1254.308 9        55.711 9  21166715.606 6         0.000 6      -977.383 6        37.977 6
G29  24289567.452 9 127642482.278 9     -3146.974 9        54.479 9  24289569.015 6         0.000 6     -2452.190 6        37.977 6
G27  22012909.698 9 115678594.187 9      2525.271 9        55.371 9  22012911.634 6         0.000 6      1967.744 6        37.977 6
G16  20498810.674 9 107721956.847 9       578.892 9        55.976 9  20498809.847 6         0.000 6       451.085 6        37.977 6
G26  20648911.318 9 108510739.121 9     -1469.376 9        55.875 9  20648914.132 6         0.000 6     -1144.969 6        37.977 6
G20  21954087.475 9 115369475.175 9      2560.128 9        55.312 9  21954087.802 6         0.000 6      1994.906 6        37.977 6
> 2019 07 03 12 00 41.0000000  0  8       0.000000000000
G07  25354154.927 9 133236937.258 9      2208.251 9        54.129 9  25354155.601 6         0.000 6      1720.716 6        37.977 6
G10  23822248.581 9 125186706.366 9      3523.135 9        54.665 9  23822252.320 6         0.000 6      2745.303 6        37.977 6
G21  21166955.043 9 111233078.855 9     -1254.675 9        55.711 9  21166954.328 6         0.000 6      -977.669 6        37.977 6
G29  24290166.309 9 127645629.285 9     -3147.061 9        54.478 9  24290167.873 6         0.000 6     -2452.258 6        37.977 6
G27  22012429.178 9 115676069.040 9      2525.029 9        55.371 9  22012431.114 6         0.000 6      1967.556 6        37.977 6
G16  20498700.574 9 107721378.264 9       578.274 9        55.976 9  20498699.746 6         0.000 6       450.603 6        37.977 6
G26  20649190.986 9 108512208.784 9     -1469.954 9        55.875 9  20649193.800 6         0.000 6     -1145.419 6        37.977 6
G20  21953600.341 9 115366915.273 9      2559.686 9        55.312 9  21953600.668 6         0.000 6      1994.561 6        37.977 6
> 2019 07 03 12 00 42.0000000  0  8       0.000000000000
G07  25353734.754 9 133234729.238 9      2207.797 9        54.129 9  25353735.428 6         0.000 6      1720.362 6        37.977 6
G10  23821578.164 9 125183183.310 9      3522.998 9        54.665 9  23821581.902 6         0.000 6      2745.196 6        37.977 6
G21  21167193.835 9 111234333.713 9     -1255.042 9        55.711 9  21167193.120 6         0.000 6      -977.955 6        37.977 6
G29  24290765.183 9 127648776.379 9     -3147.148 9        54.478 9  24290766.747 6         0.000 6     -2452.326 6        37.977 6
G27  22011948.704 9 115673544.134 9      2524.788 9        55.371 9  22011950.639 6         0.000 6      1967.368 6        37.977 6
G16  20498590.590 9 107720800.299 9       577.656 9        55.976 9  20498589.763 6         0.000 6       450.121 6        37.977 6
G26  20649470.764 9 108513679.025 9     -1470.532 9        55.875 9  20649473.578 6         0.000 6     -1145.869 6        37.977 6
G20  21953113.291 9 115364355.813 9      2559.243 9        55.312 9  21953113.618 6         0.000 6      1994.217 6        37.977 6
> 2019 07 03 12 00 43.0000000  0  8       0.000000000000
G07  25353314.668 9 133232521.671 9      2207.344 9        54.129 9  25353315.341 6         0.000 6      1720.009 6        37.977 6
G10  23820907.773 9 125179660.390 9      3522.862 9        54.665 9  23820911.510 6         0.000 6      2745.090 6        37.977 6
G21  21167432.696 9 111235588.938 9     -1255.408 9        55.711 9  21167431.981 6         0.000 6      -978.241 6        37.977 6
G29  24291364.074 9 127651923.561 9     -3147.235 9        54.478 9  24291365.639 6         0.000 6     -2452.394 6        37.977 6
G27  22011468.276 9 115671019.469 9      2524.547 9        55.372 9  22011470.211 6         0.000 6      1967.180 6        37.977 6
G16  20498480.725 9 107720222.953 9       577.037 9        55.976 9  20498479.898 6         0.000 6       449.639 6        37.977 6
G26  20649750.651 9 108515149.844 9     -1471.109 9        55.875 9  20649753.466 6         0.000 6     -1146.319 6        37.977 6
G20  21952626.326 9 115361796.795 9      2558.801 9        55.312 9  21952626.652 6         0.000 6      1993.872 6        37.977 6
> 2019 07 03 12 00 44.0000000  0  8       0.000000000000
G07  25352894.667 9 133230314.557 9      2206.890 9        54.129 9  25352895.340 6         0.000 6      1719.656 6        37.977 6
G10  23820237.408 9 125176137.608 9      3522.725 9        54.665 9  23820241.144 6         0.000 6      2744.983 6        37.977 6
G21  21167671.628 9 111236844.529 9     -1255.775 9        55.711 9  21167670.913 6         0.000 6      -978.526 6        37.977 6
G29  24291962.981 9 127655070.830 9     -3147.322 9        54.478 9  24291964.546 6         0.000 6     -2452.462 6        37.977 6
G27  22010987.894 9 115668495.046 9      2524.305 9        55.372 9  22010989.828 6         0.000 6      1966.992 6        37.977 6
G16  20498370.977 9 107719646.225 9       576.419 9        55.976 9  20498370.150 6         0.000 6       449.157 6        37.977 6
G26  20650030.649 9 108516621.240 9     -1471.687 9        55.875 9  20650033.464 6         0.000 6     -1146.769 6        37.977 6
G20  21952139.444 9 115359238.220 9      2558.358 9        55.312 9  21952139.770 6         0.000 6      1993.527 6        37.977 6
> 2019 07 03 12 00 45.0000000  0  8       0.000000000000
G07  25352474.753 9 133228107.898 9      2206.437 9        54.130 9  25352475.426 6         0.000 6      1719.302 6        37.977 6
G10  23819567.068 9 125172614.962 9      3522.588 9        54.666 9  23819570.805 6         0.000 6      2744.876 6        37.977 6
G21  21167910.629 9 111238100.486 9     -1256.141 9        55.710 9  21167909.913 6         0.000 6      -978.812 6        37.977 6
G29  24292561.905 9 127658218.185 9     -3147.409 9        54.477 9  24292563.471 6         0.000 6     -2452.529 6        37.977 6
G27  22010507.557 9 115665970.865 9      2524.064 9        55.372 9  22010509.492 6         0.000 6      1966.804 6        37.977 6
G16  20498261.348 9 107719070.116 9       575.800 9        55.976 9  20498260.520 6         0.000 6       448.675 6        37.977 6
G26  20650310.757 9 108518093.214 9     -1472.264 9        55.875 9  20650313.571 6         0.000 6     -1147.219 6        37.977 6
G20  21951652.647 9 115356680.088 9      2557.915 9        55.313 9  21951652.972 6         0.000 6      1993.182 6        37.977 6
> 2019 07 03 12 00 46.0000000  0  8       0.000000000000
G07  25352054.925 9 133225901.691 9      2205.983 9        54.130 9  25352055.598 6         0.000 6      1718.949 6        37.977 6
G10  23818896.755 9 125169092.453 9      3522.451 9        54.666 9  23818900.491 6         0.000 6      2744.770 6        37.977 6
G21  21168149.699 9 111239356.810 9     -1256.508 9        55.710 9  21168148.984 6         0.000 6      -979.097 6        37.977 6
G29  24293160.846 9 127661365.628 9     -3147.496 9        54.477 9  24293162.412 6         0.000 6     -2452.597 6        37.977 6
G27  22010027.267 9 115663446.924 9      2523.822 9        55.372 9  22010029.201 6         0.000 6      1966.615 6        37.977 6
G16  20498151.835 9 107718494.625 9       575.181 9        55.976 9  20498151.008 6         0.000 6       448.193 6        37.977 6
G26  20650590.974 9 108519565.766 9     -1472.842 9        55.875 9  20650593.789 6         0.000 6     -1147.669 6        37.977 6
G20  21951165.934 9 115354122.399 9      2557.473 9        55.313 9  21951166.259 6         0.000 6      1992.837 6        37.977 6
> 2019 07 03 12 00 47.0000000  0  8       0.000000000000
G07  25351635.184 9 133223695.939 9      2205.529 9        54.130 9  25351635.856 6         0.000 6      1718.595 6        37.977 6
G10  23818226.468 9 125165570.082 9      3522.314 9        54.666 9  23818230.203 6         0.000 6      2744.663 6        37.977 6
G21  21168388.840 9 111240613.501 9     -1256.874 9        55.710 9  21168388.125 6         0.000 6      -979.383 6        37.977 6
G29  24293759.802 9 127664513.158 9     -3147.583 9        54.477 9  24293761.370 6         0.000 6     -2452.665 6        37.977 6
G27  22009547.022 9 115660923.226 9      2523.581 9        55.372 9  22009548.957 6         0.000 6      1966.427 6        37.977 6
G16  20498042.441 9 107717919.754 9       574.563 9        55.976 9  20498041.614 6         0.000 6       447.711 6        37.977 6
G26  20650871.302 9 108521038.894 9     -1473.419 9        55.875 9  20650874.116 6         0.000 6     -1148.119 6        37.977 6
G20  21950679.305 9 115351565.152 9      2557.030 9        55.313 9  21950679.630 6         0.000 6      1992.492 6        37.977 6
> 2019 07 03 12 00 48.0000000  0  8       0.000000000000
G07  25351215.529 9 133221490.640 9      2205.075 9        54.130 9  25351216.201 6         0.000 6      1718.241 6        37.977 6
G10  23817556.207 9 125162047.847 9      3522.176 9        54.666 9  23817559.941 6         0.000 6      2744.556 6        37.977 6
G21  21168628.050 9 111241870.557 9     -1257.241 9        55.710 9  21168627.335 6         0.000 6      -979.668 6        37.977 6
G29  24294358.776 9 127667660.775 9     -3147.670 9        54.477 9  24294360.344 6         0.000 6     -2452.733 6        37.977 6
G27  22009066.824 9 115658399.768 9      2523.339 9        55.373 9  22009068.758 6         0.000 6      1966.239 6        37.977 6
G16  20497933.164 9 107717345.500 9       573.944 9        55.976 9  20497932.337 6         0.000 6       447.229 6        37.977 6
G26  20651151.739 9 108522512.600 9     -1473.997 9        55.874 9  20651154.554 6         0.000 6     -1148.569 6        37.977 6
G20  21950192.761 9 115349008.349 9      2556.587 9        55.313 9  21950193.085 6         0.000 6      1992.147 6        37.977 6
> 2019 07 03 12 00 49.0000000  0  8       0.000000000000
G07  25350795.960 9 133219285.796 9      2204.621 9        54.130 9  25350796.632 6         0.000 6      1717.888 6        37.977 6
G10  23816885.972 9 125158525.750 9      3522.039 9        54.667 9  23816889.706 6         0.000 6      2744.449 6        37.977 6
G21  21168867.329 9 111243127.980 9     -1257.607 9        55.710 9  21168866.614 6         0.000 6      -979.954 6        37.977 6
G29  24294957.766 9 127670808.478 9     -3147.757 9        54.477 9  24294959.334 6         0.000 6     -2452.801 6        37.977 6
G27  22008586.671 9 115655876.553 9      2523.097 9        55.373 9  22008588.606 6         0.000 6      1966.051 6        37.977 6
G16  20497824.005 9 107716771.866 9       573.325 9        55.976 9  20497823.178 6         0.000 6       446.747 6        37.977 6
G26  20651432.286 9 108523986.884 9     -1474.574 9        55.874 9  20651435.101 6         0.000 6     -1149.019 6        37.977 6
G20  21949706.301 9 115346451.988 9      2556.143 9        55.313 9  21949706.625 6         0.000 6      1991.801 6        37.977 6
> 2019 07 03 12 00 50.0000000  0  8       0.000000000000
G07  25350376.478 9 133217081.405 9      2204.167 9        54.130 9  25350377.150 6         0.000 6      1717.534 6        37.977 6
G10  23816215.764 9 125155003.790 9      3521.902 9        54.667 9  23816219.497 6         0.000 6      2744.342 6        37.977 6
G21  21169106.679 9 111244385.770 9     -1257.973 9        55.710 9  21169105.964 6         0.000 6      -980.239 6        37.977 6
G29  24295556.773 9 127673956.269 9     -3147.844 9        54.476 9  24295558.342 6         0.000 6     -2452.868 6        37.977 6
G27  22008106.565 9 115653353.579 9      2522.856 9        55.373 9  22008108.499 6         0.000 6      1965.862 6        37.977 6
G16  20497714.964 9 107716198.850 9       572.706 9        55.976 9  20497714.137 6         0.000 6       446.265 6        37.977 6
G26  20651712.943 9 108525461.745 9     -1475.151 9        55.874 9  20651715.758 6         0.000 6     -1149.469 6        37.977 6
G20  21949219.925 9 115343896.071 9      2555.700 9        55.314 9  21949220.249 6         0.000 6      1991.456 6        37.977 6
> 2019 07 03 12 00 51.0000000  0  8       0.000000000000
G07  25349957.082 9 133214877.468 9      2203.713 9        54.130 9  25349957.753 6         0.000 6      1717.180 6        37.977 6
G10  23815545.581 9 125151481.968 9      3521.764 9        54.667 9  23815549.313 6         0.000 6      2744.234 6        37.977 6
G21  21169346.098 9 111245643.925 9     -1258.339 9        55.710 9  21169345.383 6         0.000 6      -980.524 6        37.977 6
G29  24296155.796 9 127677104.147 9     -3147.931 9        54.476 9  24296157.365 6         0.000 6     -2452.936 6        37.977 6
G27  22007626.504 9 115650830.847 9      2522.614 9        55.373 9  22007628.438 6         0.000 6      1965.674 6        37.977 6
G16  20497606.040 9 107715626.453 9       572.088 9        55.976 9  20497605.213 6         0.000 6       445.783 6        37.977 6
G26  20651993.710 9 108526937.183 9     -1475.729 9        55.874 9  20651996.525 6         0.000 6     -1149.919 6        37.977 6
G20  21948733.634 9 115341340.597 9      2555.257 9        55.314 9  21948733.957 6         0.000 6      1991.110 6        37.977 6
> 2019 07 03 12 00 52.0000000  0  8       0.000000000000
G07  25349537.772 9 133212673.986 9      2203.259 9        54.131 9  25349538.444 6         0.000 6      1716.826 6        37.977 6
G10  23814875.425 9 125147960.284 9      3521.626 9        54.667 9  23814879.156 6         0.000 6      2744.127 6        37.977 6
G21  21169585.587 9 111246902.447 9     -1258.705 9        55.710 9  21169584.872 6         0.000 6      -980.809 6        37.977 6
G29  24296754.835 9 127680252.111 9     -3148.018 9        54.476 9  24296756.406 6         0.000 6     -2453.004 6        37.977 6
G27  22007146.490 9 115648308.356 9      2522.372 9        55.373 9  22007148.424 6         0.000 6      1965.486 6        37.977 6
G16  20497497.234 9 107715054.675 9       571.469 9        55.976 9  20497496.407 6         0.000 6       445.300 6        37.977 6
G26  20652274.587 9 108528413.198 9     -1476.306 9        55.874 9  20652277.402 6         0.000 6     -1150.369 6        37.977 6
G20  21948247.427 9 115338785.566 9      2554.814 9        55.314 9  21948247.750 6         0.000 6      1990.765 6        37.977 6
> 2019 07 03 12 00 53.0000000  0  8       0.000000000000
G07  25349118.549 9 133210470.957 9      2202.805 9        54.131 9  25349119.220 6         0.000 6      1716.472 6        37.977 6
G10  23814205.295 9 125144438.737 9      3521.489 9        54.668 9  23814209.026 6         0.000 6      2744.020 6        37.977 6
G21  21169825.145 9 111248161.334 9     -1259.071 9        55.710 9  21169824.431 6         0.000 6      -981.095 6        37.977 6
G29  24297353.892 9 127683400.163 9     -3148.105 9        54.476 9  24297355.463 6         0.000 6     -2453.072 6        37.977 6
G27  22006666.521 9 115645786.108 9      2522.131 9        55.373 9  22006668.455 6         0.000 6      1965.297 6        37.977 6
G16  20497388.546 9 107714483.516 9       570.850 9        55.977 9  20497387.719 6         0.000 6       444.818 6        37.977 6
G26  20652555.573 9 108529889.791 9     -1476.883 9        55.874 9  20652558.389 6         0.000 6     -1150.818 6        37.977 6
G20  21947761.304 9 115336230.979 9      2554.370 9        55.314 9  21947761.627 6         0.000 6      1990.419 6        37.977 6
> 2019 07 03 12 00 54.0000000  0  8       0.000000000000
G07  25348699.413 9 133208268.383 9      2202.351 9        54.131 9  25348700.084 6         0.000 6      1716.118 6        37.977 6
G10  23813535.191 9 125140917.327 9      3521.351 9        54.668 9  23813538.921 6         0.000 6      2743.912 6        37.977 6
G21  21170064.773 9 111249420.588 9     -1259.437 9        55.710 9  21170064.059 6         0.000 6      -981.380 6        37.977 6
G29  24297952.964 9 127686548.301 9     -3148.192 9        54.476 9  24297954.536 6         0.000 6     -2453.139 6        37.977 6
G27  22006186.599 9 115643264.101 9      2521.889 9        55.374 9  22006188.532 6         0.000 6      1965.109 6        37.977 6
G16  20497279.976 9 107713912.976 9       570.231 9        55.977 9  20497279.149 6         0.000 6       444.336 6        37.977 6
G26  20652836.670 9 108531366.961 9     -1477.460 9        55.874 9  20652839.485 6         0.000 6     -1151.268 6        37.977 6
G20  21947275.266 9 115333676.835 9      2553.926 9        55.314 9  21947275.589 6         0.000 6      1990.074 6        37.977 6
> 2019 07 03 12 00 55.0000000  0  8       0.000000000000
G07  25348280.363 9 133206066.264 9      2201.896 9        54.131 9  25348281.033 6         0.000 6      1715.764 6        37.977 6
G10  23812865.113 9 125137396.056 9      3521.213 9        54.668 9  23812868.843 6         0.000 6      2743.805 6        37.977 6
G21  21170304.471 9 111250680.207 9     -1259.803 9        55.709 9  21170303.757 6         0.000 6      -981.665 6        37.977 6
G29  24298552.054 9 127689696.526 9     -3148.279 9        54.475 9  24298553.626 6         0.000 6     -2453.207 6        37.977 6
G27  22005706.722 9 115640742.336 9      2521.647 9        55.374 9  22005708.656 6         0.000 6      1964.920 6        37.977 6
G16  20497171.524 9 107713343.054 9       569.612 9        55.977 9  20497170.697 6         0.000 6       443.853 6        37.977 6
G26  20653117.876 9 108532844.708 9     -1478.037 9        55.874 9  20653120.692 6         0.000 6     -1151.718 6        37.977 6
G20  21946789.312 9 115331123.135 9      2553.483 9        55.314 9  21946789.634 6         0.000 6      1989.728 6        37.977 6
> 2019 07 03 12 00 56.0000000  0  8       0.000000000000
G07  25347861.399 9 133203864.598 9      2201.442 9        54.131 9  25347862.069 6         0.000 6      1715.410 6        37.977 6
G10  23812195.062 9 125133874.923 9      3521.075 9        54.668 9  23812198.791 6         0.000 6      2743.697 6        37.977 6
G21  21170544.239 9 111251940.193 9     -1260.169 9        55.709 9  21170543.524 6         0.000 6      -981.950 6        37.977 6
G29  24299151.160 9 127692844.838 9     -3148.366 9        54.475 9  24299152.732 6         0.000 6     -2453.275 6        37.977 6
G27  22005226.892 9 115638220.812 9      2521.405 9        55.374 9  22005228.825 6         0.000 6      1964.732 6        37.977 6
G16  20497063.189 9 107712773.752 9       568.993 9        55.977 9  20497062.362 6         0.000 6       443.371 6        37.977 6
G26  20653399.192 9 108534323.032 9     -1478.614 9        55.874 9  20653402.008 6         0.000 6     -1152.168 6        37.977 6
G20  21946303.442 9 115328569.879 9      2553.039 9        55.315 9  21946303.765 6         0.000 6      1989.382 6        37.977 6
> 2019 07 03 12 00 57.0000000  0  8       0.000000000000
G07  25347442.522 9 133201663.388 9      2200.987 9        54.131 9  25347443.192 6         0.000 6      1715.056 6        37.977 6
G10  23811525.037 9 125130353.928 9      3520.937 9        54.669 9  23811528.765 6         0.000 6      2743.590 6        37.977 6
G21  21170784.076 9 111253200.544 9     -1260.535 9        55.709 9  21170783.361 6         0.000 6      -982.235 6        37.977 6
G29  24299750.282 9 127695993.237 9     -3148.452 9        54.475 9  24299751.855 6         0.000 6     -2453.342 6        37.977 6
G27  22004747.108 9 115635699.531 9      2521.163 9        55.374 9  22004749.040 6         0.000 6      1964.543 6        37.977 6
G16  20496954.972 9 107712205.069 9       568.374 9        55.977 9  20496954.145 6         0.000 6       442.889 6        37.977 6
G26  20653680.618 9 108535801.933 9     -1479.191 9        55.873 9  20653683.434 6         0.000 6     -1152.617 6        37.977 6
G20  21945817.657 9 115326017.066 9      2552.595 9        55.315 9  21945817.980 6         0.000 6      1989.036 6        37.977 6
> 2019 07 03 12 00 58.0000000  0  8       0.000000000000
G07  25347023.731 9 133199462.632 9      2200.532 9        54.132 9  25347024.401 6         0.000 6      1714.702 6        37.977 6
G10  23810855.038 9 125126833.071 9      3520.798 9        54.669 9  23810858.765 6         0.000 6      2743.482 6        37.977 6
G21  21171023.982 9 111254461.261 9     -1260.901 9        55.709 9  21171023.268 6         0.000 6      -982.520 6        37.977 6
G29  24300349.421 9 127699141.723 9     -3148.539 9        54.475 9  24300350.995 6         0.000 6     -2453.410 6        37.977 6
G27  22004267.369 9 115633178.492 9      2520.921 9        55.374 9  22004269.302 6         0.000 6      1964.355 6        37.977 6
G16  20496846.873 9 107711637.004 9       567.755 9        55.977 9  20496846.046 6         0.000 6       442.406 6        37.977 6
G26  20653962.154 9 108537281.411 9     -1479.769 9        55.873 9  20653964.970 6         0.000 6     -1153.067 6        37.977 6
G20  21945331.957 9 115323464.698 9      2552.151 9        55.315 9  21945332.279 6         0.000 6      1988.690 6        37.977 6
> 2019 07 03 12 00 59.0000000  0  8       0.000000000000
G07  25346605.027 9 133197262.330 9      2200.078 9        54.132 9  25346605.697 6         0.000 6      1714.347 6        37.977 6
G10  23810185.065 9 125123312.353 9      3520.660 9        54.669 9  23810188.792 6         0.000 6      2743.374 6        37.977 6
G21  21171263.958 9 111255722.344 9     -1261.266 9        55.709 9  21171263.244 6         0.000 6      -982.805 6        37.977 6
G29  24300948.576 9 127702290.295 9     -3148.626 9        54.474 9  24300950.151 6         0.000 6     -2453.477 6        37.977 6
G27  22003787.677 9 115630657.694 9      2520.679 9        55.375 9  22003789.609 6         0.000 6      1964.166 6        37.977 6
G16  20496738.892 9 107711069.559 9       567.136 9        55.977 9  20496738.065 6         0.000 6       441.924 6        37.977 6
G26  20654243.799 9 108538761.467 9     -1480.346 9        55.873 9  20654246.615 6         0.000 6     -1153.516 6        37.977 6
G20  21944846.341 9 115320912.773 9      2551.707 9        55.315 9  21944846.663 6         0.000 6      1988.344 6        37.977 6
> 2019 07 03 12 01  0.0000000  0  8       0.000000000000
G07  25346186.409 9 133195062.483 9      2199.623 9        54.132 9  25346187.079 6         0.000 6      1713.993 6        37.977 6
G10  23809515.119 9 125119791.773 9      3520.521 9        54.669 9  23809518.846 6         0.000 6      2743.266 6        37.977 6
G21  21171504.004 9 111256983.793 9     -1261.632 9        55.709 9  21171503.290 6         0.000 6      -983.090 6        37.977 6
G29  24301547.748 9 127705438.954 9     -3148.713 9        54.474 9  24301549.323 6         0.000 6     -2453.545 6        37.977 6
G27  22003308.031 9 115628137.139 9      2520.437 9        55.375 9  22003309.963 6         0.000 6      1963.978 6        37.977 6
G16  20496631.029 9 107710502.733 9       566.516 9        55.977 9  20496630.202 6         0.000 6       441.441 6        37.977 6
G26  20654525.554 9 108540242.099 9     -1480.923 9        55.873 9  20654528.371 6         0.000 6     -1153.966 6        37.977 6
G20  21944360.810 9 115318361.293 9      2551.263 9        55.315 9  21944361.131 6         0.000 6      1987.998 6        37.977 6
> 2019 07 03 12 01  1.0000000  0  8       0.000000000000
G07  25345767.878 9 133192863.092 9      2199.168 9        54.132 9  25345768.548 6         0.000 6      1713.638 6        37.977 6
G10  23808845.199 9 125116271.331 9      3520.383 9        54.670 9  23808848.925 6         0.000 6      2743.158 6        37.977 6
G21  21171744.120 9 111258245.607 9     -1261.998 9        55.709 9  21171743.405 6         0.000 6      -983.375 6        37.977 6
G29  24302146.936 9 127708587.700 9     -3148.799 9        54.474 9  24302148.512 6         0.000 6     -2453.612 6        37.977 6
G27  22002828.431 9 115625616.826 9      2520.195 9        55.375 9  22002830.363 6         0.000 6      1963.789 6        37.977 6
G16  20496523.283 9 107709936.527 9       565.897 9        55.977 9  20496522.456 6         0.000 6       440.959 6        37.977 6
G26  20654807.419 9 108541723.308 9     -1481.499 9        55.873 9  20654810.236 6         0.000 6     -1154.416 6        37.977 6
G20  21943875.363 9 115315810.257 9      2550.819 9        55.316 9  21943875.684 6         0.000 6      1987.652 6        37.977 6
> 2019 07 03 12 01  2.0000000  0  8       0.000000000000
G07  25345349.434 9 133190664.155 9      2198.713 9        54.132 9  25345350.103 6         0.000 6      1713.284 6        37.977 6
G10  23808175.306 9 125112751.028 9      3520.244 9        54.670 9  23808179.031 6         0.000 6      2743.050 6        37.977 6
G21  21171984.305 9 111259507.786 9     -1262.363 9        55.709 9  21171983.590 6         0.000 6      -983.660 6        37.977 6
G29  24302746.141 9 127711736.532 9     -3148.886 9        54.474 9  24302747.718 6         0.000 6     -2453.680 6        37.977 6
G27  22002348.876 9 115623096.755 9      2519.953 9        55.375 9  22002350.808 6         0.000 6      1963.600 6        37.977 6
G16  20496415.655 9 107709370.939 9       565.278 9        55.977 9  20496414.828 6         0.000 6       440.476 6        37.977 6
G26  20655089.394 9 108543205.094 9     -1482.076 9        55.873 9  20655092.211 6         0.000 6     -1154.865 6        37.977 6
G20  21943390.000 9 115313259.665 9      2550.374 9        55.316 9  21943390.321 6         0.000 6      1987.306 6        37.977 6
> 2019 07 03 12 01  3.0000000  0  8       0.000000000000
G07  25344931.076 9 133188465.673 9      2198.258 9        54.132 9  25344931.745 6         0.000 6      1712.929 6        37.977 6
G10  23807505.439 9 125109230.864 9      3520.105 9        54.670 9  23807509.163 6         0.000 6      2742.942 6        37.977 6
G21  21172224.559 9 111260770.332 9     -1262.729 9        55.709 9  21172223.845 6         0.000 6      -983.945 6        37.977 6
G29  24303345.362 9 127714885.451 9     -3148.973 9        54.474 9  24303346.939 6         0.000 6     -2453.747 6        37.977 6
G27  22001869.368 9 115620576.926 9      2519.711 9        55.375 9  22001871.300 6         0.000 6      1963.412 6        37.977 6
G16  20496308.145 9 107708805.971 9       564.659 9        55.977 9  20496307.318 6         0.000 6       439.994 6        37.977 6
G26  20655371.479 9 108544687.457 9     -1482.653 9        55.873 9  20655374.295 6         0.000 6     -1155.315 6        37.977 6
G20  21942904.723 9 115310709.517 9      2549.930 9        55.316 9  21942905.043 6         0.000 6      1986.959 6        37.977 6
> 2019 07 03 12 01  4.0000000  0  8       0.000000000000
G07  25344512.805 9 133186267.646 9      2197.803 9        54.132 9  25344513.473 6         0.000 6      1712.575 6        37.977 6
G10  23806835.599 9 125105710.839 9      3519.966 9        54.670 9  23806839.322 6         0.000 6      2742.834 6        37.977 6
G21  21172464.883 9 111262033.242 9     -1263.094 9        55.709 9  21172464.169 6         0.000 6      -984.229 6        37.977 6
G29  24303944.600 9 127718034.457 9     -3149.059 9        54.473 9  24303946.178 6         0.000 6     -2453.815 6        37.977 6
G27  22001389.906 9 115618057.339 9      2519.468 9        55.376 9  22001391.838 6         0.000 6      1963.223 6        37.977 6
G16  20496200.753 9 107708241.622 9       564.039 9        55.977 9  20496199.926 6         0.000 6       439.511 6        37.977 6
G26  20655653.673 9 108546170.397 9     -1483.230 9        55.873 9  20655656.490 6         0.000 6     -1155.764 6        37.977 6
G20  21942419.529 9 115308159.814 9      2549.485 9        55.316 9  21942419.850 6         0.000 6      1986.613 6        37.977 6
> 2019 07 03 12 01  5.0000000  0  8       0.000000000000
G07  25344094.620 9 133184070.074 9      2197.348 9        54.133 9  25344095.288 6         0.000 6      1712.220 6        37.977 6
G10  23806165.784 9 125102190.953 9      3519.827 9        54.671 9  23806169.507 6         0.000 6      2742.725 6        37.977 6
G21  21172705.277 9 111263296.518 9     -1263.459 9        55.708 9  21172704.562 6         0.000 6      -984.514 6        37.977 6
G29  24304543.854 9 127721183.549 9     -3149.146 9        54.473 9  24304545.433 6         0.000 6     -2453.882 6        37.977 6
G27  22000910.491 9 115615537.994 9      2519.226 9        55.376 9  22000912.422 6         0.000 6      1963.034 6        37.977 6
G16  20496093.479 9 107707677.892 9       563.420 9        55.977 9  20496092.652 6         0.000 6       439.029 6        37.977 6
G26  20655935.977 9 108547653.914 9     -1483.807 9        55.872 9  20655938.794 6         0.000 6     -1156.214 6        37.977 6
G20  21941934.421 9 115305610.555 9      2549.041 9        55.316 9  21941934.741 6         0.000 6      1986.267 6        37.977 6
> 2019 07 03 12 01  6.0000000  0  8       0.000000000000
G07  25343676.522 9 133181872.957 9      2196.893 9        54.133 9  25343677.190 6         0.000 6      1711.865 6        37.977 6
G10  23805495.997 9 125098671.206 9      3519.688 9        54.671 9  23805499.719 6         0.000 6      2742.617 6        37.977 6
G21  21172945.740 9 111264560.160 9     -1263.825 9        55.708 9  21172945.026 6         0.000 6      -984.799 6        37.977 6
G29  24305143.125 9 127724332.728 9     -3149.232 9        54.473 9  24305144.704 6         0.000 6     -2453.950 6        37.977 6
G27  22000431.121 9 115613018.892 9      2518.984 9        55.376 9  22000433.052 6         0.000 6      1962.845 6        37.977 6
G16  20495986.323 9 107707114.782 9       562.801 9        55.977 9  20495985.496 6         0.000 6       438.546 6        37.977 6
G26  20656218.391 9 108549138.007 9     -1484.384 9        55.872 9  20656221.208 6         0.000 6     -1156.663 6        37.977 6
G20  21941449.397 9 115303061.742 9      2548.596 9        55.317 9  21941449.716 6         0.000 6      1985.920 6        37.977 6
> 2019 07 03 12 01  7.0000000  0  8       0.000000000000
G07  25343258.510 9 133179676.296 9      2196.437 9        54.133 9  25343259.178 6         0.000 6      1711.510 6        37.977 6
G10  23804826.236 9 125095151.597 9      3519.549 9        54.671 9  23804829.957 6         0.000 6      2742.508 6        37.977 6
G21  21173186.272 9 111265824.166 9     -1264.190 9        55.708 9  21173185.558 6         0.000 6      -985.083 6        37.977 6
G29  24305742.412 9 127727481.994 9     -3149.319 9        54.473 9  24305743.992 6         0.000 6     -2454.017 6        37.977 6
G27  21999951.797 9 115610500.032 9      2518.742 9        55.376 9  21999953.728 6         0.000 6      1962.657 6        37.977 6
G16  20495879.284 9 107706552.291 9       562.181 9        55.977 9  20495878.457 6         0.000 6       438.063 6        37.977 6
G26  20656500.915 9 108550622.678 9     -1484.960 9        55.872 9  20656503.732 6         0.000 6     -1157.112 6        37.977 6
G20  21940964.457 9 115300513.373 9      2548.151 9        55.317 9  21940964.777 6         0.000 6      1985.573 6        37.977 6
> 2019 07 03 12 01  8.0000000  0  8       0.000000000000
G07  25342840.586 9 133177480.090 9      2195.982 9        54.133 9  25342841.253 6         0.000 6      1711.156 6        37.977 6
G10  23804156.501 9 125091632.129 9      3519.410 9        54.671 9  23804160.222 6         0.000 6      2742.400 6        37.977 6
G21  21173426.874 9 111267088.538 9     -1264.555 9        55.708 9  21173426.160 6         0.000 6      -985.368 6        37.977 6
G29  24306341.716 9 127730631.345 9     -3149.405 9        54.473 9  24306343.296 6         0.000 6     -2454.085 6        37.977 6
G27  21999472.520 9 115607981.414 9      2518.499 9        55.376 9  21999474.450 6         0.000 6      1962.468 6        37.977 6
G16  20495772.364 9 107705990.420 9       561.562 9        55.977 9  20495771.537 6         0.000 6       437.581 6        37.977 6
G26  20656783.549 9 108552107.925 9     -1485.537 9        55.872 9  20656786.366 6         0.000 6     -1157.562 6        37.977 6
G20  21940479.603 9 115297965.449 9      2547.706 9        55.317 9  21940479.922 6         0.000 6      1985.227 6        37.977 6
> 2019 07 03 12 01  9.0000000  0  8       0.000000000000
G07  25342422.748 9 133175284.339 9      2195.526 9        54.133 9  25342423.415 6         0.000 6      1710.801 6        37.977 6
G10  23803486.793 9 125088112.799 9      3519.270 9        54.672 9  23803490.513 6         0.000 6      2742.291 6        37.977 6
G21  21173667.546 9 111268353.275 9     -1264.920 9        55.708 9  21173666.832 6         0.000 6      -985.652 6        37.977 6
G29  24306941.036 9 127733780.784 9     -3149.492 9        54.472 9  24306942.617 6         0.000 6     -2454.152 6        37.977 6
G27  21998993.288 9 115605463.039 9      2518.257 9        55.376 9  21998995.219 6         0.000 6      1962.279 6        37.977 6
G16  20495665.561 9 107705429.168 9       560.942 9        55.977 9  20495664.734 6         0.000 6       437.098 6        37.977 6
G26  20657066.292 9 108553593.748 9     -1486.114 9        55.872 9  20657069.109 6         0.000 6     -1158.011 6        37.977 6
G20  21939994.833 9 115295417.969 9      2547.261 9        55.317 9  21939995.151 6         0.000 6      1984.880 6        37.977 6
> 2019 07 03 12 01 10.0000000  0  8       0.000000000000
G07  25342004.996 9 133173089.044 9      2195.071 9        54.133 9  25342005.663 6         0.000 6      1710.446 6        37.977 6
G10  23802817.111 9 125084593.610 9      3519.131 9        54.672 9  23802820.831 6         0.000 6      2742.182 6        37.977 6
G21  21173908.287 9 111269618.378 9     -1265.285 9        55.708 9  21173907.573 6         0.000 6      -985.937 6        37.977 6
G29  24307540.373 9 127736930.309 9     -3149.578 9        54.472 9  24307541.954 6         0.000 6     -2454.220 6        37.977 6
G27  21998514.103 9 115602944.906 9      2518.014 9        55.377 9  21998516.033 6         0.000 6      1962.090 6        37.977 6
G16  20495558.876 9 107704868.536 9       560.323 9        55.977 9  20495558.049 6         0.000 6       436.615 6        37.977 6
G26  20657349.145 9 108555080.148 9     -1486.690 9        55.872 9  20657351.962 6         0.000 6     -1158.460 6        37.977 6
G20  21939510.147 9 115292870.935 9      2546.816 9        55.317 9  21939510.466 6         0.000 6      1984.533 6        37.977 6
> 2019 07 03 12 01 11.0000000  0  8       0.000000000000
G07  25341587.331 9 133170894.205 9      2194.615 9        54.133 9  25341587.999 6         0.000 6      1710.091 6        37.977 6
G10  23802147.456 9 125081074.559 9      3518.991 9        54.672 9  23802151.175 6         0.000 6      2742.074 6        37.977 6
G21  21174149.098 9 111270883.845 9     -1265.650 9        55.708 9  21174148.384 6         0.000 6      -986.221 6        37.977 6
G29  24308139.726 9 127740079.920 9     -3149.665 9        54.472 9  24308141.308 6         0.000 6     -2454.287 6        37.977 6
G27  21998034.964 9 115600427.015 9      2517.772 9        55.377 9  21998036.894 6         0.000 6      1961.901 6        37.977 6
G16  20495452.310 9 107704308.523 9       559.703 9        55.977 9  20495451.482 6         0.000 6       436.132 6        37.977 6
G26  20657632.107 9 108556567.125 9     -1487.267 9        55.872 9  20657634.925 6         0.000 6     -1158.910 6        37.977 6
G20  21939025.547 9 115290324.346 9      2546.371 9        55.318 9  21939025.865 6         0.000 6      1984.186 6        37.977 6
> 2019 07 03 12 01 12.0000000  0  8       0.000000000000
G07  25341169.753 9 133168699.821 9      2194.159 9        54.134 9  25341170.420 6         0.000 6      1709.736 6        37.977 6
G10  23801477.828 9 125077555.649 9      3518.851 9        54.672 9  23801481.546 6         0.000 6      2741.965 6        37.977 6
G21  21174389.978 9 111272149.677 9     -1266.015 9        55.708 9  21174389.264 6         0.000 6      -986.506 6        37.977 6
G29  24308739.096 9 127743229.618 9     -3149.751 9        54.472 9  24308740.678 6         0.000 6     -2454.354 6        37.977 6
G27  21997555.871 9 115597909.367 9      2517.529 9        55.377 9  21997557.801 6         0.000 6      1961.712 6        37.977 6
G16  20495345.861 9 107703749.130 9       559.083 9        55.977 9  20495345.033 6         0.000 6       435.649 6        37.977 6
G26  20657915.180 9 108558054.678 9     -1487.843 9        55.872 9  20657917.997 6         0.000 6     -1159.359 6        37.977 6
G20  21938541.031 9 115287778.202 9      2545.926 9        55.318 9  21938541.349 6         0.000 6      1983.839 6        37.977 6
> 2019 07 03 12 01 13.0000000  0  8       0.000000000000
G07  25340752.262 9 133166505.893 9      2193.704 9        54.134 9  25340752.929 6         0.000 6      1709.380 6        37.977 6
G10  23800808.226 9 125074036.878 9      3518.711 9        54.673 9  23800811.944 6         0.000 6      2741.856 6        37.977 6
G21  21174630.927 9 111273415.875 9     -1266.380 9        55.708 9  21174630.213 6         0.000 6      -986.790 6        37.977 6
G29  24309338.481 9 127746379.402 9     -3149.838 9        54.471 9  24309340.065 6         0.000 6     -2454.422 6        37.977 6
G27  21997076.824 9 115595391.962 9      2517.287 9        55.377 9  21997078.754 6         0.000 6      1961.523 6        37.977 6
G16  20495239.529 9 107703190.356 9       558.464 9        55.977 9  20495238.702 6         0.000 6       435.166 6        37.977 6
G26  20658198.362 9 108559542.808 9     -1488.420 9        55.872 9  20658201.179 6         0.000 6     -1159.808 6        37.977 6
G20  21938056.600 9 115285232.504 9      2545.480 9        55.318 9  21938056.917 6         0.000 6      1983.492 6        37.977 6
> 2019 07 03 12 01 14.0000000  0  8       0.000000000000
G07  25340334.858 9 133164312.421 9      2193.248 9        54.134 9  25340335.524 6         0.000 6      1709.025 6        37.977 6
G10  23800138.651 9 125070518.247 9      3518.571 9        54.673 9  23800142.368 6         0.000 6      2741.747 6        37.977 6
G21  21174871.946 9 111274682.437 9     -1266.745 9        55.708 9  21174871.232 6         0.000 6      -987.074 6        37.977 6
G29  24309937.884 9 127749529.273 9     -3149.924 9        54.471 9  24309939.468 6         0.000 6     -2454.489 6        37.977 6
G27  21996597.823 9 115592874.799 9      2517.044 9        55.377 9  21996599.753 6         0.000 6      1961.334 6        37.977 6
G16  20495133.316 9 107702632.203 9       557.844 9        55.977 9  20495132.489 6         0.000 6       434.684 6        37.977 6
G26  20658481.653 9 108561031.515 9     -1488.996 9        55.871 9  20658484.471 6         0.000 6     -1160.257 6        37.977 6
G20  21937572.253 9 115282687.251 9      2545.035 9        55.318 9  21937572.571 6         0.000 6      1983.145 6        37.977 6
> 2019 07 03 12 01 15.0000000  0  8       0.000000000000
G07  25339917.540 9 133162119.405 9      2192.792 9        54.134 9  25339918.206 6         0.000 6      1708.670 6        37.977 6
G10  23799469.102 9 125066999.756 9      3518.431 9        54.673 9  23799472.819 6         0.000 6      2741.638 6        37.977 6
G21  21175113.034 9 111275949.364 9     -1267.110 9        55.707 9  21175112.321 6         0.000 6      -987.359 6        37.977 6
G29  24310537.303 9 127752679.230 9     -3150.010 9        54.471 9  24310538.887 6         0.000 6     -2454.556 6        37.977 6
G27  21996118.869 9 115590357.879 9      2516.802 9        55.378 9  21996120.798 6         0.000 6      1961.145 6        37.977 6
G16  20495027.221 9 107702074.669 9       557.224 9        55.978 9  20495026.394 6         0.000 6       434.201 6        37.977 6
G26  20658765.055 9 108562520.798 9     -1489.573 9        55.871 9  20658767.873 6         0.000 6     -1160.707 6        37.977 6
G20  21937087.992 9 115280142.444 9      2544.589 9        55.318 9  21937088.309 6         0.000 6      1982.798 6        37.977 6
> 2019 07 03 12 01 16.0000000  0  8       0.000000000000
G07  25339500.309 9 133159926.845 9      2192.336 9        54.134 9  25339500.975 6         0.000 6      1708.315 6        37.977 6
G10  23798799.580 9 125063481.405 9      3518.291 9        54.673 9  23798803.296 6         0.000 6      2741.528 6        37.977 6
G21  21175354.192 9 111277216.655 9     -1267.475 9        55.707 9  21175353.478 6         0.000 6      -987.643 6        37.977 6
G29  24311136.738 9 127755829.273 9     -3150.097 9        54.471 9  24311138.323 6         0.000 6     -2454.623 6        37.977 6
G27  21995639.960 9 115587841.201 9      2516.559 9        55.378 9  21995641.890 6         0.000 6      1960.956 6        37.977 6
G16  20494921.244 9 107701517.754 9       556.604 9        55.978 9  20494920.417 6         0.000 6       433.718 6        37.977 6
G26  20659048.566 9 108564010.657 9     -1490.149 9        55.871 9  20659051.384 6         0.000 6     -1161.156 6        37.977 6
G20  21936603.815 9 115277598.082 9      2544.143 9        55.318 9  21936604.132 6         0.000 6      1982.451 6        37.977 6
> 2019 07 03 12 01 17.0000000  0  8       0.000000000000
G07  25339083.164 9 133157734.740 9      2191.880 9        54.134 9  25339083.830 6         0.000 6      1707.959 6        37.977 6
G10  23798130.085 9 125059963.195 9      3518.151 9        54.673 9  23798133.800 6         0.000 6      2741.419 6        37.977 6
G21  21175595.419 9 111278484.312 9     -1267.840 9        55.707 9  21175594.706 6         0.000 6      -987.927 6        37.977 6
G29  24311736.190 9 127758979.402 9     -3150.183 9        54.471 9  24311737.776 6         0.000 6     -2454.691 6        37.977 6
G27  21995161.098 9 115585324.766 9      2516.316 9        55.378 9  21995163.027 6         0.000 6      1960.767 6        37.977 6
G16  20494815.385 9 107700961.460 9       555.985 9        55.978 9  20494814.557 6         0.000 6       433.235 6        37.977 6
G26  20659332.187 9 108565501.093 9     -1490.726 9        55.871 9  20659335.005 6         0.000 6     -1161.605 6        37.977 6
G20  21936119.723 9 115275054.166 9      2543.698 9        55.319 9  21936120.039 6         0.000 6      1982.103 6        37.977 6
> 2019 07 03 12 01 18.0000000  0  8       0.000000000000
G07  25338666.107 9 133155543.092 9      2191.424 9        54.134 9  25338666.773 6         0.000 6      1707.604 6        37.977 6
G10  23797460.616 9 125056445.125 9      3518.011 9        54.674 9  23797464.331 6         0.000 6      2741.310 6        37.977 6
G21  21175836.716 9 111279752.333 9     -1268.204 9        55.707 9  21175836.002 6         0.000 6      -988.211 6        37.977 6
G29  24312335.658 9 127762129.618 9     -3150.269 9        54.470 9  24312337.244 6         0.000 6     -2454.758 6        37.977 6
G27  21994682.282 9 115582808.574 9      2516.074 9        55.378 9  21994684.211 6         0.000 6      1960.577 6        37.977 6
G16  20494709.643 9 107700405.785 9       555.365 9        55.978 9  20494708.816 6         0.000 6       432.752 6        37.977 6
G26  20659615.917 9 108566992.105 9     -1491.302 9        55.871 9  20659618.735 6         0.000 6     -1162.054 6        37.977 6
G20  21935635.716 9 115272510.695 9      2543.252 9        55.319 9  21935636.032 6         0.000 6      1981.756 6        37.977 6
> 2019 07 03 12 01 19.0000000  0  8       0.000000000000
G07  25338249.136 9 133153351.900 9      2190.967 9        54.135 9  25338249.802 6         0.000 6      1707.248 6        37.977 6
G10  23796791.175 9 125052927.195 9      3517.870 9        54.674 9  23796794.889 6         0.000 6      2741.200 6        37.977 6
G21  21176078.082 9 111281020.719 9     -1268.569 9        55.707 9  21176077.368 6         0.000 6      -988.495 6        37.977 6
G29  24312935.142 9 127765279.920 9     -3150.355 9        54.470 9  24312936.729 6         0.000 6     -2454.825 6        37.977 6
G27  21994203.512 9 115580292.625 9      2515.831 9        55.378 9  21994205.441 6         0.000 6      1960.388 6        37.977 6
G16  20494604.020 9 107699850.731 9       554.745 9        55.978 9  20494603.193 6         0.000 6       432.269 6        37.977 6
G26  20659899.757 9 108568483.693 9     -1491.878 9        55.871 9  20659902.576 6         0.000 6     -1162.503 6        37.977 6
G20  21935151.793 9 115269967.671 9      2542.806 9        55.319 9  21935152.109 6         0.000 6      1981.408 6        37.977 6
> 2019 07 03 12 01 20.0000000  0  8       0.000000000000
G07  25337832.253 9 133151161.165 9      2190.511 9        54.135 9  25337832.918 6         0.000 6      1706.893 6        37.977 6
G10  23796121.760 9 125049409.406 9      3517.730 9        54.674 9  23796125.473 6         0.000 6      2741.091 6        37.977 6
G21  21176319.517 9 111282289.469 9     -1268.933 9        55.707 9  21176318.803 6         0.000 6      -988.779 6        37.977 6
G29  24313534.643 9 127768430.309 9     -3150.442 9        54.470 9  24313536.231 6         0.000 6     -2454.892 6        37.977 6
G27  21993724.789 9 115577776.918 9      2515.588 9        55.379 9  21993726.718 6         0.000 6      1960.199 6        37.977 6
G16  20494498.514 9 107699296.296 9       554.125 9        55.978 9  20494497.687 6         0.000 6       431.786 6        37.977 6
G26  20660183.707 9 108569975.857 9     -1492.454 9        55.871 9  20660186.525 6         0.000 6     -1162.952 6        37.977 6
G20  21934667.956 9 115267425.092 9      2542.360 9        55.319 9  21934668.272 6         0.000 6      1981.061 6        37.977 6
> 2019 07 03 12 01 21.0000000  0  8       0.000000000000
G07  25337415.456 9 133148970.885 9      2190.055 9        54.135 9  25337416.120 6         0.000 6      1706.537 6        37.977 6
G10  23795452.371 9 125045891.757 9      3517.589 9        54.674 9  23795456.084 6         0.000 6      2740.981 6        37.977 6
G21  21176561.022 9 111283558.584 9     -1269.298 9        55.707 9  21176560.308 6         0.000 6      -989.063 6        37.977 6
G29  24314134.160 9 127771580.783 9     -3150.528 9        54.470 9  24314135.749 6         0.000 6     -2454.959 6        37.977 6
G27  21993246.111 9 115575261.454 9      2515.345 9        55.379 9  21993248.040 6         0.000 6      1960.010 6        37.977 6
G16  20494393.127 9 107698742.481 9       553.505 9        55.978 9  20494392.300 6         0.000 6       431.303 6        37.977 6
G26  20660467.767 9 108571468.598 9     -1493.031 9        55.871 9  20660470.585 6         0.000 6     -1163.401 6        37.977 6
G20  21934184.203 9 115264882.960 9      2541.914 9        55.319 9  21934184.519 6         0.000 6      1980.713 6        37.977 6
> 2019 07 03 12 01 22.0000000  0  8       0.000000000000
G07  25336998.745 9 133146781.063 9      2189.598 9        54.135 9  25336999.410 6         0.000 6      1706.181 6        37.977 6
G10  23794783.010 9 125042374.249 9      3517.448 9        54.675 9  23794786.722 6         0.000 6      2740.871 6        37.977 6
G21  21176802.596 9 111284828.063 9     -1269.662 9        55.707 9  21176801.882 6         0.000 6      -989.347 6        37.977 6
G29  24314733.694 9 127774731.344 9     -3150.614 9        54.470 9  24314735.283 6         0.000 6     -2455.027 6        37.977 6
G27  21992767.480 9 115572746.233 9      2515.102 9        55.379 9  21992769.409 6         0.000 6      1959.821 6        37.977 6
G16  20494287.857 9 107698189.286 9       552.885 9        55.978 9  20494287.030 6         0.000 6       430.819 6        37.977 6
G26  20660751.936 9 108572961.915 9     -1493.607 9        55.870 9  20660754.754 6         0.000 6     -1163.850 6        37.977 6
G20  21933700.536 9 115262341.274 9      2541.467 9        55.320 9  21933700.851 6         0.000 6      1980.365 6        37.977 6
> 2019 07 03 12 01 23.0000000  0  8       0.000000000000
G07  25336582.122 9 133144591.696 9      2189.142 9        54.135 9  25336582.787 6         0.000 6      1705.826 6        37.977 6
G10  23794113.675 9 125038856.882 9      3517.307 9        54.675 9  23794117.386 6         0.000 6      2740.761 6        37.977 6
G21  21177044.239 9 111286097.907 9     -1270.027 9        55.707 9  21177043.526 6         0.000 6      -989.631 6        37.977 6
G29  24315333.244 9 127777881.991 9     -3150.700 9        54.469 9  24315334.834 6         0.000 6     -2455.094 6        37.977 6
G27  21992288.895 9 115570231.255 9      2514.859 9        55.379 9  21992290.824 6         0.000 6      1959.631 6        37.977 6
G16  20494182.706 9 107697636.711 9       552.265 9        55.978 9  20494181.879 6         0.000 6       430.336 6        37.977 6
G26  20661036.214 9 108574455.809 9     -1494.183 9        55.870 9  20661039.033 6         0.000 6     -1164.299 6        37.977 6
G20  21933216.953 9 115259800.034 9      2541.021 9        55.320 9  21933217.268 6         0.000 6      1980.018 6        37.977 6
> 2019 07 03 12 01 24.0000000  0  8       0.000000000000
G07  25336165.586 9 133142402.787 9      2188.685 9        54.135 9  25336166.250 6         0.000 6      1705.470 6        37.977 6
G10  23793444.367 9 125035339.656 9      3517.166 9        54.675 9  23793448.078 6         0.000 6      2740.652 6        37.977 6
G21  21177285.952 9 111287368.115 9     -1270.391 9        55.707 9  21177285.238 6         0.000 6      -989.915 6        37.977 6
G29  24315932.811 9 127781032.724 9     -3150.786 9        54.469 9  24315934.401 6         0.000 6     -2455.161 6        37.977 6
G27  21991810.357 9 115567716.520 9      2514.616 9        55.379 9  21991812.285 6         0.000 6      1959.442 6        37.977 6
G16  20494077.672 9 107697084.757 9       551.645 9        55.978 9  20494076.845 6         0.000 6       429.853 6        37.977 6
G26  20661320.603 9 108575950.278 9     -1494.759 9        55.870 9  20661323.422 6         0.000 6     -1164.748 6        37.977 6
G20  21932733.455 9 115257259.241 9      2540.575 9        55.320 9  21932733.770 6         0.000 6      1979.670 6        37.977 6
> 2019 07 03 12 01 25.0000000  0  8       0.000000000000
G07  25335749.136 9 133140214.334 9      2188.228 9        54.135 9  25335749.800 6         0.000 6      1705.114 6        37.977 6
G10  23792775.086 9 125031822.571 9      3517.025 9        54.675 9  23792778.796 6         0.000 6      2740.542 6        37.977 6
G21  21177527.734 9 111288638.687 9     -1270.755 9        55.707 9  21177527.020 6         0.000 6      -990.199 6        37.977 6
G29  24316532.394 9 127784183.543 9     -3150.872 9        54.469 9  24316533.985 6         0.000 6     -2455.228 6        37.977 6
G27  21991331.864 9 115565202.028 9      2514.373 9        55.380 9  21991333.792 6         0.000 6      1959.253 6        37.977 6
G16  20493972.757 9 107696533.422 9       551.025 9        55.978 9  20493971.930 6         0.000 6       429.370 6        37.977 6
G26  20661605.101 9 108577445.323 9     -1495.335 9        55.870 9  20661607.920 6         0.000 6     -1165.197 6        37.977 6
G20  21932250.042 9 115254718.894 9      2540.128 9        55.320 9  21932250.357 6         0.000 6      1979.322 6        37.977 6
> 2019 07 03 12 01 26.0000000  0  8       0.000000000000
G07  25335332.774 9 133138026.337 9      2187.772 9        54.136 9  25335333.438 6         0.000 6      1704.758 6        37.977 6
G10  23792105.832 9 125028305.627 9      3516.884 9        54.676 9  23792109.541 6         0.000 6      2740.432 6        37.977 6
G21  21177769.585 9 111289909.624 9     -1271.119 9        55.706 9  21177768.872 6         0.000 6      -990.483 6        37.977 6
G29  24317131.993 9 127787334.448 9     -3150.959 9        54.469 9  24317133.585 6         0.000 6     -2455.295 6        37.977 6
G27  21990853.418 9 115562687.779 9      2514.130 9        55.380 9  21990855.346 6         0.000 6      1959.063 6        37.977 6
G16  20493867.959 9 107695982.708 9       550.404 9        55.978 9  20493867.132 6         0.000 6       428.887 6        37.977 6
G26  20661889.709 9 108578940.945 9     -1495.911 9        55.870 9  20661892.528 6         0.000 6     -1165.646 6        37.977 6
G20  21931766.715 9 115252178.993 9      2539.682 9        55.320 9  21931767.029 6         0.000 6      1978.974 6        37.977 6
> 2019 07 03 12 01 27.0000000  0  8       0.000000000000
G07  25334916.498 9 133135838.798 9      2187.315 9        54.136 9  25334917.162 6         0.000 6      1704.402 6        37.977 6
G10  23791436.605 9 125024788.825 9      3516.742 9        54.676 9  23791440.313 6         0.000 6      2740.321 6        37.977 6
G21  21178011.506 9 111291180.925 9     -1271.484 9        55.706 9  21178010.792 6         0.000 6      -990.767 6        37.977 6
G29  24317731.609 9 127790485.439 9     -3151.045 9        54.468 9  24317733.201 6         0.000 6     -2455.362 6        37.977 6
G27  21990375.018 9 115560173.773 9      2513.887 9        55.380 9  21990376.946 6         0.000 6      1958.874 6        37.977 6
G16  20493763.280 9 107695432.614 9       549.784 9        55.978 9  20493762.453 6         0.000 6       428.403 6        37.977 6
G26  20662174.426 9 108580437.142 9     -1496.487 9        55.870 9  20662177.245 6         0.000 6     -1166.094 6        37.977 6
G20  21931283.472 9 115249639.539 9      2539.235 9        55.321 9  21931283.786 6         0.000 6      1978.626 6        37.977 6
> 2019 07 03 12 01 28.0000000  0  8       0.000000000000
G07  25334500.310 9 133133651.715 9      2186.858 9        54.136 9  25334500.973 6         0.000 6      1704.046 6        37.977 6
G10  23790767.404 9 125021272.164 9      3516.601 9        54.676 9  23790771.112 6         0.000 6      2740.211 6        37.977 6
G21  21178253.496 9 111292452.590 9     -1271.848 9        55.706 9  21178252.782 6         0.000 6      -991.050 6        37.977 6
G29  24318331.241 9 127793636.516 9     -3151.131 9        54.468 9  24318332.834 6         0.000 6     -2455.429 6        37.977 6
G27  21989896.664 9 115557660.010 9      2513.644 9        55.380 9  21989898.592 6         0.000 6      1958.684 6        37.977 6
G16  20493658.719 9 107694883.140 9       549.164 9        55.978 9  20493657.891 6         0.000 6       427.920 6        37.977 6
G26  20662459.253 9 108581933.916 9     -1497.063 9        55.870 9  20662462.072 6         0.000 6     -1166.543 6        37.977 6
G20  21930800.314 9 115247100.532 9      2538.788 9        55.321 9  21930800.627 6         0.000 6      1978.278 6        37.977 6
> 2019 07 03 12 01 29.0000000  0  8       0.000000000000
G07  25334084.208 9 133131465.089 9      2186.401 9        54.136 9  25334084.871 6         0.000 6      1703.690 6        37.977 6
G10  23790098.231 9 125017755.644 9      3516.460 9        54.676 9  23790101.938 6         0.000 6      2740.101 6        37.977 6
G21  21178495.555 9 111293724.619 9     -1272.212 9        55.706 9  21178494.842 6         0.000 6      -991.334 6        37.977 6
G29  24318930.889 9 127796787.680 9     -3151.217 9        54.468 9  24318932.483 6         0.000 6     -2455.496 6        37.977 6
G27  21989418.357 9 115555146.491 9      2513.401 9        55.380 9  21989420.284 6         0.000 6      1958.495 6        37.977 6
G16  20493554.275 9 107694334.286 9       548.544 9        55.978 9  20493553.448 6         0.000 6       427.437 6        37.977 6
G26  20662744.189 9 108583431.265 9     -1497.639 9        55.870 9  20662747.008 6         0.000 6     -1166.992 6        37.977 6
G20  21930317.241 9 115244561.972 9      2538.341 9        55.321 9  21930317.554 6         0.000 6      1977.929 6        37.977 6
> 2019 07 03 12 01 30.0000000  0  8       0.000000000000
G07  25333668.193 9 133129278.921 9      2185.944 9        54.136 9  25333668.856 6         0.000 6      1703.334 6        37.977 6
G10  23789429.084 9 125014239.266 9      3516.318 9        54.677 9  23789432.791 6         0.000 6      2739.991 6        37.977 6
G21  21178737.683 9 111294997.011 9     -1272.576 9        55.706 9  21178736.970 6         0.000 6      -991.618 6        37.977 6
G29  24319530.554 9 127799938.929 9     -3151.303 9        54.468 9  24319532.148 6         0.000 6     -2455.563 6        37.977 6
G27  21988940.096 9 115552633.214 9      2513.158 9        55.380 9  21988942.023 6         0.000 6      1958.305 6        37.977 6
G16  20493449.950 9 107693786.052 9       547.923 9        55.978 9  20493449.123 6         0.000 6       426.953 6        37.977 6
G26  20663029.235 9 108584929.191 9     -1498.215 9        55.869 9  20663032.055 6         0.000 6     -1167.441 6        37.977 6
G20  21929834.253 9 115242023.859 9      2537.894 9        55.321 9  21929834.566 6         0.000 6      1977.581 6        37.977 6
> 2019 07 03 12 01 31.0000000  0  8       0.000000000000
G07  25333252.265 9 133127093.209 9      2185.486 9        54.136 9  25333252.928 6         0.000 6      1702.977 6        37.977 6
G10  23788759.965 9 125010723.030 9      3516.176 9        54.677 9  23788763.671 6         0.000 6      2739.880 6        37.977 6
G21  21178979.881 9 111296269.768 9     -1272.940 9        55.706 9  21178979.168 6         0.000 6      -991.901 6        37.977 6
G29  24320130.235 9 127803090.264 9     -3151.389 9        54.468 9  24320131.830 6         0.000 6     -2455.630 6        37.977 6
G27  21988461.881 9 115550120.181 9      2512.914 9        55.381 9  21988463.808 6         0.000 6      1958.116 6        37.977 6
G16  20493345.742 9 107693238.439 9       547.303 9        55.978 9  20493344.915 6         0.000 6       426.470 6        37.977 6
G26  20663314.391 9 108586427.692 9     -1498.791 9        55.869 9  20663317.210 6         0.000 6     -1167.890 6        37.977 6
G20  21929351.351 9 115239486.193 9      2537.447 9        55.321 9  21929351.663 6         0.000 6      1977.233 6        37.977 6
> 2019 07 03 12 01 32.0000000  0  8       0.000000000000
G07  25332836.425 9 133124907.955 9      2185.029 9        54.136 9  25332837.087 6         0.000 6      1702.621 6        37.977 6
G10  23788090.872 9 125007206.935 9      3516.034 9        54.677 9  23788094.578 6         0.000 6      2739.770 6        37.977 6
G21  21179222.148 9 111297542.889 9     -1273.303 9        55.706 9  21179221.435 6         0.000 6      -992.185 6        37.977 6
G29  24320729.932 9 127806241.685 9     -3151.474 9        54.467 9  24320731.528 6         0.000 6     -2455.697 6        37.977 6
G27  21987983.713 9 115547607.391 9      2512.671 9        55.381 9  21987985.639 6         0.000 6      1957.926 6        37.977 6
G16  20493241.653 9 107692691.447 9       546.683 9        55.978 9  20493240.826 6         0.000 6       425.986 6        37.977 6
G26  20663599.656 9 108587926.769 9     -1499.367 9        55.869 9  20663602.476 6         0.000 6     -1168.338 6        37.977 6
G20  21928868.533 9 115236948.974 9      2537.000 9        55.322 9  21928868.846 6         0.000 6      1976.884 6        37.977 6
> 2019 07 03 12 01 33.0000000  0  8       0.000000000000
G07  25332420.671 9 133122723.158 9      2184.572 9        54.137 9  25332421.333 6         0.000 6      1702.265 6        37.977 6
G10  23787421.807 9 125003690.982 9      3515.892 9        54.677 9  23787425.511 6         0.000 6      2739.659 6        37.977 6
G21  21179464.484 9 111298816.374 9     -1273.667 9        55.706 9  21179463.771 6         0.000 6      -992.468 6        37.977 6
G29  24321329.646 9 127809393.193 9     -3151.560 9        54.467 9  24321331.242 6         0.000 6     -2455.764 6        37.977 6
G27  21987505.590 9 115545094.844 9      2512.428 9        55.381 9  21987507.517 6         0.000 6      1957.737 6        37.977 6
G16  20493137.682 9 107692145.074 9       546.062 9        55.978 9  20493136.855 6         0.000 6       425.503 6        37.977 6
G26  20663885.031 9 108589426.422 9     -1499.943 9        55.869 9  20663887.851 6         0.000 6     -1168.787 6        37.977 6
G20  21928385.801 9 115234412.202 9      2536.553 9        55.322 9  21928386.113 6         0.000 6      1976.536 6        37.977 6
> 2019 07 03 12 01 34.0000000  0  8       0.000000000000
G07  25332005.004 9 133120538.819 9      2184.115 9        54.137 9  25332005.666 6         0.000 6      1701.908 6        37.977 6
G10  23786752.768 9 125000175.171 9      3515.750 9        54.678 9  23786756.472 6         0.000 6      2739.548 6        37.977 6
G21  21179706.890 9 111300090.222 9     -1274.031 9        55.706 9  21179706.177 6         0.000 6      -992.752 6        37.977 6
G29  24321929.376 9 127812544.786 9     -3151.646 9        54.467 9  24321930.973 6         0.000 6     -2455.831 6        37.977 6
G27  21987027.514 9 115542582.541 9      2512.184 9        55.381 9  21987029.441 6         0.000 6      1957.547 6        37.977 6
G16  20493033.829 9 107691599.322 9       545.442 9        55.978 9  20493033.002 6         0.000 6       425.019 6        37.977 6
G26  20664170.515 9 108590926.651 9     -1500.518 9        55.869 9  20664173.335 6         0.000 6     -1169.236 6        37.977 6
G20  21927903.153 9 115231875.877 9      2536.105 9        55.322 9  21927903.465 6         0.000 6      1976.187 6        37.977 6
> 2019 07 03 12 01 35.0000000  0  8       0.000000000000
G07  25331589.425 9 133118354.936 9      2183.657 9        54.137 9  25331590.086 6         0.000 6      1701.552 6        37.977 6
G10  23786083.757 9 124996659.503 9      3515.608 9        54.678 9  23786087.460 6         0.000 6      2739.438 6        37.977 6
G21  21179949.364 9 111301364.434 9     -1274.395 9        55.706 9  21179948.651 6         0.000 6      -993.035 6        37.977 6
G29  24322529.123 9 127815696.464 9     -3151.732 9        54.467 9  24322530.720 6         0.000 6     -2455.898 6        37.977 6
G27  21986549.485 9 115540070.481 9      2511.941 9        55.381 9  21986551.411 6         0.000 6      1957.357 6        37.977 6
G16  20492930.094 9 107691054.191 9       544.821 9        55.978 9  20492929.267 6         0.000 6       424.536 6        37.977 6
G26  20664456.109 9 108592427.455 9     -1501.094 9        55.869 9  20664458.929 6         0.000 6     -1169.684 6        37.977 6
G20  21927420.591 9 115229340.000 9      2535.658 9        55.322 9  21927420.903 6         0.000 6      1975.838 6        37.977 6
> 2019 07 03 12 01 36.0000000  0  8       0.000000000000
G07  25331173.932 9 133116171.512 9      2183.200 9        54.137 9  25331174.594 6         0.000 6      1701.195 6        37.977 6
G10  23785414.772 9 124993143.976 9      3515.466 9        54.678 9  23785418.475 6         0.000 6      2739.327 6        37.977 6
G21  21180191.908 9 111302639.010 9     -1274.758 9        55.705 9  21180191.195 6         0.000 6      -993.318 6        37.977 6
G29  24323128.886 9 127818848.229 9     -3151.818 9        54.467 9  24323130.484 6         0.000 6     -2455.965 6        37.977 6
G27  21986071.501 9 115537558.665 9      2511.698 9        55.382 9  21986073.428 6         0.000 6      1957.168 6        37.977 6
G16  20492826.477 9 107690509.680 9       544.201 9        55.978 9  20492825.650 6         0.000 6       424.052 6        37.977 6
G26  20664741.813 9 108593928.836 9     -1501.670 9        55.869 9  20664744.633 6         0.000 6     -1170.133 6        37.977 6
G20  21926938.114 9 115226804.570 9      2535.210 9        55.322 9  21926938.425 6         0.000 6      1975.490 6        37.977 6
> 2019 07 03 12 01 37.0000000  0  8       0.000000000000
G07  25330758.526 9 133113988.544 9      2182.742 9        54.137 9  25330759.188 6         0.000 6      1700.839 6        37.977 6
G10  23784745.815 9 124989628.592 9      3515.323 9        54.678 9  23784749.517 6         0.000 6      2739.216 6        37.977 6
G21  21180434.521 9 111303913.949 9     -1275.122 9        55.705 9  21180433.808 6         0.000 6      -993.602 6        37.977 6
G29  24323728.665 9 127822000.080 9     -3151.904 9        54.466 9  24323730.264 6         0.000 6     -2456.031 6        37.977 6
G27  21985593.564 9 115535047.092 9      2511.454 9        55.382 9  21985595.490 6         0.000 6      1956.978 6        37.977 6
G16  20492722.978 9 107689965.790 9       543.580 9        55.978 9  20492722.151 6         0.000 6       423.569 6        37.977 6
G26  20665027.626 9 108595430.791 9     -1502.245 9        55.869 9  20665030.446 6         0.000 6     -1170.581 6        37.977 6
G20  21926455.722 9 115224269.588 9      2534.763 9        55.322 9  21926456.033 6         0.000 6      1975.141 6        37.977 6
> 2019 07 03 12 01 38.0000000  0  8       0.000000000000
G07  25330343.208 9 133111806.035 9      2182.284 9        54.137 9  25330343.869 6         0.000 6      1700.482 6        37.977 6
G10  23784076.885 9 124986113.351 9      3515.181 9        54.679 9  23784080.586 6         0.000 6      2739.105 6        37.977 6
G21  21180677.203 9 111305189.252 9     -1275.485 9        55.705 9  21180676.491 6         0.000 6      -993.885 6        37.977 6
G29  24324328.460 9 127825152.016 9     -3151.990 9        54.466 9  24324330.060 6         0.000 6     -2456.098 6        37.977 6
G27  21985115.674 9 115532535.762 9      2511.211 9        55.382 9  21985117.600 6         0.000 6      1956.788 6        37.977 6
G16  20492619.597 9 107689422.521 9       542.959 9        55.979 9  20492618.770 6         0.000 6       423.085 6        37.977 6
G26  20665313.548 9 108596933.323 9     -1502.821 9        55.869 9  20665316.369 6         0.000 6     -1171.030 6        37.977 6
G20  21925973.415 9 115221735.054 9      2534.315 9        55.323 9  21925973.726 6         0.000 6      1974.792 6        37.977 6
> 2019 07 03 12 01 39.0000000  0  8       0.000000000000
G07  25329927.977 9 133109623.983 9      2181.826 9        54.137 9  25329928.638 6         0.000 6      1700.125 6        37.977 6
G10  23783407.981 9 124982598.251 9      3515.038 9        54.679 9  23783411.682 6         0.000 6      2738.994 6        37.977 6
G21  21180919.955 9 111306464.919 9     -1275.849 9        55.705 9  21180919.242 6         0.000 6      -994.168 6        37.977 6
G29  24324928.272 9 127828304.038 9     -3152.075 9        54.466 9  24324929.872 6         0.000 6     -2456.165 6        37.977 6
G27  21984637.829 9 115530024.676 9      2510.967 9        55.382 9  21984639.755 6         0.000 6      1956.598 6        37.977 6
G16  20492516.335 9 107688879.872 9       542.339 9        55.979 9  20492515.507 6         0.000 6       422.602 6        37.977 6
G26  20665599.580 9 108598436.430 9     -1503.397 9        55.868 9  20665602.401 6         0.000 6     -1171.478 6        37.977 6
G20  21925491.194 9 115219200.967 9      2533.867 9        55.323 9  21925491.504 6         0.000 6      1974.443 6        37.977 6
> 2019 07 03 12 01 40.0000000  0  8       0.000000000000
G07  25329512.833 9 133107442.389 9      2181.369 9        54.138 9  25329513.493 6         0.000 6      1699.769 6        37.977 6
G10  23782739.105 9 124979083.295 9      3514.896 9        54.679 9  23782742.806 6         0.000 6      2738.882 6        37.977 6
G21  21181162.775 9 111307740.949 9     -1276.212 9        55.705 9  21181162.063 6         0.000 6      -994.451 6        37.977 6
G29  24325528.100 9 127831456.146 9     -3152.161 9        54.466 9  24325529.701 6         0.000 6     -2456.232 6        37.977 6
G27  21984160.032 9 115527513.834 9      2510.723 9        55.382 9  21984161.957 6         0.000 6      1956.408 6        37.977 6
G16  20492413.190 9 107688337.843 9       541.718 9        55.979 9  20492412.363 6         0.000 6       422.118 6        37.977 6
G26  20665885.722 9 108599940.113 9     -1503.972 9        55.868 9  20665888.543 6         0.000 6     -1171.927 6        37.977 6
G20  21925009.058 9 115216667.329 9      2533.419 9        55.323 9  21925009.368 6         0.000 6      1974.094 6        37.977 6
> 2019 07 03 12 01 41.0000000  0  8       0.000000000000
G07  25329097.775 9 133105261.253 9      2180.911 9        54.138 9  25329098.436 6         0.000 6      1699.412 6        37.977 6
G10  23782070.257 9 124975568.481 9      3514.753 9        54.679 9  23782073.956 6         0.000 6      2738.771 6        37.977 6
G21  21181405.665 9 111309017.342 9     -1276.576 9        55.705 9  21181404.952 6         0.000 6      -994.735 6        37.977 6
G29  24326127.945 9 127834608.339 9     -3152.247 9        54.465 9  24326129.546 6         0.000 6     -2456.299 6        37.977 6
G27  21983682.280 9 115525003.235 9      2510.480 9        55.383 9  21983684.205 6         0.000 6      1956.219 6        37.977 6
G16  20492310.164 9 107687796.436 9       541.097 9        55.979 9  20492309.336 6         0.000 6       421.634 6        37.977 6
G26  20666171.973 9 108601444.371 9     -1504.548 9        55.868 9  20666174.794 6         0.000 6     -1172.375 6        37.977 6
G20  21924527.007 9 115214134.138 9      2532.971 9        55.323 9  21924527.317 6         0.000 6      1973.745 6        37.977 6
> 2019 07 03 12 01 42.0000000  0  8       0.000000000000
G07  25328682.806 9 133103080.575 9      2180.453 9        54.138 9  25328683.466 6         0.000 6      1699.055 6        37.977 6
G10  23781401.435 9 124972053.810 9      3514.610 9        54.680 9  23781405.134 6         0.000 6      2738.660 6        37.977 6
G21  21181648.624 9 111310294.099 9     -1276.939 9        55.705 9  21181647.911 6         0.000 6      -995.018 6        37.977 6
G29  24326727.806 9 127837760.618 9     -3152.332 9        54.465 9  24326729.407 6         0.000 6     -2456.366 6        37.977 6
G27  21983204.575 9 115522492.880 9      2510.236 9        55.383 9  21983206.500 6         0.000 6      1956.029 6        37.977 6
G16  20492207.255 9 107687255.649 9       540.476 9        55.979 9  20492206.428 6         0.000 6       421.150 6        37.977 6
G26  20666458.334 9 108602949.204 9     -1505.123 9        55.868 9  20666461.155 6         0.000 6     -1172.824 6        37.977 6
G20  21924045.041 9 115211601.395 9      2532.523 9        55.323 9  21924045.351 6         0.000 6      1973.396 6        37.977 6
> 2019 07 03 12 01 43.0000000  0  8       0.000000000000
G07  25328267.923 9 133100900.355 9      2179.995 9        54.138 9  25328268.583 6         0.000 6      1698.698 6        37.977 6
G10  23780732.641 9 124968539.282 9      3514.467 9        54.680 9  23780736.339 6         0.000 6      2738.548 6        37.977 6
G21  21181891.652 9 111311571.219 9     -1277.302 9        55.705 9  21181890.939 6         0.000 6      -995.301 6        37.977 6
G29  24327327.683 9 127840912.983 9     -3152.418 9        54.465 9  24327329.285 6         0.000 6     -2456.432 6        37.977 6
G27  21982726.916 9 115519982.768 9      2509.992 9        55.383 9  21982728.841 6         0.000 6      1955.839 6        37.977 6
G16  20492104.465 9 107686715.483 9       539.856 9        55.979 9  20492103.638 6         0.000 6       420.667 6        37.977 6
G26  20666744.804 9 108604454.613 9     -1505.699 9        55.868 9  20666747.625 6         0.000 6     -1173.272 6        37.977 6
G20  21923563.160 9 115209069.101 9      2532.075 9        55.324 9  21923563.470 6         0.000 6      1973.046 6        37.977 6
> 2019 07 03 12 01 44.0000000  0  8       0.000000000000
G07  25327853.127 9 133098720.593 9      2179.536 9        54.138 9  25327853.787 6         0.000 6      1698.341 6        37.977 6
G10  23780063.873 9 124965024.897 9      3514.324 9        54.680 9  23780067.571 6         0.000 6      2738.437 6        37.977 6
G21  21182134.749 9 111312848.702 9     -1277.665 9        55.705 9  21182134.036 6         0.000 6      -995.584 6        37.977 6
G29  24327927.576 9 127844065.434 9     -3152.504 9        54.465 9  24327929.179 6         0.000 6     -2456.499 6        37.977 6
G27  21982249.303 9 115517472.901 9      2509.749 9        55.383 9  21982251.228 6         0.000 6      1955.649 6        37.977 6
G16  20492001.793 9 107686175.938 9       539.235 9        55.979 9  20492000.966 6         0.000 6       420.183 6        37.977 6
G26  20667031.384 9 108605960.598 9     -1506.274 9        55.868 9  20667034.205 6         0.000 6     -1173.720 6        37.977 6
G20  21923081.365 9 115206537.254 9      2531.627 9        55.324 9  21923081.674 6         0.000 6      1972.697 6        37.977 6
> 2019 07 03 12 01 45.0000000  0  8       0.000000000000
G07  25327438.419 9 133096541.290 9      2179.078 9        54.138 9  25327439.078 6         0.000 6      1697.984 6        37.977 6
G10  23779395.133 9 124961510.655 9      3514.181 9        54.680 9  23779398.830 6         0.000 6      2738.325 6        37.977 6
G21  21182377.915 9 111314126.548 9     -1278.029 9        55.705 9  21182377.203 6         0.000 6      -995.867 6        37.977 6
G29  24328527.486 9 127847217.970 9     -3152.589 9        54.465 9  24328529.089 6         0.000 6     -2456.566 6        37.977 6
G27  21981771.737 9 115514963.277 9      2509.505 9        55.383 9  21981773.662 6         0.000 6      1955.459 6        37.977 6
G16  20491899.239 9 107685637.014 9       538.614 9        55.979 9  20491898.412 6         0.000 6       419.699 6        37.977 6
G26  20667318.073 9 108607467.158 9     -1506.849 9        55.868 9  20667320.894 6         0.000 6     -1174.169 6        37.977 6
G20  21922599.655 9 115204005.856 9      2531.178 9        55.324 9  21922599.964 6         0.000 6      1972.348 6        37.977 6
> 2019 07 03 12 01 46.0000000  0  8       0.000000000000
G07  25327023.798 9 133094362.444 9      2178.620 9        54.138 9  25327024.457 6         0.000 6      1697.627 6        37.977 6
G10  23778726.421 9 124957996.557 9      3514.037 9        54.681 9  23778730.117 6         0.000 6      2738.214 6        37.977 6
G21  21182621.150 9 111315404.758 9     -1278.392 9        55.704 9  21182620.438 6         0.000 6      -996.150 6        37.977 6
G29  24329127.412 9 127850370.592 9     -3152.675 9        54.464 9  24329129.016 6         0.000 6     -2456.632 6        37.977 6
G27  21981294.218 9 115512453.897 9      2509.261 9        55.383 9  21981296.142 6         0.000 6      1955.269 6        37.977 6
G16  20491796.803 9 107685098.710 9       537.993 9        55.979 9  20491795.976 6         0.000 6       419.215 6        37.977 6
G26  20667604.871 9 108608974.293 9     -1507.425 9        55.868 9  20667607.693 6         0.000 6     -1174.617 6        37.977 6
G20  21922118.031 9 115201474.907 9      2530.730 9        55.324 9  21922118.339 6         0.000 6      1971.998 6        37.977 6
> 2019 07 03 12 01 47.0000000  0  8       0.000000000000
G07  25326609.264 9 133092184.057 9      2178.161 9        54.139 9  25326609.923 6         0.000 6      1697.270 6        37.977 6
G10  23778057.735 9 124954482.602 9      3513.894 9        54.681 9  23778061.431 6         0.000 6      2738.102 6        37.977 6
G21  21182864.455 9 111316683.330 9     -1278.755 9        55.704 9  21182863.742 6         0.000 6      -996.432 6        37.977 6
G29  24329727.354 9 127853523.299 9     -3152.760 9        54.464 9  24329728.959 6         0.000 6     -2456.699 6        37.977 6
G27  21980816.744 9 115509944.760 9      2509.017 9        55.384 9  21980818.669 6         0.000 6      1955.079 6        37.977 6
G16  20491694.486 9 107684561.028 9       537.372 9        55.979 9  20491693.659 6         0.000 6       418.731 6        37.977 6
G26  20667891.780 9 108610482.004 9     -1508.000 9        55.867 9  20667894.601 6         0.000 6     -1175.065 6        37.977 6
G20  21921636.492 9 115198944.406 9      2530.281 9        55.324 9  21921636.800 6         0.000 6      1971.649 6        37.977 6
> 2019 07 03 12 01 48.0000000  0  8       0.000000000000
G07  25326194.817 9 133090006.128 9      2177.703 9        54.139 9  25326195.476 6         0.000 6      1696.912 6        37.977 6
G10  23777389.077 9 124950968.790 9      3513.751 9        54.681 9  23777392.772 6         0.000 6      2737.990 6        37.977 6
G21  21183107.828 9 111317962.266 9     -1279.118 9        55.704 9  21183107.116 6         0.000 6      -996.715 6        37.977 6
G29  24330327.312 9 127856676.092 9     -3152.846 9        54.464 9  24330328.918 6         0.000 6     -2456.766 6        37.977 6
G27  21980339.318 9 115507435.868 9      2508.773 9        55.384 9  21980341.242 6         0.000 6      1954.889 6        37.977 6
G16  20491592.286 9 107684023.966 9       536.751 9        55.979 9  20491591.459 6         0.000 6       418.247 6        37.977 6
G26  20668178.797 9 108611990.289 9     -1508.575 9        55.867 9  20668181.619 6         0.000 6     -1175.514 6        37.977 6
G20  21921155.038 9 115196414.354 9      2529.832 9        55.325 9  21921155.346 6         0.000 6      1971.299 6        37.977 6
> 2019 07 03 12 01 49.0000000  0  8       0.000000000000
G07  25325780.457 9 133087828.658 9      2177.244 9        54.139 9  25325781.116 6         0.000 6      1696.555 6        37.977 6
G10  23776720.446 9 124947455.122 9      3513.607 9        54.681 9  23776724.141 6         0.000 6      2737.878 6        37.977 6
G21  21183351.271 9 111319241.564 9     -1279.481 9        55.704 9  21183350.559 6         0.000 6      -996.998 6        37.977 6
G29  24330927.287 9 127859828.970 9     -3152.932 9        54.464 9  24330928.893 6         0.000 6     -2456.832 6        37.977 6
G27  21979861.937 9 115504927.220 9      2508.529 9        55.384 9  21979863.861 6         0.000 6      1954.699 6        37.977 6
G16  20491490.205 9 107683487.526 9       536.130 9        55.979 9  20491489.378 6         0.000 6       417.764 6        37.977 6
G26  20668465.924 9 108613499.150 9     -1509.150 9        55.867 9  20668468.746 6         0.000 6     -1175.962 6        37.977 6
G20  21920673.669 9 115193884.750 9      2529.384 9        55.325 9  21920673.977 6         0.000 6      1970.949 6        37.977 6
> 2019 07 03 12 01 50.0000000  0  8       0.000000000000
G07  25325366.185 9 133085651.646 9      2176.786 9        54.139 9  25325366.844 6         0.000 6      1696.198 6        37.977 6
G10  23776051.843 9 124943941.597 9      3513.463 9        54.682 9  23776055.536 6         0.000 6      2737.766 6        37.977 6
G21  21183594.782 9 111320521.226 9     -1279.844 9        55.704 9  21183594.070 6         0.000 6      -997.281 6        37.977 6
G29  24331527.278 9 127862981.934 9     -3153.017 9        54.464 9  24331528.885 6         0.000 6     -2456.899 6        37.977 6
G27  21979384.603 9 115502418.815 9      2508.285 9        55.384 9  21979386.527 6         0.000 6      1954.509 6        37.977 6
G16  20491388.242 9 107682951.707 9       535.509 9        55.979 9  20491387.415 6         0.000 6       417.280 6        37.977 6
G26  20668753.161 9 108615008.587 9     -1509.726 9        55.867 9  20668755.982 6         0.000 6     -1176.410 6        37.977 6
G20  21920192.386 9 115191355.595 9      2528.935 9        55.325 9  21920192.694 6         0.000 6      1970.600 6        37.977 6
> 2019 07 03 12 01 51.0000000  0  8       0.000000000000
G07  25324952.000 9 133083475.094 9      2176.327 9        54.139 9  25324952.659 6         0.000 6      1695.840 6        37.977 6
G10  23775383.267 9 124940428.216 9      3513.319 9        54.682 9  23775386.960 6         0.000 6      2737.654 6        37.977 6
G21  21183838.363 9 111321801.250 9     -1280.206 9        55.704 9  21183837.651 6         0.000 6      -997.564 6        37.977 6
G29  24332127.286 9 127866134.984 9     -3153.102 9        54.463 9  24332128.893 6         0.000 6     -2456.966 6        37.977 6
G27  21978907.315 9 115499910.655 9      2508.041 9        55.384 9  21978909.239 6         0.000 6      1954.318 6        37.977 6
G16  20491286.397 9 107682416.508 9       534.888 9        55.979 9  20491285.570 6         0.000 6       416.796 6        37.977 6
G26  20669040.507 9 108616518.598 9     -1510.301 9        55.867 9  20669043.328 6         0.000 6     -1176.858 6        37.977 6
G20  21919711.189 9 115188826.889 9      2528.486 9        55.325 9  21919711.496 6         0.000 6      1970.250 6        37.977 6
> 2019 07 03 12 01 52.0000000  0  8       0.000000000000
G07  25324537.903 9 133081298.999 9      2175.868 9        54.139 9  25324538.561 6         0.000 6      1695.483 6        37.977 6
G10  23774714.718 9 124936914.980 9      3513.175 9        54.682 9  23774718.410 6         0.000 6      2737.542 6        37.977 6
G21  21184082.013 9 111323081.637 9     -1280.569 9        55.704 9  21184081.301 6         0.000 6      -997.846 6        37.977 6
G29  24332727.309 9 127869288.119 9     -3153.188 9        54.463 9  24332728.917 6         0.000 6     -2457.032 6        37.977 6
G27  21978430.074 9 115497402.738 9      2507.797 9        55.385 9  21978431.998 6         0.000 6      1954.128 6        37.977 6
G16  20491184.671 9 107681881.931 9       534.267 9        55.979 9  20491183.843 6         0.000 6       416.312 6        37.977 6
G26  20669327.962 9 108618029.185 9     -1510.876 9        55.867 9  20669330.784 6         0.000 6     -1177.306 6        37.977 6
G20  21919230.077 9 115186298.633 9      2528.037 9        55.325 9  21919230.384 6         0.000 6      1969.900 6        37.977 6
> 2019 07 03 12 01 53.0000000  0  8       0.000000000000
G07  25324123.892 9 133079123.364 9      2175.410 9        54.139 9  25324124.550 6         0.000 6      1695.125 6        37.977 6
G10  23774046.196 9 124933401.887 9      3513.031 9        54.682 9  23774049.888 6         0.000 6      2737.430 6        37.977 6
G21  21184325.731 9 111324362.386 9     -1280.932 9        55.704 9  21184325.019 6         0.000 6      -998.129 6        37.977 6
G29  24333327.349 9 127872441.339 9     -3153.273 9        54.463 9  24333328.958 6         0.000 6     -2457.099 6        37.977 6
G27  21977952.880 9 115494895.066 9      2507.553 9        55.385 9  21977954.803 6         0.000 6      1953.938 6        37.977 6
G16  20491083.062 9 107681347.976 9       533.645 9        55.979 9  20491082.235 6         0.000 6       415.828 6        37.977 6
G26  20669615.527 9 108619540.346 9     -1511.451 9        55.867 9  20669618.349 6         0.000 6     -1177.754 6        37.977 6
G20  21918749.050 9 115183770.825 9      2527.588 9        55.325 9  21918749.357 6         0.000 6      1969.550 6        37.977 6
> 2019 07 03 12 01 54.0000000  0  8       0.000000000000
G07  25323709.969 9 133076948.187 9      2174.951 9        54.140 9  25323710.627 6         0.000 6      1694.768 6        37.977 6
G10  23773377.703 9 124929888.938 9      3512.887 9        54.683 9  23773381.394 6         0.000 6      2737.317 6        37.977 6
G21  21184569.519 9 111325643.499 9     -1281.294 9        55.704 9  21184568.807 6         0.000 6      -998.411 6        37.977 6
G29  24333927.405 9 127875594.644 9     -3153.359 9        54.463 9  24333929.014 6         0.000 6     -2457.165 6        37.977 6
G27  21977475.731 9 115492387.638 9      2507.309 9        55.385 9  21977477.654 6         0.000 6      1953.748 6        37.977 6
G16  20490981.572 9 107680814.641 9       533.024 9        55.979 9  20490980.745 6         0.000 6       415.343 6        37.977 6
G26  20669903.201 9 108621052.083 9     -1512.026 9        55.867 9  20669906.023 6         0.000 6     -1178.202 6        37.977 6
G20  21918268.109 9 115181243.466 9      2527.138 9        55.326 9  21918268.415 6         0.000 6      1969.200 6        37.977 6
> 2019 07 03 12 01 55.0000000  0  8       0.000000000000
G07  25323296.134 9 133074773.470 9      2174.492 9        54.140 9  25323296.791 6         0.000 6      1694.410 6        37.977 6
G10  23772709.236 9 124926376.134 9      3512.743 9        54.683 9  23772712.927 6         0.000 6      2737.205 6        37.977 6
G21  21184813.376 9 111326924.974 9     -1281.657 9        55.704 9  21184812.664 6         0.000 6      -998.694 6        37.977 6
G29  24334527.477 9 127878748.036 9     -3153.444 9        54.463 9  24334529.087 6         0.000 6     -2457.232 6        37.977 6
G27  21976998.630 9 115489880.454 9      2507.065 9        55.385 9  21977000.553 6         0.000 6      1953.558 6        37.977 6
G16  20490880.200 9 107680281.927 9       532.403 9        55.979 9  20490879.373 6         0.000 6       414.859 6        37.977 6
G26  20670190.985 9 108622564.394 9     -1512.601 9        55.866 9  20670193.807 6         0.000 6     -1178.651 6        37.977 6
G20  21917787.253 9 115178716.557 9      2526.689 9        55.326 9  21917787.559 6         0.000 6      1968.850 6        37.977 6
> 2019 07 03 12 01 56.0000000  0  8       0.000000000000
G07  25322882.385 9 133072599.211 9      2174.033 9        54.140 9  25322883.042 6         0.000 6      1694.052 6        37.977 6
G10  23772040.797 9 124922863.473 9      3512.599 9        54.683 9  23772044.487 6         0.000 6      2737.092 6        37.977 6
G21  21185057.302 9 111328206.811 9     -1282.020 9        55.703 9  21185056.590 6         0.000 6      -998.976 6        37.977 6
G29  24335127.566 9 127881901.512 9     -3153.529 9        54.462 9  24335129.177 6         0.000 6     -2457.298 6        37.977 6
G27  21976521.574 9 115487373.514 9      2506.820 9        55.385 9  21976523.497 6         0.000 6      1953.367 6        37.977 6
G16  20490778.946 9 107679749.835 9       531.782 9        55.979 9  20490778.119 6         0.000 6       414.375 6        37.977 6
G26  20670478.878 9 108624077.281 9     -1513.176 9        55.866 9  20670481.700 6         0.000 6     -1179.099 6        37.977 6
G20  21917306.483 9 115176190.097 9      2526.240 9        55.326 9  21917306.789 6         0.000 6      1968.500 6        37.977 6
> 2019 07 03 12 01 57.0000000  0  8       0.000000000000
G07  25322468.724 9 133070425.412 9      2173.573 9        54.140 9  25322469.381 6         0.000 6      1693.695 6        37.977 6
G10  23771372.385 9 124919350.958 9      3512.454 9        54.683 9  23771376.075 6         0.000 6      2736.980 6        37.977 6
G21  21185301.296 9 111329489.011 9     -1282.382 9        55.703 9  21185300.584 6         0.000 6      -999.259 6        37.977 6
G29  24335727.671 9 127885055.074 9     -3153.615 9        54.462 9  24335729.282 6         0.000 6     -2457.365 6        37.977 6
G27  21976044.565 9 115484866.818 9      2506.576 9        55.386 9  21976046.488 6         0.000 6      1953.177 6        37.977 6
G16  20490677.811 9 107679218.364 9       531.160 9        55.979 9  20490676.984 6         0.000 6       413.891 6        37.977 6
G26  20670766.880 9 108625590.743 9     -1513.751 9        55.866 9  20670769.703 6         0.000 6     -1179.547 6        37.977 6
G20  21916825.798 9 115173664.087 9      2525.790 9        55.326 9  21916826.104 6         0.000 6      1968.149 6        37.977 6
> 2019 07 03 12 01 58.0000000  0  8       0.000000000000
G07  25322055.151 9 133068252.071 9      2173.114 9        54.140 9  25322055.807 6         0.000 6      1693.337 6        37.977 6
G10  23770704.001 9 124915838.586 9      3512.310 9        54.683 9  23770707.690 6         0.000 6      2736.867 6        37.977 6
G21  21185545.360 9 111330771.574 9     -1282.744 9        55.703 9  21185544.648 6         0.000 6      -999.541 6        37.977 6
G29  24336327.792 9 127888208.721 9     -3153.700 9        54.462 9  24336329.404 6         0.000 6     -2457.431 6        37.977 6
G27  21975567.603 9 115482360.367 9      2506.332 9        55.386 9  21975569.526 6         0.000 6      1952.987 6        37.977 6
G16  20490576.794 9 107678687.515 9       530.539 9        55.979 9  20490575.966 6         0.000 6       413.407 6        37.977 6
G26  20671054.992 9 108627104.779 9     -1514.326 9        55.866 9  20671057.815 6         0.000 6     -1179.995 6        37.977 6
G20  21916345.199 9 115171138.526 9      2525.340 9        55.326 9  21916345.505 6         0.000 6      1967.799 6        37.977 6
> 2019 07 03 12 01 59.0000000  0  8       0.000000000000
G07  25321641.665 9 133066079.190 9      2172.655 9        54.140 9  25321642.321 6         0.000 6      1692.979 6        37.977 6
G10  23770035.645 9 124912326.360 9      3512.165 9        54.684 9  23770039.333 6         0.000 6      2736.754 6        37.977 6
G21  21185789.493 9 111332054.499 9     -1283.107 9        55.703 9  21185788.781 6         0.000 6      -999.824 6        37.977 6
G29  24336927.929 9 127891362.453 9     -3153.785 9        54.462 9  24336929.542 6         0.000 6     -2457.498 6        37.977 6
G27  21975090.687 9 115479854.160 9      2506.088 9        55.386 9  21975092.610 6         0.000 6      1952.796 6        37.977 6
G16  20490475.894 9 107678157.287 9       529.917 9        55.979 9  20490475.067 6         0.000 6       412.923 6        37.977 6
G26  20671343.214 9 108628619.391 9     -1514.901 9        55.866 9  20671346.036 6         0.000 6     -1180.442 6        37.977 6
G20  21915864.686 9 115168613.415 9      2524.891 9        55.327 9  21915864.991 6         0.000 6      1967.448 6        37.977 6
> 2019 07 03 12 02  0.0000000  0  8       0.000000000000
G07  25321228.266 9 133063906.768 9      2172.196 9        54.140 9  25321228.922 6         0.000 6      1692.621 6        37.977 6
G10  23769367.316 9 124908814.278 9      3512.020 9        54.684 9  23769371.003 6         0.000 6      2736.642 6        37.977 6
G21  21186033.694 9 111333337.786 9     -1283.469 9        55.703 9  21186032.982 6         0.000 6     -1000.106 6        37.977 6
G29  24337528.083 9 127894516.271 9     -3153.871 9        54.461 9  24337529.696 6         0.000 6     -2457.564 6        37.977 6
G27  21974613.818 9 115477348.197 9      2505.843 9        55.386 9  21974615.740 6         0.000 6      1952.606 6        37.977 6
G16  20490375.114 9 107677627.680 9       529.296 9        55.979 9  20490374.286 6         0.000 6       412.438 6        37.977 6
G26  20671631.544 9 108630134.577 9     -1515.475 9        55.866 9  20671634.367 6         0.000 6     -1180.890 6        37.977 6
G20  21915384.258 9 115166088.753 9      2524.441 9        55.327 9  21915384.563 6         0.000 6      1967.098 6        37.977 6
> 2019 07 03 12 02  1.0000000  0  8       0.000000000000
G07  25320814.954 9 133061734.806 9      2171.736 9        54.140 9  25320815.610 6         0.000 6      1692.263 6        37.977 6
G10  23768699.015 9 124905302.340 9      3511.875 9        54.684 9  23768702.701 6         0.000 6      2736.529 6        37.977 6
G21  21186277.965 9 111334621.436 9     -1283.831 9        55.703 9  21186277.253 6         0.000 6     -1000.388 6        37.977 6
G29  24338128.252 9 127897670.173 9     -3153.956 9        54.461 9  24338129.866 6         0.000 6     -2457.631 6        37.977 6
G27  21974136.995 9 115474842.479 9      2505.599 9        55.386 9  21974138.917 6         0.000 6      1952.415 6        37.977 6
G16  20490274.451 9 107677098.695 9       528.674 9        55.980 9  20490273.624 6         0.000 6       411.954 6        37.977 6
G26  20671919.984 9 108631650.338 9     -1516.050 9        55.866 9  20671922.807 6         0.000 6     -1181.338 6        37.977 6
G20  21914903.915 9 115163564.542 9      2523.991 9        55.327 9  21914904.220 6         0.000 6      1966.747 6        37.977 6
> 2019 07 03 12 02  2.0000000  0  8       0.000000000000
G07  25320401.730 9 133059563.303 9      2171.277 9        54.141 9  25320402.386 6         0.000 6      1691.905 6        37.977 6
G10  23768030.741 9 124901790.548 9      3511.730 9        54.684 9  23768034.427 6         0.000 6      2736.416 6        37.977 6
G21  21186522.304 9 111335905.447 9     -1284.194 9        55.703 9  21186521.592 6         0.000 6     -1000.670 6        37.977 6
G29  24338728.438 9 127900824.161 9     -3154.041 9        54.461 9  24338730.053 6         0.000 6     -2457.697 6        37.977 6
G27  21973660.219 9 115472337.005 9      2505.354 9        55.387 9  21973662.140 6         0.000 6      1952.225 6        37.977 6
G16  20490173.907 9 107676570.332 9       528.053 9        55.980 9  20490173.080 6         0.000 6       411.470 6        37.977 6
G26  20672208.534 9 108633166.674 9     -1516.625 9        55.866 9  20672211.357 6         0.000 6     -1181.786 6        37.977 6
G20  21914423.659 9 115161040.780 9      2523.541 9        55.327 9  21914423.963 6         0.000 6      1966.397 6        37.977 6
> 2019 07 03 12 02  3.0000000  0  8       0.000000000000
G07  25319988.594 9 133057392.260 9      2170.817 9        54.141 9  25319989.250 6         0.000 6      1691.547 6        37.977 6
G10  23767362.494 9 124898278.901 9      3511.585 9        54.685 9  23767366.180 6         0.000 6      2736.303 6        37.977 6
G21  21186766.713 9 111337189.821 9     -1284.556 9        55.703 9  21186766.001 6         0.000 6     -1000.953 6        37.977 6
G29  24339328.640 9 127903978.235 9     -3154.126 9        54.461 9  24339330.256 6         0.000 6     -2457.763 6        37.977 6
G27  21973183.489 9 115469831.776 9      2505.110 9        55.387 9  21973185.410 6         0.000 6      1952.034 6        37.977 6
G16  20490073.481 9 107676042.590 9       527.431 9        55.980 9  20490072.654 6         0.000 6       410.985 6        37.977 6
G26  20672497.193 9 108634683.584 9     -1517.200 9        55.866 9  20672500.016 6         0.000 6     -1182.234 6        37.977 6
G20  21913943.488 9 115158517.468 9      2523.091 9        55.327 9  21913943.792 6         0.000 6      1966.046 6        37.977 6
> 2019 07 03 12 02  4.0000000  0  8       0.000000000000
G07  25319575.545 9 133055221.676 9      2170.357 9        54.141 9  25319576.200 6         0.000 6      1691.188 6        37.977 6
G10  23766694.276 9 124894767.399 9      3511.440 9        54.685 9  23766697.961 6         0.000 6      2736.190 6        37.977 6
G21  21187011.190 9 111338474.557 9     -1284.918 9        55.703 9  21187010.478 6         0.000 6     -1001.235 6        37.977 6
G29  24339928.859 9 127907132.393 9     -3154.211 9        54.461 9  24339930.475 6         0.000 6     -2457.830 6        37.977 6
G27  21972706.806 9 115467326.791 9      2504.865 9        55.387 9  21972708.727 6         0.000 6      1951.844 6        37.977 6
G16  20489973.173 9 107675515.469 9       526.810 9        55.980 9  20489972.346 6         0.000 6       410.501 6        37.977 6
G26  20672785.961 9 108636201.069 9     -1517.774 9        55.865 9  20672788.784 6         0.000 6     -1182.682 6        37.977 6
G20  21913463.402 9 115155994.607 9      2522.641 9        55.328 9  21913463.706 6         0.000 6      1965.695 6        37.977 6
> 2019 07 03 12 02  5.0000000  0  8       0.000000000000
G07  25319162.583 9 133053051.553 9      2169.898 9        54.141 9  25319163.239 6         0.000 6      1690.830 6        37.977 6
G10  23766026.085 9 124891256.042 9      3511.295 9        54.685 9  23766029.769 6         0.000 6      2736.076 6        37.977 6
G21  21187255.736 9 111339759.655 9     -1285.280 9        55.703 9  21187255.024 6         0.000 6     -1001.517 6        37.977 6
G29  24340529.093 9 127910286.636 9     -3154.296 9        54.460 9  24340530.710 6         0.000 6     -2457.896 6        37.977 6
G27  21972230.169 9 115464822.050 9      2504.621 9        55.387 9  21972232.090 6         0.000 6      1951.653 6        37.977 6
G16  20489872.984 9 107674988.970 9       526.188 9        55.980 9  20489872.157 6         0.000 6       410.017 6        37.977 6
G26  20673074.838 9 108637719.129 9     -1518.349 9        55.865 9  20673077.662 6         0.000 6     -1183.129 6        37.977 6
G20  21912983.402 9 115153472.195 9      2522.191 9        55.328 9  21912983.706 6         0.000 6      1965.344 6        37.977 6
> 2019 07 03 12 02  6.0000000  0  8       0.000000000000
G07  25318749.709 9 133050881.888 9      2169.438 9        54.141 9  25318750.364 6         0.000 6      1690.472 6        37.977 6
G10  23765357.922 9 124887744.831 9      3511.149 9        54.685 9  23765361.605 6         0.000 6      2735.963 6        37.977 6
G21  21187500.351 9 111341045.115 9     -1285.642 9        55.702 9  21187499.639 6         0.000 6     -1001.799 6        37.977 6
G29  24341129.344 9 127913440.965 9     -3154.382 9        54.460 9  24341130.961 6         0.000 6     -2457.962 6        37.977 6
G27  21971753.579 9 115462317.555 9      2504.376 9        55.387 9  21971755.500 6         0.000 6      1951.463 6        37.977 6
G16  20489772.913 9 107674463.093 9       525.566 9        55.980 9  20489772.085 6         0.000 6       409.532 6        37.977 6
G26  20673363.825 9 108639237.763 9     -1518.924 9        55.865 9  20673366.649 6         0.000 6     -1183.577 6        37.977 6
G20  21912503.488 9 115150950.234 9      2521.740 9        55.328 9  21912503.792 6         0.000 6      1964.993 6        37.977 6
> 2019 07 03 12 02  7.0000000  0  8       0.000000000000
G07  25318336.923 9 133048712.684 9      2168.978 9        54.141 9  25318337.578 6         0.000 6      1690.114 6        37.977 6
G10  23764689.786 9 124884233.765 9      3511.004 9        54.686 9  23764693.469 6         0.000 6      2735.850 6        37.977 6
G21  21187745.035 9 111342330.937 9     -1286.004 9        55.702 9  21187744.323 6         0.000 6     -1002.081 6        37.977 6
G29  24341729.611 9 127916595.379 9     -3154.467 9        54.460 9  24341731.229 6         0.000 6     -2458.029 6        37.977 6
G27  21971277.035 9 115459813.304 9      2504.131 9        55.387 9  21971278.956 6         0.000 6      1951.272 6        37.977 6
G16  20489672.960 9 107673937.838 9       524.945 9        55.980 9  20489672.133 6         0.000 6       409.048 6        37.977 6
G26  20673652.921 9 108640756.972 9     -1519.498 9        55.865 9  20673655.745 6         0.000 6     -1184.025 6        37.977 6
G20  21912023.660 9 115148428.724 9      2521.290 9        55.328 9  21912023.963 6         0.000 6      1964.642 6        37.977 6
> 2019 07 03 12 02  8.0000000  0  8       0.000000000000
G07  25317924.224 9 133046543.940 9      2168.518 9        54.141 9  25317924.878 6         0.000 6      1689.755 6        37.977 6
G10  23764021.678 9 124880722.845 9      3510.858 9        54.686 9  23764025.360 6         0.000 6      2735.736 6        37.977 6
G21  21187989.788 9 111343617.121 9     -1286.366 9        55.702 9  21187989.076 6         0.000 6     -1002.363 6        37.977 6
G29  24342329.894 9 127919749.877 9     -3154.552 9        54.460 9  24342331.512 6         0.000 6     -2458.095 6        37.977 6
G27  21970800.538 9 115457309.297 9      2503.887 9        55.388 9  21970802.459 6         0.000 6      1951.081 6        37.977 6
G16  20489573.125 9 107673413.204 9       524.323 9        55.980 9  20489572.298 6         0.000 6       408.563 6        37.977 6
G26  20673942.127 9 108642276.756 9     -1520.073 9        55.865 9  20673944.951 6         0.000 6     -1184.473 6        37.977 6
G20  21911543.917 9 115145907.664 9      2520.839 9        55.328 9  21911544.220 6         0.000 6      1964.291 6        37.977 6
> 2019 07 03 12 02  9.0000000  0  8       0.000000000000
G07  25317511.612 9 133044375.656 9      2168.058 9        54.142 9  25317512.267 6         0.000 6      1689.397 6        37.977 6
G10  23763353.598 9 124877212.070 9      3510.712 9        54.686 9  23763357.279 6         0.000 6      2735.623 6        37.977 6
G21  21188234.609 9 111344903.667 9     -1286.727 9        55.702 9  21188233.898 6         0.000 6     -1002.645 6        37.977 6
G29  24342930.193 9 127922904.461 9     -3154.637 9        54.460 9  24342931.812 6         0.000 6     -2458.161 6        37.977 6
G27  21970324.087 9 115454805.535 9      2503.642 9        55.388 9  21970326.008 6         0.000 6      1950.891 6        37.977 6
G16  20489473.409 9 107672889.192 9       523.701 9        55.980 9  20489472.582 6         0.000 6       408.079 6        37.977 6
G26  20674231.442 9 108643797.114 9     -1520.647 9        55.865 9  20674234.266 6         0.000 6     -1184.920 6        37.977 6
G20  21911064.261 9 115143387.054 9      2520.389 9        55.329 9  21911064.563 6         0.000 6      1963.940 6        37.977 6
> 2019 07 03 12 02 10.0000000  0  8       0.000000000000
G07  25317099.089 9 133042207.831 9      2167.598 9        54.142 9  25317099.743 6         0.000 6      1689.038 6        37.977 6
G10  23762685.545 9 124873701.441 9      3510.567 9        54.686 9  23762689.226 6         0.000 6      2735.509 6        37.977 6
G21  21188479.500 9 111346190.574 9     -1287.089 9        55.702 9  21188478.789 6         0.000 6     -1002.927 6        37.977 6
G29  24343530.509 9 127926059.130 9     -3154.722 9        54.459 9  24343532.129 6         0.000 6     -2458.227 6        37.977 6
G27  21969847.683 9 115452302.019 9      2503.397 9        55.388 9  21969849.604 6         0.000 6      1950.700 6        37.977 6
G16  20489373.811 9 107672365.802 9       523.079 9        55.980 9  20489372.984 6         0.000 6       407.594 6        37.977 6
G26  20674520.866 9 108645318.047 9     -1521.222 9        55.865 9  20674523.690 6         0.000 6     -1185.368 6        37.977 6
G20  21910584.689 9 115140866.896 9      2519.938 9        55.329 9  21910584.992 6         0.000 6      1963.589 6        37.977 6
> 2019 07 03 12 02 11.0000000  0  8       0.000000000000
G07  25316686.652 9 133040040.467 9      2167.137 9        54.142 9  25316687.306 6         0.000 6      1688.679 6        37.977 6
G10  23762017.521 9 124870190.958 9      3510.421 9        54.687 9  23762021.201 6         0.000 6      2735.395 6        37.977 6
G21  21188724.459 9 111347477.844 9     -1287.451 9        55.702 9  21188723.748 6         0.000 6     -1003.209 6        37.977 6
G29  24344130.841 9 127929213.884 9     -3154.807 9        54.459 9  24344132.461 6         0.000 6     -2458.294 6        37.977 6
G27  21969371.326 9 115449798.746 9      2503.152 9        55.388 9  21969373.246 6         0.000 6      1950.509 6        37.977 6
G16  20489274.332 9 107671843.034 9       522.457 9        55.980 9  20489273.505 6         0.000 6       407.110 6        37.977 6
G26  20674810.399 9 108646839.554 9     -1521.796 9        55.865 9  20674813.223 6         0.000 6     -1185.815 6        37.977 6
G20  21910105.204 9 115138347.188 9      2519.487 9        55.329 9  21910105.506 6         0.000 6      1963.238 6        37.977 6
> 2019 07 03 12 02 12.0000000  0  8       0.000000000000
G07  25316274.303 9 133037873.563 9      2166.677 9        54.142 9  25316274.957 6         0.000 6      1688.321 6        37.977 6
G10  23761349.524 9 124866680.621 9      3510.275 9        54.687 9  23761353.203 6         0.000 6      2735.282 6        37.977 6
G21  21188969.487 9 111348765.474 9     -1287.812 9        55.702 9  21188968.776 6         0.000 6     -1003.490 6        37.977 6
G29  24344731.188 9 127932368.722 9     -3154.892 9        54.459 9  24344732.809 6         0.000 6     -2458.360 6        37.977 6
G27  21968895.015 9 115447295.719 9      2502.908 9        55.388 9  21968896.935 6         0.000 6      1950.318 6        37.977 6
G16  20489174.971 9 107671320.887 9       521.835 9        55.980 9  20489174.143 6         0.000 6       406.625 6        37.977 6
G26  20675100.042 9 108648361.635 9     -1522.370 9        55.864 9  20675102.866 6         0.000 6     -1186.263 6        37.977 6
G20  21909625.805 9 115135827.931 9      2519.036 9        55.329 9  21909626.106 6         0.000 6      1962.886 6        37.977 6
> 2019 07 03 12 02 13.0000000  0  8       0.000000000000
G07  25315862.042 9 133035707.120 9      2166.217 9        54.142 9  25315862.696 6         0.000 6      1687.962 6        37.977 6
G10  23760681.555 9 124863170.430 9      3510.128 9        54.687 9  23760685.233 6         0.000 6      2735.168 6        37.977 6
G21  21189214.584 9 111350053.467 9     -1288.174 9        55.702 9  21189213.873 6         0.000 6     -1003.772 6        37.977 6
G29  24345331.552 9 127935523.646 9     -3154.977 9        54.459 9  24345333.174 6         0.000 6     -2458.426 6        37.977 6
G27  21968418.751 9 115444792.937 9      2502.663 9        55.389 9  21968420.671 6         0.000 6      1950.128 6        37.977 6
G16  20489075.728 9 107670799.363 9       521.214 9        55.980 9  20489074.901 6         0.000 6       406.140 6        37.977 6
G26  20675389.794 9 108649884.291 9     -1522.945 9        55.864 9  20675392.618 6         0.000 6     -1186.711 6        37.977 6
G20  21909146.491 9 115133309.124 9      2518.585 9        55.329 9  21909146.792 6         0.000 6      1962.535 6        37.977 6
> 2019 07 03 12 02 14.0000000  0  8       0.000000000000
G07  25315449.869 9 133033541.137 9      2165.756 9        54.142 9  25315450.522 6         0.000 6      1687.603 6        37.977 6
G10  23760013.613 9 124859660.385 9      3509.982 9        54.687 9  23760017.291 6         0.000 6      2735.054 6        37.977 6
G21  21189459.750 9 111351341.821 9     -1288.536 9        55.702 9  21189459.039 6         0.000 6     -1004.054 6        37.977 6
G29  24345931.933 9 127938678.655 9     -3155.061 9        54.458 9  24345933.555 6         0.000 6     -2458.492 6        37.977 6
G27  21967942.534 9 115442290.399 9      2502.418 9        55.389 9  21967944.453 6         0.000 6      1949.937 6        37.977 6
G16  20488976.604 9 107670278.460 9       520.592 9        55.980 9  20488975.776 6         0.000 6       405.656 6        37.977 6
G26  20675679.656 9 108651407.521 9     -1523.519 9        55.864 9  20675682.480 6         0.000 6     -1187.158 6        37.977 6
G20  21908667.263 9 115130790.769 9      2518.134 9        55.329 9  21908667.564 6         0.000 6      1962.183 6        37.977 6
> 2019 07 03 12 02 15.0000000  0  8       0.000000000000
G07  25315037.783 9 133031375.614 9      2165.296 9        54.142 9  25315038.436 6         0.000 6      1687.244 6        37.977 6
G10  23759345.700 9 124856150.486 9      3509.836 9        54.688 9  23759349.377 6         0.000 6      2734.940 6        37.977 6
G21  21189704.985 9 111352630.537 9     -1288.897 9        55.701 9  21189704.274 6         0.000 6     -1004.336 6        37.977 6
G29  24346532.329 9 127941833.748 9     -3155.146 9        54.458 9  24346533.952 6         0.000 6     -2458.558 6        37.977 6
G27  21967466.363 9 115439788.106 9      2502.173 9        55.389 9  21967468.282 6         0.000 6      1949.746 6        37.977 6
G16  20488877.597 9 107669758.180 9       519.969 9        55.980 9  20488876.770 6         0.000 6       405.171 6        37.977 6
G26  20675969.626 9 108652931.325 9     -1524.093 9        55.864 9  20675972.451 6         0.000 6     -1187.606 6        37.977 6
G20  21908188.121 9 115128272.865 9      2517.683 9        55.330 9  21908188.422 6         0.000 6      1961.832 6        37.977 6
> 2019 07 03 12 02 16.0000000  0  8       0.000000000000
G07  25314625.785 9 133029210.552 9      2164.835 9        54.143 9  25314626.437 6         0.000 6      1686.886 6        37.977 6
G10  23758677.814 9 124852640.734 9      3509.689 9        54.688 9  23758681.491 6         0.000 6      2734.826 6        37.977 6
G21  21189950.288 9 111353919.614 9     -1289.258 9        55.701 9  21189949.577 6         0.000 6     -1004.617 6        37.977 6
G29  24347132.741 9 127944988.926 9     -3155.231 9        54.458 9  24347134.365 6         0.000 6     -2458.624 6        37.977 6
G27  21966990.238 9 115437286.059 9      2501.928 9        55.389 9  21966992.158 6         0.000 6      1949.555 6        37.977 6
G16  20488778.710 9 107669238.521 9       519.347 9        55.980 9  20488777.882 6         0.000 6       404.686 6        37.977 6
G26  20676259.706 9 108654455.703 9     -1524.667 9        55.864 9  20676262.531 6         0.000 6     -1188.053 6        37.977 6
G20  21907709.065 9 115125755.413 9      2517.231 9        55.330 9  21907709.365 6         0.000 6      1961.480 6        37.977 6
> 2019 07 03 12 02 17.0000000  0  8       0.000000000000
G07  25314213.874 9 133027045.951 9      2164.375 9        54.143 9  25314214.527 6         0.000 6      1686.527 6        37.977 6
G10  23758009.956 9 124849131.128 9      3509.543 9        54.688 9  23758013.633 6         0.000 6      2734.711 6        37.977 6
G21  21190195.660 9 111355209.052 9     -1289.620 9        55.701 9  21190194.949 6         0.000 6     -1004.899 6        37.977 6
G29  24347733.170 9 127948144.190 9     -3155.316 9        54.458 9  24347734.794 6         0.000 6     -2458.690 6        37.977 6
G27  21966514.160 9 115434784.256 9      2501.683 9        55.389 9  21966516.080 6         0.000 6      1949.364 6        37.977 6
G16  20488679.940 9 107668719.485 9       518.725 9        55.980 9  20488679.113 6         0.000 6       404.202 6        37.977 6
G26  20676549.895 9 108655980.656 9     -1525.242 9        55.864 9  20676552.720 6         0.000 6     -1188.500 6        37.977 6
G20  21907230.095 9 115123238.411 9      2516.780 9        55.330 9  21907230.395 6         0.000 6      1961.128 6        37.977 6
> 2019 07 03 12 02 18.0000000  0  8       0.000000000000
G07  25313802.051 9 133024881.810 9      2163.914 9        54.143 9  25313802.703 6         0.000 6      1686.168 6        37.977 6
G10  23757342.127 9 124845621.669 9      3509.396 9        54.688 9  23757345.802 6         0.000 6      2734.597 6        37.977 6
G21  21190441.101 9 111356498.852 9     -1289.981 9        55.701 9  21190440.390 6         0.000 6     -1005.180 6        37.977 6
G29  24348333.615 9 127951299.538 9     -3155.401 9        54.458 9  24348335.239 6         0.000 6     -2458.757 6        37.977 6
G27  21966038.129 9 115432282.698 9      2501.438 9        55.390 9  21966040.048 6         0.000 6      1949.173 6        37.977 6
G16  20488581.289 9 107668201.071 9       518.103 9        55.980 9  20488580.462 6         0.000 6       403.717 6        37.977 6
G26  20676840.194 9 108657506.183 9     -1525.816 9        55.864 9  20676843.019 6         0.000 6     -1188.948 6        37.977 6
G20  21906751.210 9 115120721.862 9      2516.329 9        55.330 9  21906751.510 6         0.000 6      1960.777 6        37.977 6
> 2019 07 03 12 02 19.0000000  0  8       0.000000000000
G07  25313390.316 9 133022718.130 9      2163.453 9        54.143 9  25313390.968 6         0.000 6      1685.808 6        37.977 6
G10  23756674.325 9 124842112.357 9      3509.249 9        54.689 9  23756678.000 6         0.000 6      2734.483 6        37.977 6
G21  21190686.611 9 111357789.013 9     -1290.342 9        55.701 9  21190685.900 6         0.000 6     -1005.462 6        37.977 6
G29  24348934.076 9 127954454.970 9     -3155.486 9        54.457 9  24348935.701 6         0.000 6     -2458.823 6        37.977 6
G27  21965562.145 9 115429781.386 9      2501.193 9        55.390 9  21965564.064 6         0.000 6      1948.982 6        37.977 6
G16  20488482.757 9 107667683.279 9       517.481 9        55.980 9  20488481.930 6         0.000 6       403.232 6        37.977 6
G26  20677130.602 9 108659032.284 9     -1526.390 9        55.864 9  20677133.427 6         0.000 6     -1189.395 6        37.977 6
G20  21906272.412 9 115118205.763 9      2515.877 9        55.330 9  21906272.711 6         0.000 6      1960.425 6        37.977 6
> 2019 07 03 12 02 20.0000000  0  8       0.000000000000
G07  25312978.668 9 133020554.911 9      2162.992 9        54.143 9  25312979.320 6         0.000 6      1685.449 6        37.977 6
G10  23756006.551 9 124838603.192 9      3509.103 9        54.689 9  23756010.225 6         0.000 6      2734.368 6        37.977 6
G21  21190932.189 9 111359079.535 9     -1290.704 9        55.701 9  21190931.478 6         0.000 6     -1005.743 6        37.977 6
G29  24349534.553 9 127957610.488 9     -3155.570 9        54.457 9  24349536.179 6         0.000 6     -2458.889 6        37.977 6
G27  21965086.207 9 115427280.319 9      2500.947 9        55.390 9  21965088.126 6         0.000 6      1948.791 6        37.977 6
G16  20488384.343 9 107667166.109 9       516.859 9        55.980 9  20488383.515 6         0.000 6       402.747 6        37.977 6
G26  20677421.119 9 108660558.959 9     -1526.964 9        55.863 9  20677423.944 6         0.000 6     -1189.843 6        37.977 6
G20  21905793.699 9 115115690.116 9      2515.425 9        55.331 9  21905793.999 6         0.000 6      1960.073 6        37.977 6
> 2019 07 03 12 02 21.0000000  0  8       0.000000000000
G07  25312567.108 9 133018392.153 9      2162.531 9        54.143 9  25312567.760 6         0.000 6      1685.090 6        37.977 6
G10  23755338.805 9 124835094.173 9      3508.956 9        54.689 9  23755342.478 6         0.000 6      2734.254 6        37.977 6
G21  21191177.836 9 111360370.418 9     -1291.065 9        55.701 9  21191177.125 6         0.000 6     -1006.025 6        37.977 6
G29  24350135.046 9 127960766.090 9     -3155.655 9        54.457 9  24350136.672 6         0.000 6     -2458.955 6        37.977 6
G27  21964610.316 9 115424779.496 9      2500.702 9        55.390 9  21964612.235 6         0.000 6      1948.600 6        37.977 6
G16  20488286.047 9 107666649.561 9       516.237 9        55.980 9  20488285.220 6         0.000 6       402.262 6        37.977 6
G26  20677711.745 9 108662086.208 9     -1527.538 9        55.863 9  20677714.570 6         0.000 6     -1190.290 6        37.977 6
G20  21905315.073 9 115113174.921 9      2514.974 9        55.331 9  21905315.372 6         0.000 6      1959.721 6        37.977 6
> 2019 07 03 12 02 22.0000000  0  8       0.000000000000
G07  25312155.636 9 133016229.856 9      2162.070 9        54.143 9  25312156.288 6         0.000 6      1684.731 6        37.977 6
G10  23754671.087 9 124831585.302 9      3508.808 9        54.689 9  23754674.760 6         0.000 6      2734.139 6        37.977 6
G21  21191423.552 9 111361661.663 9     -1291.426 9        55.701 9  21191422.841 6         0.000 6     -1006.306 6        37.977 6
G29  24350735.555 9 127963921.777 9     -3155.740 9        54.457 9  24350737.182 6         0.000 6     -2459.021 6        37.977 6
G27  21964134.471 9 115422278.919 9      2500.457 9        55.390 9  21964136.390 6         0.000 6      1948.409 6        37.977 6
G16  20488187.870 9 107666133.635 9       515.614 9        55.980 9  20488187.042 6         0.000 6       401.777 6        37.977 6
G26  20678002.480 9 108663614.032 9     -1528.112 9        55.863 9  20678005.305 6         0.000 6     -1190.737 6        37.977 6
G20  21904836.532 9 115110660.178 9      2514.522 9        55.331 9  21904836.831 6         0.000 6      1959.369 6        37.977 6
> 2019 07 03 12 02 23.0000000  0  8       0.000000000000
G07  25311744.252 9 133014068.020 9      2161.609 9        54.144 9  25311744.903 6         0.000 6      1684.372 6        37.977 6
G10  23754003.397 9 124828076.577 9      3508.661 9        54.690 9  23754007.069 6         0.000 6      2734.024 6        37.977 6
G21  21191669.336 9 111362953.268 9     -1291.787 9        55.701 9  21191668.626 6         0.000 6     -1006.587 6        37.977 6
G29  24351336.080 9 127967077.549 9     -3155.825 9        54.457 9  24351337.708 6         0.000 6     -2459.087 6        37.977 6
G27  21963658.674 9 115419778.588 9      2500.212 9        55.390 9  21963660.592 6         0.000 6      1948.218 6        37.977 6
G16  20488089.811 9 107665618.332 9       514.992 9        55.980 9  20488088.983 6         0.000 6       401.292 6        37.977 6
G26  20678293.325 9 108665142.429 9     -1528.686 9        55.863 9  20678296.150 6         0.000 6     -1191.184 6        37.977 6
G20  21904358.078 9 115108145.887 9      2514.070 9        55.331 9  21904358.376 6         0.000 6      1959.016 6        37.977 6
> 2019 07 03 12 02 24.0000000  0  8       0.000000000000
G07  25311332.955 9 133011906.645 9      2161.148 9        54.144 9  25311333.606 6         0.000 6      1684.012 6        37.977 6
G10  23753335.735 9 124824568.000 9      3508.514 9        54.690 9  23753339.406 6         0.000 6      2733.910 6        37.977 6
G21  21191915.189 9 111364245.235 9     -1292.148 9        55.701 9  21191914.479 6         0.000 6     -1006.869 6        37.977 6
G29  24351936.622 9 127970233.406 9     -3155.909 9        54.456 9  24351938.250 6         0.000 6     -2459.153 6        37.977 6
G27  21963182.922 9 115417278.501 9      2499.966 9        55.391 9  21963184.841 6         0.000 6      1948.027 6        37.977 6
G16  20487991.870 9 107665103.652 9       514.370 9        55.980 9  20487991.043 6         0.000 6       400.808 6        37.977 6
G26  20678584.279 9 108666671.400 9     -1529.260 9        55.863 9  20678587.104 6         0.000 6     -1191.632 6        37.977 6
G20  21903879.709 9 115105632.048 9      2513.618 9        55.331 9  21903880.007 6         0.000 6      1958.664 6        37.977 6
> 2019 07 03 12 02 25.0000000  0  8       0.000000000000
G07  25310921.746 9 133009745.731 9      2160.687 9        54.144 9  25310922.397 6         0.000 6      1683.653 6        37.977 6
G10  23752668.101 9 124821059.570 9      3508.367 9        54.690 9  23752671.772 6         0.000 6      2733.795 6        37.977 6
G21  21192161.111 9 111365537.562 9     -1292.509 9        55.700 9  21192160.401 6         0.000 6     -1007.150 6        37.977 6
G29  24352537.179 9 127973389.347 9     -3155.994 9        54.456 9  24352538.809 6         0.000 6     -2459.219 6        37.977 6
G27  21962707.218 9 115414778.660 9      2499.721 9        55.391 9  21962709.136 6         0.000 6      1947.835 6        37.977 6
G16  20487894.048 9 107664589.593 9       513.747 9        55.981 9  20487893.221 6         0.000 6       400.323 6        37.977 6
G26  20678875.342 9 108668200.945 9     -1529.834 9        55.863 9  20678878.167 6         0.000 6     -1192.079 6        37.977 6
G20  21903401.427 9 115103118.660 9      2513.166 9        55.332 9  21903401.725 6         0.000 6      1958.312 6        37.977 6
> 2019 07 03 12 02 26.0000000  0  8       0.000000000000
G07  25310510.625 9 133007585.278 9      2160.225 9        54.144 9  25310511.276 6         0.000 6      1683.293 6        37.977 6
G10  23752000.495 9 124817551.288 9      3508.219 9        54.690 9  23752004.165 6         0.000 6      2733.680 6        37.977 6
G21  21192407.102 9 111366830.251 9     -1292.870 9        55.700 9  21192406.391 6         0.000 6     -1007.431 6        37.977 6
G29  24353137.753 9 127976545.372 9     -3156.078 9        54.456 9  24353139.383 6         0.000 6     -2459.285 6        37.977 6
G27  21962231.560 9 115412279.064 9      2499.476 9        55.391 9  21962233.478 6         0.000 6      1947.644 6        37.977 6
G16  20487796.344 9 107664076.157 9       513.125 9        55.981 9  20487795.517 6         0.000 6       399.838 6        37.977 6
G26  20679166.514 9 108669731.064 9     -1530.408 9        55.863 9  20679169.340 6         0.000 6     -1192.526 6        37.977 6
G20  21902923.230 9 115100605.725 9      2512.713 9        55.332 9  21902923.528 6         0.000 6      1957.960 6        37.977 6
> 2019 07 03 12 02 27.0000000  0  8       0.000000000000
G07  25310099.592 9 133005425.287 9      2159.764 9        54.144 9  25310100.242 6         0.000 6      1682.934 6        37.977 6
G10  23751332.917 9 124814043.153 9      3508.071 9        54.691 9  23751336.587 6         0.000 6      2733.565 6        37.977 6
G21  21192653.161 9 111368123.300 9     -1293.230 9        55.700 9  21192652.451 6         0.000 6     -1007.712 6        37.977 6
G29  24353738.343 9 127979701.483 9     -3156.163 9        54.456 9  24353739.974 6         0.000 6     -2459.350 6        37.977 6
G27  21961755.949 9 115409779.714 9      2499.230 9        55.391 9  21961757.867 6         0.000 6      1947.453 6        37.977 6
G16  20487698.759 9 107663563.343 9       512.502 9        55.981 9  20487697.932 6         0.000 6       399.353 6        37.977 6
G26  20679457.796 9 108671261.757 9     -1530.982 9        55.863 9  20679460.621 6         0.000 6     -1192.973 6        37.977 6
G20  21902445.120 9 115098093.243 9      2512.261 9        55.332 9  21902445.417 6         0.000 6      1957.607 6        37.977 6
> 2019 07 03 12 02 28.0000000  0  8       0.000000000000
G07  25309688.646 9 133003265.758 9      2159.302 9        54.144 9  25309689.296 6         0.000 6      1682.574 6        37.977 6
G10  23750665.367 9 124810535.166 9      3507.924 9        54.691 9  23750669.036 6         0.000 6      2733.450 6        37.977 6
G21  21192899.289 9 111369416.710 9     -1293.591 9        55.700 9  21192898.578 6         0.000 6     -1007.993 6        37.977 6
G29  24354338.949 9 127982857.677 9     -3156.248 9        54.455 9  24354340.580 6         0.000 6     -2459.416 6        37.977 6
G27  21961280.385 9 115407280.609 9      2498.985 9        55.391 9  21961282.302 6         0.000 6      1947.262 6        37.977 6
G16  20487601.293 9 107663051.152 9       511.880 9        55.981 9  20487600.465 6         0.000 6       398.867 6        37.977 6
G26  20679749.186 9 108672793.023 9     -1531.555 9        55.862 9  20679752.012 6         0.000 6     -1193.420 6        37.977 6
G20  21901967.095 9 115095581.212 9      2511.809 9        55.332 9  21901967.393 6         0.000 6      1957.255 6        37.977 6
> 2019 07 03 12 02 29.0000000  0  8       0.000000000000
G07  25309277.789 9 133001106.690 9      2158.841 9        54.144 9  25309278.439 6         0.000 6      1682.214 6        37.977 6
G10  23749997.845 9 124807027.326 9      3507.776 9        54.691 9  23750001.514 6         0.000 6      2733.335 6        37.977 6
G21  21193145.486 9 111370710.480 9     -1293.952 9        55.700 9  21193144.775 6         0.000 6     -1008.274 6        37.977 6
G29  24354939.571 9 127986013.957 9     -3156.332 9        54.455 9  24354941.203 6         0.000 6     -2459.482 6        37.977 6
G27  21960804.867 9 115404781.750 9      2498.739 9        55.392 9  21960806.784 6         0.000 6      1947.070 6        37.977 6
G16  20487503.944 9 107662539.584 9       511.257 9        55.981 9  20487503.117 6         0.000 6       398.382 6        37.977 6
G26  20680040.686 9 108674324.864 9     -1532.129 9        55.862 9  20680043.512 6         0.000 6     -1193.867 6        37.977 6
G20  21901489.157 9 115093069.634 9      2511.356 9        55.332 9  21901489.454 6         0.000 6      1956.902 6        37.977 6
> 2019 07 03 12 02 30.0000000  0  8       0.000000000000
G07  25308867.019 9 132998948.083 9      2158.379 9        54.145 9  25308867.669 6         0.000 6      1681.855 6        37.977 6
G10  23749330.352 9 124803519.635 9      3507.628 9        54.691 9  23749334.020 6         0.000 6      2733.219 6        37.977 6
G21  21193391.751 9 111372004.612 9     -1294.312 9        55.700 9  21193391.040 6         0.000 6     -1008.555 6        37.977 6
G29  24355540.209 9 127989170.321 9     -3156.417 9        54.455 9  24355541.841 6         0.000 6     -2459.548 6        37.977 6
G27  21960329.396 9 115402283.136 9      2498.494 9        55.392 9  21960331.313 6         0.000 6      1946.879 6        37.977 6
G16  20487406.714 9 107662028.638 9       510.635 9        55.981 9  20487405.887 6         0.000 6       397.897 6        37.977 6
G26  20680332.295 9 108675857.278 9     -1532.703 9        55.862 9  20680335.121 6         0.000 6     -1194.314 6        37.977 6
G20  21901011.305 9 115090558.509 9      2510.903 9        55.332 9  21901011.602 6         0.000 6      1956.549 6        37.977 6
> 2019 07 03 12 02 31.0000000  0  8       0.000000000000
G07  25308456.337 9 132996789.938 9      2157.917 9        54.145 9  25308456.986 6         0.000 6      1681.495 6        37.977 6
G10  23748662.887 9 124800012.091 9      3507.480 9        54.692 9  23748666.554 6         0.000 6      2733.104 6        37.977 6
G21  21193638.084 9 111373299.104 9     -1294.673 9        55.700 9  21193637.374 6         0.000 6     -1008.836 6        37.977 6
G29  24356140.863 9 127992326.769 9     -3156.501 9        54.455 9  24356142.496 6         0.000 6     -2459.614 6        37.977 6
G27  21959853.972 9 115399784.768 9      2498.248 9        55.392 9  21959855.889 6         0.000 6      1946.688 6        37.977 6
G16  20487309.603 9 107661518.314 9       510.012 9        55.981 9  20487308.776 6         0.000 6       397.412 6        37.977 6
G26  20680624.014 9 108677390.266 9     -1533.276 9        55.862 9  20680626.840 6         0.000 6     -1194.761 6        37.977 6
G20  21900533.539 9 115088047.836 9      2510.451 9        55.333 9  21900533.836 6         0.000 6      1956.196 6        37.977 6
> 2019 07 03 12 02 32.0000000  0  8       0.000000000000
G07  25308045.743 9 132994632.255 9      2157.456 9        54.145 9  25308046.392 6         0.000 6      1681.135 6        37.977 6
G10  23747995.449 9 124796504.696 9      3507.332 9        54.692 9  23747999.116 6         0.000 6      2732.988 6        37.977 6
G21  21193884.487 9 111374593.956 9     -1295.033 9        55.700 9  21193883.776 6         0.000 6     -1009.117 6        37.977 6
G29  24356741.533 9 127995483.302 9     -3156.586 9        54.455 9  24356743.167 6         0.000 6     -2459.680 6        37.977 6
G27  21959378.595 9 115397286.645 9      2498.003 9        55.392 9  21959380.511 6         0.000 6      1946.496 6        37.977 6
G16  20487212.610 9 107661008.613 9       509.389 9        55.981 9  20487211.783 6         0.000 6       396.927 6        37.977 6
G26  20680915.841 9 108678923.827 9     -1533.850 9        55.862 9  20680918.667 6         0.000 6     -1195.208 6        37.977 6
G20  21900055.859 9 115085537.616 9      2509.998 9        55.333 9  21900056.155 6         0.000 6      1955.844 6        37.977 6
> 2019 07 03 12 02 33.0000000  0  8       0.000000000000
G07  25307635.236 9 132992475.034 9      2156.994 9        54.145 9  25307635.886 6         0.000 6      1680.775 6        37.977 6
G10  23747328.040 9 124792997.449 9      3507.184 9        54.692 9  23747331.706 6         0.000 6      2732.873 6        37.977 6
G21  21194130.958 9 111375889.169 9     -1295.394 9        55.700 9  21194130.247 6         0.000 6     -1009.398 6        37.977 6
G29  24357342.220 9 127998639.919 9     -3156.670 9        54.454 9  24357343.854 6         0.000 6     -2459.746 6        37.977 6
G27  21958903.264 9 115394788.768 9      2497.757 9        55.392 9  21958905.181 6         0.000 6      1946.305 6        37.977 6
G16  20487115.736 9 107660499.535 9       508.767 9        55.981 9  20487114.909 6         0.000 6       396.442 6        37.977 6
G26  20681207.777 9 108680457.962 9     -1534.424 9        55.862 9  20681210.604 6         0.000 6     -1195.655 6        37.977 6
G20  21899578.266 9 115083027.849 9      2509.545 9        55.333 9  21899578.562 6         0.000 6      1955.491 6        37.977 6
> 2019 07 03 12 02 34.0000000  0  8       0.000000000000
G07  25307224.818 9 132990318.275 9      2156.532 9        54.145 9  25307225.467 6         0.000 6      1680.415 6        37.977 6
G10  23746660.660 9 124789490.350 9      3507.035 9        54.692 9  23746664.325 6         0.000 6      2732.757 6        37.977 6
G21  21194377.497 9 111377184.743 9     -1295.754 9        55.700 9  21194376.787 6         0.000 6     -1009.679 6        37.977 6
G29  24357942.922 9 128001796.621 9     -3156.754 9        54.454 9  24357944.557 6         0.000 6     -2459.811 6        37.977 6
G27  21958427.980 9 115392291.137 9      2497.511 9        55.393 9  21958429.896 6         0.000 6      1946.113 6        37.977 6
G16  20487018.980 9 107659991.080 9       508.144 9        55.981 9  20487018.153 6         0.000 6       395.956 6        37.977 6
G26  20681499.823 9 108681992.671 9     -1534.997 9        55.862 9  20681502.650 6         0.000 6     -1196.102 6        37.977 6
G20  21899100.758 9 115080518.535 9      2509.092 9        55.333 9  21899101.054 6         0.000 6      1955.138 6        37.977 6
> 2019 07 03 12 02 35.0000000  0  8       0.000000000000
G07  25306814.488 9 132988161.978 9      2156.070 9        54.145 9  25306815.136 6         0.000 6      1680.055 6        37.977 6
G10  23745993.307 9 124785983.399 9      3506.887 9        54.693 9  23745996.972 6         0.000 6      2732.642 6        37.977 6
G21  21194624.105 9 111378480.676 9     -1296.115 9        55.699 9  21194623.395 6         0.000 6     -1009.960 6        37.977 6
G29  24358543.640 9 128004953.407 9     -3156.839 9        54.454 9  24358545.276 6         0.000 6     -2459.877 6        37.977 6
G27  21957952.743 9 115389793.751 9      2497.265 9        55.393 9  21957954.659 6         0.000 6      1945.922 6        37.977 6
G16  20486922.343 9 107659483.247 9       507.521 9        55.981 9  20486921.515 6         0.000 6       395.471 6        37.977 6
G26  20681791.978 9 108683527.953 9     -1535.571 9        55.862 9  20681794.805 6         0.000 6     -1196.549 6        37.977 6
G20  21898623.337 9 115078009.674 9      2508.639 9        55.333 9  21898623.632 6         0.000 6      1954.785 6        37.977 6
> 2019 07 03 12 02 36.0000000  0  8       0.000000000000
G07  25306404.245 9 132986006.142 9      2155.608 9        54.145 9  25306404.894 6         0.000 6      1679.695 6        37.977 6
G10  23745325.983 9 124782476.597 9      3506.738 9        54.693 9  23745329.647 6         0.000 6      2732.526 6        37.977 6
G21  21194870.782 9 111379776.971 9     -1296.475 9        55.699 9  21194870.072 6         0.000 6     -1010.240 6        37.977 6
G29  24359144.375 9 128008110.278 9     -3156.923 9        54.454 9  24359146.011 6         0.000 6     -2459.943 6        37.977 6
G27  21957477.552 9 115387296.611 9      2497.020 9        55.393 9  21957479.468 6         0.000 6      1945.730 6        37.977 6
G16  20486825.824 9 107658976.037 9       506.899 9        55.981 9  20486824.997 6         0.000 6       394.986 6        37.977 6
G26  20682084.242 9 108685063.809 9     -1536.144 9        55.862 9  20682087.069 6         0.000 6     -1196.996 6        37.977 6
G20  21898146.002 9 115075501.266 9      2508.186 9        55.334 9  21898146.297 6         0.000 6      1954.432 6        37.977 6
> 2019 07 03 12 02 37.0000000  0  8       0.000000000000
G07  25305994.091 9 132983850.769 9      2155.146 9        54.146 9  25305994.739 6         0.000 6      1679.335 6        37.977 6
G10  23744658.687 9 124778969.943 9      3506.590 9        54.693 9  23744662.350 6         0.000 6      2732.410 6        37.977 6
G21  21195117.527 9 111381073.625 9     -1296.835 9        55.699 9  21195116.817 6         0.000 6     -1010.521 6        37.977 6
G29  24359745.125 9 128011267.233 9     -3157.008 9        54.454 9  24359746.762 6         0.000 6     -2460.009 6        37.977 6
G27  21957002.409 9 115384799.717 9      2496.774 9        55.393 9  21957004.325 6         0.000 6      1945.539 6        37.977 6
G16  20486729.424 9 107658469.450 9       506.276 9        55.981 9  20486728.596 6         0.000 6       394.501 6        37.977 6
G26  20682376.615 9 108686600.238 9     -1536.718 9        55.861 9  20682379.442 6         0.000 6     -1197.443 6        37.977 6
G20  21897668.753 9 115072993.311 9      2507.733 9        55.334 9  21897669.048 6         0.000 6      1954.078 6        37.977 6
> 2019 07 03 12 02 38.0000000  0  8       0.000000000000
G07  25305584.024 9 132981695.859 9      2154.683 9        54.146 9  25305584.672 6         0.000 6      1678.975 6        37.977 6
G10  23743991.419 9 124775463.438 9      3506.441 9        54.693 9  23743995.082 6         0.000 6      2732.294 6        37.977 6
G21  21195364.341 9 111382370.640 9     -1297.195 9        55.699 9  21195363.631 6         0.000 6     -1010.802 6        37.977 6
G29  24360345.892 9 128014424.272 9     -3157.092 9        54.453 9  24360347.530 6         0.000 6     -2460.074 6        37.977 6
G27  21956527.312 9 115382303.069 9      2496.528 9        55.393 9  21956529.228 6         0.000 6      1945.347 6        37.977 6
G16  20486633.142 9 107657963.486 9       505.653 9        55.981 9  20486632.314 6         0.000 6       394.015 6        37.977 6
G26  20682669.097 9 108688137.240 9     -1537.291 9        55.861 9  20682671.924 6         0.000 6     -1197.890 6        37.977 6
G20  21897191.591 9 115070485.810 9      2507.279 9        55.334 9  21897191.885 6         0.000 6      1953.725 6        37.977 6
> 2019 07 03 12 02 39.0000000  0  8       0.000000000000
G07  25305174.046 9 132979541.410 9      2154.221 9        54.146 9  25305174.693 6         0.000 6      1678.615 6        37.977 6
G10  23743324.180 9 124771957.082 9      3506.292 9        54.694 9  23743327.842 6         0.000 6      2732.178 6        37.977 6
G21  21195611.224 9 111383668.014 9     -1297.556 9        55.699 9  21195610.514 6         0.000 6     -1011.082 6        37.977 6
G29  24360946.675 9 128017581.396 9     -3157.176 9        54.453 9  24360948.313 6         0.000 6     -2460.140 6        37.977 6
G27  21956052.262 9 115379806.666 9      2496.282 9        55.394 9  21956054.177 6         0.000 6      1945.156 6        37.977 6
G16  20486536.978 9 107657458.144 9       505.030 9        55.981 9  20486536.151 6         0.000 6       393.530 6        37.977 6
G26  20682961.689 9 108689674.816 9     -1537.864 9        55.861 9  20682964.516 6         0.000 6     -1198.336 6        37.977 6
G20  21896714.514 9 115067978.761 9      2506.826 9        55.334 9  21896714.809 6         0.000 6      1953.372 6        37.977 6
> 2019 07 03 12 02 40.0000000  0  8       0.000000000000
G07  25304764.155 9 132977387.424 9      2153.759 9        54.146 9  25304764.803 6         0.000 6      1678.254 6        37.977 6
G10  23742656.969 9 124768450.875 9      3506.143 9        54.694 9  23742660.631 6         0.000 6      2732.062 6        37.977 6
G21  21195858.174 9 111384965.749 9     -1297.916 9        55.699 9  21195857.465 6         0.000 6     -1011.363 6        37.977 6
G29  24361547.473 9 128020738.604 9     -3157.260 9        54.453 9  24361549.112 6         0.000 6     -2460.206 6        37.977 6
G27  21955577.258 9 115377310.510 9      2496.036 9        55.394 9  21955579.174 6         0.000 6      1944.964 6        37.977 6
G16  20486440.934 9 107656953.426 9       504.407 9        55.981 9  20486440.106 6         0.000 6       393.044 6        37.977 6
G26  20683254.389 9 108691212.965 9     -1538.438 9        55.861 9  20683257.216 6         0.000 6     -1198.783 6        37.977 6
G20  21896237.525 9 115065472.167 9      2506.372 9        55.334 9  21896237.818 6         0.000 6      1953.018 6        37.977 6
> 2019 07 03 12 02 41.0000000  0  8       0.000000000000
G07  25304354.352 9 132975233.900 9      2153.296 9        54.146 9  25304355.000 6         0.000 6      1677.894 6        37.977 6
G10  23741989.786 9 124764944.817 9      3505.994 9        54.694 9  23741993.447 6         0.000 6      2731.946 6        37.977 6
G21  21196105.194 9 111386263.844 9     -1298.276 9        55.699 9  21196104.484 6         0.000 6     -1011.644 6        37.977 6
G29  24362148.288 9 128023895.896 9     -3157.345 9        54.453 9  24362149.928 6         0.000 6     -2460.271 6        37.977 6
G27  21955102.302 9 115374814.599 9      2495.790 9        55.394 9  21955104.217 6         0.000 6      1944.772 6        37.977 6
G16  20486345.008 9 107656449.330 9       503.784 9        55.981 9  20486344.180 6         0.000 6       392.559 6        37.977 6
G26  20683547.199 9 108692751.688 9     -1539.011 9        55.861 9  20683550.026 6         0.000 6     -1199.230 6        37.977 6
G20  21895760.621 9 115062966.026 9      2505.919 9        55.335 9  21895760.915 6         0.000 6      1952.665 6        37.977 6
> 2019 07 03 12 02 42.0000000  0  8       0.000000000000
G07  25303944.638 9 132973080.839 9      2152.834 9        54.146 9  25303945.285 6         0.000 6      1677.533 6        37.977 6
G10  23741322.632 9 124761438.908 9      3505.845 9        54.694 9  23741326.292 6         0.000 6      2731.830 6        37.977 6
G21  21196352.282 9 111387562.299 9     -1298.636 9        55.699 9  21196351.572 6         0.000 6     -1011.924 6        37.977 6
G29  24362749.119 9 128027053.272 9     -3157.429 9        54.452 9  24362750.759 6         0.000 6     -2460.337 6        37.977 6
G27  21954627.392 9 115372318.935 9      2495.544 9        55.394 9  21954629.307 6         0.000 6      1944.581 6        37.977 6
G16  20486249.200 9 107655945.858 9       503.161 9        55.981 9  20486248.373 6         0.000 6       392.074 6        37.977 6
G26  20683840.117 9 108694290.984 9     -1539.584 9        55.861 9  20683842.945 6         0.000 6     -1199.677 6        37.977 6
G20  21895283.804 9 115060460.338 9      2505.465 9        55.335 9  21895284.097 6         0.000 6      1952.311 6        37.977 6
> 2019 07 03 12 02 43.0000000  0  8       0.000000000000
G07  25303535.011 9 132970928.240 9      2152.371 9        54.146 9  25303535.658 6         0.000 6      1677.173 6        37.977 6
G10  23740655.506 9 124757933.149 9      3505.695 9        54.694 9  23740659.166 6         0.000 6      2731.713 6        37.977 6
G21  21196599.438 9 111388861.114 9     -1298.996 9        55.699 9  21196598.728 6         0.000 6     -1012.205 6        37.977 6
G29  24363349.965 9 128030210.733 9     -3157.513 9        54.452 9  24363351.606 6         0.000 6     -2460.402 6        37.977 6
G27  21954152.529 9 115369823.516 9      2495.298 9        55.394 9  21954154.444 6         0.000 6      1944.389 6        37.977 6
G16  20486153.511 9 107655443.008 9       502.538 9        55.981 9  20486152.684 6         0.000 6       391.588 6        37.977 6
G26  20684133.145 9 108695830.853 9     -1540.158 9        55.861 9  20684135.972 6         0.000 6     -1200.123 6        37.977 6
G20  21894807.073 9 115057955.105 9      2505.011 9        55.335 9  21894807.366 6         0.000 6      1951.958 6        37.977 6
> 2019 07 03 12 02 44.0000000  0  8       0.000000000000
G07  25303125.473 9 132968776.104 9      2151.908 9        54.147 9  25303126.119 6         0.000 6      1676.812 6        37.977 6
G10  23739988.409 9 124754427.538 9      3505.546 9        54.695 9  23739992.068 6         0.000 6      2731.597 6        37.977 6
G21  21196846.663 9 111390160.289 9     -1299.355 9        55.699 9  21196845.953 6         0.000 6     -1012.485 6        37.977 6
G29  24363950.828 9 128033368.277 9     -3157.597 9        54.452 9  24363952.470 6         0.000 6     -2460.468 6        37.977 6
G27  21953677.713 9 115367328.344 9      2495.052 9        55.394 9  21953679.628 6         0.000 6      1944.197 6        37.977 6
G16  20486057.940 9 107654940.782 9       501.915 9        55.981 9  20486057.113 6         0.000 6       391.102 6        37.977 6
G26  20684426.282 9 108697371.295 9     -1540.731 9        55.861 9  20684429.109 6         0.000 6     -1200.570 6        37.977 6
G20  21894330.428 9 115055450.325 9      2504.557 9        55.335 9  21894330.721 6         0.000 6      1951.604 6        37.977 6
> 2019 07 03 12 02 45.0000000  0  8       0.000000000000
G07  25302716.022 9 132966624.431 9      2151.445 9        54.147 9  25302716.669 6         0.000 6      1676.452 6        37.977 6
G10  23739321.340 9 124750922.077 9      3505.397 9        54.695 9  23739324.998 6         0.000 6      2731.480 6        37.977 6
G21  21197093.956 9 111391459.823 9     -1299.715 9        55.698 9  21197093.247 6         0.000 6     -1012.765 6        37.977 6
G29  24364551.707 9 128036525.906 9     -3157.681 9        54.452 9  24364553.349 6         0.000 6     -2460.534 6        37.977 6
G27  21953202.944 9 115364833.418 9      2494.806 9        55.395 9  21953204.859 6         0.000 6      1944.005 6        37.977 6
G16  20485962.488 9 107654439.179 9       501.292 9        55.981 9  20485961.661 6         0.000 6       390.617 6        37.977 6
G26  20684719.527 9 108698912.311 9     -1541.304 9        55.860 9  20684722.355 6         0.000 6     -1201.016 6        37.977 6
G20  21893853.870 9 115052945.999 9      2504.103 9        55.335 9  21893854.163 6         0.000 6      1951.250 6        37.977 6
> 2019 07 03 12 02 46.0000000  0  8       0.000000000000
G07  25302306.660 9 132964473.220 9      2150.983 9        54.147 9  25302307.306 6         0.000 6      1676.091 6        37.977 6
G10  23738654.299 9 124747416.766 9      3505.247 9        54.695 9  23738657.957 6         0.000 6      2731.364 6        37.977 6
G21  21197341.318 9 111392759.718 9     -1300.075 9        55.698 9  21197340.608 6         0.000 6     -1013.046 6        37.977 6
G29  24365152.602 9 128039683.619 9     -3157.766 9        54.452 9  24365154.245 6         0.000 6     -2460.599 6        37.977 6
G27  21952728.222 9 115362338.738 9      2494.560 9        55.395 9  21952730.136 6         0.000 6      1943.813 6        37.977 6
G16  20485867.155 9 107653938.199 9       500.669 9        55.981 9  20485866.328 6         0.000 6       390.131 6        37.977 6
G26  20685012.882 9 108700453.899 9     -1541.877 9        55.860 9  20685015.710 6         0.000 6     -1201.463 6        37.977 6
G20  21893377.398 9 115050442.127 9      2503.649 9        55.335 9  21893377.690 6         0.000 6      1950.896 6        37.977 6
> 2019 07 03 12 02 47.0000000  0  8       0.000000000000
G07  25301897.385 9 132962322.473 9      2150.520 9        54.147 9  25301898.032 6         0.000 6      1675.730 6        37.977 6
G10  23737987.287 9 124743911.604 9      3505.097 9        54.695 9  23737990.944 6         0.000 6      2731.247 6        37.977 6
G21  21197588.748 9 111394059.972 9     -1300.435 9        55.698 9  21197588.039 6         0.000 6     -1013.326 6        37.977 6
G29  24365753.513 9 128042841.416 9     -3157.850 9        54.451 9  24365755.156 6         0.000 6     -2460.665 6        37.977 6
G27  21952253.546 9 115359844.304 9      2494.314 9        55.395 9  21952255.461 6         0.000 6      1943.622 6        37.977 6
G16  20485771.940 9 107653437.842 9       500.045 9        55.981 9  20485771.113 6         0.000 6       389.646 6        37.977 6
G26  20685306.346 9 108701996.061 9     -1542.450 9        55.860 9  20685309.174 6         0.000 6     -1201.910 6        37.977 6
G20  21892901.013 9 115047938.710 9      2503.195 9        55.336 9  21892901.305 6         0.000 6      1950.543 6        37.977 6
> 2019 07 03 12 02 48.0000000  0  8       0.000000000000
G07  25301488.199 9 132960172.188 9      2150.057 9        54.147 9  25301488.845 6         0.000 6      1675.370 6        37.977 6
G10  23737320.304 9 124740406.592 9      3504.947 9        54.696 9  23737323.960 6         0.000 6      2731.131 6        37.977 6
G21  21197836.247 9 111395360.585 9     -1300.794 9        55.698 9  21197835.538 6         0.000 6     -1013.606 6        37.977 6
G29  24366354.440 9 128045999.298 9     -3157.934 9        54.451 9  24366356.084 6         0.000 6     -2460.730 6        37.977 6
G27  21951778.918 9 115357350.116 9      2494.067 9        55.395 9  21951780.832 6         0.000 6      1943.430 6        37.977 6
G16  20485676.844 9 107652938.108 9       499.422 9        55.981 9  20485676.017 6         0.000 6       389.160 6        37.977 6
G26  20685599.919 9 108703538.796 9     -1543.023 9        55.860 9  20685602.747 6         0.000 6     -1202.356 6        37.977 6
G20  21892424.714 9 115045435.746 9      2502.741 9        55.336 9  21892425.006 6         0.000 6      1950.189 6        37.977 6
> 2019 07 03 12 02 49.0000000  0  8       0.000000000000
G07  25301079.101 9 132958022.366 9      2149.594 9        54.147 9  25301079.747 6         0.000 6      1675.009 6        37.977 6
G10  23736653.348 9 124736901.730 9      3504.798 9        54.696 9  23736657.004 6         0.000 6      2731.014 6        37.977 6
G21  21198083.814 9 111396661.559 9     -1301.154 9        55.698 9  21198083.105 6         0.000 6     -1013.886 6        37.977 6
G29  24366955.382 9 128049157.263 9     -3158.018 9        54.451 9  24366957.027 6         0.000 6     -2460.796 6        37.977 6
G27  21951304.336 9 115354856.174 9      2493.821 9        55.395 9  21951306.250 6         0.000 6      1943.238 6        37.977 6
G16  20485581.867 9 107652438.997 9       498.799 9        55.982 9  20485581.039 6         0.000 6       388.674 6        37.977 6
G26  20685893.601 9 108705082.104 9     -1543.596 9        55.860 9  20685896.430 6         0.000 6     -1202.803 6        37.977 6
G20  21891948.501 9 115042933.237 9      2502.286 9        55.336 9  21891948.793 6         0.000 6      1949.835 6        37.977 6
> 2019 07 03 12 02 50.0000000  0  8       0.000000000000
G07  25300670.091 9 132955873.008 9      2149.130 9        54.147 9  25300670.737 6         0.000 6      1674.648 6        37.977 6
G10  23735986.422 9 124733397.018 9      3504.648 9        54.696 9  23735990.077 6         0.000 6      2730.897 6        37.977 6
G21  21198331.450 9 111397962.891 9     -1301.513 9        55.698 9  21198330.740 6         0.000 6     -1014.166 6        37.977 6
G29  24367556.341 9 128052315.312 9     -3158.102 9        54.451 9  24367557.987 6         0.000 6     -2460.861 6        37.977 6
G27  21950829.801 9 115352362.479 9      2493.575 9        55.396 9  21950831.715 6         0.000 6      1943.046 6        37.977 6
G16  20485487.008 9 107651940.510 9       498.176 9        55.982 9  20485486.180 6         0.000 6       388.189 6        37.977 6
G26  20686187.392 9 108706625.984 9     -1544.169 9        55.860 9  20686190.221 6         0.000 6     -1203.249 6        37.977 6
G20  21891472.375 9 115040431.183 9      2501.832 9        55.336 9  21891472.667 6         0.000 6      1949.480 6        37.977 6
> 2019 07 03 12 02 51.0000000  0  8       0.000000000000
G07  25300261.169 9 132953724.113 9      2148.667 9        54.148 9  25300261.814 6         0.000 6      1674.287 6        37.977 6
G10  23735319.524 9 124729892.456 9      3504.497 9        54.696 9  23735323.178 6         0.000 6      2730.780 6        37.977 6
G21  21198579.154 9 111399264.584 9     -1301.873 9        55.698 9  21198578.444 6         0.000 6     -1014.447 6        37.977 6
G29  24368157.316 9 128055473.446 9     -3158.186 9        54.451 9  24368158.962 6         0.000 6     -2460.927 6        37.977 6
G27  21950355.313 9 115349869.030 9      2493.328 9        55.396 9  21950357.226 6         0.000 6      1942.854 6        37.977 6
G16  20485392.267 9 107651442.646 9       497.552 9        55.982 9  20485391.440 6         0.000 6       387.703 6        37.977 6
G26  20686481.293 9 108708170.438 9     -1544.742 9        55.860 9  20686484.121 6         0.000 6     -1203.696 6        37.977 6
G20  21890996.336 9 115037929.583 9      2501.377 9        55.336 9  21890996.627 6         0.000 6      1949.126 6        37.977 6
> 2019 07 03 12 02 52.0000000  0  8       0.000000000000
G07  25299852.336 9 132951575.681 9      2148.204 9        54.148 9  25299852.981 6         0.000 6      1673.926 6        37.977 6
G10  23734652.655 9 124726388.044 9      3504.347 9        54.697 9  23734656.308 6         0.000 6      2730.663 6        37.977 6
G21  21198826.926 9 111400566.635 9     -1302.232 9        55.698 9  21198826.217 6         0.000 6     -1014.727 6        37.977 6
G29  24368758.307 9 128058631.663 9     -3158.270 9        54.450 9  24368759.953 6         0.000 6     -2460.992 6        37.977 6
G27  21949880.872 9 115347375.828 9      2493.082 9        55.396 9  21949882.785 6         0.000 6      1942.662 6        37.977 6
G16  20485297.645 9 107650945.406 9       496.929 9        55.982 9  20485296.818 6         0.000 6       387.217 6        37.977 6
G26  20686775.302 9 108709715.465 9     -1545.315 9        55.860 9  20686778.130 6         0.000 6     -1204.142 6        37.977 6
G20  21890520.383 9 115035428.437 9      2500.923 9        55.337 9  21890520.674 6         0.000 6      1948.772 6        37.977 6
> 2019 07 03 12 02 53.0000000  0  8       0.000000000000
G07  25299443.590 9 132949427.712 9      2147.740 9        54.148 9  25299444.235 6         0.000 6      1673.565 6        37.977 6
G10  23733985.814 9 124722883.782 9      3504.197 9        54.697 9  23733989.467 6         0.000 6      2730.546 6        37.977 6
G21  21199074.767 9 111401869.047 9     -1302.592 9        55.698 9  21199074.057 6         0.000 6     -1015.007 6        37.977 6
G29  24369359.313 9 128061789.964 9     -3158.354 9        54.450 9  24369360.961 6         0.000 6     -2461.058 6        37.977 6
G27  21949406.477 9 115344882.872 9      2492.835 9        55.396 9  21949408.391 6         0.000 6      1942.470 6        37.977 6
G16  20485203.142 9 107650448.788 9       496.305 9        55.982 9  20485202.315 6         0.000 6       386.732 6        37.977 6
G26  20687069.420 9 108711261.064 9     -1545.888 9        55.859 9  20687072.249 6         0.000 6     -1204.588 6        37.977 6
G20  21890044.516 9 115032927.746 9      2500.468 9        55.337 9  21890044.807 6         0.000 6      1948.418 6        37.977 6
> 2019 07 03 12 02 54.0000000  0  8       0.000000000000
G07  25299034.933 9 132947280.207 9      2147.277 9        54.148 9  25299035.577 6         0.000 6      1673.204 6        37.977 6
G10  23733319.002 9 124719379.671 9      3504.046 9        54.697 9  23733322.654 6         0.000 6      2730.428 6        37.977 6
G21  21199322.676 9 111403171.817 9     -1302.951 9        55.698 9  21199321.967 6         0.000 6     -1015.287 6        37.977 6
G29  24369960.336 9 128064948.350 9     -3158.438 9        54.450 9  24369961.984 6         0.000 6     -2461.123 6        37.977 6
G27  21948932.130 9 115342390.163 9      2492.589 9        55.396 9  21948934.043 6         0.000 6      1942.278 6        37.977 6
G16  20485108.758 9 107649952.795 9       495.682 9        55.982 9  20485107.931 6         0.000 6       386.246 6        37.977 6
G26  20687363.647 9 108712807.236 9     -1546.461 9        55.859 9  20687366.476 6         0.000 6     -1205.035 6        37.977 6
G20  21889568.737 9 115030427.510 9      2500.013 9        55.337 9  21889569.027 6         0.000 6      1948.063 6        37.977 6
> 2019 07 03 12 02 55.0000000  0  8       0.000000000000
G07  25298626.364 9 132945133.165 9      2146.813 9        54.148 9  25298627.008 6         0.000 6      1672.843 6        37.977 6
G10  23732652.218 9 124715875.710 9      3503.896 9        54.697 9  23732655.870 6         0.000 6      2730.311 6        37.977 6
G21  21199570.653 9 111404474.947 9     -1303.310 9        55.697 9  21199569.944 6         0.000 6     -1015.566 6        37.977 6
G29  24370561.375 9 128068106.819 9     -3158.522 9        54.450 9  24370563.024 6         0.000 6     -2461.188 6        37.977 6
G27  21948457.830 9 115339897.699 9      2492.342 9        55.397 9  21948459.743 6         0.000 6      1942.086 6        37.977 6
G16  20485014.492 9 107649457.425 9       495.059 9        55.982 9  20485013.665 6         0.000 6       385.760 6        37.977 6
G26  20687657.983 9 108714353.982 9     -1547.033 9        55.859 9  20687660.812 6         0.000 6     -1205.481 6        37.977 6
G20  21889093.043 9 115027927.729 9      2499.558 9        55.337 9  21889093.333 6         0.000 6      1947.709 6        37.977 6
> 2019 07 03 12 02 56.0000000  0  8       0.000000000000
G07  25298217.883 9 132942986.587 9      2146.350 9        54.148 9  25298218.527 6         0.000 6      1672.481 6        37.977 6
G10  23731985.463 9 124712371.900 9      3503.745 9        54.698 9  23731989.114 6         0.000 6      2730.194 6        37.977 6
G21  21199818.699 9 111405778.436 9     -1303.669 9        55.697 9  21199817.990 6         0.000 6     -1015.846 6        37.977 6
G29  24371162.430 9 128071265.372 9     -3158.606 9        54.449 9  24371164.079 6         0.000 6     -2461.254 6        37.977 6
G27  21947983.576 9 115337405.483 9      2492.096 9        55.397 9  21947985.489 6         0.000 6      1941.894 6        37.977 6
G16  20484920.345 9 107648962.678 9       494.435 9        55.982 9  20484919.518 6         0.000 6       385.274 6        37.977 6
G26  20687952.428 9 108715901.299 9     -1547.606 9        55.859 9  20687955.257 6         0.000 6     -1205.927 6        37.977 6
G20  21888617.436 9 115025428.403 9      2499.103 9        55.337 9  21888617.726 6         0.000 6      1947.354 6        37.977 6
> 2019 07 03 12 02 57.0000000  0  8       0.000000000000
G07  25297809.490 9 132940840.472 9      2145.886 9        54.148 9  25297810.134 6         0.000 6      1672.120 6        37.977 6
G10  23731318.737 9 124708868.240 9      3503.594 9        54.698 9  23731322.388 6         0.000 6      2730.076 6        37.977 6
G21  21200066.813 9 111407082.284 9     -1304.028 9        55.697 9  21200066.104 6         0.000 6     -1016.126 6        37.977 6
G29  24371763.500 9 128074424.009 9     -3158.689 9        54.449 9  24371765.150 6         0.000 6     -2461.319 6        37.977 6
G27  21947509.369 9 115334913.513 9      2491.849 9        55.397 9  21947511.282 6         0.000 6      1941.701 6        37.977 6
G16  20484826.316 9 107648468.555 9       493.811 9        55.982 9  20484825.489 6         0.000 6       384.788 6        37.977 6
G26  20688246.982 9 108717449.190 9     -1548.179 9        55.859 9  20688249.812 6         0.000 6     -1206.373 6        37.977 6
G20  21888141.916 9 115022929.532 9      2498.648 9        55.338 9  21888142.206 6         0.000 6      1946.999 6        37.977 6
> 2019 07 03 12 02 58.0000000  0  8       0.000000000000
G07  25297401.186 9 132938694.821 9      2145.422 9        54.149 9  25297401.829 6         0.000 6      1671.759 6        37.977 6
G10  23730652.039 9 124705364.731 9      3503.444 9        54.698 9  23730655.689 6         0.000 6      2729.959 6        37.977 6
G21  21200314.996 9 111408386.491 9     -1304.387 9        55.697 9  21200314.287 6         0.000 6     -1016.406 6        37.977 6
G29  24372364.587 9 128077582.730 9     -3158.773 9        54.449 9  24372366.237 6         0.000 6     -2461.384 6        37.977 6
G27  21947035.210 9 115332421.790 9      2491.603 9        55.397 9  21947037.122 6         0.000 6      1941.509 6        37.977 6
G16  20484732.407 9 107647975.055 9       493.188 9        55.982 9  20484731.579 6         0.000 6       384.302 6        37.977 6
G26  20688541.646 9 108718997.653 9     -1548.751 9        55.859 9  20688544.475 6         0.000 6     -1206.820 6        37.977 6
G20  21887666.483 9 115020431.116 9      2498.193 9        55.338 9  21887666.772 6         0.000 6      1946.645 6        37.977 6
> 2019 07 03 12 02 59.0000000  0  8       0.000000000000
G07  25296992.969 9 132936549.634 9      2144.959 9        54.149 9  25296993.613 6         0.000 6      1671.397 6        37.977 6
G10  23729985.371 9 124701861.374 9      3503.293 9        54.698 9  23729989.020 6         0.000 6      2729.841 6        37.977 6
G21  21200563.247 9 111409691.057 9     -1304.746 9        55.697 9  21200562.538 6         0.000 6     -1016.686 6        37.977 6
G29  24372965.689 9 128080741.534 9     -3158.857 9        54.449 9  24372967.341 6         0.000 6     -2461.450 6        37.977 6
G27  21946561.097 9 115329930.313 9      2491.356 9        55.397 9  21946563.009 6         0.000 6      1941.317 6        37.977 6
G16  20484638.615 9 107647482.179 9       492.564 9        55.982 9  20484637.788 6         0.000 6       383.816 6        37.977 6
G26  20688836.418 9 108720546.689 9     -1549.324 9        55.859 9  20688839.247 6         0.000 6     -1207.266 6        37.977 6
G20  21887191.136 9 115017933.155 9      2497.737 9        55.338 9  21887191.425 6         0.000 6      1946.290 6        37.977 6
> 2019 07 03 12 03  0.0000000  0  8       0.000000000000
G07  25296584.841 9 132934404.911 9      2144.495 9        54.149 9  25296585.485 6         0.000 6      1671.036 6        37.977 6
G10  23729318.731 9 124698358.167 9      3503.142 9        54.699 9  23729322.379 6         0.000 6      2729.723 6        37.977 6
G21  21200811.566 9 111410995.982 9     -1305.105 9        55.697 9  21200810.857 6         0.000 6     -1016.965 6        37.977 6
G29  24373566.808 9 128083900.423 9     -3158.941 9        54.449 9  24373568.460 6         0.000 6     -2461.515 6        37.977 6
G27  21946087.031 9 115327439.083 9      2491.109 9        55.397 9  21946088.943 6         0.000 6      1941.125 6        37.977 6
G16  20484544.943 9 107646989.927 9       491.941 9        55.982 9  20484544.116 6         0.000 6       383.330 6        37.977 6
G26  20689131.299 9 108722096.297 9     -1549.897 9        55.859 9  20689134.128 6         0.000 6     -1207.712 6        37.977 6
G20  21886715.875 9 115015435.650 9      2497.282 9        55.338 9  21886716.164 6         0.000 6      1945.935 6        37.977 6
> 2019 07 03 12 03  1.0000000  0  8       0.000000000000
G07  25296176.802 9 132932260.652 9      2144.031 9        54.149 9  25296177.445 6         0.000 6      1670.674 6        37.977 6
G10  23728652.119 9 124694855.111 9      3502.990 9        54.699 9  23728655.767 6         0.000 6      2729.606 6        37.977 6
G21  21201059.953 9 111412301.266 9     -1305.464 9        55.697 9  21201059.244 6         0.000 6     -1017.245 6        37.977 6
G29  24374167.942 9 128087059.395 9     -3159.025 9        54.448 9  24374169.595 6         0.000 6     -2461.580 6        37.977 6
G27  21945613.012 9 115324948.100 9      2490.863 9        55.398 9  21945614.924 6         0.000 6      1940.933 6        37.977 6
G16  20484451.389 9 107646498.298 9       491.317 9        55.982 9  20484450.562 6         0.000 6       382.844 6        37.977 6
G26  20689426.289 9 108723646.478 9     -1550.469 9        55.858 9  20689429.118 6         0.000 6     -1208.158 6        37.977 6
G20  21886240.702 9 115012938.600 9      2496.826 9        55.338 9  21886240.990 6         0.000 6      1945.580 6        37.977 6
> 2019 07 03 12 03  2.0000000  0  8       0.000000000000
G07  25295768.850 9 132930116.857 9      2143.567 9        54.149 9  25295769.493 6         0.000 6      1670.313 6        37.977 6
G10  23727985.537 9 124691352.207 9      3502.839 9        54.699 9  23727989.184 6         0.000 6      2729.488 6        37.977 6
G21  21201308.409 9 111413606.909 9     -1305.823 9        55.697 9  21201307.700 6         0.000 6     -1017.525 6        37.977 6
G29  24374769.093 9 128090218.451 9     -3159.108 9        54.448 9  24374770.746 6         0.000 6     -2461.646 6        37.977 6
G27  21945139.040 9 115322457.364 9      2490.616 9        55.398 9  21945140.952 6         0.000 6      1940.740 6        37.977 6
G16  20484357.954 9 107646007.293 9       490.693 9        55.982 9  20484357.127 6         0.000 6       382.358 6        37.977 6
G26  20689721.388 9 108725197.232 9     -1551.042 9        55.858 9  20689724.217 6         0.000 6     -1208.604 6        37.977 6
G20  21885765.615 9 115010442.006 9      2496.371 9        55.338 9  21885765.903 6         0.000 6      1945.225 6        37.977 6
> 2019 07 03 12 03  3.0000000  0  8       0.000000000000
G07  25295360.987 9 132927973.525 9      2143.103 9        54.149 9  25295361.630 6         0.000 6      1669.951 6        37.977 6
G10  23727318.983 9 124687849.454 9      3502.688 9        54.699 9  23727322.630 6         0.000 6      2729.370 6        37.977 6
G21  21201556.933 9 111414912.911 9     -1306.182 9        55.697 9  21201556.224 6         0.000 6     -1017.804 6        37.977 6
G29  24375370.259 9 128093377.591 9     -3159.192 9        54.448 9  24375371.913 6         0.000 6     -2461.711 6        37.977 6
G27  21944665.116 9 115319966.874 9      2490.369 9        55.398 9  21944667.027 6         0.000 6      1940.548 6        37.977 6
G16  20484264.637 9 107645516.912 9       490.069 9        55.982 9  20484263.810 6         0.000 6       381.872 6        37.977 6
G26  20690016.595 9 108726748.558 9     -1551.614 9        55.858 9  20690019.425 6         0.000 6     -1209.050 6        37.977 6
G20  21885290.615 9 115007945.867 9      2495.915 9        55.339 9  21885290.902 6         0.000 6      1944.870 6        37.977 6
> 2019 07 03 12 03  4.0000000  0  8       0.000000000000
G07  25294953.213 9 132925830.658 9      2142.638 9        54.149 9  25294953.855 6         0.000 6      1669.589 6        37.977 6
G10  23726652.458 9 124684346.852 9      3502.536 9        54.700 9  23726656.104 6         0.000 6      2729.252 6        37.977 6
G21  21201805.526 9 111416219.272 9     -1306.541 9        55.697 9  21201804.817 6         0.000 6     -1018.084 6        37.977 6
G29  24375971.441 9 128096536.814 9     -3159.276 9        54.448 9  24375973.096 6         0.000 6     -2461.776 6        37.977 6
G27  21944191.238 9 115317476.631 9      2490.122 9        55.398 9  21944193.149 6         0.000 6      1940.355 6        37.977 6
G16  20484171.440 9 107645027.154 9       489.445 9        55.982 9  20484170.612 6         0.000 6       381.386 6        37.977 6
G26  20690311.912 9 108728300.456 9     -1552.187 9        55.858 9  20690314.742 6         0.000 6     -1209.496 6        37.977 6
G20  21884815.701 9 115005450.184 9      2495.459 9        55.339 9  21884815.989 6         0.000 6      1944.515 6        37.977 6
> 2019 07 03 12 03  5.0000000  0  8       0.000000000000
G07  25294545.526 9 132923688.256 9      2142.174 9        54.150 9  25294546.169 6         0.000 6      1669.227 6        37.977 6
G10  23725985.962 9 124680844.402 9      3502.385 9        54.700 9  23725989.608 6         0.000 6      2729.134 6        37.977 6
G21  21202054.186 9 111417525.991 9     -1306.899 9        55.696 9  21202053.477 6         0.000 6     -1018.363 6        37.977 6
G29  24376572.639 9 128099696.121 9     -3159.359 9        54.448 9  24376574.294 6         0.000 6     -2461.841 6        37.977 6
G27  21943717.407 9 115314986.635 9      2489.875 9        55.398 9  21943719.318 6         0.000 6      1940.163 6        37.977 6
G16  20484078.361 9 107644538.021 9       488.822 9        55.982 9  20484077.533 6         0.000 6       380.900 6        37.977 6
G26  20690607.338 9 108729852.927 9     -1552.759 9        55.858 9  20690610.168 6         0.000 6     -1209.942 6        37.977 6
G20  21884340.874 9 115002954.957 9      2495.004 9        55.339 9  21884341.162 6         0.000 6      1944.160 6        37.977 6
> 2019 07 03 12 03  6.0000000  0  8       0.000000000000
G07  25294137.928 9 132921546.317 9      2141.710 9        54.150 9  25294138.570 6         0.000 6      1668.866 6        37.977 6
G10  23725319.495 9 124677342.103 9      3502.233 9        54.700 9  23725323.140 6         0.000 6      2729.015 6        37.977 6
G21  21202302.915 9 111418833.069 9     -1307.258 9        55.696 9  21202302.206 6         0.000 6     -1018.643 6        37.977 6
G29  24377173.853 9 128102855.512 9     -3159.443 9        54.447 9  24377175.509 6         0.000 6     -2461.906 6        37.977 6
G27  21943243.623 9 115312496.886 9      2489.628 9        55.399 9  21943245.534 6         0.000 6      1939.971 6        37.977 6
G16  20483985.400 9 107644049.511 9       488.198 9        55.982 9  20483984.573 6         0.000 6       380.414 6        37.977 6
G26  20690902.873 9 108731405.971 9     -1553.331 9        55.858 9  20690905.703 6         0.000 6     -1210.388 6        37.977 6
G20  21883866.134 9 115000460.186 9      2494.548 9        55.339 9  21883866.421 6         0.000 6      1943.804 6        37.977 6
> 2019 07 03 12 03  7.0000000  0  8       0.000000000000
G07  25293730.419 9 132919404.843 9      2141.245 9        54.150 9  25293731.061 6         0.000 6      1668.504 6        37.977 6
G10  23724653.056 9 124673839.957 9      3502.081 9        54.700 9  23724656.701 6         0.000 6      2728.897 6        37.977 6
G21  21202551.712 9 111420140.506 9     -1307.617 9        55.696 9  21202551.003 6         0.000 6     -1018.922 6        37.977 6
G29  24377775.083 9 128106014.986 9     -3159.527 9        54.447 9  24377776.740 6         0.000 6     -2461.971 6        37.977 6
G27  21942769.886 9 115310007.384 9      2489.381 9        55.399 9  21942771.797 6         0.000 6      1939.778 6        37.977 6
G16  20483892.559 9 107643561.625 9       487.574 9        55.982 9  20483891.731 6         0.000 6       379.928 6        37.977 6
G26  20691198.516 9 108732959.586 9     -1553.904 9        55.858 9  20691201.347 6         0.000 6     -1210.834 6        37.977 6
G20  21883391.481 9 114997965.871 9      2494.092 9        55.339 9  21883391.768 6         0.000 6      1943.449 6        37.977 6
> 2019 07 03 12 03  8.0000000  0  8       0.000000000000
G07  25293322.998 9 132917263.834 9      2140.781 9        54.150 9  25293323.639 6         0.000 6      1668.142 6        37.977 6
G10  23723986.647 9 124670337.962 9      3501.929 9        54.701 9  23723990.291 6         0.000 6      2728.779 6        37.977 6
G21  21202800.577 9 111421448.301 9     -1307.975 9        55.696 9  21202799.868 6         0.000 6     -1019.202 6        37.977 6
G29  24378376.329 9 128109174.544 9     -3159.610 9        54.447 9  24378377.986 6         0.000 6     -2462.037 6        37.977 6
G27  21942296.196 9 115307518.129 9      2489.134 9        55.399 9  21942298.106 6         0.000 6      1939.586 6        37.977 6
G16  20483799.836 9 107643074.363 9       486.950 9        55.982 9  20483799.009 6         0.000 6       379.441 6        37.977 6
G26  20691494.269 9 108734513.774 9     -1554.476 9        55.858 9  20691497.099 6         0.000 6     -1211.280 6        37.977 6
G20  21882916.915 9 114995472.011 9      2493.635 9        55.340 9  21882917.201 6         0.000 6      1943.094 6        37.977 6
> 2019 07 03 12 03  9.0000000  0  8       0.000000000000
G07  25292915.665 9 132915123.289 9      2140.316 9        54.150 9  25292916.306 6         0.000 6      1667.780 6        37.977 6
G10  23723320.266 9 124666836.119 9      3501.777 9        54.701 9  23723323.909 6         0.000 6      2728.660 6        37.977 6
G21  21203049.511 9 111422756.454 9     -1308.334 9        55.696 9  21203048.802 6         0.000 6     -1019.481 6        37.977 6
G29  24378977.591 9 128112334.186 9     -3159.694 9        54.447 9  24378979.249 6         0.000 6     -2462.102 6        37.977 6
G27  21941822.553 9 115305029.121 9      2488.887 9        55.399 9  21941824.463 6         0.000 6      1939.393 6        37.977 6
G16  20483707.232 9 107642587.726 9       486.326 9        55.982 9  20483706.405 6         0.000 6       378.955 6        37.977 6
G26  20691790.130 9 108736068.534 9     -1555.048 9        55.857 9  20691792.961 6         0.000 6     -1211.726 6        37.977 6
G20  21882442.435 9 114992978.608 9      2493.179 9        55.340 9  21882442.721 6         0.000 6      1942.738 6        37.977 6
> 2019 07 03 12 03 10.0000000  0  8       0.000000000000
G07  25292508.420 9 132912983.208 9      2139.852 9        54.150 9  25292509.061 6         0.000 6      1667.418 6        37.977 6
G10  23722653.915 9 124663334.428 9      3501.625 9        54.701 9  23722657.557 6         0.000 6      2728.542 6        37.977 6
G21  21203298.512 9 111424064.966 9     -1308.692 9        55.696 9  21203297.804 6         0.000 6     -1019.760 6        37.977 6
G29  24379578.869 9 128115493.911 9     -3159.777 9        54.446 9  24379580.527 6         0.000 6     -2462.167 6        37.977 6
G27  21941348.957 9 115302540.361 9      2488.640 9        55.399 9  21941350.867 6         0.000 6      1939.201 6        37.977 6
G16  20483614.746 9 107642101.712 9       485.702 9        55.982 9  20483613.919 6         0.000 6       378.469 6        37.977 6
G26  20692086.100 9 108737623.867 9     -1555.620 9        55.857 9  20692088.931 6         0.000 6     -1212.172 6        37.977 6
G20  21881968.042 9 114990485.662 9      2492.723 9        55.340 9  21881968.328 6         0.000 6      1942.383 6        37.977 6
> 2019 07 03 12 03 11.0000000  0  8       0.000000000000
G07  25292101.264 9 132910843.593 9      2139.387 9        54.150 9  25292101.905 6         0.000 6      1667.056 6        37.977 6
G10  23721987.592 9 124659832.889 9      3501.473 9        54.701 9  23721991.234 6         0.000 6      2728.423 6        37.977 6
G21  21203547.582 9 111425373.837 9     -1309.050 9        55.696 9  21203546.874 6         0.000 6     -1020.039 6        37.977 6
G29  24380180.162 9 128118653.719 9     -3159.861 9        54.446 9  24380181.821 6         0.000 6     -2462.232 6        37.977 6
G27  21940875.408 9 115300051.847 9      2488.393 9        55.400 9  21940877.318 6         0.000 6      1939.008 6        37.977 6
G16  20483522.380 9 107641616.322 9       485.078 9        55.982 9  20483521.553 6         0.000 6       377.983 6        37.977 6
G26  20692382.179 9 108739179.771 9     -1556.192 9        55.857 9  20692385.010 6         0.000 6     -1212.618 6        37.977 6
G20  21881493.736 9 114987993.171 9      2492.266 9        55.340 9  21881494.022 6         0.000 6      1942.027 6        37.977 6
> 2019 07 03 12 03 12.0000000  0  8       0.000000000000
G07  25291694.197 9 132908704.442 9      2138.922 9        54.150 9  25291694.838 6         0.000 6      1666.693 6        37.977 6
G10  23721321.299 9 124656331.503 9      3501.321 9        54.702 9  23721324.940 6         0.000 6      2728.304 6        37.977 6
G21  21203796.720 9 111426683.065 9     -1309.409 9        55.696 9  21203796.012 6         0.000 6     -1020.319 6        37.977 6
G29  24380781.472 9 128121813.611 9     -3159.944 9        54.446 9  24380783.131 6         0.000 6     -2462.297 6        37.977 6
G27  21940401.906 9 115297563.580 9      2488.146 9        55.400 9  21940403.816 6         0.000 6      1938.815 6        37.977 6
G16  20483430.132 9 107641131.556 9       484.454 9        55.982 9  20483429.305 6         0.000 6       377.496 6        37.977 6
G26  20692678.368 9 108740736.248 9     -1556.765 9        55.857 9  20692681.198 6         0.000 6     -1213.064 6        37.977 6
G20  21881019.517 9 114985501.138 9      2491.810 9        55.340 9  21881019.803 6         0.000 6      1941.671 6        37.977 6
> 2019 07 03 12 03 13.0000000  0  8       0.000000000000
G07  25291287.218 9 132906565.756 9      2138.457 9        54.151 9  25291287.858 6         0.000 6      1666.331 6        37.977 6
G10  23720655.034 9 124652830.268 9      3501.168 9        54.702 9  23720658.674 6         0.000 6      2728.186 6        37.977 6
G21  21204045.927 9 111427992.652 9     -1309.767 9        55.696 9  21204045.218 6         0.000 6     -1020.598 6        37.977 6
G29  24381382.797 9 128124973.587 9     -3160.028 9        54.446 9  24381384.457 6         0.000 6     -2462.362 6        37.977 6
G27  21939928.451 9 115295075.561 9      2487.898 9        55.400 9  21939930.361 6         0.000 6      1938.623 6        37.977 6
G16  20483338.003 9 107640647.414 9       483.830 9        55.982 9  20483337.176 6         0.000 6       377.010 6        37.977 6
G26  20692974.664 9 108742293.297 9     -1557.337 9        55.857 9  20692977.495 6         0.000 6     -1213.510 6        37.977 6
G20  21880545.385 9 114983009.560 9      2491.353 9        55.341 9  21880545.670 6         0.000 6      1941.315 6        37.977 6
> 2019 07 03 12 03 14.0000000  0  8       0.000000000000
G07  25290880.327 9 132904427.535 9      2137.992 9        54.151 9  25290880.967 6         0.000 6      1665.969 6        37.977 6
G10  23719988.798 9 124649329.187 9      3501.016 9        54.702 9  23719992.438 6         0.000 6      2728.067 6        37.977 6
G21  21204295.201 9 111429302.597 9     -1310.125 9        55.696 9  21204294.493 6         0.000 6     -1020.877 6        37.977 6
G29  24381984.138 9 128128133.646 9     -3160.111 9        54.446 9  24381985.799 6         0.000 6     -2462.427 6        37.977 6
G27  21939455.043 9 115292587.789 9      2487.651 9        55.400 9  21939456.953 6         0.000 6      1938.430 6        37.977 6
G16  20483245.993 9 107640163.897 9       483.205 9        55.983 9  20483245.165 6         0.000 6       376.524 6        37.977 6
G26  20693271.070 9 108743850.917 9     -1557.909 9        55.857 9  20693273.901 6         0.000 6     -1213.955 6        37.977 6
G20  21880071.340 9 114980518.440 9      2490.897 9        55.341 9  21880071.624 6         0.000 6      1940.959 6        37.977 6
> 2019 07 03 12 03 15.0000000  0  8       0.000000000000
G07  25290473.525 9 132902289.778 9      2137.527 9        54.151 9  25290474.165 6         0.000 6      1665.606 6        37.977 6
G10  23719322.592 9 124645828.258 9      3500.863 9        54.702 9  23719326.231 6         0.000 6      2727.948 6        37.977 6
G21  21204544.544 9 111430612.901 9     -1310.483 9        55.695 9  21204543.835 6         0.000 6     -1021.156 6        37.977 6
G29  24382585.495 9 128131293.788 9     -3160.195 9        54.445 9  24382587.157 6         0.000 6     -2462.492 6        37.977 6
G27  21938981.683 9 115290100.264 9      2487.404 9        55.400 9  21938983.592 6         0.000 6      1938.237 6        37.977 6
G16  20483154.101 9 107639681.004 9       482.581 9        55.983 9  20483153.274 6         0.000 6       376.037 6        37.977 6
G26  20693567.585 9 108745409.110 9     -1558.481 9        55.857 9  20693570.416 6         0.000 6     -1214.401 6        37.977 6
G20  21879597.381 9 114978027.776 9      2490.440 9        55.341 9  21879597.666 6         0.000 6      1940.604 6        37.977 6
> 2019 07 03 12 03 16.0000000  0  8       0.000000000000
G07  25290066.811 9 132900152.487 9      2137.062 9        54.151 9  25290067.451 6         0.000 6      1665.244 6        37.977 6
G10  23718656.414 9 124642327.481 9      3500.710 9        54.703 9  23718660.053 6         0.000 6      2727.829 6        37.977 6
G21  21204793.954 9 111431923.562 9     -1310.841 9        55.695 9  21204793.246 6         0.000 6     -1021.435 6        37.977 6
G29  24383186.868 9 128134454.014 9     -3160.278 9        54.445 9  24383188.531 6         0.000 6     -2462.557 6        37.977 6
G27  21938508.369 9 115287612.987 9      2487.156 9        55.400 9  21938510.278 6         0.000 6      1938.045 6        37.977 6
G16  20483062.328 9 107639198.735 9       481.957 9        55.983 9  20483061.501 6         0.000 6       375.551 6        37.977 6
G26  20693864.208 9 108746967.875 9     -1559.053 9        55.857 9  20693867.039 6         0.000 6     -1214.847 6        37.977 6
G20  21879123.510 9 114975537.569 9      2489.983 9        55.341 9  21879123.794 6         0.000 6      1940.248 6        37.977 6
> 2019 07 03 12 03 17.0000000  0  8       0.000000000000
G07  25289660.186 9 132898015.661 9      2136.597 9        54.151 9  25289660.826 6         0.000 6      1664.882 6        37.977 6
G10  23717990.266 9 124638826.858 9      3500.557 9        54.703 9  23717993.904 6         0.000 6      2727.710 6        37.977 6
G21  21205043.433 9 111433234.581 9     -1311.199 9        55.695 9  21205042.725 6         0.000 6     -1021.714 6        37.977 6
G29  24383788.257 9 128137614.324 9     -3160.362 9        54.445 9  24383789.920 6         0.000 6     -2462.622 6        37.977 6
G27  21938035.102 9 115285125.957 9      2486.909 9        55.401 9  21938037.012 6         0.000 6      1937.852 6        37.977 6
G16  20482970.674 9 107638717.090 9       481.333 9        55.983 9  20482969.847 6         0.000 6       375.064 6        37.977 6
G26  20694160.940 9 108748527.212 9     -1559.625 9        55.856 9  20694163.772 6         0.000 6     -1215.292 6        37.977 6
G20  21878649.725 9 114973047.818 9      2489.526 9        55.341 9  21878650.009 6         0.000 6      1939.891 6        37.977 6
> 2019 07 03 12 03 18.0000000  0  8       0.000000000000
G07  25289253.650 9 132895879.301 9      2136.132 9        54.151 9  25289254.289 6         0.000 6      1664.519 6        37.977 6
G10  23717324.146 9 124635326.387 9      3500.404 9        54.703 9  23717327.784 6         0.000 6      2727.591 6        37.977 6
G21  21205292.980 9 111434545.959 9     -1311.557 9        55.695 9  21205292.272 6         0.000 6     -1021.993 6        37.977 6
G29  24384389.662 9 128140774.716 9     -3160.445 9        54.445 9  24384391.326 6         0.000 6     -2462.687 6        37.977 6
G27  21937561.883 9 115282639.174 9      2486.662 9        55.401 9  21937563.792 6         0.000 6      1937.659 6        37.977 6
G16  20482879.139 9 107638236.069 9       480.708 9        55.983 9  20482878.312 6         0.000 6       374.578 6        37.977 6
G26  20694457.782 9 108750087.121 9     -1560.197 9        55.856 9  20694460.613 6         0.000 6     -1215.738 6        37.977 6
G20  21878176.028 9 114970558.525 9      2489.069 9        55.341 9  21878176.311 6         0.000 6      1939.535 6        37.977 6
> 2019 07 03 12 03 19.0000000  0  8       0.000000000000
G07  25288847.202 9 132893743.405 9      2135.666 9        54.151 9  25288847.841 6         0.000 6      1664.156 6        37.977 6
G10  23716658.056 9 124631826.070 9      3500.251 9        54.703 9  23716661.693 6         0.000 6      2727.471 6        37.977 6
G21  21205542.595 9 111435857.694 9     -1311.915 9        55.695 9  21205541.887 6         0.000 6     -1022.272 6        37.977 6
G29  24384991.083 9 128143935.192 9     -3160.528 9        54.445 9  24384992.747 6         0.000 6     -2462.752 6        37.977 6
G27  21937088.710 9 115280152.639 9      2486.414 9        55.401 9  21937090.619 6         0.000 6      1937.466 6        37.977 6
G16  20482787.723 9 107637755.673 9       480.084 9        55.983 9  20482786.896 6         0.000 6       374.091 6        37.977 6
G26  20694754.732 9 108751647.601 9     -1560.768 9        55.856 9  20694757.563 6         0.000 6     -1216.184 6        37.977 6
G20  21877702.417 9 114968069.689 9      2488.612 9        55.342 9  21877702.701 6         0.000 6      1939.179 6        37.977 6
> 2019 07 03 12 03 20.0000000  0  8       0.000000000000
G07  25288440.842 9 132891607.975 9      2135.201 9        54.152 9  25288441.481 6         0.000 6      1663.794 6        37.977 6
G10  23715991.995 9 124628325.905 9      3500.098 9        54.704 9  23715995.631 6         0.000 6      2727.352 6        37.977 6
G21  21205792.278 9 111437169.787 9     -1312.273 9        55.695 9  21205791.570 6         0.000 6     -1022.550 6        37.977 6
G29  24385592.519 9 128147095.751 9     -3160.612 9        54.444 9  24385594.184 6         0.000 6     -2462.817 6        37.977 6
G27  21936615.585 9 115277666.351 9      2486.167 9        55.401 9  21936617.494 6         0.000 6      1937.273 6        37.977 6
G16  20482696.425 9 107637275.901 9       479.460 9        55.983 9  20482695.598 6         0.000 6       373.605 6        37.977 6
G26  20695051.790 9 108753208.654 9     -1561.340 9        55.856 9  20695054.622 6         0.000 6     -1216.629 6        37.977 6
G20  21877228.894 9 114965581.310 9      2488.154 9        55.342 9  21877229.177 6         0.000 6      1938.823 6        37.977 6
> 2019 07 03 12 03 21.0000000  0  8       0.000000000000
G07  25288034.571 9 132889473.010 9      2134.735 9        54.152 9  25288035.210 6         0.000 6      1663.431 6        37.977 6
G10  23715325.963 9 124624825.894 9      3499.945 9        54.704 9  23715329.598 6         0.000 6      2727.232 6        37.977 6
G21  21206042.030 9 111438482.238 9     -1312.631 9        55.695 9  21206041.321 6         0.000 6     -1022.829 6        37.977 6
G29  24386193.971 9 128150256.394 9     -3160.695 9        54.444 9  24386195.637 6         0.000 6     -2462.882 6        37.977 6
G27  21936142.507 9 115275180.311 9      2485.919 9        55.401 9  21936144.415 6         0.000 6      1937.081 6        37.977 6
G16  20482605.247 9 107636796.754 9       478.835 9        55.983 9  20482604.419 6         0.000 6       373.118 6        37.977 6
G26  20695348.958 9 108754770.278 9     -1561.912 9        55.856 9  20695351.790 6         0.000 6     -1217.075 6        37.977 6
G20  21876755.457 9 114963093.389 9      2487.697 9        55.342 9  21876755.740 6         0.000 6      1938.466 6        37.977 6
> 2019 07 03 12 03 22.0000000  0  8       0.000000000000
G07  25287628.389 9 132887338.511 9      2134.270 9        54.152 9  25287629.027 6         0.000 6      1663.068 6        37.977 6
G10  23714659.960 9 124621326.036 9      3499.792 9        54.704 9  23714663.595 6         0.000 6      2727.113 6        37.977 6
G21  21206291.849 9 111439795.047 9     -1312.988 9        55.695 9  21206291.141 6         0.000 6     -1023.108 6        37.977 6
G29  24386795.440 9 128153417.120 9     -3160.778 9        54.444 9  24386797.106 6         0.000 6     -2462.947 6        37.977 6
G27  21935669.476 9 115272694.518 9      2485.672 9        55.402 9  21935671.384 6         0.000 6      1936.888 6        37.977 6
G16  20482514.187 9 107636318.231 9       478.211 9        55.983 9  20482513.359 6         0.000 6       372.632 6        37.977 6
G26  20695646.234 9 108756332.474 9     -1562.484 9        55.856 9  20695649.066 6         0.000 6     -1217.520 6        37.977 6
G20  21876282.107 9 114960605.925 9      2487.240 9        55.342 9  21876282.390 6         0.000 6      1938.110 6        37.977 6
> 2019 07 03 12 03 23.0000000  0  8       0.000000000000
G07  25287222.295 9 132885204.478 9      2133.804 9        54.152 9  25287222.933 6         0.000 6      1662.705 6        37.977 6
G10  23713993.986 9 124617826.331 9      3499.638 9        54.704 9  23713997.621 6         0.000 6      2726.993 6        37.977 6
G21  21206541.736 9 111441108.213 9     -1313.346 9        55.695 9  21206541.028 6         0.000 6     -1023.387 6        37.977 6
G29  24387396.924 9 128156577.929 9     -3160.861 9        54.444 9  24387398.590 6         0.000 6     -2463.011 6        37.977 6
G27  21935196.492 9 115270208.973 9      2485.424 9        55.402 9  21935198.400 6         0.000 6      1936.695 6        37.977 6
G16  20482423.246 9 107635840.332 9       477.586 9        55.983 9  20482422.418 6         0.000 6       372.145 6        37.977 6
G26  20695943.619 9 108757895.242 9     -1563.055 9        55.856 9  20695946.451 6         0.000 6     -1217.966 6        37.977 6
G20  21875808.845 9 114958118.918 9      2486.782 9        55.342 9  21875809.128 6         0.000 6      1937.753 6        37.977 6
> 2019 07 03 12 03 24.0000000  0  8       0.000000000000
G07  25286816.290 9 132883070.910 9      2133.338 9        54.152 9  25286816.928 6         0.000 6      1662.343 6        37.977 6
G10  23713328.042 9 124614326.780 9      3499.485 9        54.704 9  23713331.676 6         0.000 6      2726.874 6        37.977 6
G21  21206791.692 9 111442421.737 9     -1313.704 9        55.694 9  21206790.984 6         0.000 6     -1023.665 6        37.977 6
G29  24387998.423 9 128159738.821 9     -3160.944 9        54.443 9  24388000.091 6         0.000 6     -2463.076 6        37.977 6
G27  21934723.555 9 115267723.675 9      2485.176 9        55.402 9  21934725.463 6         0.000 6      1936.502 6        37.977 6
G16  20482332.423 9 107635363.058 9       476.962 9        55.983 9  20482331.596 6         0.000 6       371.658 6        37.977 6
G26  20696241.113 9 108759458.581 9     -1563.627 9        55.856 9  20696243.946 6         0.000 6     -1218.411 6        37.977 6
G20  21875335.670 9 114955632.369 9      2486.325 9        55.343 9  21875335.952 6         0.000 6      1937.397 6        37.977 6
> 2019 07 03 12 03 25.0000000  0  8       0.000000000000
G07  25286410.373 9 132880937.808 9      2132.873 9        54.152 9  25286411.011 6         0.000 6      1661.980 6        37.977 6
G10  23712662.127 9 124610827.383 9      3499.331 9        54.705 9  23712665.760 6         0.000 6      2726.754 6        37.977 6
G21  21207041.715 9 111443735.619 9     -1314.061 9        55.694 9  21207041.007 6         0.000 6     -1023.944 6        37.977 6
G29  24388599.939 9 128162899.797 9     -3161.028 9        54.443 9  24388601.607 6         0.000 6     -2463.141 6        37.977 6
G27  21934250.665 9 115265238.625 9      2484.929 9        55.402 9  21934252.573 6         0.000 6      1936.309 6        37.977 6
G16  20482241.720 9 107634886.409 9       476.337 9        55.983 9  20482240.893 6         0.000 6       371.172 6        37.977 6
G26  20696538.716 9 108761022.492 9     -1564.199 9        55.855 9  20696541.548 6         0.000 6     -1218.857 6        37.977 6
G20  21874862.581 9 114953146.278 9      2485.867 9        55.343 9  21874862.863 6         0.000 6      1937.040 6        37.977 6
> 2019 07 03 12 03 26.0000000  0  8       0.000000000000
G07  25286004.546 9 132878805.171 9      2132.407 9        54.152 9  25286005.183 6         0.000 6      1661.617 6        37.977 6
G10  23711996.241 9 124607328.139 9      3499.177 9        54.705 9  23711999.873 6         0.000 6      2726.634 6        37.977 6
G21  21207291.807 9 111445049.858 9     -1314.419 9        55.694 9  21207291.099 6         0.000 6     -1024.223 6        37.977 6
G29  24389201.470 9 128166060.855 9     -3161.111 9        54.443 9  24389203.139 6         0.000 6     -2463.206 6        37.977 6
G27  21933777.822 9 115262753.823 9      2484.681 9        55.402 9  21933779.730 6         0.000 6      1936.116 6        37.977 6
G16  20482151.136 9 107634410.384 9       475.713 9        55.983 9  20482150.308 6         0.000 6       370.685 6        37.977 6
G26  20696836.428 9 108762586.975 9     -1564.770 9        55.855 9  20696839.260 6         0.000 6     -1219.302 6        37.977 6
G20  21874389.580 9 114950660.644 9      2485.409 9        55.343 9  21874389.862 6         0.000 6      1936.683 6        37.977 6
> 2019 07 03 12 03 27.0000000  0  8       0.000000000000
G07  25285598.806 9 132876673.001 9      2131.941 9        54.153 9  25285599.444 6         0.000 6      1661.254 6        37.977 6
G10  23711330.384 9 124603829.049 9      3499.023 9        54.705 9  23711334.016 6         0.000 6      2726.514 6        37.977 6
G21  21207541.966 9 111446364.455 9     -1314.776 9        55.694 9  21207541.259 6         0.000 6     -1024.501 6        37.977 6
G29  24389803.018 9 128169221.997 9     -3161.194 9        54.443 9  24389804.687 6         0.000 6     -2463.271 6        37.977 6
G27  21933305.027 9 115260269.269 9      2484.433 9        55.403 9  21933306.935 6         0.000 6      1935.923 6        37.977 6
G16  20482060.670 9 107633934.984 9       475.088 9        55.983 9  20482059.843 6         0.000 6       370.198 6        37.977 6
G26  20697134.248 9 108764152.029 9     -1565.342 9        55.855 9  20697137.080 6         0.000 6     -1219.747 6        37.977 6
G20  21873916.666 9 114948175.468 9      2484.951 9        55.343 9  21873916.948 6         0.000 6      1936.327 6        37.977 6
> 2019 07 03 12 03 28.0000000  0  8       0.000000000000
G07  25285193.156 9 132874541.297 9      2131.475 9        54.153 9  25285193.793 6         0.000 6      1660.890 6        37.977 6
G10  23710664.557 9 124600330.113 9      3498.869 9        54.705 9  23710668.188 6         0.000 6      2726.394 6        37.977 6
G21  21207792.194 9 111447679.409 9     -1315.134 9        55.694 9  21207791.486 6         0.000 6     -1024.780 6        37.977 6
G29  24390404.581 9 128172383.222 9     -3161.277 9        54.443 9  24390406.251 6         0.000 6     -2463.335 6        37.977 6
G27  21932832.279 9 115257784.963 9      2484.185 9        55.403 9  21932834.186 6         0.000 6      1935.729 6        37.977 6
G16  20481970.323 9 107633460.208 9       474.463 9        55.983 9  20481969.496 6         0.000 6       369.712 6        37.977 6
G26  20697432.177 9 108765717.655 9     -1565.913 9        55.855 9  20697435.010 6         0.000 6     -1220.193 6        37.977 6
G20  21873443.839 9 114945690.750 9      2484.493 9        55.343 9  21873444.120 6         0.000 6      1935.970 6        37.977 6
> 2019 07 03 12 03 29.0000000  0  8       0.000000000000
G07  25284787.594 9 132872410.058 9      2131.009 9        54.153 9  25284788.231 6         0.000 6      1660.527 6        37.977 6
G10  23709998.759 9 124596831.331 9      3498.715 9        54.706 9  23710002.389 6         0.000 6      2726.274 6        37.977 6
G21  21208042.490 9 111448994.720 9     -1315.491 9        55.694 9  21208041.782 6         0.000 6     -1025.058 6        37.977 6
G29  24391006.160 9 128175544.530 9     -3161.360 9        54.442 9  24391007.831 6         0.000 6     -2463.400 6        37.977 6
G27  21932359.577 9 115255300.904 9      2483.937 9        55.403 9  21932361.485 6         0.000 6      1935.536 6        37.977 6
G16  20481880.095 9 107632986.058 9       473.839 9        55.983 9  20481879.268 6         0.000 6       369.225 6        37.977 6
G26  20697730.215 9 108767283.852 9     -1566.485 9        55.855 9  20697733.047 6         0.000 6     -1220.638 6        37.977 6
G20  21872971.100 9 114943206.491 9      2484.035 9        55.344 9  21872971.380 6         0.000 6      1935.613 6        37.977 6
> 2019 07 03 12 03 30.0000000  0  8       0.000000000000
G07  25284382.121 9 132870279.286 9      2130.543 9        54.153 9  25284382.758 6         0.000 6      1660.164 6        37.977 6
G10  23709332.990 9 124593332.704 9      3498.561 9        54.706 9  23709336.620 6         0.000 6      2726.154 6        37.977 6
G21  21208292.853 9 111450310.389 9     -1315.848 9        55.694 9  21208292.146 6         0.000 6     -1025.336 6        37.977 6
G29  24391607.755 9 128178705.921 9     -3161.443 9        54.442 9  24391609.426 6         0.000 6     -2463.465 6        37.977 6
G27  21931886.923 9 115252817.093 9      2483.690 9        55.403 9  21931888.831 6         0.000 6      1935.343 6        37.977 6
G16  20481789.986 9 107632512.531 9       473.214 9        55.983 9  20481789.159 6         0.000 6       368.738 6        37.977 6
G26  20698028.361 9 108768850.621 9     -1567.056 9        55.855 9  20698031.194 6         0.000 6     -1221.083 6        37.977 6
G20  21872498.447 9 114940722.689 9      2483.577 9        55.344 9  21872498.728 6         0.000 6      1935.256 6        37.977 6
> 2019 07 03 12 03 31.0000000  0  8       0.000000000000
G07  25283976.736 9 132868148.980 9      2130.076 9        54.153 9  25283977.373 6         0.000 6      1659.801 6        37.977 6
G10  23708667.251 9 124589834.230 9      3498.407 9        54.706 9  23708670.880 6         0.000 6      2726.034 6        37.977 6
G21  21208543.285 9 111451626.415 9     -1316.205 9        55.694 9  21208542.577 6         0.000 6     -1025.615 6        37.977 6
G29  24392209.365 9 128181867.395 9     -3161.526 9        54.442 9  24392211.037 6         0.000 6     -2463.530 6        37.977 6
G27  21931414.317 9 115250333.530 9      2483.442 9        55.403 9  21931416.224 6         0.000 6      1935.150 6        37.977 6
G16  20481699.996 9 107632039.630 9       472.589 9        55.983 9  20481699.169 6         0.000 6       368.251 6        37.977 6
G26  20698326.617 9 108770417.961 9     -1567.628 9        55.855 9  20698329.450 6         0.000 6     -1221.529 6        37.977 6
G20  21872025.882 9 114938239.346 9      2483.119 9        55.344 9  21872026.162 6         0.000 6      1934.899 6        37.977 6
> 2019 07 03 12 03 32.0000000  0  8       0.000000000000
G07  25283571.441 9 132866019.140 9      2129.610 9        54.153 9  25283572.077 6         0.000 6      1659.437 6        37.977 6
G10  23708001.541 9 124586335.911 9      3498.252 9        54.706 9  23708005.170 6         0.000 6      2725.913 6        37.977 6
G21  21208793.784 9 111452942.798 9     -1316.563 9        55.694 9  21208793.077 6         0.000 6     -1025.893 6        37.977 6
G29  24392810.991 9 128185028.952 9     -3161.609 9        54.442 9  24392812.664 6         0.000 6     -2463.594 6        37.977 6
G27  21930941.757 9 115247850.215 9      2483.194 9        55.403 9  21930943.664 6         0.000 6      1934.957 6        37.977 6
G16  20481610.125 9 107631567.353 9       471.964 9        55.983 9  20481609.297 6         0.000 6       367.764 6        37.977 6
G26  20698624.981 9 108771985.873 9     -1568.199 9        55.855 9  20698627.814 6         0.000 6     -1221.974 6        37.977 6
G20  21871553.403 9 114935756.460 9      2482.660 9        55.344 9  21871553.684 6         0.000 6      1934.542 6        37.977 6
> 2019 07 03 12 03 33.0000000  0  8       0.000000000000
G07  25283166.234 9 132863889.766 9      2129.144 9        54.153 9  25283166.870 6         0.000 6      1659.074 6        37.977 6
G10  23707335.861 9 124582837.747 9      3498.098 9        54.707 9  23707339.488 6         0.000 6      2725.793 6        37.977 6
G21  21209044.352 9 111454259.539 9     -1316.920 9        55.694 9  21209043.644 6         0.000 6     -1026.171 6        37.977 6
G29  24393412.634 9 128188190.593 9     -3161.692 9        54.442 9  24393414.307 6         0.000 6     -2463.659 6        37.977 6
G27  21930469.244 9 115245367.148 9      2482.946 9        55.404 9  21930471.151 6         0.000 6      1934.764 6        37.977 6
G16  20481520.372 9 107631095.702 9       471.339 9        55.983 9  20481519.545 6         0.000 6       367.277 6        37.977 6
G26  20698923.453 9 108773554.356 9     -1568.770 9        55.854 9  20698926.286 6         0.000 6     -1222.419 6        37.977 6
G20  21871081.013 9 114933274.034 9      2482.202 9        55.344 9  21871081.292 6         0.000 6      1934.184 6        37.977 6
> 2019 07 03 12 03 34.0000000  0  8       0.000000000000
G07  25282761.116 9 132861760.859 9      2128.677 9        54.154 9  25282761.752 6         0.000 6      1658.710 6        37.977 6
G10  23706670.210 9 124579339.737 9      3497.943 9        54.707 9  23706673.837 6         0.000 6      2725.672 6        37.977 6
G21  21209294.987 9 111455576.636 9     -1317.277 9        55.693 9  21209294.280 6         0.000 6     -1026.450 6        37.977 6
G29  24394014.291 9 128191352.316 9     -3161.775 9        54.441 9  24394015.965 6         0.000 6     -2463.724 6        37.977 6
G27  21929996.779 9 115242884.329 9      2482.698 9        55.404 9  21929998.686 6         0.000 6      1934.570 6        37.977 6
G16  20481430.739 9 107630624.675 9       470.714 9        55.983 9  20481429.912 6         0.000 6       366.790 6        37.977 6
G26  20699222.035 9 108775123.410 9     -1569.342 9        55.854 9  20699224.868 6         0.000 6     -1222.864 6        37.977 6
G20  21870608.709 9 114930792.066 9      2481.743 9        55.344 9  21870608.988 6         0.000 6      1933.827 6        37.977 6
> 2019 07 03 12 03 35.0000000  0  8       0.000000000000
G07  25282356.086 9 132859632.419 9      2128.211 9        54.154 9  25282356.722 6         0.000 6      1658.347 6        37.977 6
G10  23706004.588 9 124575841.881 9      3497.788 9        54.707 9  23706008.214 6         0.000 6      2725.552 6        37.977 6
G21  21209545.691 9 111456894.091 9     -1317.634 9        55.693 9  21209544.983 6         0.000 6     -1026.728 6        37.977 6
G29  24394615.965 9 128194514.122 9     -3161.858 9        54.441 9  24394617.640 6         0.000 6     -2463.788 6        37.977 6
G27  21929524.361 9 115240401.758 9      2482.450 9        55.404 9  21929526.268 6         0.000 6      1934.377 6        37.977 6
G16  20481341.224 9 107630154.273 9       470.090 9        55.983 9  20481340.397 6         0.000 6       366.304 6        37.977 6
G26  20699520.725 9 108776693.035 9     -1569.913 9        55.854 9  20699523.558 6         0.000 6     -1223.309 6        37.977 6
G20  21870136.492 9 114928310.556 9      2481.285 9        55.345 9  21870136.772 6         0.000 6      1933.470 6        37.977 6
> 2019 07 03 12 03 36.0000000  0  8       0.000000000000
G07  25281951.145 9 132857504.445 9      2127.744 9        54.154 9  25281951.781 6         0.000 6      1657.983 6        37.977 6
G10  23705338.996 9 124572344.181 9      3497.633 9        54.707 9  23705342.621 6         0.000 6      2725.431 6        37.977 6
G21  21209796.462 9 111458211.902 9     -1317.991 9        55.693 9  21209795.755 6         0.000 6     -1027.006 6        37.977 6
G29  24395217.655 9 128197676.011 9     -3161.941 9        54.441 9  24395219.330 6         0.000 6     -2463.853 6        37.977 6
G27  21929051.990 9 115237919.435 9      2482.201 9        55.404 9  21929053.897 6         0.000 6      1934.184 6        37.977 6
G16  20481251.829 9 107629684.496 9       469.465 9        55.983 9  20481251.002 6         0.000 6       365.817 6        37.977 6
G26  20699819.524 9 108778263.232 9     -1570.484 9        55.854 9  20699822.357 6         0.000 6     -1223.754 6        37.977 6
G20  21869664.363 9 114925829.505 9      2480.826 9        55.345 9  21869664.642 6         0.000 6      1933.112 6        37.977 6
> 2019 07 03 12 03 37.0000000  0  8       0.000000000000
G07  25281546.294 9 132855376.937 9      2127.278 9        54.154 9  25281546.929 6         0.000 6      1657.620 6        37.977 6
G10  23704673.433 9 124568846.635 9      3497.478 9        54.708 9  23704677.058 6         0.000 6      2725.310 6        37.977 6
G21  21210047.301 9 111459530.070 9     -1318.348 9        55.693 9  21210046.594 6         0.000 6     -1027.284 6        37.977 6
G29  24395819.360 9 128200837.983 9     -3162.024 9        54.441 9  24395821.036 6         0.000 6     -2463.917 6        37.977 6
G27  21928579.667 9 115235437.361 9      2481.953 9        55.404 9  21928581.573 6         0.000 6      1933.990 6        37.977 6
G16  20481162.552 9 107629215.343 9       468.840 9        55.983 9  20481161.725 6         0.000 6       365.330 6        37.977 6
G26  20700118.431 9 108779834.000 9     -1571.055 9        55.854 9  20700121.265 6         0.000 6     -1224.199 6        37.977 6
G20  21869192.322 9 114923348.913 9      2480.367 9        55.345 9  21869192.600 6         0.000 6      1932.755 6        37.977 6
> 2019 07 03 12 03 38.0000000  0  8       0.000000000000
G07  25281141.531 9 132853249.897 9      2126.811 9        54.154 9  25281142.166 6         0.000 6      1657.256 6        37.977 6
G10  23704007.900 9 124565349.245 9      3497.323 9        54.708 9  23704011.524 6         0.000 6      2725.190 6        37.977 6
G21  21210298.208 9 111460848.596 9     -1318.704 9        55.693 9  21210297.501 6         0.000 6     -1027.562 6        37.977 6
G29  24396421.081 9 128204000.038 9     -3162.107 9        54.440 9  24396422.758 6         0.000 6     -2463.982 6        37.977 6
G27  21928107.390 9 115232955.534 9      2481.705 9        55.405 9  21928109.296 6         0.000 6      1933.797 6        37.977 6
G16  20481073.394 9 107628746.816 9       468.215 9        55.983 9  20481072.567 6         0.000 6       364.843 6        37.977 6
G26  20700417.447 9 108781405.338 9     -1571.626 9        55.854 9  20700420.281 6         0.000 6     -1224.644 6        37.977 6
G20  21868720.367 9 114920868.779 9      2479.908 9        55.345 9  21868720.646 6         0.000 6      1932.397 6        37.977 6
> 2019 07 03 12 03 39.0000000  0  8       0.000000000000
G07  25280736.856 9 132851123.323 9      2126.344 9        54.154 9  25280737.491 6         0.000 6      1656.892 6        37.977 6
G10  23703342.396 9 124561852.009 9      3497.168 9        54.708 9  23703346.020 6         0.000 6      2725.069 6        37.977 6
G21  21210549.183 9 111462167.478 9     -1319.061 9        55.693 9  21210548.476 6         0.000 6     -1027.840 6        37.977 6
G29  24397022.818 9 128207162.175 9     -3162.190 9        54.440 9  24397024.495 6         0.000 6     -2464.047 6        37.977 6
G27  21927635.161 9 115230473.956 9      2481.457 9        55.405 9  21927637.067 6         0.000 6      1933.603 6        37.977 6
G16  20480984.356 9 107628278.914 9       467.589 9        55.983 9  20480983.528 6         0.000 6       364.355 6        37.977 6
G26  20700716.572 9 108782977.249 9     -1572.197 9        55.854 9  20700719.406 6         0.000 6     -1225.089 6        37.977 6
G20  21868248.500 9 114918389.105 9      2479.449 9        55.345 9  21868248.778 6         0.000 6      1932.039 6        37.977 6
> 2019 07 03 12 03 40.0000000  0  8       0.000000000000
G07  25280332.271 9 132848997.216 9      2125.877 9        54.154 9  25280332.906 6         0.000 6      1656.528 6        37.977 6
G10  23702676.922 9 124558354.929 9      3497.013 9        54.708 9  23702680.545 6         0.000 6      2724.948 6        37.977 6
G21  21210800.226 9 111463486.716 9     -1319.418 9        55.693 9  21210799.519 6         0.000 6     -1028.118 6        37.977 6
G29  24397624.570 9 128210324.396 9     -3162.272 9        54.440 9  24397626.248 6         0.000 6     -2464.111 6        37.977 6
G27  21927162.979 9 115227992.626 9      2481.208 9        55.405 9  21927164.885 6         0.000 6      1933.410 6        37.977 6
G16  20480895.436 9 107627811.637 9       466.964 9        55.984 9  20480894.609 6         0.000 6       363.868 6        37.977 6
G26  20701015.806 9 108784549.730 9     -1572.769 9        55.854 9  20701018.640 6         0.000 6     -1225.534 6        37.977 6
G20  21867776.720 9 114915909.890 9      2478.990 9        55.346 9  21867776.998 6         0.000 6      1931.682 6        37.977 6
> 2019 07 03 12 03 41.0000000  0  8       0.000000000000
G07  25279927.774 9 132846871.576 9      2125.410 9        54.155 9  25279928.409 6         0.000 6      1656.165 6        37.977 6
G10  23702011.477 9 124554858.004 9      3496.858 9        54.709 9  23702015.100 6         0.000 6      2724.827 6        37.977 6
G21  21211051.337 9 111464806.312 9     -1319.775 9        55.693 9  21211050.630 6         0.000 6     -1028.396 6        37.977 6
G29  24398226.339 9 128213486.699 9     -3162.355 9        54.440 9  24398228.017 6         0.000 6     -2464.176 6        37.977 6
G27  21926690.845 9 115225511.545 9      2480.960 9        55.405 9  21926692.750 6         0.000 6      1933.216 6        37.977 6
G16  20480806.635 9 107627344.985 9       466.339 9        55.984 9  20480805.808 6         0.000 6       363.381 6        37.977 6
G26  20701315.148 9 108786122.782 9     -1573.340 9        55.853 9  20701317.982 6         0.000 6     -1225.979 6        37.977 6
G20  21867305.028 9 114913431.134 9      2478.531 9        55.346 9  21867305.305 6         0.000 6      1931.324 6        37.977 6
> 2019 07 03 12 03 42.0000000  0  8       0.000000000000
G07  25279523.367 9 132844746.402 9      2124.943 9        54.155 9  25279524.001 6         0.000 6      1655.801 6        37.977 6
G10  23701346.062 9 124551361.234 9      3496.702 9        54.709 9  23701349.684 6         0.000 6      2724.706 6        37.977 6
G21  21211302.516 9 111466126.264 9     -1320.131 9        55.693 9  21211301.809 6         0.000 6     -1028.674 6        37.977 6
G29  24398828.123 9 128216649.085 9     -3162.438 9        54.440 9  24398829.802 6         0.000 6     -2464.240 6        37.977 6
G27  21926218.757 9 115223030.711 9      2480.712 9        55.405 9  21926220.663 6         0.000 6      1933.023 6        37.977 6
G16  20480717.953 9 107626878.959 9       465.714 9        55.984 9  20480717.126 6         0.000 6       362.894 6        37.977 6
G26  20701614.599 9 108787696.405 9     -1573.911 9        55.853 9  20701617.433 6         0.000 6     -1226.424 6        37.977 6
G20  21866833.423 9 114910952.837 9      2478.072 9        55.346 9  21866833.700 6         0.000 6      1930.966 6        37.977 6
> 2019 07 03 12 03 43.0000000  0  8       0.000000000000
G07  25279119.048 9 132842621.696 9      2124.476 9        54.155 9  25279119.682 6         0.000 6      1655.437 6        37.977 6
G10  23700680.676 9 124547864.620 9      3496.547 9        54.709 9  23700684.298 6         0.000 6      2724.584 6        37.977 6
G21  21211553.762 9 111467446.573 9     -1320.488 9        55.693 9  21211553.055 6         0.000 6     -1028.952 6        37.977 6
G29  24399429.923 9 128219811.554 9     -3162.521 9        54.439 9  24399431.602 6         0.000 6     -2464.305 6        37.977 6
G27  21925746.717 9 115220550.126 9      2480.463 9        55.406 9  21925748.622 6         0.000 6      1932.829 6        37.977 6
G16  20480629.390 9 107626413.557 9       465.089 9        55.984 9  20480628.563 6         0.000 6       362.407 6        37.977 6
G26  20701914.159 9 108789270.599 9     -1574.481 9        55.853 9  20701916.993 6         0.000 6     -1226.869 6        37.977 6
G20  21866361.905 9 114908474.999 9      2477.612 9        55.346 9  21866362.182 6         0.000 6      1930.608 6        37.977 6
> 2019 07 03 12 03 44.0000000  0  8       0.000000000000
G07  25278714.818 9 132840497.458 9      2124.009 9        54.155 9  25278715.452 6         0.000 6      1655.073 6        37.977 6
G10  23700015.320 9 124544368.161 9      3496.391 9        54.709 9  23700018.941 6         0.000 6      2724.463 6        37.977 6
G21  21211805.077 9 111468767.238 9     -1320.844 9        55.692 9  21211804.370 6         0.000 6     -1029.229 6        37.977 6
G29  24400031.738 9 128222974.105 9     -3162.604 9        54.439 9  24400033.419 6         0.000 6     -2464.369 6        37.977 6
G27  21925274.724 9 115218069.790 9      2480.215 9        55.406 9  21925276.629 6         0.000 6      1932.636 6        37.977 6
G16  20480540.946 9 107625948.781 9       464.464 9        55.984 9  20480540.119 6         0.000 6       361.920 6        37.977 6
G26  20702213.827 9 108790845.364 9     -1575.052 9        55.853 9  20702216.661 6         0.000 6     -1227.314 6        37.977 6
G20  21865890.475 9 114905997.621 9      2477.153 9        55.346 9  21865890.752 6         0.000 6      1930.250 6        37.977 6
> 2019 07 03 12 03 45.0000000  0  8       0.000000000000
G07  25278310.677 9 132838373.686 9      2123.541 9        54.155 9  25278311.311 6         0.000 6      1654.708 6        37.977 6
G10  23699349.994 9 124540871.859 9      3496.235 9        54.710 9  23699353.614 6         0.000 6      2724.342 6        37.977 6
G21  21212056.459 9 111470088.259 9     -1321.201 9        55.692 9  21212055.752 6         0.000 6     -1029.507 6        37.977 6
G29  24400633.569 9 128226136.739 9     -3162.686 9        54.439 9  24400635.251 6         0.000 6     -2464.433 6        37.977 6
G27  21924802.779 9 115215589.702 9      2479.966 9        55.406 9  21924804.683 6         0.000 6      1932.442 6        37.977 6
G16  20480452.621 9 107625484.630 9       463.838 9        55.984 9  20480451.794 6         0.000 6       361.433 6        37.977 6
G26  20702513.603 9 108792420.700 9     -1575.623 9        55.853 9  20702516.438 6         0.000 6     -1227.759 6        37.977 6
G20  21865419.132 9 114903520.703 9      2476.693 9        55.347 9  21865419.409 6         0.000 6      1929.892 6        37.977 6
> 2019 07 03 12 03 46.0000000  0  8       0.000000000000
G07  25277906.625 9 132836250.382 9      2123.074 9        54.155 9  25277907.259 6         0.000 6      1654.344 6        37.977 6
G10  23698684.698 9 124537375.712 9      3496.079 9        54.710 9  23698688.317 6         0.000 6      2724.220 6        37.977 6
G21  21212307.909 9 111471409.637 9     -1321.557 9        55.692 9  21212307.202 6         0.000 6     -1029.785 6        37.977 6
G29  24401235.417 9 128229299.456 9     -3162.769 9        54.439 9  24401237.098 6         0.000 6     -2464.498 6        37.977 6
G27  21924330.880 9 115213109.862 9      2479.718 9        55.406 9  21924332.785 6         0.000 6      1932.248 6        37.977 6
G16  20480364.415 9 107625021.104 9       463.213 9        55.984 9  20480363.588 6         0.000 6       360.945 6        37.977 6
G26  20702813.489 9 108793996.607 9     -1576.194 9        55.853 9  20702816.324 6         0.000 6     -1228.204 6        37.977 6
G20  21864947.877 9 114901044.244 9      2476.233 9        55.347 9  21864948.153 6         0.000 6      1929.534 6        37.977 6
> 2019 07 03 12 03 47.0000000  0  8       0.000000000000
G07  25277502.662 9 132834127.545 9      2122.607 9        54.155 9  25277503.295 6         0.000 6      1653.980 6        37.977 6
G10  23698019.431 9 124533879.721 9      3495.923 9        54.710 9  23698023.050 6         0.000 6      2724.099 6        37.977 6
G21  21212559.427 9 111472731.372 9     -1321.913 9        55.692 9  21212558.720 6         0.000 6     -1030.063 6        37.977 6
G29  24401837.279 9 128232462.256 9     -3162.852 9        54.439 9  24401838.962 6         0.000 6     -2464.562 6        37.977 6
G27  21923859.029 9 115210630.271 9      2479.469 9        55.406 9  21923860.934 6         0.000 6      1932.055 6        37.977 6
G16  20480276.328 9 107624558.204 9       462.588 9        55.984 9  20480275.501 6         0.000 6       360.458 6        37.977 6
G26  20703113.483 9 108795573.084 9     -1576.765 9        55.853 9  20703116.318 6         0.000 6     -1228.648 6        37.977 6
G20  21864476.709 9 114898568.244 9      2475.774 9        55.347 9  21864476.985 6         0.000 6      1929.175 6        37.977 6
> 2019 07 03 12 03 48.0000000  0  8       0.000000000000
G07  25277098.788 9 132832005.175 9      2122.139 9        54.156 9  25277099.421 6         0.000 6      1653.616 6        37.977 6
G10  23697354.194 9 124530383.886 9      3495.767 9        54.710 9  23697357.812 6         0.000 6      2723.977 6        37.977 6
G21  21212811.012 9 111474053.463 9     -1322.270 9        55.692 9  21212810.306 6         0.000 6     -1030.340 6        37.977 6
G29  24402439.158 9 128235625.138 9     -3162.934 9        54.438 9  24402440.841 6         0.000 6     -2464.627 6        37.977 6
G27  21923387.226 9 115208150.929 9      2479.221 9        55.406 9  21923389.130 6         0.000 6      1931.861 6        37.977 6
G16  20480188.360 9 107624095.929 9       461.962 9        55.984 9  20480187.533 6         0.000 6       359.971 6        37.977 6
G26  20703413.586 9 108797150.132 9     -1577.336 9        55.853 9  20703416.421 6         0.000 6     -1229.093 6        37.977 6
G20  21864005.629 9 114896092.705 9      2475.314 9        55.347 9  21864005.904 6         0.000 6      1928.817 6        37.977 6
> 2019 07 03 12 03 49.0000000  0  8       0.000000000000
G07  25276695.003 9 132829883.273 9      2121.672 9        54.156 9  25276695.636 6         0.000 6      1653.251 6        37.977 6
G10  23696688.986 9 124526888.207 9      3495.611 9        54.711 9  23696692.604 6         0.000 6      2723.855 6        37.977 6
G21  21213062.666 9 111475375.910 9     -1322.626 9        55.692 9  21213061.959 6         0.000 6     -1030.618 6        37.977 6
G29  24403041.052 9 128238788.103 9     -3163.017 9        54.438 9  24403042.736 6         0.000 6     -2464.691 6        37.977 6
G27  21922915.469 9 115205671.835 9      2478.972 9        55.407 9  21922917.373 6         0.000 6      1931.667 6        37.977 6
G16  20480100.511 9 107623634.279 9       461.337 9        55.984 9  20480099.684 6         0.000 6       359.483 6        37.977 6
G26  20703713.797 9 108798727.751 9     -1577.906 9        55.852 9  20703716.632 6         0.000 6     -1229.538 6        37.977 6
G20  21863534.636 9 114893617.625 9      2474.854 9        55.347 9  21863534.911 6         0.000 6      1928.459 6        37.977 6
> 2019 07 03 12 03 50.0000000  0  8       0.000000000000
G07  25276291.307 9 132827761.839 9      2121.204 9        54.156 9  25276291.939 6         0.000 6      1652.887 6        37.977 6
G10  23696023.808 9 124523392.685 9      3495.455 9        54.711 9  23696027.425 6         0.000 6      2723.733 6        37.977 6
G21  21213314.387 9 111476698.713 9     -1322.982 9        55.692 9  21213313.680 6         0.000 6     -1030.895 6        37.977 6
G29  24403642.962 9 128241951.150 9     -3163.099 9        54.438 9  24403644.646 6         0.000 6     -2464.755 6        37.977 6
G27  21922443.760 9 115203192.990 9      2478.723 9        55.407 9  21922445.664 6         0.000 6      1931.474 6        37.977 6
G16  20480012.781 9 107623173.255 9       460.712 9        55.984 9  20480011.954 6         0.000 6       358.996 6        37.977 6
G26  20704014.117 9 108800305.941 9     -1578.477 9        55.852 9  20704016.952 6         0.000 6     -1229.982 6        37.977 6
G20  21863063.731 9 114891143.006 9      2474.394 9        55.347 9  21863064.006 6         0.000 6      1928.100 6        37.977 6
> 2019 07 03 12 03 51.0000000  0  8       0.000000000000
G07  25275887.699 9 132825640.872 9      2120.736 9        54.156 9  25275888.332 6         0.000 6      1652.523 6        37.977 6
G10  23695358.660 9 124519897.319 9      3495.298 9        54.711 9  23695362.277 6         0.000 6      2723.612 6        37.977 6
G21  21213566.176 9 111478021.872 9     -1323.338 9        55.692 9  21213565.469 6         0.000 6     -1031.173 6        37.977 6
G29  24404244.888 9 128245114.280 9     -3163.182 9        54.438 9  24404246.573 6         0.000 6     -2464.820 6        37.977 6
G27  21921972.099 9 115200714.393 9      2478.475 9        55.407 9  21921974.002 6         0.000 6      1931.280 6        37.977 6
G16  20479925.170 9 107622712.856 9       460.086 9        55.984 9  20479924.343 6         0.000 6       358.509 6        37.977 6
G26  20704314.545 9 108801884.701 9     -1579.048 9        55.852 9  20704317.381 6         0.000 6     -1230.427 6        37.977 6
G20  21862592.913 9 114888668.846 9      2473.934 9        55.348 9  21862593.188 6         0.000 6      1927.742 6        37.977 6
> 2019 07 03 12 03 52.0000000  0  8       0.000000000000
G07  25275484.181 9 132823520.373 9      2120.268 9        54.156 9  25275484.814 6         0.000 6      1652.158 6        37.977 6
G10  23694693.542 9 124516402.109 9      3495.142 9        54.711 9  23694697.158 6         0.000 6      2723.490 6        37.977 6
G21  21213818.033 9 111479345.387 9     -1323.694 9        55.692 9  21213817.326 6         0.000 6     -1031.450 6        37.977 6
G29  24404846.829 9 128248277.493 9     -3163.264 9        54.437 9  24404848.515 6         0.000 6     -2464.884 6        37.977 6
G27  21921500.484 9 115198236.045 9      2478.226 9        55.407 9  21921502.388 6         0.000 6      1931.086 6        37.977 6
G16  20479837.678 9 107622253.083 9       459.461 9        55.984 9  20479836.851 6         0.000 6       358.021 6        37.977 6
G26  20704615.082 9 108803464.032 9     -1579.618 9        55.852 9  20704617.918 6         0.000 6     -1230.872 6        37.977 6
G20  21862122.183 9 114886195.147 9      2473.474 9        55.348 9  21862122.457 6         0.000 6      1927.383 6        37.977 6
> 2019 07 03 12 03 53.0000000  0  8       0.000000000000
G07  25275080.752 9 132821400.342 9      2119.801 9        54.156 9  25275081.384 6         0.000 6      1651.794 6        37.977 6
G10  23694028.454 9 124512907.056 9      3494.985 9        54.712 9  23694032.069 6         0.000 6      2723.368 6        37.977 6
G21  21214069.957 9 111480669.259 9     -1324.050 9        55.691 9  21214069.251 6         0.000 6     -1031.728 6        37.977 6
G29  24405448.786 9 128251440.788 9     -3163.347 9        54.437 9  24405450.472 6         0.000 6     -2464.948 6        37.977 6
G27  21921028.917 9 115195757.946 9      2477.977 9        55.407 9  21921030.821 6         0.000 6      1930.892 6        37.977 6
G16  20479750.305 9 107621793.935 9       458.835 9        55.984 9  20479749.478 6         0.000 6       357.534 6        37.977 6
G26  20704915.728 9 108805043.934 9     -1580.189 9        55.852 9  20704918.563 6         0.000 6     -1231.316 6        37.977 6
G20  21861651.540 9 114883721.907 9      2473.013 9        55.348 9  21861651.815 6         0.000 6      1927.024 6        37.977 6
> 2019 07 03 12 03 54.0000000  0  8       0.000000000000
G07  25274677.412 9 132819280.779 9      2119.333 9        54.156 9  25274678.044 6         0.000 6      1651.429 6        37.977 6
G10  23693363.395 9 124509412.159 9      3494.828 9        54.712 9  23693367.009 6         0.000 6      2723.245 6        37.977 6
G21  21214321.950 9 111481993.486 9     -1324.406 9        55.691 9  21214321.243 6         0.000 6     -1032.005 6        37.977 6
G29  24406050.759 9 128254604.165 9     -3163.429 9        54.437 9  24406052.446 6         0.000 6     -2465.013 6        37.977 6
G27  21920557.397 9 115193280.096 9      2477.728 9        55.408 9  21920559.301 6         0.000 6      1930.698 6        37.977 6
G16  20479663.051 9 107621335.413 9       458.209 9        55.984 9  20479662.224 6         0.000 6       357.046 6        37.977 6
G26  20705216.482 9 108806624.406 9     -1580.759 9        55.852 9  20705219.318 6         0.000 6     -1231.761 6        37.977 6
G20  21861180.985 9 114881249.129 9      2472.553 9        55.348 9  21861181.259 6         0.000 6      1926.666 6        37.977 6
> 2019 07 03 12 03 55.0000000  0  8       0.000000000000
G07  25274274.161 9 132817161.684 9      2118.865 9        54.156 9  25274274.793 6         0.000 6      1651.064 6        37.977 6
G10  23692698.366 9 124505917.420 9      3494.671 9        54.712 9  23692701.980 6         0.000 6      2723.123 6        37.977 6
G21  21214574.010 9 111483318.069 9     -1324.762 9        55.691 9  21214573.303 6         0.000 6     -1032.282 6        37.977 6
G29  24406652.747 9 128257767.625 9     -3163.512 9        54.437 9  24406654.435 6         0.000 6     -2465.077 6        37.977 6
G27  21920085.925 9 115190802.495 9      2477.480 9        55.408 9  21920087.828 6         0.000 6      1930.504 6        37.977 6
G16  20479575.916 9 107620877.516 9       457.584 9        55.984 9  20479575.089 6         0.000 6       356.559 6        37.977 6
G26  20705517.345 9 108808205.448 9     -1581.330 9        55.852 9  20705520.181 6         0.000 6     -1232.205 6        37.977 6
G20  21860710.518 9 114878776.810 9      2472.092 9        55.348 9  21860710.792 6         0.000 6      1926.307 6        37.977 6
> 2019 07 03 12 03 56.0000000  0  8       0.000000000000
G07  25273870.999 9 132815043.057 9      2118.397 9        54.157 9  25273871.630 6         0.000 6      1650.699 6        37.977 6
G10  23692033.367 9 124502422.837 9      3494.515 9        54.712 9  23692036.980 6         0.000 6      2723.001 6        37.977 6
G21  21214826.137 9 111484643.008 9     -1325.118 9        55.691 9  21214825.431 6         0.000 6     -1032.560 6        37.977 6
G29  24407254.751 9 128260931.168 9     -3163.594 9        54.437 9  24407256.440 6         0.000 6     -2465.141 6        37.977 6
G27  21919614.500 9 115188325.143 9      2477.231 9        55.408 9  21919616.403 6         0.000 6      1930.310 6        37.977 6
G16  20479488.901 9 107620420.245 9       456.958 9        55.984 9  20479488.073 6         0.000 6       356.071 6        37.977 6
G26  20705818.316 9 108809787.061 9     -1581.900 9        55.852 9  20705821.152 6         0.000 6     -1232.650 6        37.977 6
G20  21860240.138 9 114876304.952 9      2471.632 9        55.349 9  21860240.412 6         0.000 6      1925.948 6        37.977 6
> 2019 07 03 12 03 57.0000000  0  8       0.000000000000
G07  25273467.926 9 132812924.898 9      2117.928 9        54.157 9  25273468.557 6         0.000 6      1650.335 6        37.977 6
G10  23691368.398 9 124498928.411 9      3494.357 9        54.713 9  23691372.011 6         0.000 6      2722.879 6        37.977 6
G21  21215078.333 9 111485968.303 9     -1325.474 9        55.691 9  21215077.626 6         0.000 6     -1032.837 6        37.977 6
G29  24407856.771 9 128264094.793 9     -3163.677 9        54.436 9  24407858.460 6         0.000 6     -2465.205 6        37.977 6
G27  21919143.122 9 115185848.039 9      2476.982 9        55.408 9  21919145.025 6         0.000 6      1930.116 6        37.977 6
G16  20479402.004 9 107619963.600 9       456.332 9        55.984 9  20479401.177 6         0.000 6       355.584 6        37.977 6
G26  20706119.396 9 108811369.245 9     -1582.470 9        55.851 9  20706122.232 6         0.000 6     -1233.094 6        37.977 6
G20  21859769.846 9 114873833.555 9      2471.171 9        55.349 9  21859770.119 6         0.000 6      1925.589 6        37.977 6
> 2019 07 03 12 03 58.0000000  0  8       0.000000000000
G07  25273064.942 9 132810807.207 9      2117.460 9        54.157 9  25273065.573 6         0.000 6      1649.970 6        37.977 6
G10  23690703.459 9 124495434.142 9      3494.200 9        54.713 9  23690707.071 6         0.000 6      2722.756 6        37.977 6
G21  21215330.596 9 111487293.954 9     -1325.829 9        55.691 9  21215329.889 6         0.000 6     -1033.114 6        37.977 6
G29  24408458.807 9 128267258.500 9     -3163.759 9        54.436 9  24408460.496 6         0.000 6     -2465.270 6        37.977 6
G27  21918671.792 9 115183371.185 9      2476.733 9        55.408 9  21918673.695 6         0.000 6      1929.922 6        37.977 6
G16  20479315.226 9 107619507.580 9       455.707 9        55.984 9  20479314.399 6         0.000 6       355.096 6        37.977 6
G26  20706420.584 9 108812951.998 9     -1583.041 9        55.851 9  20706423.420 6         0.000 6     -1233.539 6        37.977 6
G20  21859299.642 9 114871362.619 9      2470.710 9        55.349 9  21859299.915 6         0.000 6      1925.230 6        37.977 6
> 2019 07 03 12 03 59.0000000  0  8       0.000000000000
G07  25272662.048 9 132808689.985 9      2116.992 9        54.157 9  25272662.678 6         0.000 6      1649.605 6        37.977 6
G10  23690038.550 9 124491940.031 9      3494.043 9        54.713 9  23690042.161 6         0.000 6      2722.634 6        37.977 6
G21  21215582.926 9 111488619.960 9     -1326.185 9        55.691 9  21215582.220 6         0.000 6     -1033.391 6        37.977 6
G29  24409060.858 9 128270422.290 9     -3163.841 9        54.436 9  24409062.548 6         0.000 6     -2465.334 6        37.977 6
G27  21918200.509 9 115180894.579 9      2476.484 9        55.409 9  21918202.412 6         0.000 6      1929.728 6        37.977 6
G16  20479228.568 9 107619052.186 9       455.081 9        55.984 9  20479227.741 6         0.000 6       354.609 6        37.977 6
G26  20706721.881 9 108814535.322 9     -1583.611 9        55.851 9  20706724.717 6         0.000 6     -1233.983 6        37.977 6
G20  21858829.525 9 114868892.143 9      2470.250 9        55.349 9  21858829.798 6         0.000 6      1924.871 6        37.977 6
> 2019 07 03 12 04  0.0000000  0  8       0.000000000000
G07  25272259.242 9 132806573.230 9      2116.523 9        54.157 9  25272259.873 6         0.000 6      1649.240 6        37.977 6
G10  23689373.670 9 124488446.077 9      3493.886 9        54.713 9  23689377.281 6         0.000 6      2722.511 6        37.977 6
G21  21215835.325 9 111489946.322 9     -1326.541 9        55.691 9  21215834.619 6         0.000 6     -1033.668 6        37.977 6
G29  24409662.925 9 128273586.162 9     -3163.924 9        54.436 9  24409664.616 6         0.000 6     -2465.398 6        37.977 6
G27  21917729.274 9 115178418.223 9      2476.235 9        55.409 9  21917731.176 6         0.000 6      1929.534 6        37.977 6
G16  20479142.028 9 107618597.418 9       454.455 9        55.984 9  20479141.201 6         0.000 6       354.121 6        37.977 6
G26  20707023.287 9 108816119.217 9     -1584.181 9        55.851 9  20707026.123 6         0.000 6     -1234.427 6        37.977 6
G20  21858359.496 9 114866422.128 9      2469.789 9        55.349 9  21858359.769 6         0.000 6      1924.512 6        37.977 6
> 2019 07 03 12 04  1.0000000  0  8       0.000000000000
G07  25271856.526 9 132804456.945 9      2116.055 9        54.157 9  25271857.156 6         0.000 6      1648.875 6        37.977 6
G10  23688708.821 9 124484952.280 9      3493.728 9        54.714 9  23688712.431 6         0.000 6      2722.388 6        37.977 6
G21  21216087.791 9 111491273.040 9     -1326.896 9        55.691 9  21216087.085 6         0.000 6     -1033.945 6        37.977 6
G29  24410265.007 9 128276750.116 9     -3164.006 9        54.436 9  24410266.699 6         0.000 6     -2465.462 6        37.977 6
G27  21917258.086 9 115175942.115 9      2475.985 9        55.409 9  21917259.988 6         0.000 6      1929.340 6        37.977 6
G16  20479055.608 9 107618143.276 9       453.829 9        55.984 9  20479054.781 6         0.000 6       353.633 6        37.977 6
G26  20707324.801 9 108817703.681 9     -1584.752 9        55.851 9  20707327.637 6         0.000 6     -1234.872 6        37.977 6
G20  21857889.555 9 114863952.574 9      2469.328 9        55.349 9  21857889.827 6         0.000 6      1924.152 6        37.977 6
> 2019 07 03 12 04  2.0000000  0  8       0.000000000000
G07  25271453.898 9 132802341.127 9      2115.586 9        54.157 9  25271454.528 6         0.000 6      1648.510 6        37.977 6
G10  23688044.002 9 124481458.641 9      3493.571 9        54.714 9  23688047.611 6         0.000 6      2722.265 6        37.977 6
G21  21216340.325 9 111492600.113 9     -1327.252 9        55.691 9  21216339.619 6         0.000 6     -1034.222 6        37.977 6
G29  24410867.105 9 128279914.152 9     -3164.088 9        54.435 9  24410868.798 6         0.000 6     -2465.526 6        37.977 6
G27  21916786.945 9 115173466.257 9      2475.736 9        55.409 9  21916788.847 6         0.000 6      1929.146 6        37.977 6
G16  20478969.307 9 107617689.760 9       453.203 9        55.984 9  20478968.479 6         0.000 6       353.146 6        37.977 6
G26  20707626.423 9 108819288.716 9     -1585.322 9        55.851 9  20707629.260 6         0.000 6     -1235.316 6        37.977 6
G20  21857419.701 9 114861483.482 9      2468.866 9        55.350 9  21857419.973 6         0.000 6      1923.793 6        37.977 6
> 2019 07 03 12 04  3.0000000  0  8       0.000000000000
G07  25271051.360 9 132800225.779 9      2115.118 9        54.158 9  25271051.990 6         0.000 6      1648.145 6        37.977 6
G10  23687379.212 9 124477965.159 9      3493.413 9        54.714 9  23687382.821 6         0.000 6      2722.143 6        37.977 6
G21  21216592.926 9 111493927.541 9     -1327.607 9        55.690 9  21216592.220 6         0.000 6     -1034.499 6        37.977 6
G29  24411469.219 9 128283078.271 9     -3164.171 9        54.435 9  24411470.912 6         0.000 6     -2465.590 6        37.977 6
G27  21916315.852 9 115170990.648 9      2475.487 9        55.409 9  21916317.754 6         0.000 6      1928.952 6        37.977 6
G16  20478883.124 9 107617236.869 9       452.578 9        55.984 9  20478882.297 6         0.000 6       352.658 6        37.977 6
G26  20707928.154 9 108820874.321 9     -1585.892 9        55.851 9  20707930.991 6         0.000 6     -1235.760 6        37.977 6
G20  21856949.935 9 114859014.850 9      2468.405 9        55.350 9  21856950.207 6         0.000 6      1923.434 6        37.977 6
> 2019 07 03 12 04  4.0000000  0  8       0.000000000000
G07  25270648.911 9 132798110.899 9      2114.649 9        54.158 9  25270649.541 6         0.000 6      1647.779 6        37.977 6
G10  23686714.453 9 124474471.835 9      3493.255 9        54.714 9  23686718.061 6         0.000 6      2722.020 6        37.977 6
G21  21216845.595 9 111495255.325 9     -1327.962 9        55.690 9  21216844.889 6         0.000 6     -1034.776 6        37.977 6
G29  24412071.349 9 128286242.472 9     -3164.253 9        54.435 9  24412073.042 6         0.000 6     -2465.654 6        37.977 6
G27  21915844.806 9 115168515.288 9      2475.238 9        55.409 9  21915846.708 6         0.000 6      1928.757 6        37.977 6
G16  20478797.061 9 107616784.605 9       451.952 9        55.984 9  20478796.234 6         0.000 6       352.170 6        37.977 6
G26  20708229.993 9 108822460.496 9     -1586.462 9        55.851 9  20708232.830 6         0.000 6     -1236.205 6        37.977 6
G20  21856480.257 9 114856546.680 9      2467.944 9        55.350 9  21856480.529 6         0.000 6      1923.074 6        37.977 6
> 2019 07 03 12 04  5.0000000  0  8       0.000000000000
G07  25270246.551 9 132795996.487 9      2114.180 9        54.158 9  25270247.181 6         0.000 6      1647.414 6        37.977 6
G10  23686049.724 9 124470978.669 9      3493.097 9        54.714 9  23686053.331 6         0.000 6      2721.897 6        37.977 6
G21  21217098.332 9 111496583.464 9     -1328.318 9        55.690 9  21217097.626 6         0.000 6     -1035.053 6        37.977 6
G29  24412673.494 9 128289406.756 9     -3164.335 9        54.435 9  24412675.188 6         0.000 6     -2465.718 6        37.977 6
G27  21915373.808 9 115166040.178 9      2474.989 9        55.410 9  21915375.709 6         0.000 6      1928.563 6        37.977 6
G16  20478711.117 9 107616332.966 9       451.326 9        55.984 9  20478710.290 6         0.000 6       351.682 6        37.977 6
G26  20708531.941 9 108824047.241 9     -1587.032 9        55.850 9  20708534.778 6         0.000 6     -1236.649 6        37.977 6
G20  21856010.667 9 114854078.971 9      2467.482 9        55.350 9  21856010.939 6         0.000 6      1922.715 6        37.977 6
> 2019 07 03 12 04  6.0000000  0  8       0.000000000000
G07  25269844.281 9 132793882.545 9      2113.712 9        54.158 9  25269844.910 6         0.000 6      1647.049 6        37.977 6
G10  23685385.024 9 124467485.661 9      3492.939 9        54.715 9  23685388.631 6         0.000 6      2721.773 6        37.977 6
G21  21217351.136 9 111497911.959 9     -1328.673 9        55.690 9  21217350.430 6         0.000 6     -1035.330 6        37.977 6
G29  24413275.655 9 128292571.121 9     -3164.417 9        54.434 9  24413277.349 6         0.000 6     -2465.782 6        37.977 6
G27  21914902.857 9 115163565.316 9      2474.739 9        55.410 9  21914904.758 6         0.000 6      1928.369 6        37.977 6
G16  20478625.293 9 107615881.953 9       450.700 9        55.984 9  20478624.465 6         0.000 6       351.194 6        37.977 6
G26  20708833.998 9 108825634.556 9     -1587.602 9        55.850 9  20708836.835 6         0.000 6     -1237.093 6        37.977 6
G20  21855541.165 9 114851611.724 9      2467.021 9        55.350 9  21855541.436 6         0.000 6      1922.355 6        37.977 6
> 2019 07 03 12 04  7.0000000  0  8       0.000000000000
G07  25269442.100 9 132791769.071 9      2113.243 9        54.158 9  25269442.729 6         0.000 6      1646.683 6        37.977 6
G10  23684720.355 9 124463992.811 9      3492.781 9        54.715 9  23684723.961 6         0.000 6      2721.650 6        37.977 6
G21  21217604.008 9 111499240.809 9     -1329.028 9        55.690 9  21217603.302 6         0.000 6     -1035.607 6        37.977 6
G29  24413877.831 9 128295735.569 9     -3164.499 9        54.434 9  24413879.527 6         0.000 6     -2465.846 6        37.977 6
G27  21914431.953 9 115161090.704 9      2474.490 9        55.410 9  21914433.854 6         0.000 6      1928.175 6        37.977 6
G16  20478539.587 9 107615431.567 9       450.074 9        55.985 9  20478538.760 6         0.000 6       350.707 6        37.977 6
G26  20709136.163 9 108827222.441 9     -1588.172 9        55.850 9  20709139.000 6         0.000 6     -1237.537 6        37.977 6
G20  21855071.750 9 114849144.938 9      2466.559 9        55.351 9  21855072.021 6         0.000 6      1921.995 6        37.977 6
> 2019 07 03 12 04  8.0000000  0  8       0.000000000000
G07  25269040.007 9 132789656.067 9      2112.774 9        54.158 9  25269040.636 6         0.000 6      1646.318 6        37.977 6
G10  23684055.716 9 124460500.119 9      3492.623 9        54.715 9  23684059.322 6         0.000 6      2721.527 6        37.977 6
G21  21217856.947 9 111500570.014 9     -1329.383 9        55.690 9  21217856.241 6         0.000 6     -1035.883 6        37.977 6
G29  24414480.023 9 128298900.099 9     -3164.582 9        54.434 9  24414481.719 6         0.000 6     -2465.910 6        37.977 6
G27  21913961.097 9 115158616.342 9      2474.241 9        55.410 9  21913962.998 6         0.000 6      1927.980 6        37.977 6
G16  20478454.000 9 107614981.806 9       449.448 9        55.985 9  20478453.173 6         0.000 6       350.219 6        37.977 6
G26  20709438.436 9 108828810.897 9     -1588.742 9        55.850 9  20709441.273 6         0.000 6     -1237.981 6        37.977 6
G20  21854602.423 9 114846678.613 9      2466.098 9        55.351 9  21854602.694 6         0.000 6      1921.636 6        37.977 6
> 2019 07 03 12 04  9.0000000  0  8       0.000000000000
G07  25268638.005 9 132787543.531 9      2112.305 9        54.158 9  25268638.633 6         0.000 6      1645.952 6        37.977 6
G10  23683391.107 9 124457007.585 9      3492.465 9        54.715 9  23683394.712 6         0.000 6      2721.404 6        37.977 6
G21  21218109.954 9 111501899.574 9     -1329.738 9        55.690 9  21218109.248 6         0.000 6     -1036.160 6        37.977 6
G29  24415082.231 9 128302064.711 9     -3164.664 9        54.434 9  24415083.928 6         0.000 6     -2465.974 6        37.977 6
G27  21913490.289 9 115156142.228 9      2473.991 9        55.410 9  21913492.189 6         0.000 6      1927.786 6        37.977 6
G16  20478368.533 9 107614532.672 9       448.821 9        55.985 9  20478367.706 6         0.000 6       349.731 6        37.977 6
G26  20709740.818 9 108830399.922 9     -1589.312 9        55.850 9  20709743.655 6         0.000 6     -1238.425 6        37.977 6
G20  21854133.185 9 114844212.751 9      2465.636 9        55.351 9  21854133.455 6         0.000 6      1921.276 6        37.977 6
> 2019 07 03 12 04 10.0000000  0  8       0.000000000000
G07  25268236.091 9 132785431.464 9      2111.835 9        54.159 9  25268236.720 6         0.000 6      1645.587 6        37.977 6
G10  23682726.528 9 124453515.210 9      3492.306 9        54.716 9  23682730.132 6         0.000 6      2721.280 6        37.977 6
G21  21218363.029 9 111503229.489 9     -1330.093 9        55.690 9  21218362.323 6         0.000 6     -1036.437 6        37.977 6
G29  24415684.454 9 128305229.405 9     -3164.746 9        54.434 9  24415686.152 6         0.000 6     -2466.038 6        37.977 6
G27  21913019.527 9 115153668.365 9      2473.742 9        55.411 9  21913021.428 6         0.000 6      1927.592 6        37.977 6
G16  20478283.185 9 107614084.163 9       448.195 9        55.985 9  20478282.357 6         0.000 6       349.243 6        37.977 6
G26  20710043.308 9 108831989.517 9     -1589.882 9        55.850 9  20710046.146 6         0.000 6     -1238.869 6        37.977 6
G20  21853664.034 9 114841747.350 9      2465.174 9        55.351 9  21853664.304 6         0.000 6      1920.916 6        37.977 6
> 2019 07 03 12 04 11.0000000  0  8       0.000000000000
G07  25267834.267 9 132783319.867 9      2111.366 9        54.159 9  25267834.895 6         0.000 6      1645.221 6        37.977 6
G10  23682061.979 9 124450022.993 9      3492.148 9        54.716 9  23682065.583 6         0.000 6      2721.157 6        37.977 6
G21  21218616.171 9 111504559.759 9     -1330.448 9        55.690 9  21218615.465 6         0.000 6     -1036.713 6        37.977 6
G29  24416286.693 9 128308394.181 9     -3164.828 9        54.433 9  24416288.391 6         0.000 6     -2466.102 6        37.977 6
G27  21912548.814 9 115151194.750 9      2473.492 9        55.411 9  21912550.714 6         0.000 6      1927.397 6        37.977 6
G16  20478197.955 9 107613636.281 9       447.569 9        55.985 9  20478197.128 6         0.000 6       348.755 6        37.977 6
G26  20710345.907 9 108833579.682 9     -1590.452 9        55.850 9  20710348.744 6         0.000 6     -1239.313 6        37.977 6
G20  21853194.971 9 114839282.411 9      2464.712 9        55.351 9  21853195.240 6         0.000 6      1920.556 6        37.977 6
> 2019 07 03 12 04 12.0000000  0  8       0.000000000000
G07  25267432.532 9 132781208.739 9      2110.897 9        54.159 9  25267433.160 6         0.000 6      1644.856 6        37.977 6
G10  23681397.461 9 124446530.935 9      3491.989 9        54.716 9  23681401.064 6         0.000 6      2721.033 6        37.977 6
G21  21218869.381 9 111505890.384 9     -1330.803 9        55.690 9  21218868.675 6         0.000 6     -1036.990 6        37.977 6
G29  24416888.947 9 128311559.039 9     -3164.910 9        54.433 9  24416890.646 6         0.000 6     -2466.166 6        37.977 6
G27  21912078.148 9 115148721.386 9      2473.243 9        55.411 9  21912080.048 6         0.000 6      1927.203 6        37.977 6
G16  20478112.845 9 107613189.025 9       446.943 9        55.985 9  20478112.018 6         0.000 6       348.267 6        37.977 6
G26  20710648.614 9 108835170.416 9     -1591.022 9        55.850 9  20710651.452 6         0.000 6     -1239.757 6        37.977 6
G20  21852725.995 9 114836817.934 9      2464.250 9        55.352 9  21852726.265 6         0.000 6      1920.196 6        37.977 6
> 2019 07 03 12 04 13.0000000  0  8       0.000000000000
G07  25267030.886 9 132779098.080 9      2110.428 9        54.159 9  25267031.514 6         0.000 6      1644.490 6        37.977 6
G10  23680732.972 9 124443039.035 9      3491.830 9        54.716 9  23680736.575 6         0.000 6      2720.909 6        37.977 6
G21  21219122.658 9 111507221.364 9     -1331.158 9        55.689 9  21219121.952 6         0.000 6     -1037.266 6        37.977 6
G29  24417491.218 9 128314723.979 9     -3164.992 9        54.433 9  24417492.917 6         0.000 6     -2466.230 6        37.977 6
G27  21911607.529 9 115146248.270 9      2472.993 9        55.411 9  21911609.429 6         0.000 6      1927.008 6        37.977 6
G16  20478027.855 9 107612742.395 9       446.317 9        55.985 9  20478027.027 6         0.000 6       347.779 6        37.977 6
G26  20710951.429 9 108836761.721 9     -1591.591 9        55.849 9  20710954.267 6         0.000 6     -1240.201 6        37.977 6
G20  21852257.108 9 114834353.920 9      2463.788 9        55.352 9  21852257.377 6         0.000 6      1919.836 6        37.977 6
> 2019 07 03 12 04 14.0000000  0  8       0.000000000000
G07  25266629.330 9 132776987.890 9      2109.958 9        54.159 9  25266629.957 6         0.000 6      1644.124 6        37.977 6
G10  23680068.514 9 124439547.294 9      3491.672 9        54.717 9  23680072.116 6         0.000 6      2720.786 6        37.977 6
G21  21219376.003 9 111508552.699 9     -1331.513 9        55.689 9  21219375.297 6         0.000 6     -1037.543 6        37.977 6
G29  24418093.503 9 128317889.002 9     -3165.074 9        54.433 9  24418095.203 6         0.000 6     -2466.294 6        37.977 6
G27  21911136.958 9 115143775.405 9      2472.743 9        55.411 9  21911138.858 6         0.000 6      1926.814 6        37.977 6
G16  20477942.983 9 107612296.392 9       445.690 9        55.985 9  20477942.156 6         0.000 6       347.291 6        37.977 6
G26  20711254.353 9 108838353.595 9     -1592.161 9        55.849 9  20711257.191 6         0.000 6     -1240.645 6        37.977 6
G20  21851788.309 9 114831890.367 9      2463.326 9        55.352 9  21851788.578 6         0.000 6      1919.476 6        37.977 6
> 2019 07 03 12 04 15.0000000  0  8       0.000000000000
G07  25266227.863 9 132774878.170 9      2109.489 9        54.159 9  25266228.490 6         0.000 6      1643.758 6        37.977 6
G10  23679404.086 9 124436055.712 9      3491.513 9        54.717 9  23679407.688 6         0.000 6      2720.662 6        37.977 6
G21  21219629.415 9 111509884.389 9     -1331.868 9        55.689 9  21219628.709 6         0.000 6     -1037.819 6        37.977 6
G29  24418695.805 9 128321054.106 9     -3165.156 9        54.433 9  24418697.505 6         0.000 6     -2466.358 6        37.977 6
G27  21910666.434 9 115141302.789 9      2472.494 9        55.412 9  21910668.334 6         0.000 6      1926.619 6        37.977 6
G16  20477858.230 9 107611851.014 9       445.064 9        55.985 9  20477857.403 6         0.000 6       346.803 6        37.977 6
G26  20711557.386 9 108839946.039 9     -1592.731 9        55.849 9  20711560.224 6         0.000 6     -1241.089 6        37.977 6
G20  21851319.598 9 114829427.277 9      2462.863 9        55.352 9  21851319.866 6         0.000 6      1919.115 6        37.977 6
> 2019 07 03 12 04 16.0000000  0  8       0.000000000000
G07  25265826.485 9 132772768.920 9      2109.019 9        54.159 9  25265827.112 6         0.000 6      1643.392 6        37.977 6
G10  23678739.689 9 124432564.289 9      3491.354 9        54.717 9  23678743.289 6         0.000 6      2720.538 6        37.977 6
G21  21219882.895 9 111511216.433 9     -1332.222 9        55.689 9  21219882.189 6         0.000 6     -1038.096 6        37.977 6
G29  24419298.122 9 128324219.292 9     -3165.238 9        54.432 9  24419299.823 6         0.000 6     -2466.422 6        37.977 6
G27  21910195.958 9 115138830.422 9      2472.244 9        55.412 9  21910197.858 6         0.000 6      1926.425 6        37.977 6
G16  20477773.597 9 107611406.264 9       444.438 9        55.985 9  20477772.770 6         0.000 6       346.315 6        37.977 6
G26  20711860.526 9 108841539.053 9     -1593.300 9        55.849 9  20711863.365 6         0.000 6     -1241.533 6        37.977 6
G20  21850850.974 9 114826964.649 9      2462.401 9        55.352 9  21850851.243 6         0.000 6      1918.755 6        37.977 6
> 2019 07 03 12 04 17.0000000  0  8       0.000000000000
G07  25265425.197 9 132770660.139 9      2108.549 9        54.160 9  25265425.824 6         0.000 6      1643.026 6        37.977 6
G10  23678075.321 9 124429073.025 9      3491.195 9        54.717 9  23678078.921 6         0.000 6      2720.414 6        37.977 6
G21  21220136.442 9 111512548.832 9     -1332.577 9        55.689 9  21220135.737 6         0.000 6     -1038.372 6        37.977 6
G29  24419900.454 9 128327384.560 9     -3165.320 9        54.432 9  24419902.156 6         0.000 6     -2466.486 6        37.977 6
G27  21909725.529 9 115136358.306 9      2471.994 9        55.412 9  21909727.429 6         0.000 6      1926.230 6        37.977 6
G16  20477689.083 9 107610962.139 9       443.811 9        55.985 9  20477688.256 6         0.000 6       345.827 6        37.977 6
G26  20712163.776 9 108843132.636 9     -1593.870 9        55.849 9  20712166.614 6         0.000 6     -1241.977 6        37.977 6
G20  21850382.439 9 114824502.484 9      2461.938 9        55.352 9  21850382.707 6         0.000 6      1918.395 6        37.977 6
> 2019 07 03 12 04 18.0000000  0  9       0.000000000000
G07  25265023.998 9 132768551.828 9      2108.080 9        54.160 9  25265024.625 6         0.000 6      1642.660 6        37.977 6
G10  23677410.984 9 124425581.920 9      3491.035 9        54.718 9  23677414.584 6         0.000 6      2720.290 6        37.977 6
G21  21220390.057 9 111513881.586 9     -1332.932 9        55.689 9  21220389.351 6         0.000 6     -1038.648 6        37.977 6
G29  24420502.802 9 128330549.910 9     -3165.402 9        54.432 9  24420504.505 6         0.000 6     -2466.549 6        37.977 6
G27  21909255.148 9 115133886.439 9      2471.745 9        55.412 9  21909257.048 6         0.000 6      1926.035 6        37.977 6
G16  20477604.688 9 107610518.641 9       443.185 9        55.985 9  20477603.861 6         0.000 6       345.339 6        37.977 6
G26  20712467.133 9 108844726.789 9     -1594.439 9        55.849 9  20712469.972 6         0.000 6     -1242.421 6        37.977 6
G20  21849913.992 9 114822040.781 9      2461.476 9        55.353 9  21849914.260 6         0.000 6      1918.034 6        37.977 6
G08  25188236.618 9 132365029.186 9      3229.817 9        54.196 9  25188240.544 6         0.000 6      2516.741 6        37.977 6
> 2019 07 03 12 04 19.0000000  0  9       0.000000000000
G07  25264622.888 9 132766443.986 9      2107.610 9        54.160 9  25264623.515 6         0.000 6      1642.294 6        37.977 6
G10  23676746.677 9 124422090.975 9      3490.876 9        54.718 9  23676750.276 6         0.000 6      2720.166 6        37.977 6
G21  21220643.739 9 111515214.694 9     -1333.286 9        55.689 9  21220643.034 6         0.000 6     -1038.925 6        37.977 6
G29  24421105.166 9 128333715.342 9     -3165.484 9        54.432 9  24421106.869 6         0.000 6     -2466.613 6        37.977 6
G27  21908784.815 9 115131414.822 9      2471.495 9        55.412 9  21908786.714 6         0.000 6      1925.841 6        37.977 6
G16  20477520.413 9 107610075.769 9       442.558 9        55.985 9  20477519.585 6         0.000 6       344.851 6        37.977 6
G26  20712770.599 9 108846321.511 9     -1595.009 9        55.849 9  20712773.438 6         0.000 6     -1242.865 6        37.977 6
G20  21849445.632 9 114819579.541 9      2461.013 9        55.353 9  21849445.900 6         0.000 6      1917.674 6        37.977 6
G08  25187621.982 9 132361799.257 9      3229.926 9        54.196 9  25187625.907 6         0.000 6      2516.827 6        37.977 6
> 2019 07 03 12 04 20.0000000  0  9       0.000000000000
G07  25264221.868 9 132764336.615 9      2107.140 9        54.160 9  25264222.495 6         0.000 6      1641.928 6        37.977 6
G10  23676082.401 9 124418600.189 9      3490.716 9        54.718 9  23676085.999 6         0.000 6      2720.041 6        37.977 6
G21  21220897.489 9 111516548.157 9     -1333.641 9        55.689 9  21220896.783 6         0.000 6     -1039.201 6        37.977 6
G29  24421707.545 9 128336880.856 9     -3165.565 9        54.432 9  24421709.249 6         0.000 6     -2466.677 6        37.977 6
G27  21908314.529 9 115128943.455 9      2471.245 9        55.412 9  21908316.428 6         0.000 6      1925.646 6        37.977 6
G16  20477436.256 9 107609633.524 9       441.932 9        55.985 9  20477435.429 6         0.000 6       344.363 6        37.977 6
G26  20713074.173 9 108847916.803 9     -1595.578 9        55.849 9  20713077.012 6         0.000 6     -1243.308 6        37.977 6
G20  21848977.361 9 114817118.763 9      2460.550 9        55.353 9  21848977.629 6         0.000 6      1917.313 6        37.977 6
G08  25187007.349 9 132358569.346 9      3229.908 9        54.196 9  25187011.274 6         0.000 6      2516.813 6        37.977 6
> 2019 07 03 12 04 21.0000000  0  9       0.000000000000
G07  25263820.937 9 132762229.713 9      2106.670 9        54.160 9  25263821.564 6         0.000 6      1641.562 6        37.977 6
G10  23675418.155 9 124415109.562 9      3490.557 9        54.718 9  23675421.752 6         0.000 6      2719.917 6        37.977 6
G21  21221151.306 9 111517881.974 9     -1333.995 9        55.689 9  21221150.600 6         0.000 6     -1039.477 6        37.977 6
G29  24422309.940 9 128340046.451 9     -3165.647 9        54.431 9  24422311.645 6         0.000 6     -2466.741 6        37.977 6
G27  21907844.290 9 115126472.337 9      2470.995 9        55.413 9  21907846.189 6         0.000 6      1925.451 6        37.977 6
G16  20477352.219 9 107609191.905 9       441.305 9        55.985 9  20477351.392 6         0.000 6       343.874 6        37.977 6
G26  20713377.856 9 108849512.664 9     -1596.148 9        55.848 9  20713380.695 6         0.000 6     -1243.752 6        37.977 6
G20  21848509.178 9 114814658.448 9      2460.087 9        55.353 9  21848509.445 6         0.000 6      1916.952 6        37.977 6
G08  25186392.720 9 132355339.453 9      3229.890 9        54.196 9  25186396.644 6         0.000 6      2516.799 6        37.977 6
> 2019 07 03 12 04 22.0000000  0  9       0.000000000000
G07  25263420.096 9 132760123.281 9      2106.200 9        54.160 9  25263420.722 6         0.000 6      1641.196 6        37.977 6
G10  23674753.939 9 124411619.095 9      3490.397 9        54.719 9  23674757.536 6         0.000 6      2719.793 6        37.977 6
G21  21221405.190 9 111519216.145 9     -1334.350 9        55.688 9  21221404.485 6         0.000 6     -1039.753 6        37.977 6
G29  24422912.350 9 128343212.129 9     -3165.729 9        54.431 9  24422914.056 6         0.000 6     -2466.805 6        37.977 6
G27  21907374.099 9 115124001.470 9      2470.745 9        55.413 9  21907375.998 6         0.000 6      1925.257 6        37.977 6
G16  20477268.301 9 107608750.913 9       440.679 9        55.985 9  20477267.474 6         0.000 6       343.386 6        37.977 6
G26  20713681.647 9 108851109.095 9     -1596.717 9        55.848 9  20713684.486 6         0.000 6     -1244.196 6        37.977 6
G20  21848041.083 9 114812198.597 9      2459.624 9        55.353 9  21848041.350 6         0.000 6      1916.592 6        37.977 6
G08  25185778.094 9 132352109.578 9      3229.872 9        54.197 9  25185782.018 6         0.000 6      2516.785 6        37.977 6
> 2019 07 03 12 04 23.0000000  0  9       0.000000000000
G07  25263019.344 9 132758017.319 9      2105.730 9        54.160 9  25263019.970 6         0.000 6      1640.829 6        37.977 6
G10  23674089.754 9 124408128.788 9      3490.237 9        54.719 9  23674093.350 6         0.000 6      2719.668 6        37.977 6
G21  21221659.142 9 111520550.671 9     -1334.704 9        55.688 9  21221658.437 6         0.000 6     -1040.029 6        37.977 6
G29  24423514.776 9 128346377.888 9     -3165.811 9        54.431 9  24423516.483 6         0.000 6     -2466.868 6        37.977 6
G27  21906903.956 9 115121530.853 9      2470.495 9        55.413 9  21906905.854 6         0.000 6      1925.062 6        37.977 6
G16  20477184.502 9 107608310.548 9       440.052 9        55.985 9  20477183.675 6         0.000 6       342.898 6        37.977 6
G26  20713985.546 9 108852706.095 9     -1597.287 9        55.848 9  20713988.385 6         0.000 6     -1244.639 6        37.977 6
G20  21847573.076 9 114809739.208 9      2459.161 9        55.354 9  21847573.343 6         0.000 6      1916.231 6        37.977 6
G08  25185163.472 9 132348879.721 9      3229.854 9        54.197 9  25185167.395 6         0.000 6      2516.771 6        37.977 6
> 2019 07 03 12 04 24.0000000  0  9       0.000000000000
G07  25262618.682 9 132755911.828 9      2105.260 9        54.160 9  25262619.308 6         0.000 6      1640.463 6        37.977 6
G10  23673425.599 9 124404638.641 9      3490.078 9        54.719 9  23673429.195 6         0.000 6      2719.544 6        37.977 6
G21  21221913.162 9 111521885.551 9     -1335.058 9        55.688 9  21221912.457 6         0.000 6     -1040.305 6        37.977 6
G29  24424117.218 9 128349543.729 9     -3165.893 9        54.431 9  24424118.925 6         0.000 6     -2466.932 6        37.977 6
G27  21906433.860 9 115119060.485 9      2470.245 9        55.413 9  21906435.758 6         0.000 6      1924.867 6        37.977 6
G16  20477100.823 9 107607870.809 9       439.426 9        55.985 9  20477099.995 6         0.000 6       342.410 6        37.977 6
G26  20714289.554 9 108854303.664 9     -1597.856 9        55.848 9  20714292.393 6         0.000 6     -1245.083 6        37.977 6
G20  21847105.157 9 114807280.282 9      2458.698 9        55.354 9  21847105.424 6         0.000 6      1915.870 6        37.977 6
G08  25184548.852 9 132345649.882 9      3229.836 9        54.197 9  25184552.776 6         0.000 6      2516.757 6        37.977 6
> 2019 07 03 12 04 25.0000000  0  9       0.000000000000
G07  25262218.109 9 132753806.807 9      2104.790 9        54.161 9  25262218.734 6         0.000 6      1640.097 6        37.977 6
G10  23672761.475 9 124401148.653 9      3489.918 9        54.719 9  23672765.070 6         0.000 6      2719.419 6        37.977 6
G21  21222167.248 9 111523220.786 9     -1335.412 9        55.688 9  21222166.543 6         0.000 6     -1040.581 6        37.977 6
G29  24424719.675 9 128352709.652 9     -3165.974 9        54.430 9  24424721.383 6         0.000 6     -2466.996 6        37.977 6
G27  21905963.812 9 115116590.368 9      2469.995 9        55.413 9  21905965.710 6         0.000 6      1924.672 6        37.977 6
G16  20477017.262 9 107607431.696 9       438.799 9        55.985 9  20477016.435 6         0.000 6       341.921 6        37.977 6
G26  20714593.670 9 108855901.803 9     -1598.425 9        55.848 9  20714596.509 6         0.000 6     -1245.527 6        37.977 6
G20  21846637.327 9 114804821.820 9      2458.235 9        55.354 9  21846637.593 6         0.000 6      1915.509 6        37.977 6
G08  25183934.237 9 132342420.061 9      3229.818 9        54.197 9  25183938.160 6         0.000 6      2516.743 6        37.977 6
> 2019 07 03 12 04 26.0000000  0  9       0.000000000000
G07  25261817.626 9 132751702.256 9      2104.319 9        54.161 9  25261818.251 6         0.000 6      1639.730 6        37.977 6
G10  23672097.381 9 124397658.826 9      3489.758 9        54.720 9  23672100.975 6         0.000 6      2719.294 6        37.977 6
G21  21222421.403 9 111524556.374 9     -1335.766 9        55.688 9  21222420.698 6         0.000 6     -1040.857 6        37.977 6
G29  24425322.148 9 128355875.656 9     -3166.056 9        54.430 9  24425323.856 6         0.000 6     -2467.059 6        37.977 6
G27  21905493.811 9 115114120.500 9      2469.745 9        55.414 9  21905495.709 6         0.000 6      1924.477 6        37.977 6
G16  20476933.821 9 107606993.211 9       438.172 9        55.985 9  20476932.994 6         0.000 6       341.433 6        37.977 6
G26  20714897.895 9 108857500.511 9     -1598.995 9        55.848 9  20714900.734 6         0.000 6     -1245.970 6        37.977 6
G20  21846169.584 9 114802363.821 9      2457.772 9        55.354 9  21846169.850 6         0.000 6      1915.148 6        37.977 6
G08  25183319.625 9 132339190.259 9      3229.800 9        54.198 9  25183323.547 6         0.000 6      2516.729 6        37.977 6
