     3.00           Observation Data    M (Mixed)           RINEX VERSION / TYPE
SimGEN V6.06.00 E1 03-07-2019Spirent             03-Jul-19 12:00     PGM / RUN BY / DATE 
                                                            MARKER NAME         
1                                                           MARKER NUMBER       
GEODETIC                                                    MARKER TYPE         
                    Spirent                                 OBSERVER / AGENCY   
rec_num             rec_type            rec_vers            REC # / TYPE / VERS 
1                   ant_type                                ANT # / TYPE        
  1000.000                                                  INTERVAL            
  2019     7     3    12     0    0.0000000     GPS         TIME OF FIRST OBS   
  4162883.7778   663152.6119  4770522.2129                  APPROX POSITION XYZ 
        0.0000        0.0000        0.0000                  ANTENNA: DELTA H/E/N
G    8 C1C L1C D1C S1C C2C L2C D2C S2C                      SYS / # / OBS TYPES 
        0.0000        0.0000        0.0000                  ANTENNA: DELTA X/Y/Z
DBHZ                                                        SIGNAL STRENGTH UNIT
                                                            END OF HEADER       
> 2019 07 03 12 00  0.0000000  0  8       0.000000000000
G07  25371485.983 9 133328012.420 9      2226.726 9        54.123 9  25371486.666 6         0.000 6      1735.111 6        37.977 6
G10  23849727.911 9 125331110.775 9      3528.618 9        54.655 9  23849731.677 6         0.000 6      2749.573 6        37.977 6
G21  21157229.108 9 111181968.748 9     -1239.609 9        55.715 9  21157228.391 6         0.000 6      -965.929 6        37.977 6
G29  24265626.329 9 127516671.232 9     -3143.426 9        54.487 9  24265627.866 6         0.000 6     -2449.423 6        37.977 6
G27  22032175.339 9 115779835.702 9      2534.880 9        55.363 9  22032177.282 6         0.000 6      1975.231 6        37.977 6
G16  20503313.566 9 107745619.698 9       603.619 9        55.974 9  20503312.739 6         0.000 6       470.352 6        37.977 6
G26  20637801.181 9 108452355.026 9     -1446.218 9        55.880 9  20637803.991 6         0.000 6     -1126.923 6        37.977 6
G20  21973621.191 9 115472125.363 9      2577.721 9        55.304 9  21973621.529 6         0.000 6      2008.614 6        37.977 6
> 2019 07 03 12 00  1.0000000  0  8       0.000000000000
G07  25371062.283 9 133325785.868 9      2226.331 9        54.123 9  25371062.966 6         0.000 6      1734.804 6        37.977 6
G10  23849056.446 9 125327582.215 9      3528.505 9        54.655 9  23849060.211 6         0.000 6      2749.487 6        37.977 6
G21  21157465.033 9 111183208.542 9     -1239.979 9        55.715 9  21157464.316 6         0.000 6      -966.218 6        37.977 6
G29  24266224.516 9 127519814.719 9     -3143.541 9        54.487 9  24266226.055 6         0.000 6     -2449.515 6        37.977 6
G27  22031692.989 9 115777300.940 9      2534.645 9        55.364 9  22031694.932 6         0.000 6      1975.048 6        37.977 6
G16  20503198.759 9 107745016.387 9       603.003 9        55.974 9  20503197.932 6         0.000 6       469.872 6        37.977 6
G26  20638076.442 9 108453801.534 9     -1446.799 9        55.880 9  20638079.252 6         0.000 6     -1127.376 6        37.977 6
G20  21973130.708 9 115469547.860 9      2577.288 9        55.304 9  21973131.046 6         0.000 6      2008.278 6        37.977 6
> 2019 07 03 12 00  2.0000000  0  8       0.000000000000
G07  25370638.669 9 133323559.765 9      2225.881 9        54.123 9  25370639.352 6         0.000 6      1734.454 6        37.977 6
G10  23848385.006 9 125324053.787 9      3528.372 9        54.655 9  23848388.771 6         0.000 6      2749.384 6        37.977 6
G21  21157701.028 9 111184448.705 9     -1240.348 9        55.715 9  21157700.312 6         0.000 6      -966.505 6        37.977 6
G29  24266822.721 9 127522958.294 9     -3143.629 9        54.487 9  24266824.260 6         0.000 6     -2449.584 6        37.977 6
G27  22031210.685 9 115774766.418 9      2534.405 9        55.364 9  22031212.628 6         0.000 6      1974.862 6        37.977 6
G16  20503084.070 9 107744413.693 9       602.386 9        55.974 9  20503083.244 6         0.000 6       469.391 6        37.977 6
G26  20638351.814 9 108455248.621 9     -1447.378 9        55.880 9  20638354.624 6         0.000 6     -1127.828 6        37.977 6
G20  21972640.308 9 115466970.796 9      2576.849 9        55.304 9  21972640.646 6         0.000 6      2007.936 6        37.977 6
> 2019 07 03 12 00  3.0000000  0  8       0.000000000000
G07  25370215.141 9 133321334.113 9      2225.430 9        54.124 9  25370215.824 6         0.000 6      1734.103 6        37.977 6
G10  23847713.592 9 125320525.492 9      3528.240 9        54.655 9  23847717.356 6         0.000 6      2749.281 6        37.977 6
G21  21157937.094 9 111185689.237 9     -1240.717 9        55.715 9  21157936.377 6         0.000 6      -966.792 6        37.977 6
G29  24267420.942 9 127526101.957 9     -3143.717 9        54.486 9  24267422.481 6         0.000 6     -2449.653 6        37.977 6
G27  22030728.427 9 115772232.136 9      2534.165 9        55.364 9  22030730.369 6         0.000 6      1974.675 6        37.977 6
G16  20502969.499 9 107743811.616 9       601.769 9        55.974 9  20502968.672 6         0.000 6       468.911 6        37.977 6
G26  20638627.296 9 108456696.287 9     -1447.957 9        55.880 9  20638630.106 6         0.000 6     -1128.279 6        37.977 6
G20  21972149.992 9 115464394.171 9      2576.411 9        55.305 9  21972150.329 6         0.000 6      2007.594 6        37.977 6
> 2019 07 03 12 00  4.0000000  0  8       0.000000000000
G07  25369791.699 9 133319108.912 9      2224.980 9        54.124 9  25369792.381 6         0.000 6      1733.752 6        37.977 6
G10  23847042.203 9 125316997.329 9      3528.107 9        54.656 9  23847045.966 6         0.000 6      2749.177 6        37.977 6
G21  21158173.230 9 111186930.137 9     -1241.085 9        55.714 9  21158172.513 6         0.000 6      -967.080 6        37.977 6
G29  24268019.180 9 127529245.709 9     -3143.806 9        54.486 9  24268020.720 6         0.000 6     -2449.721 6        37.977 6
G27  22030246.214 9 115769698.094 9      2533.925 9        55.364 9  22030248.156 6         0.000 6      1974.488 6        37.977 6
G16  20502855.045 9 107743210.156 9       601.152 9        55.974 9  20502854.218 6         0.000 6       468.430 6        37.977 6
G26  20638902.888 9 108458144.532 9     -1448.536 9        55.880 9  20638905.699 6         0.000 6     -1128.730 6        37.977 6
G20  21971659.759 9 115461817.984 9      2575.972 9        55.305 9  21971660.096 6         0.000 6      2007.252 6        37.977 6
> 2019 07 03 12 00  5.0000000  0  8       0.000000000000
G07  25369368.342 9 133316884.161 9      2224.529 9        54.124 9  25369369.024 6         0.000 6      1733.400 6        37.977 6
G10  23846370.839 9 125313469.299 9      3527.974 9        54.656 9  23846374.602 6         0.000 6      2749.074 6        37.977 6
G21  21158409.435 9 111188171.406 9     -1241.454 9        55.714 9  21158408.719 6         0.000 6      -967.367 6        37.977 6
G29  24268617.434 9 127532389.548 9     -3143.894 9        54.486 9  24268618.975 6         0.000 6     -2449.790 6        37.977 6
G27  22029764.047 9 115767164.292 9      2533.685 9        55.364 9  22029765.989 6         0.000 6      1974.301 6        37.977 6
G16  20502740.708 9 107742609.312 9       600.535 9        55.974 9  20502739.881 6         0.000 6       467.949 6        37.977 6
G26  20639178.591 9 108459593.355 9     -1449.115 9        55.879 9  20639181.401 6         0.000 6     -1129.181 6        37.977 6
G20  21971169.609 9 115459242.236 9      2575.533 9        55.305 9  21971169.946 6         0.000 6      2006.910 6        37.977 6
> 2019 07 03 12 00  6.0000000  0  8       0.000000000000
G07  25368945.071 9 133314659.860 9      2224.079 9        54.124 9  25368945.753 6         0.000 6      1733.049 6        37.977 6
G10  23845699.501 9 125309941.402 9      3527.842 9        54.656 9  23845703.263 6         0.000 6      2748.970 6        37.977 6
G21  21158645.711 9 111189413.044 9     -1241.823 9        55.714 9  21158644.995 6         0.000 6      -967.654 6        37.977 6
G29  24269215.706 9 127535533.476 9     -3143.982 9        54.486 9  24269217.247 6         0.000 6     -2449.858 6        37.977 6
G27  22029281.926 9 115764630.729 9      2533.445 9        55.365 9  22029283.867 6         0.000 6      1974.114 6        37.977 6
G16  20502626.489 9 107742009.086 9       599.918 9        55.974 9  20502625.662 6         0.000 6       467.468 6        37.977 6
G26  20639454.403 9 108461042.758 9     -1449.694 9        55.879 9  20639457.214 6         0.000 6     -1129.632 6        37.977 6
G20  21970679.544 9 115456666.928 9      2575.094 9        55.305 9  21970679.880 6         0.000 6      2006.568 6        37.977 6
> 2019 07 03 12 00  7.0000000  0  8       0.000000000000
G07  25368521.886 9 133312436.011 9      2223.628 9        54.124 9  25368522.567 6         0.000 6      1732.698 6        37.977 6
G10  23845028.187 9 125306413.637 9      3527.709 9        54.656 9  23845031.949 6         0.000 6      2748.867 6        37.977 6
G21  21158882.057 9 111190655.050 9     -1242.191 9        55.714 9  21158881.341 6         0.000 6      -967.941 6        37.977 6
G29  24269813.994 9 127538677.491 9     -3144.070 9        54.486 9  24269815.536 6         0.000 6     -2449.927 6        37.977 6
G27  22028799.850 9 115762097.407 9      2533.205 9        55.365 9  22028801.791 6         0.000 6      1973.927 6        37.977 6
G16  20502512.387 9 107741409.477 9       599.301 9        55.974 9  20502511.560 6         0.000 6       466.988 6        37.977 6
G26  20639730.326 9 108462492.739 9     -1450.272 9        55.879 9  20639733.136 6         0.000 6     -1130.083 6        37.977 6
G20  21970189.561 9 115454092.058 9      2574.655 9        55.305 9  21970189.897 6         0.000 6      2006.226 6        37.977 6
> 2019 07 03 12 00  8.0000000  0  8       0.000000000000
G07  25368098.786 9 133310212.612 9      2223.177 9        54.124 9  25368099.468 6         0.000 6      1732.347 6        37.977 6
G10  23844356.899 9 125302886.006 9      3527.576 9        54.657 9  23844360.660 6         0.000 6      2748.763 6        37.977 6
G21  21159118.474 9 111191897.425 9     -1242.560 9        55.714 9  21159117.757 6         0.000 6      -968.229 6        37.977 6
G29  24270412.299 9 127541821.595 9     -3144.158 9        54.485 9  24270413.842 6         0.000 6     -2449.996 6        37.977 6
G27  22028317.820 9 115759564.324 9      2532.965 9        55.365 9  22028319.761 6         0.000 6      1973.740 6        37.977 6
G16  20502398.403 9 107740810.485 9       598.684 9        55.974 9  20502397.576 6         0.000 6       466.507 6        37.977 6
G26  20640006.359 9 108463943.299 9     -1450.851 9        55.879 9  20640009.169 6         0.000 6     -1130.534 6        37.977 6
G20  21969699.663 9 115451517.628 9      2574.215 9        55.305 9  21969699.999 6         0.000 6      2005.883 6        37.977 6
> 2019 07 03 12 00  9.0000000  0  8       0.000000000000
G07  25367675.773 9 133307989.663 9      2222.726 9        54.124 9  25367676.454 6         0.000 6      1731.996 6        37.977 6
G10  23843685.637 9 125299358.508 9      3527.442 9        54.657 9  23843689.397 6         0.000 6      2748.659 6        37.977 6
G21  21159354.960 9 111193140.169 9     -1242.928 9        55.714 9  21159354.243 6         0.000 6      -968.516 6        37.977 6
G29  24271010.621 9 127544965.786 9     -3144.246 9        54.485 9  24271012.164 6         0.000 6     -2450.064 6        37.977 6
G27  22027835.836 9 115757031.482 9      2532.725 9        55.365 9  22027837.777 6         0.000 6      1973.553 6        37.977 6
G16  20502284.536 9 107740212.110 9       598.066 9        55.974 9  20502283.709 6         0.000 6       466.026 6        37.977 6
G26  20640282.501 9 108465394.438 9     -1451.430 9        55.879 9  20640285.312 6         0.000 6     -1130.985 6        37.977 6
G20  21969209.848 9 115448943.636 9      2573.776 9        55.306 9  21969210.183 6         0.000 6      2005.541 6        37.977 6
> 2019 07 03 12 00 10.0000000  0  8       0.000000000000
G07  25367252.845 9 133305767.166 9      2222.276 9        54.125 9  25367253.526 6         0.000 6      1731.644 6        37.977 6
G10  23843014.399 9 125295831.143 9      3527.309 9        54.657 9  23843018.159 6         0.000 6      2748.555 6        37.977 6
G21  21159591.516 9 111194383.281 9     -1243.297 9        55.714 9  21159590.800 6         0.000 6      -968.803 6        37.977 6
G29  24271608.959 9 127548110.066 9     -3144.334 9        54.485 9  24271610.503 6         0.000 6     -2450.133 6        37.977 6
G27  22027353.897 9 115754498.880 9      2532.485 9        55.365 9  22027355.838 6         0.000 6      1973.366 6        37.977 6
G16  20502170.786 9 107739614.353 9       597.449 9        55.974 9  20502169.959 6         0.000 6       465.545 6        37.977 6
G26  20640558.754 9 108466846.156 9     -1452.009 9        55.879 9  20640561.565 6         0.000 6     -1131.436 6        37.977 6
G20  21968720.116 9 115446370.085 9      2573.337 9        55.306 9  21968720.451 6         0.000 6      2005.199 6        37.977 6
> 2019 07 03 12 00 11.0000000  0  8       0.000000000000
G07  25366830.003 9 133303545.120 9      2221.825 9        54.125 9  25366830.683 6         0.000 6      1731.293 6        37.977 6
G10  23842343.187 9 125292303.911 9      3527.176 9        54.657 9  23842346.946 6         0.000 6      2748.451 6        37.977 6
G21  21159828.143 9 111195626.761 9     -1243.665 9        55.714 9  21159827.426 6         0.000 6      -969.090 6        37.977 6
G29  24272207.314 9 127551254.433 9     -3144.421 9        54.485 9  24272208.859 6         0.000 6     -2450.201 6        37.977 6
G27  22026872.004 9 115751966.518 9      2532.245 9        55.365 9  22026873.944 6         0.000 6      1973.178 6        37.977 6
G16  20502057.154 9 107739017.212 9       596.832 9        55.975 9  20502056.327 6         0.000 6       465.064 6        37.977 6
G26  20640835.118 9 108468298.452 9     -1452.587 9        55.879 9  20640837.929 6         0.000 6     -1131.887 6        37.977 6
G20  21968230.468 9 115443796.972 9      2572.897 9        55.306 9  21968230.803 6         0.000 6      2004.856 6        37.977 6
> 2019 07 03 12 00 12.0000000  0  8       0.000000000000
G07  25366407.246 9 133301323.524 9      2221.373 9        54.125 9  25366407.927 6         0.000 6      1730.941 6        37.977 6
G10  23841672.001 9 125288776.813 9      3527.042 9        54.658 9  23841675.759 6         0.000 6      2748.347 6        37.977 6
G21  21160064.840 9 111196870.610 9     -1244.033 9        55.714 9  21160064.123 6         0.000 6      -969.377 6        37.977 6
G29  24272805.686 9 127554398.889 9     -3144.509 9        54.485 9  24272807.231 6         0.000 6     -2450.270 6        37.977 6
G27  22026390.157 9 115749434.396 9      2532.005 9        55.366 9  22026392.097 6         0.000 6      1972.991 6        37.977 6
G16  20501943.640 9 107738420.689 9       596.215 9        55.975 9  20501942.813 6         0.000 6       464.583 6        37.977 6
G26  20641111.591 9 108469751.327 9     -1453.166 9        55.879 9  20641114.402 6         0.000 6     -1132.338 6        37.977 6
G20  21967740.904 9 115441224.299 9      2572.458 9        55.306 9  21967741.239 6         0.000 6      2004.514 6        37.977 6
> 2019 07 03 12 00 13.0000000  0  8       0.000000000000
G07  25365984.576 9 133299102.380 9      2220.922 9        54.125 9  25365985.256 6         0.000 6      1730.590 6        37.977 6
G10  23841000.840 9 125285249.848 9      3526.909 9        54.658 9  23841004.597 6         0.000 6      2748.243 6        37.977 6
G21  21160301.606 9 111198114.826 9     -1244.402 9        55.714 9  21160300.890 6         0.000 6      -969.664 6        37.977 6
G29  24273404.075 9 127557543.432 9     -3144.597 9        54.484 9  24273405.621 6         0.000 6     -2450.338 6        37.977 6
G27  22025908.355 9 115746902.514 9      2531.764 9        55.366 9  22025910.295 6         0.000 6      1972.804 6        37.977 6
G16  20501830.242 9 107737824.783 9       595.597 9        55.975 9  20501829.415 6         0.000 6       464.102 6        37.977 6
G26  20641388.174 9 108471204.781 9     -1453.745 9        55.879 9  20641390.985 6         0.000 6     -1132.788 6        37.977 6
G20  21967251.423 9 115438652.066 9      2572.018 9        55.306 9  21967251.758 6         0.000 6      2004.171 6        37.977 6
> 2019 07 03 12 00 14.0000000  0  8       0.000000000000
G07  25365561.992 9 133296881.687 9      2220.471 9        54.125 9  25365562.671 6         0.000 6      1730.238 6        37.977 6
G10  23840329.704 9 125281723.017 9      3526.775 9        54.658 9  23840333.461 6         0.000 6      2748.139 6        37.977 6
G21  21160538.443 9 111199359.412 9     -1244.770 9        55.713 9  21160537.727 6         0.000 6      -969.951 6        37.977 6
G29  24274002.480 9 127560688.063 9     -3144.685 9        54.484 9  24274004.026 6         0.000 6     -2450.406 6        37.977 6
G27  22025426.599 9 115744370.872 9      2531.524 9        55.366 9  22025428.539 6         0.000 6      1972.617 6        37.977 6
G16  20501716.963 9 107737229.494 9       594.980 9        55.975 9  20501716.136 6         0.000 6       463.621 6        37.977 6
G26  20641664.868 9 108472658.813 9     -1454.323 9        55.878 9  20641667.679 6         0.000 6     -1133.239 6        37.977 6
G20  21966762.027 9 115436080.273 9      2571.578 9        55.307 9  21966762.361 6         0.000 6      2003.828 6        37.977 6
> 2019 07 03 12 00 15.0000000  0  8       0.000000000000
G07  25365139.493 9 133294661.445 9      2220.020 9        54.125 9  25365140.173 6         0.000 6      1729.886 6        37.977 6
G10  23839658.594 9 125278196.320 9      3526.641 9        54.658 9  23839662.350 6         0.000 6      2748.035 6        37.977 6
G21  21160775.350 9 111200604.365 9     -1245.138 9        55.713 9  21160774.634 6         0.000 6      -970.238 6        37.977 6
G29  24274600.902 9 127563832.781 9     -3144.773 9        54.484 9  24274602.449 6         0.000 6     -2450.475 6        37.977 6
G27  22024944.889 9 115741839.471 9      2531.284 9        55.366 9  22024946.829 6         0.000 6      1972.430 6        37.977 6
G16  20501603.801 9 107736634.823 9       594.363 9        55.975 9  20501602.974 6         0.000 6       463.140 6        37.977 6
G26  20641941.671 9 108474113.424 9     -1454.902 9        55.878 9  20641944.483 6         0.000 6     -1133.690 6        37.977 6
G20  21966272.713 9 115433508.920 9      2571.138 9        55.307 9  21966273.047 6         0.000 6      2003.485 6        37.977 6
> 2019 07 03 12 00 16.0000000  0  8       0.000000000000
G07  25364717.080 9 133292441.655 9      2219.568 9        54.125 9  25364717.760 6         0.000 6      1729.535 6        37.977 6
G10  23838987.509 9 125274669.756 9      3526.507 9        54.659 9  23838991.264 6         0.000 6      2747.930 6        37.977 6
G21  21161012.327 9 111201849.686 9     -1245.506 9        55.713 9  21161011.611 6         0.000 6      -970.524 6        37.977 6
G29  24275199.341 9 127566977.588 9     -3144.861 9        54.484 9  24275200.888 6         0.000 6     -2450.543 6        37.977 6
G27  22024463.224 9 115739308.310 9      2531.043 9        55.366 9  22024465.164 6         0.000 6      1972.242 6        37.977 6
G16  20501490.756 9 107736040.769 9       593.745 9        55.975 9  20501489.929 6         0.000 6       462.659 6        37.977 6
G26  20642218.585 9 108475568.613 9     -1455.480 9        55.878 9  20642221.396 6         0.000 6     -1134.141 6        37.977 6
G20  21965783.484 9 115430938.006 9      2570.698 9        55.307 9  21965783.818 6         0.000 6      2003.143 6        37.977 6
> 2019 07 03 12 00 17.0000000  0  8       0.000000000000
G07  25364294.753 9 133290222.316 9      2219.117 9        54.126 9  25364295.433 6         0.000 6      1729.183 6        37.977 6
G10  23838316.450 9 125271143.327 9      3526.373 9        54.659 9  23838320.205 6         0.000 6      2747.826 6        37.977 6
G21  21161249.374 9 111203095.376 9     -1245.874 9        55.713 9  21161248.658 6         0.000 6      -970.811 6        37.977 6
G29  24275797.796 9 127570122.482 9     -3144.948 9        54.483 9  24275799.344 6         0.000 6     -2450.612 6        37.977 6
G27  22023981.606 9 115736777.390 9      2530.803 9        55.367 9  22023983.545 6         0.000 6      1972.055 6        37.977 6
G16  20501377.829 9 107735447.333 9       593.128 9        55.975 9  20501377.002 6         0.000 6       462.177 6        37.977 6
G26  20642495.608 9 108477024.381 9     -1456.059 9        55.878 9  20642498.420 6         0.000 6     -1134.592 6        37.977 6
G20  21965294.338 9 115428367.532 9      2570.258 9        55.307 9  21965294.672 6         0.000 6      2002.800 6        37.977 6
> 2019 07 03 12 00 18.0000000  0  8       0.000000000000
G07  25363872.512 9 133288003.428 9      2218.665 9        54.126 9  25363873.191 6         0.000 6      1728.831 6        37.977 6
G10  23837645.416 9 125267617.031 9      3526.239 9        54.659 9  23837649.170 6         0.000 6      2747.722 6        37.977 6
G21  21161486.491 9 111204341.433 9     -1246.242 9        55.713 9  21161485.775 6         0.000 6      -971.098 6        37.977 6
G29  24276396.268 9 127573267.465 9     -3145.036 9        54.483 9  24276397.817 6         0.000 6     -2450.680 6        37.977 6
G27  22023500.033 9 115734246.710 9      2530.563 9        55.367 9  22023501.972 6         0.000 6      1971.868 6        37.977 6
G16  20501265.019 9 107734854.514 9       592.510 9        55.975 9  20501264.192 6         0.000 6       461.696 6        37.977 6
G26  20642772.742 9 108478480.727 9     -1456.637 9        55.878 9  20642775.554 6         0.000 6     -1135.042 6        37.977 6
G20  21964805.276 9 115425797.499 9      2569.818 9        55.307 9  21964805.609 6         0.000 6      2002.457 6        37.977 6
> 2019 07 03 12 00 19.0000000  0  8       0.000000000000
G07  25363450.357 9 133285784.992 9      2218.214 9        54.126 9  25363451.036 6         0.000 6      1728.479 6        37.977 6
G10  23836974.408 9 125264090.870 9      3526.105 9        54.659 9  23836978.161 6         0.000 6      2747.617 6        37.977 6
G21  21161723.678 9 111205587.859 9     -1246.610 9        55.713 9  21161722.962 6         0.000 6      -971.385 6        37.977 6
G29  24276994.757 9 127576412.534 9     -3145.124 9        54.483 9  24276996.307 6         0.000 6     -2450.748 6        37.977 6
G27  22023018.506 9 115731716.270 9      2530.322 9        55.367 9  22023020.445 6         0.000 6      1971.680 6        37.977 6
G16  20501152.327 9 107734262.313 9       591.893 9        55.975 9  20501151.500 6         0.000 6       461.215 6        37.977 6
G26  20643049.986 9 108479937.652 9     -1457.216 9        55.878 9  20643052.798 6         0.000 6     -1135.493 6        37.977 6
G20  21964316.298 9 115423227.906 9      2569.378 9        55.308 9  21964316.631 6         0.000 6      2002.114 6        37.977 6
> 2019 07 03 12 00 20.0000000  0  8       0.000000000000
G07  25363028.288 9 133283567.008 9      2217.762 9        54.126 9  25363028.967 6         0.000 6      1728.127 6        37.977 6
G10  23836303.425 9 125260564.843 9      3525.971 9        54.660 9  23836307.178 6         0.000 6      2747.512 6        37.977 6
G21  21161960.935 9 111206834.652 9     -1246.978 9        55.713 9  21161960.219 6         0.000 6      -971.671 6        37.977 6
G29  24277593.263 9 127579557.692 9     -3145.212 9        54.483 9  24277594.813 6         0.000 6     -2450.817 6        37.977 6
G27  22022537.024 9 115729186.071 9      2530.082 9        55.367 9  22022538.963 6         0.000 6      1971.493 6        37.977 6
G16  20501039.752 9 107733670.729 9       591.275 9        55.975 9  20501038.925 6         0.000 6       460.734 6        37.977 6
G26  20643327.340 9 108481395.155 9     -1457.794 9        55.878 9  20643330.152 6         0.000 6     -1135.944 6        37.977 6
G20  21963827.404 9 115420658.753 9      2568.937 9        55.308 9  21963827.736 6         0.000 6      2001.770 6        37.977 6
> 2019 07 03 12 00 21.0000000  0  8       0.000000000000
G07  25362606.305 9 133281349.476 9      2217.310 9        54.126 9  25362606.983 6         0.000 6      1727.775 6        37.977 6
G10  23835632.468 9 125257038.950 9      3525.836 9        54.660 9  23835636.220 6         0.000 6      2747.408 6        37.977 6
G21  21162198.262 9 111208081.813 9     -1247.346 9        55.713 9  21162197.546 6         0.000 6      -971.958 6        37.977 6
G29  24278191.785 9 127582702.937 9     -3145.299 9        54.483 9  24278193.336 6         0.000 6     -2450.885 6        37.977 6
G27  22022055.589 9 115726656.112 9      2529.841 9        55.367 9  22022057.527 6         0.000 6      1971.306 6        37.977 6
G16  20500927.295 9 107733079.763 9       590.657 9        55.975 9  20500926.468 6         0.000 6       460.252 6        37.977 6
G26  20643604.804 9 108482853.236 9     -1458.372 9        55.878 9  20643607.616 6         0.000 6     -1136.394 6        37.977 6
G20  21963338.593 9 115418090.041 9      2568.497 9        55.308 9  21963338.925 6         0.000 6      2001.427 6        37.977 6
> 2019 07 03 12 00 22.0000000  0  8       0.000000000000
G07  25362184.408 9 133279132.395 9      2216.858 9        54.126 9  25362185.086 6         0.000 6      1727.423 6        37.977 6
G10  23834961.536 9 125253513.192 9      3525.702 9        54.660 9  23834965.288 6         0.000 6      2747.303 6        37.977 6
G21  21162435.659 9 111209329.342 9     -1247.714 9        55.713 9  21162434.943 6         0.000 6      -972.244 6        37.977 6
G29  24278790.324 9 127585848.270 9     -3145.387 9        54.482 9  24278791.875 6         0.000 6     -2450.953 6        37.977 6
G27  22021574.199 9 115724126.394 9      2529.601 9        55.368 9  22021576.137 6         0.000 6      1971.118 6        37.977 6
G16  20500814.956 9 107732489.415 9       590.040 9        55.975 9  20500814.129 6         0.000 6       459.771 6        37.977 6
G26  20643882.378 9 108484311.896 9     -1458.951 9        55.878 9  20643885.190 6         0.000 6     -1136.845 6        37.977 6
G20  21962849.866 9 115415521.769 9      2568.056 9        55.308 9  21962850.198 6         0.000 6      2001.084 6        37.977 6
> 2019 07 03 12 00 23.0000000  0  8       0.000000000000
G07  25361762.597 9 133276915.766 9      2216.406 9        54.126 9  25361763.275 6         0.000 6      1727.071 6        37.977 6
G10  23834290.631 9 125249987.568 9      3525.567 9        54.660 9  23834294.381 6         0.000 6      2747.198 6        37.977 6
G21  21162673.126 9 111210577.239 9     -1248.081 9        55.713 9  21162672.410 6         0.000 6      -972.531 6        37.977 6
G29  24279388.879 9 127588993.691 9     -3145.474 9        54.482 9  24279390.431 6         0.000 6     -2451.022 6        37.977 6
G27  22021092.855 9 115721596.917 9      2529.360 9        55.368 9  22021094.793 6         0.000 6      1970.931 6        37.977 6
G16  20500702.733 9 107731899.684 9       589.422 9        55.975 9  20500701.906 6         0.000 6       459.290 6        37.977 6
G26  20644160.062 9 108485771.134 9     -1459.529 9        55.877 9  20644162.874 6         0.000 6     -1137.296 6        37.977 6
G20  21962361.223 9 115412953.938 9      2567.615 9        55.308 9  21962361.555 6         0.000 6      2000.740 6        37.977 6
> 2019 07 03 12 00 24.0000000  0  8       0.000000000000
G07  25361340.872 9 133274699.589 9      2215.954 9        54.127 9  25361341.549 6         0.000 6      1726.719 6        37.977 6
G10  23833619.750 9 125246462.079 9      3525.432 9        54.661 9  23833623.500 6         0.000 6      2747.093 6        37.977 6
G21  21162910.663 9 111211825.504 9     -1248.449 9        55.713 9  21162909.947 6         0.000 6      -972.817 6        37.977 6
G29  24279987.452 9 127592139.199 9     -3145.562 9        54.482 9  24279989.004 6         0.000 6     -2451.090 6        37.977 6
G27  22020611.556 9 115719067.680 9      2529.119 9        55.368 9  22020613.495 6         0.000 6      1970.743 6        37.977 6
G16  20500590.629 9 107731310.571 9       588.804 9        55.975 9  20500589.802 6         0.000 6       458.808 6        37.977 6
G26  20644437.856 9 108487230.950 9     -1460.107 9        55.877 9  20644440.669 6         0.000 6     -1137.746 6        37.977 6
G20  21961872.664 9 115410386.547 9      2567.175 9        55.309 9  21961872.996 6         0.000 6      2000.397 6        37.977 6
> 2019 07 03 12 00 25.0000000  0  8       0.000000000000
G07  25360919.233 9 133272483.865 9      2215.502 9        54.127 9  25360919.910 6         0.000 6      1726.366 6        37.977 6
G10  23832948.896 9 125242936.725 9      3525.298 9        54.661 9  23832952.645 6         0.000 6      2746.988 6        37.977 6
G21  21163148.270 9 111213074.136 9     -1248.816 9        55.712 9  21163147.554 6         0.000 6      -973.104 6        37.977 6
G29  24280586.040 9 127595284.794 9     -3145.650 9        54.482 9  24280587.594 6         0.000 6     -2451.158 6        37.977 6
G27  22020130.304 9 115716538.684 9      2528.879 9        55.368 9  22020132.242 6         0.000 6      1970.555 6        37.977 6
G16  20500478.642 9 107730722.076 9       588.186 9        55.975 9  20500477.815 6         0.000 6       458.327 6        37.977 6
G26  20644715.760 9 108488691.344 9     -1460.685 9        55.877 9  20644718.573 6         0.000 6     -1138.197 6        37.977 6
G20  21961384.189 9 115407819.597 9      2566.734 9        55.309 9  21961384.520 6         0.000 6      2000.054 6        37.977 6
> 2019 07 03 12 00 26.0000000  0  8       0.000000000000
G07  25360497.680 9 133270268.592 9      2215.050 9        54.127 9  25360498.357 6         0.000 6      1726.014 6        37.977 6
G10  23832278.067 9 125239411.505 9      3525.163 9        54.661 9  23832281.815 6         0.000 6      2746.883 6        37.977 6
G21  21163385.947 9 111214323.135 9     -1249.184 9        55.712 9  21163385.231 6         0.000 6      -973.390 6        37.977 6
G29  24281184.646 9 127598430.478 9     -3145.737 9        54.482 9  24281186.200 6         0.000 6     -2451.226 6        37.977 6
G27  22019649.097 9 115714009.928 9      2528.638 9        55.368 9  22019651.035 6         0.000 6      1970.368 6        37.977 6
G16  20500366.773 9 107730134.199 9       587.568 9        55.975 9  20500365.946 6         0.000 6       457.846 6        37.977 6
G26  20644993.775 9 108490152.317 9     -1461.263 9        55.877 9  20644996.587 6         0.000 6     -1138.647 6        37.977 6
G20  21960895.798 9 115405253.089 9      2566.293 9        55.309 9  21960896.129 6         0.000 6      1999.710 6        37.977 6
> 2019 07 03 12 00 27.0000000  0  8       0.000000000000
G07  25360076.213 9 133268053.772 9      2214.598 9        54.127 9  25360076.890 6         0.000 6      1725.662 6        37.977 6
G10  23831607.263 9 125235886.421 9      3525.028 9        54.661 9  23831611.011 6         0.000 6      2746.777 6        37.977 6
G21  21163623.693 9 111215572.502 9     -1249.551 9        55.712 9  21163622.978 6         0.000 6      -973.677 6        37.977 6
G29  24281783.268 9 127601576.248 9     -3145.825 9        54.481 9  24281784.823 6         0.000 6     -2451.295 6        37.977 6
G27  22019167.936 9 115711481.413 9      2528.397 9        55.369 9  22019169.874 6         0.000 6      1970.180 6        37.977 6
G16  20500255.021 9 107729546.939 9       586.951 9        55.975 9  20500254.194 6         0.000 6       457.364 6        37.977 6
G26  20645271.899 9 108491613.868 9     -1461.841 9        55.877 9  20645274.711 6         0.000 6     -1139.098 6        37.977 6
G20  21960407.491 9 115402687.021 9      2565.852 9        55.309 9  21960407.821 6         0.000 6      1999.366 6        37.977 6
> 2019 07 03 12 00 28.0000000  0  8       0.000000000000
G07  25359654.832 9 133265839.404 9      2214.146 9        54.127 9  25359655.508 6         0.000 6      1725.309 6        37.977 6
G10  23830936.486 9 125232361.472 9      3524.892 9        54.662 9  23830940.233 6         0.000 6      2746.672 6        37.977 6
G21  21163861.510 9 111216822.237 9     -1249.919 9        55.712 9  21163860.794 6         0.000 6      -973.963 6        37.977 6
G29  24282381.907 9 127604722.107 9     -3145.912 9        54.481 9  24282383.462 6         0.000 6     -2451.363 6        37.977 6
G27  22018686.821 9 115708953.139 9      2528.156 9        55.369 9  22018688.759 6         0.000 6      1969.993 6        37.977 6
G16  20500143.387 9 107728960.298 9       586.333 9        55.975 9  20500142.560 6         0.000 6       456.883 6        37.977 6
G26  20645550.133 9 108493075.996 9     -1462.420 9        55.877 9  20645552.946 6         0.000 6     -1139.548 6        37.977 6
G20  21959919.267 9 115400121.394 9      2565.411 9        55.309 9  21959919.597 6         0.000 6      1999.023 6        37.977 6
> 2019 07 03 12 00 29.0000000  0  8       0.000000000000
G07  25359233.537 9 133263625.488 9      2213.693 9        54.127 9  25359234.213 6         0.000 6      1724.957 6        37.977 6
G10  23830265.734 9 125228836.658 9      3524.757 9        54.662 9  23830269.481 6         0.000 6      2746.567 6        37.977 6
G21  21164099.397 9 111218072.339 9     -1250.286 9        55.712 9  21164098.681 6         0.000 6      -974.249 6        37.977 6
G29  24282980.563 9 127607868.052 9     -3146.000 9        54.481 9  24282982.118 6         0.000 6     -2451.431 6        37.977 6
G27  22018205.752 9 115706425.106 9      2527.915 9        55.369 9  22018207.689 6         0.000 6      1969.805 6        37.977 6
G16  20500031.870 9 107728374.274 9       585.715 9        55.975 9  20500031.043 6         0.000 6       456.401 6        37.977 6
G26  20645828.477 9 108494538.703 9     -1462.998 9        55.877 9  20645831.290 6         0.000 6     -1139.999 6        37.977 6
G20  21959431.128 9 115397556.208 9      2564.970 9        55.310 9  21959431.458 6         0.000 6      1998.679 6        37.977 6
> 2019 07 03 12 00 30.0000000  0  8       0.000000000000
G07  25358812.328 9 133261412.024 9      2213.241 9        54.127 9  25358813.004 6         0.000 6      1724.604 6        37.977 6
G10  23829595.008 9 125225311.979 9      3524.622 9        54.662 9  23829598.754 6         0.000 6      2746.461 6        37.977 6
G21  21164337.353 9 111219322.808 9     -1250.654 9        55.712 9  21164336.638 6         0.000 6      -974.535 6        37.977 6
G29  24283579.235 9 127611014.085 9     -3146.087 9        54.481 9  24283580.791 6         0.000 6     -2451.499 6        37.977 6
G27  22017724.729 9 115703897.314 9      2527.675 9        55.369 9  22017726.666 6         0.000 6      1969.617 6        37.977 6
G16  20499920.471 9 107727788.868 9       585.097 9        55.975 9  20499919.644 6         0.000 6       455.920 6        37.977 6
G26  20646106.931 9 108496001.988 9     -1463.576 9        55.877 9  20646109.744 6         0.000 6     -1140.449 6        37.977 6
G20  21958943.072 9 115394991.464 9      2564.528 9        55.310 9  21958943.402 6         0.000 6      1998.335 6        37.977 6
> 2019 07 03 12 00 31.0000000  0  8       0.000000000000
G07  25358391.205 9 133259199.014 9      2212.788 9        54.128 9  25358391.881 6         0.000 6      1724.251 6        37.977 6
G10  23828924.307 9 125221787.436 9      3524.486 9        54.662 9  23828928.053 6         0.000 6      2746.356 6        37.977 6
G21  21164575.380 9 111220573.644 9     -1251.021 9        55.712 9  21164574.664 6         0.000 6      -974.822 6        37.977 6
G29  24284177.923 9 127614160.206 9     -3146.174 9        54.480 9  24284179.480 6         0.000 6     -2451.567 6        37.977 6
G27  22017243.751 9 115701369.763 9      2527.434 9        55.369 9  22017245.688 6         0.000 6      1969.430 6        37.977 6
G16  20499809.190 9 107727204.081 9       584.479 9        55.975 9  20499808.363 6         0.000 6       455.438 6        37.977 6
G26  20646385.495 9 108497465.851 9     -1464.154 9        55.876 9  20646388.309 6         0.000 6     -1140.899 6        37.977 6
G20  21958455.101 9 115392427.161 9      2564.087 9        55.310 9  21958455.430 6         0.000 6      1997.991 6        37.977 6
> 2019 07 03 12 00 32.0000000  0  8       0.000000000000
G07  25357970.169 9 133256986.455 9      2212.336 9        54.128 9  25357970.845 6         0.000 6      1723.899 6        37.977 6
G10  23828253.633 9 125218263.028 9      3524.351 9        54.662 9  23828257.378 6         0.000 6      2746.250 6        37.977 6
G21  21164813.476 9 111221824.848 9     -1251.388 9        55.712 9  21164812.760 6         0.000 6      -975.108 6        37.977 6
G29  24284776.629 9 127617306.414 9     -3146.262 9        54.480 9  24284778.187 6         0.000 6     -2451.635 6        37.977 6
G27  22016762.819 9 115698842.452 9      2527.193 9        55.369 9  22016764.756 6         0.000 6      1969.242 6        37.977 6
G16  20499698.026 9 107726619.911 9       583.861 9        55.976 9  20499697.199 6         0.000 6       454.956 6        37.977 6
G26  20646664.170 9 108498930.292 9     -1464.732 9        55.876 9  20646666.983 6         0.000 6     -1141.350 6        37.977 6
G20  21957967.213 9 115389863.300 9      2563.645 9        55.310 9  21957967.542 6         0.000 6      1997.647 6        37.977 6
> 2019 07 03 12 00 33.0000000  0  8       0.000000000000
G07  25357549.218 9 133254774.350 9      2211.883 9        54.128 9  25357549.894 6         0.000 6      1723.546 6        37.977 6
G10  23827582.984 9 125214738.756 9      3524.215 9        54.663 9  23827586.728 6         0.000 6      2746.144 6        37.977 6
G21  21165051.642 9 111223076.419 9     -1251.755 9        55.712 9  21165050.927 6         0.000 6      -975.394 6        37.977 6
G29  24285375.351 9 127620452.709 9     -3146.349 9        54.480 9  24285376.909 6         0.000 6     -2451.703 6        37.977 6
G27  22016281.933 9 115696315.383 9      2526.952 9        55.370 9  22016283.870 6         0.000 6      1969.054 6        37.977 6
G16  20499586.980 9 107726036.360 9       583.243 9        55.976 9  20499586.153 6         0.000 6       454.475 6        37.977 6
G26  20646942.954 9 108500395.311 9     -1465.309 9        55.876 9  20646945.767 6         0.000 6     -1141.800 6        37.977 6
G20  21957479.410 9 115387299.880 9      2563.204 9        55.310 9  21957479.739 6         0.000 6      1997.303 6        37.977 6
> 2019 07 03 12 00 34.0000000  0  8       0.000000000000
G07  25357128.354 9 133252562.697 9      2211.430 9        54.128 9  25357129.030 6         0.000 6      1723.193 6        37.977 6
G10  23826912.361 9 125211214.619 9      3524.079 9        54.663 9  23826916.105 6         0.000 6      2746.039 6        37.977 6
G21  21165289.878 9 111224328.357 9     -1252.122 9        55.712 9  21165289.163 6         0.000 6      -975.680 6        37.977 6
G29  24285974.090 9 127623599.092 9     -3146.437 9        54.480 9  24285975.648 6         0.000 6     -2451.771 6        37.977 6
G27  22015801.093 9 115693788.554 9      2526.711 9        55.370 9  22015803.030 6         0.000 6      1968.866 6        37.977 6
G16  20499476.051 9 107725453.426 9       582.624 9        55.976 9  20499475.224 6         0.000 6       453.993 6        37.977 6
G26  20647221.848 9 108501860.908 9     -1465.887 9        55.876 9  20647224.661 6         0.000 6     -1142.250 6        37.977 6
G20  21956991.690 9 115384736.901 9      2562.762 9        55.310 9  21956992.019 6         0.000 6      1996.959 6        37.977 6
> 2019 07 03 12 00 35.0000000  0  8       0.000000000000
G07  25356707.576 9 133250351.497 9      2210.977 9        54.128 9  25356708.251 6         0.000 6      1722.840 6        37.977 6
G10  23826241.764 9 125207690.618 9      3523.943 9        54.663 9  23826245.507 6         0.000 6      2745.933 6        37.977 6
G21  21165528.184 9 111225580.662 9     -1252.489 9        55.711 9  21165527.469 6         0.000 6      -975.966 6        37.977 6
G29  24286572.845 9 127626745.562 9     -3146.524 9        54.480 9  24286574.404 6         0.000 6     -2451.839 6        37.977 6
G27  22015320.299 9 115691261.967 9      2526.470 9        55.370 9  22015322.236 6         0.000 6      1968.678 6        37.977 6
G16  20499365.240 9 107724871.111 9       582.006 9        55.976 9  20499364.413 6         0.000 6       453.511 6        37.977 6
G26  20647500.852 9 108503327.082 9     -1466.465 9        55.876 9  20647503.666 6         0.000 6     -1142.701 6        37.977 6
G20  21956504.055 9 115382174.365 9      2562.320 9        55.311 9  21956504.383 6         0.000 6      1996.614 6        37.977 6
> 2019 07 03 12 00 36.0000000  0  8       0.000000000000
G07  25356286.884 9 133248140.750 9      2210.524 9        54.128 9  25356287.559 6         0.000 6      1722.487 6        37.977 6
G10  23825571.193 9 125204166.754 9      3523.807 9        54.663 9  23825574.935 6         0.000 6      2745.827 6        37.977 6
G21  21165766.560 9 111226833.334 9     -1252.856 9        55.711 9  21165765.844 6         0.000 6      -976.252 6        37.977 6
G29  24287171.617 9 127629892.120 9     -3146.611 9        54.479 9  24287173.177 6         0.000 6     -2451.907 6        37.977 6
G27  22014839.551 9 115688735.621 9      2526.228 9        55.370 9  22014841.487 6         0.000 6      1968.490 6        37.977 6
G16  20499254.547 9 107724289.414 9       581.388 9        55.976 9  20499253.720 6         0.000 6       453.030 6        37.977 6
G26  20647779.966 9 108504793.835 9     -1467.043 9        55.876 9  20647782.780 6         0.000 6     -1143.151 6        37.977 6
G20  21956016.504 9 115379612.270 9      2561.878 9        55.311 9  21956016.832 6         0.000 6      1996.270 6        37.977 6
> 2019 07 03 12 00 37.0000000  0  8       0.000000000000
G07  25355866.279 9 133245930.456 9      2210.071 9        54.128 9  25355866.953 6         0.000 6      1722.134 6        37.977 6
G10  23824900.648 9 125200643.025 9      3523.671 9        54.664 9  23824904.389 6         0.000 6      2745.721 6        37.977 6
G21  21166005.005 9 111228086.374 9     -1253.223 9        55.711 9  21166004.290 6         0.000 6      -976.538 6        37.977 6
G29  24287770.405 9 127633038.764 9     -3146.698 9        54.479 9  24287771.966 6         0.000 6     -2451.975 6        37.977 6
G27  22014358.849 9 115686209.516 9      2525.987 9        55.370 9  22014360.785 6         0.000 6      1968.302 6        37.977 6
G16  20499143.971 9 107723708.335 9       580.770 9        55.976 9  20499143.144 6         0.000 6       452.548 6        37.977 6
G26  20648059.190 9 108506261.165 9     -1467.621 9        55.876 9  20648062.004 6         0.000 6     -1143.601 6        37.977 6
G20  21955529.037 9 115377050.618 9      2561.436 9        55.311 9  21955529.364 6         0.000 6      1995.926 6        37.977 6
> 2019 07 03 12 00 38.0000000  0  8       0.000000000000
G07  25355445.759 9 133243720.615 9      2209.618 9        54.129 9  25355446.434 6         0.000 6      1721.781 6        37.977 6
G10  23824230.128 9 125197119.433 9      3523.535 9        54.664 9  23824233.869 6         0.000 6      2745.614 6        37.977 6
G21  21166243.521 9 111229339.780 9     -1253.590 9        55.711 9  21166242.805 6         0.000 6      -976.824 6        37.977 6
G29  24288369.210 9 127636185.496 9     -3146.786 9        54.479 9  24288370.772 6         0.000 6     -2452.043 6        37.977 6
G27  22013878.192 9 115683683.652 9      2525.746 9        55.371 9  22013880.128 6         0.000 6      1968.115 6        37.977 6
G16  20499033.513 9 107723127.875 9       580.151 9        55.976 9  20499032.686 6         0.000 6       452.066 6        37.977 6
G26  20648338.524 9 108507729.073 9     -1468.199 9        55.876 9  20648341.338 6         0.000 6     -1144.051 6        37.977 6
G20  21955041.654 9 115374489.407 9      2560.994 9        55.311 9  21955041.981 6         0.000 6      1995.581 6        37.977 6
> 2019 07 03 12 00 39.0000000  0  8       0.000000000000
G07  25355025.326 9 133241511.227 9      2209.165 9        54.129 9  25355026.000 6         0.000 6      1721.428 6        37.977 6
G10  23823559.635 9 125193595.976 9      3523.399 9        54.664 9  23823563.375 6         0.000 6      2745.508 6        37.977 6
G21  21166482.106 9 111230593.552 9     -1253.957 9        55.711 9  21166481.390 6         0.000 6      -977.109 6        37.977 6
G29  24288968.032 9 127639332.315 9     -3146.873 9        54.479 9  24288969.594 6         0.000 6     -2452.111 6        37.977 6
G27  22013397.582 9 115681158.029 9      2525.505 9        55.371 9  22013399.518 6         0.000 6      1967.927 6        37.977 6
G16  20498923.173 9 107722548.033 9       579.533 9        55.976 9  20498922.346 6         0.000 6       451.584 6        37.977 6
G26  20648617.968 9 108509197.558 9     -1468.776 9        55.876 9  20648620.782 6         0.000 6     -1144.501 6        37.977 6
G20  21954554.355 9 115371928.638 9      2560.552 9        55.311 9  21954554.682 6         0.000 6      1995.236 6        37.977 6
> 2019 07 03 12 00 40.0000000  0  8       0.000000000000
G07  25354604.979 9 133239302.292 9      2208.712 9        54.129 9  25354605.653 6         0.000 6      1721.075 6        37.977 6
G10  23822889.167 9 125190072.656 9      3523.262 9        54.664 9  23822892.907 6         0.000 6      2745.402 6        37.977 6
G21  21166720.761 9 111231847.692 9     -1254.324 9        55.711 9  21166720.045 6         0.000 6      -977.395 6        37.977 6
G29  24289566.870 9 127642479.222 9     -3146.960 9        54.479 9  24289568.433 6         0.000 6     -2452.179 6        37.977 6
G27  22012917.017 9 115678632.648 9      2525.264 9        55.371 9  22012918.953 6         0.000 6      1967.739 6        37.977 6
G16  20498812.951 9 107721968.809 9       578.915 9        55.976 9  20498812.123 6         0.000 6       451.102 6        37.977 6
G26  20648897.522 9 108510666.622 9     -1469.354 9        55.875 9  20648900.336 6         0.000 6     -1144.952 6        37.977 6
G20  21954067.140 9 115369368.312 9      2560.110 9        55.312 9  21954067.467 6         0.000 6      1994.892 6        37.977 6
> 2019 07 03 12 00 41.0000000  0  8       0.000000000000
G07  25354184.718 9 133237093.810 9      2208.258 9        54.129 9  25354185.392 6         0.000 6      1720.722 6        37.977 6
G10  23822218.726 9 125186549.473 9      3523.126 9        54.665 9  23822222.465 6         0.000 6      2745.296 6        37.977 6
G21  21166959.485 9 111233102.198 9     -1254.690 9        55.711 9  21166958.770 6         0.000 6      -977.681 6        37.977 6
G29  24290165.725 9 127645626.215 9     -3147.047 9        54.478 9  24290167.289 6         0.000 6     -2452.247 6        37.977 6
G27  22012436.498 9 115676107.507 9      2525.022 9        55.371 9  22012438.434 6         0.000 6      1967.551 6        37.977 6
G16  20498702.846 9 107721390.204 9       578.296 9        55.976 9  20498702.019 6         0.000 6       450.620 6        37.977 6
G26  20649177.185 9 108512136.263 9     -1469.932 9        55.875 9  20649179.999 6         0.000 6     -1145.402 6        37.977 6
G20  21953580.009 9 115366808.428 9      2559.667 9        55.312 9  21953580.336 6         0.000 6      1994.547 6        37.977 6
> 2019 07 03 12 00 42.0000000  0  8       0.000000000000
G07  25353764.544 9 133234885.782 9      2207.805 9        54.129 9  25353765.217 6         0.000 6      1720.368 6        37.977 6
G10  23821548.310 9 125183026.426 9      3522.989 9        54.665 9  23821552.048 6         0.000 6      2745.189 6        37.977 6
G21  21167198.280 9 111234357.071 9     -1255.057 9        55.711 9  21167197.565 6         0.000 6      -977.967 6        37.977 6
G29  24290764.597 9 127648773.296 9     -3147.134 9        54.478 9  24290766.161 6         0.000 6     -2452.315 6        37.977 6
G27  22011956.026 9 115673582.608 9      2524.781 9        55.371 9  22011957.961 6         0.000 6      1967.362 6        37.977 6
G16  20498592.858 9 107720812.217 9       577.678 9        55.976 9  20498592.031 6         0.000 6       450.138 6        37.977 6
G26  20649456.959 9 108513606.481 9     -1470.509 9        55.875 9  20649459.773 6         0.000 6     -1145.852 6        37.977 6
G20  21953092.963 9 115364248.986 9      2559.225 9        55.312 9  21953093.289 6         0.000 6      1994.202 6        37.977 6
> 2019 07 03 12 00 43.0000000  0  8       0.000000000000
G07  25353344.456 9 133232678.208 9      2207.352 9        54.129 9  25353345.129 6         0.000 6      1720.015 6        37.977 6
G10  23820877.921 9 125179503.516 9      3522.853 9        54.665 9  23820881.658 6         0.000 6      2745.083 6        37.977 6
G21  21167437.144 9 111235612.311 9     -1255.424 9        55.711 9  21167436.429 6         0.000 6      -978.252 6        37.977 6
G29  24291363.485 9 127651920.464 9     -3147.222 9        54.478 9  24291365.049 6         0.000 6     -2452.383 6        37.977 6
G27  22011475.599 9 115671057.951 9      2524.540 9        55.372 9  22011477.534 6         0.000 6      1967.174 6        37.977 6
G16  20498482.989 9 107720234.848 9       577.059 9        55.976 9  20498482.162 6         0.000 6       449.657 6        37.977 6
G26  20649736.842 9 108515077.278 9     -1471.087 9        55.875 9  20649739.657 6         0.000 6     -1146.302 6        37.977 6
G20  21952606.001 9 115361689.987 9      2558.782 9        55.312 9  21952606.327 6         0.000 6      1993.858 6        37.977 6
> 2019 07 03 12 00 44.0000000  0  8       0.000000000000
G07  25352924.454 9 133230471.086 9      2206.898 9        54.129 9  25352925.127 6         0.000 6      1719.662 6        37.977 6
G10  23820207.557 9 125175980.742 9      3522.716 9        54.665 9  23820211.294 6         0.000 6      2744.976 6        37.977 6
G21  21167676.078 9 111236867.917 9     -1255.790 9        55.711 9  21167675.363 6         0.000 6      -978.538 6        37.977 6
G29  24291962.390 9 127655067.719 9     -3147.309 9        54.478 9  24291963.955 6         0.000 6     -2452.451 6        37.977 6
G27  22010995.218 9 115668533.535 9      2524.298 9        55.372 9  22010997.153 6         0.000 6      1966.986 6        37.977 6
G16  20498373.237 9 107719658.099 9       576.441 9        55.976 9  20498372.410 6         0.000 6       449.175 6        37.977 6
G26  20650016.836 9 108516548.651 9     -1471.664 9        55.875 9  20650019.650 6         0.000 6     -1146.752 6        37.977 6
G20  21952119.123 9 115359131.431 9      2558.340 9        55.312 9  21952119.448 6         0.000 6      1993.513 6        37.977 6
> 2019 07 03 12 00 45.0000000  0  8       0.000000000000
G07  25352504.538 9 133228264.419 9      2206.444 9        54.130 9  25352505.211 6         0.000 6      1719.308 6        37.977 6
G10  23819537.220 9 125172458.106 9      3522.579 9        54.666 9  23819540.956 6         0.000 6      2744.869 6        37.977 6
G21  21167915.082 9 111238123.890 9     -1256.157 9        55.710 9  21167914.367 6         0.000 6      -978.824 6        37.977 6
G29  24292561.311 9 127658215.061 9     -3147.396 9        54.477 9  24292562.877 6         0.000 6     -2452.519 6        37.977 6
G27  22010514.883 9 115666009.360 9      2524.057 9        55.372 9  22010516.818 6         0.000 6      1966.798 6        37.977 6
G16  20498263.603 9 107719081.967 9       575.822 9        55.976 9  20498262.776 6         0.000 6       448.693 6        37.977 6
G26  20650296.939 9 108518020.603 9     -1472.242 9        55.875 9  20650299.754 6         0.000 6     -1147.202 6        37.977 6
G20  21951632.329 9 115356573.317 9      2557.897 9        55.313 9  21951632.654 6         0.000 6      1993.168 6        37.977 6
> 2019 07 03 12 00 46.0000000  0  8       0.000000000000
G07  25352084.709 9 133226058.205 9      2205.991 9        54.130 9  25352085.382 6         0.000 6      1718.955 6        37.977 6
G10  23818866.908 9 125168935.606 9      3522.442 9        54.666 9  23818870.644 6         0.000 6      2744.763 6        37.977 6
G21  21168154.156 9 111239380.229 9     -1256.523 9        55.710 9  21168153.441 6         0.000 6      -979.109 6        37.977 6
G29  24293160.249 9 127661362.490 9     -3147.483 9        54.477 9  24293161.815 6         0.000 6     -2452.587 6        37.977 6
G27  22010034.594 9 115663485.427 9      2523.815 9        55.372 9  22010036.528 6         0.000 6      1966.610 6        37.977 6
G16  20498154.086 9 107718506.455 9       575.203 9        55.976 9  20498153.259 6         0.000 6       448.210 6        37.977 6
G26  20650577.152 9 108519493.131 9     -1472.819 9        55.875 9  20650579.967 6         0.000 6     -1147.652 6        37.977 6
G20  21951145.620 9 115354015.646 9      2557.454 9        55.313 9  21951145.945 6         0.000 6      1992.823 6        37.977 6
> 2019 07 03 12 00 47.0000000  0  8       0.000000000000
G07  25351664.966 9 133223852.445 9      2205.537 9        54.130 9  25351665.638 6         0.000 6      1718.601 6        37.977 6
G10  23818196.623 9 125165413.244 9      3522.305 9        54.666 9  23818200.358 6         0.000 6      2744.656 6        37.977 6
G21  21168393.299 9 111240636.934 9     -1256.889 9        55.710 9  21168392.584 6         0.000 6      -979.395 6        37.977 6
G29  24293759.203 9 127664510.006 9     -3147.570 9        54.477 9  24293760.770 6         0.000 6     -2452.654 6        37.977 6
G27  22009554.351 9 115660961.736 9      2523.574 9        55.372 9  22009556.285 6         0.000 6      1966.422 6        37.977 6
G16  20498044.688 9 107717931.561 9       574.585 9        55.976 9  20498043.861 6         0.000 6       447.728 6        37.977 6
G26  20650857.476 9 108520966.238 9     -1473.397 9        55.875 9  20650860.290 6         0.000 6     -1148.102 6        37.977 6
G20  21950658.994 9 115351458.418 9      2557.011 9        55.313 9  21950659.319 6         0.000 6      1992.477 6        37.977 6
> 2019 07 03 12 00 48.0000000  0  8       0.000000000000
G07  25351245.309 9 133221647.139 9      2205.083 9        54.130 9  25351245.982 6         0.000 6      1718.247 6        37.977 6
G10  23817526.364 9 125161891.018 9      3522.167 9        54.666 9  23817530.098 6         0.000 6      2744.549 6        37.977 6
G21  21168632.512 9 111241894.006 9     -1257.256 9        55.710 9  21168631.797 6         0.000 6      -979.680 6        37.977 6
G29  24294358.174 9 127667657.609 9     -3147.657 9        54.477 9  24294359.741 6         0.000 6     -2452.722 6        37.977 6
G27  22009074.154 9 115658438.286 9      2523.332 9        55.372 9  22009076.088 6         0.000 6      1966.233 6        37.977 6
G16  20497935.407 9 107717357.285 9       573.966 9        55.976 9  20497934.580 6         0.000 6       447.246 6        37.977 6
G26  20651137.909 9 108522439.921 9     -1473.974 9        55.874 9  20651140.724 6         0.000 6     -1148.552 6        37.977 6
G20  21950172.453 9 115348901.633 9      2556.568 9        55.313 9  21950172.778 6         0.000 6      1992.132 6        37.977 6
> 2019 07 03 12 00 49.0000000  0  8       0.000000000000
G07  25350825.739 9 133219442.286 9      2204.629 9        54.130 9  25350826.411 6         0.000 6      1717.894 6        37.977 6
G10  23816856.130 9 125158368.930 9      3522.030 9        54.667 9  23816859.864 6         0.000 6      2744.442 6        37.977 6
G21  21168871.794 9 111243151.444 9     -1257.622 9        55.710 9  21168871.080 6         0.000 6      -979.965 6        37.977 6
G29  24294957.161 9 127670805.300 9     -3147.744 9        54.477 9  24294958.730 6         0.000 6     -2452.790 6        37.977 6
G27  22008594.002 9 115655915.077 9      2523.090 9        55.373 9  22008595.937 6         0.000 6      1966.045 6        37.977 6
G16  20497826.243 9 107716783.628 9       573.347 9        55.976 9  20497825.416 6         0.000 6       446.764 6        37.977 6
G26  20651418.451 9 108523914.182 9     -1474.551 9        55.874 9  20651421.266 6         0.000 6     -1149.002 6        37.977 6
G20  21949685.997 9 115346345.291 9      2556.125 9        55.313 9  21949686.321 6         0.000 6      1991.787 6        37.977 6
> 2019 07 03 12 00 50.0000000  0  8       0.000000000000
G07  25350406.255 9 133217237.888 9      2204.175 9        54.130 9  25350406.927 6         0.000 6      1717.540 6        37.977 6
G10  23816185.924 9 125154846.980 9      3521.893 9        54.667 9  23816189.656 6         0.000 6      2744.335 6        37.977 6
G21  21169111.147 9 111244409.249 9     -1257.988 9        55.710 9  21169110.432 6         0.000 6      -980.251 6        37.977 6
G29  24295556.165 9 127673953.077 9     -3147.831 9        54.476 9  24295557.734 6         0.000 6     -2452.858 6        37.977 6
G27  22008113.897 9 115653392.110 9      2522.849 9        55.373 9  22008115.831 6         0.000 6      1965.857 6        37.977 6
G16  20497717.198 9 107716210.591 9       572.729 9        55.976 9  20497716.371 6         0.000 6       446.282 6        37.977 6
G26  20651699.104 9 108525389.021 9     -1475.129 9        55.874 9  20651701.919 6         0.000 6     -1149.451 6        37.977 6
G20  21949199.625 9 115343789.392 9      2555.682 9        55.314 9  21949199.949 6         0.000 6      1991.442 6        37.977 6
> 2019 07 03 12 00 51.0000000  0  8       0.000000000000
G07  25349986.858 9 133215033.943 9      2203.721 9        54.130 9  25349987.530 6         0.000 6      1717.186 6        37.977 6
G10  23815515.743 9 125151325.166 9      3521.755 9        54.667 9  23815519.475 6         0.000 6      2744.227 6        37.977 6
G21  21169350.569 9 111245667.419 9     -1258.354 9        55.710 9  21169349.854 6         0.000 6      -980.536 6        37.977 6
G29  24296155.186 9 127677100.941 9     -3147.918 9        54.476 9  24296156.755 6         0.000 6     -2452.925 6        37.977 6
G27  22007633.838 9 115650869.385 9      2522.607 9        55.373 9  22007635.772 6         0.000 6      1965.669 6        37.977 6
G16  20497608.270 9 107715638.172 9       572.110 9        55.976 9  20497607.443 6         0.000 6       445.800 6        37.977 6
G26  20651979.867 9 108526864.436 9     -1475.706 9        55.874 9  20651982.682 6         0.000 6     -1149.901 6        37.977 6
G20  21948713.337 9 115341233.936 9      2555.239 9        55.314 9  21948713.661 6         0.000 6      1991.096 6        37.977 6
> 2019 07 03 12 00 52.0000000  0  8       0.000000000000
G07  25349567.547 9 133212830.453 9      2203.267 9        54.131 9  25349568.219 6         0.000 6      1716.832 6        37.977 6
G10  23814845.588 9 125147803.491 9      3521.617 9        54.667 9  23814849.320 6         0.000 6      2744.120 6        37.977 6
G21  21169590.061 9 111246925.956 9     -1258.720 9        55.710 9  21169589.346 6         0.000 6      -980.821 6        37.977 6
G29  24296754.223 9 127680248.892 9     -3148.005 9        54.476 9  24296755.793 6         0.000 6     -2452.993 6        37.977 6
G27  22007153.825 9 115648346.902 9      2522.365 9        55.373 9  22007155.759 6         0.000 6      1965.480 6        37.977 6
G16  20497499.460 9 107715066.371 9       571.491 9        55.976 9  20497498.633 6         0.000 6       445.318 6        37.977 6
G26  20652260.739 9 108528340.429 9     -1476.283 9        55.874 9  20652263.555 6         0.000 6     -1150.351 6        37.977 6
G20  21948227.133 9 115338678.924 9      2554.795 9        55.314 9  21948227.457 6         0.000 6      1990.751 6        37.977 6
> 2019 07 03 12 00 53.0000000  0  8       0.000000000000
G07  25349148.323 9 133210627.417 9      2202.813 9        54.131 9  25349148.994 6         0.000 6      1716.478 6        37.977 6
G10  23814175.460 9 125144281.953 9      3521.480 9        54.668 9  23814179.191 6         0.000 6      2744.013 6        37.977 6
G21  21169829.622 9 111248184.859 9     -1259.086 9        55.710 9  21169828.907 6         0.000 6      -981.107 6        37.977 6
G29  24297353.277 9 127683396.930 9     -3148.092 9        54.476 9  24297354.847 6         0.000 6     -2453.061 6        37.977 6
G27  22006673.858 9 115645824.660 9      2522.124 9        55.373 9  22006675.791 6         0.000 6      1965.292 6        37.977 6
G16  20497390.768 9 107714495.190 9       570.872 9        55.977 9  20497389.941 6         0.000 6       444.835 6        37.977 6
G26  20652541.722 9 108529816.999 9     -1476.860 9        55.874 9  20652544.537 6         0.000 6     -1150.801 6        37.977 6
G20  21947741.014 9 115336124.355 9      2554.352 9        55.314 9  21947741.337 6         0.000 6      1990.405 6        37.977 6
> 2019 07 03 12 00 54.0000000  0  8       0.000000000000
G07  25348729.185 9 133208424.835 9      2202.358 9        54.131 9  25348729.856 6         0.000 6      1716.124 6        37.977 6
G10  23813505.358 9 125140760.553 9      3521.342 9        54.668 9  23813509.088 6         0.000 6      2743.905 6        37.977 6
G21  21170069.253 9 111249444.128 9     -1259.452 9        55.710 9  21170068.538 6         0.000 6      -981.392 6        37.977 6
G29  24297952.347 9 127686545.054 9     -3148.178 9        54.476 9  24297953.918 6         0.000 6     -2453.129 6        37.977 6
G27  22006193.937 9 115643302.660 9      2521.882 9        55.374 9  22006195.870 6         0.000 6      1965.103 6        37.977 6
G16  20497282.194 9 107713924.627 9       570.253 9        55.977 9  20497281.366 6         0.000 6       444.353 6        37.977 6
G26  20652822.814 9 108531294.147 9     -1477.438 9        55.874 9  20652825.629 6         0.000 6     -1151.251 6        37.977 6
G20  21947254.979 9 115333570.230 9      2553.908 9        55.314 9  21947255.302 6         0.000 6      1990.059 6        37.977 6
> 2019 07 03 12 00 55.0000000  0  8       0.000000000000
G07  25348310.133 9 133206222.708 9      2201.904 9        54.131 9  25348310.804 6         0.000 6      1715.770 6        37.977 6
G10  23812835.282 9 125137239.291 9      3521.204 9        54.668 9  23812839.011 6         0.000 6      2743.798 6        37.977 6
G21  21170308.954 9 111250703.762 9     -1259.818 9        55.709 9  21170308.239 6         0.000 6      -981.677 6        37.977 6
G29  24298551.433 9 127689693.266 9     -3148.265 9        54.475 9  24298553.005 6         0.000 6     -2453.196 6        37.977 6
G27  22005714.062 9 115640780.902 9      2521.640 9        55.374 9  22005715.995 6         0.000 6      1964.915 6        37.977 6
G16  20497173.737 9 107713354.684 9       569.634 9        55.977 9  20497172.910 6         0.000 6       443.871 6        37.977 6
G26  20653104.016 9 108532771.871 9     -1478.015 9        55.874 9  20653106.831 6         0.000 6     -1151.700 6        37.977 6
G20  21946769.029 9 115331016.548 9      2553.464 9        55.314 9  21946769.352 6         0.000 6      1989.714 6        37.977 6
> 2019 07 03 12 00 56.0000000  0  8       0.000000000000
G07  25347891.168 9 133204021.035 9      2201.449 9        54.131 9  25347891.838 6         0.000 6      1715.416 6        37.977 6
G10  23812165.232 9 125133718.167 9      3521.066 9        54.668 9  23812168.961 6         0.000 6      2743.690 6        37.977 6
G21  21170548.724 9 111251963.763 9     -1260.184 9        55.709 9  21170548.009 6         0.000 6      -981.962 6        37.977 6
G29  24299150.537 9 127692841.564 9     -3148.352 9        54.475 9  24299152.109 6         0.000 6     -2453.264 6        37.977 6
G27  22005234.232 9 115638259.386 9      2521.398 9        55.374 9  22005236.165 6         0.000 6      1964.726 6        37.977 6
G16  20497065.398 9 107712785.359 9       569.015 9        55.977 9  20497064.571 6         0.000 6       443.388 6        37.977 6
G26  20653385.327 9 108534250.173 9     -1478.592 9        55.874 9  20653388.143 6         0.000 6     -1152.150 6        37.977 6
G20  21946283.163 9 115328463.310 9      2553.021 9        55.315 9  21946283.485 6         0.000 6      1989.368 6        37.977 6
> 2019 07 03 12 00 57.0000000  0  8       0.000000000000
G07  25347472.289 9 133201819.816 9      2200.995 9        54.131 9  25347472.959 6         0.000 6      1715.062 6        37.977 6
G10  23811495.209 9 125130197.181 9      3520.927 9        54.669 9  23811498.937 6         0.000 6      2743.583 6        37.977 6
G21  21170788.564 9 111253224.129 9     -1260.550 9        55.709 9  21170787.849 6         0.000 6      -982.247 6        37.977 6
G29  24299749.656 9 127695989.949 9     -3148.439 9        54.475 9  24299751.230 6         0.000 6     -2453.332 6        37.977 6
G27  22004754.449 9 115635738.112 9      2521.156 9        55.374 9  22004756.382 6         0.000 6      1964.538 6        37.977 6
G16  20496957.177 9 107712216.654 9       568.396 9        55.977 9  20496956.350 6         0.000 6       442.906 6        37.977 6
G26  20653666.749 9 108535729.051 9     -1479.169 9        55.873 9  20653669.565 6         0.000 6     -1152.600 6        37.977 6
G20  21945797.382 9 115325910.516 9      2552.577 9        55.315 9  21945797.704 6         0.000 6      1989.022 6        37.977 6
> 2019 07 03 12 00 58.0000000  0  8       0.000000000000
G07  25347053.497 9 133199619.053 9      2200.540 9        54.131 9  25347054.167 6         0.000 6      1714.708 6        37.977 6
G10  23810825.212 9 125126676.333 9      3520.789 9        54.669 9  23810828.939 6         0.000 6      2743.475 6        37.977 6
G21  21171028.473 9 111254484.862 9     -1260.916 9        55.709 9  21171027.759 6         0.000 6      -982.532 6        37.977 6
G29  24300348.793 9 127699138.421 9     -3148.526 9        54.475 9  24300350.367 6         0.000 6     -2453.399 6        37.977 6
G27  22004274.712 9 115633217.079 9      2520.914 9        55.374 9  22004276.645 6         0.000 6      1964.349 6        37.977 6
G16  20496849.074 9 107711648.568 9       567.777 9        55.977 9  20496848.247 6         0.000 6       442.424 6        37.977 6
G26  20653948.280 9 108537208.507 9     -1479.746 9        55.873 9  20653951.096 6         0.000 6     -1153.049 6        37.977 6
G20  21945311.685 9 115323358.166 9      2552.133 9        55.315 9  21945312.007 6         0.000 6      1988.676 6        37.977 6
> 2019 07 03 12 00 59.0000000  0  8       0.000000000000
G07  25346634.792 9 133197418.743 9      2200.085 9        54.132 9  25346635.461 6         0.000 6      1714.353 6        37.977 6
G10  23810155.241 9 125123155.624 9      3520.651 9        54.669 9  23810158.968 6         0.000 6      2743.367 6        37.977 6
G21  21171268.452 9 111255745.959 9     -1261.281 9        55.709 9  21171267.738 6         0.000 6      -982.817 6        37.977 6
G29  24300947.945 9 127702286.980 9     -3148.612 9        54.474 9  24300949.520 6         0.000 6     -2453.467 6        37.977 6
G27  22003795.021 9 115630696.289 9      2520.672 9        55.375 9  22003796.954 6         0.000 6      1964.161 6        37.977 6
G16  20496741.088 9 107711081.100 9       567.158 9        55.977 9  20496740.261 6         0.000 6       441.941 6        37.977 6
G26  20654229.922 9 108538688.540 9     -1480.323 9        55.873 9  20654232.738 6         0.000 6     -1153.499 6        37.977 6
G20  21944826.072 9 115320806.260 9      2551.689 9        55.315 9  21944826.394 6         0.000 6      1988.330 6        37.977 6
> 2019 07 03 12 01  0.0000000  0  8       0.000000000000
G07  25346216.172 9 133195218.889 9      2199.631 9        54.132 9  25346216.842 6         0.000 6      1713.999 6        37.977 6
G10  23809485.296 9 125119635.053 9      3520.512 9        54.669 9  23809489.023 6         0.000 6      2743.259 6        37.977 6
G21  21171508.501 9 111257007.423 9     -1261.647 9        55.709 9  21171507.787 6         0.000 6      -983.102 6        37.977 6
G29  24301547.115 9 127705435.625 9     -3148.699 9        54.474 9  24301548.690 6         0.000 6     -2453.534 6        37.977 6
G27  22003315.376 9 115628175.741 9      2520.430 9        55.375 9  22003317.309 6         0.000 6      1963.972 6        37.977 6
G16  20496633.221 9 107710514.252 9       566.539 9        55.977 9  20496632.394 6         0.000 6       441.459 6        37.977 6
G26  20654511.673 9 108540169.150 9     -1480.900 9        55.873 9  20654514.489 6         0.000 6     -1153.949 6        37.977 6
G20  21944340.544 9 115318254.798 9      2551.244 9        55.315 9  21944340.866 6         0.000 6      1987.984 6        37.977 6
> 2019 07 03 12 01  1.0000000  0  8       0.000000000000
G07  25345797.640 9 133193019.489 9      2199.176 9        54.132 9  25345798.309 6         0.000 6      1713.644 6        37.977 6
G10  23808815.378 9 125116114.621 9      3520.374 9        54.670 9  23808819.104 6         0.000 6      2743.151 6        37.977 6
G21  21171748.619 9 111258269.252 9     -1262.013 9        55.709 9  21171747.905 6         0.000 6      -983.387 6        37.977 6
G29  24302146.300 9 127708584.358 9     -3148.786 9        54.474 9  24302147.876 6         0.000 6     -2453.602 6        37.977 6
G27  22002835.778 9 115625655.434 9      2520.188 9        55.375 9  22002837.710 6         0.000 6      1963.784 6        37.977 6
G16  20496525.471 9 107709948.023 9       565.919 9        55.977 9  20496524.644 6         0.000 6       440.976 6        37.977 6
G26  20654793.533 9 108541650.337 9     -1481.477 9        55.873 9  20654796.350 6         0.000 6     -1154.398 6        37.977 6
G20  21943855.101 9 115315703.780 9      2550.800 9        55.316 9  21943855.422 6         0.000 6      1987.638 6        37.977 6
> 2019 07 03 12 01  2.0000000  0  8       0.000000000000
G07  25345379.194 9 133190820.545 9      2198.721 9        54.132 9  25345379.863 6         0.000 6      1713.290 6        37.977 6
G10  23808145.487 9 125112594.327 9      3520.235 9        54.670 9  23808149.212 6         0.000 6      2743.043 6        37.977 6
G21  21171988.807 9 111259531.447 9     -1262.378 9        55.709 9  21171988.093 6         0.000 6      -983.672 6        37.977 6
G29  24302745.503 9 127711733.176 9     -3148.872 9        54.474 9  24302747.079 6         0.000 6     -2453.669 6        37.977 6
G27  22002356.225 9 115623135.370 9      2519.946 9        55.375 9  22002358.157 6         0.000 6      1963.595 6        37.977 6
G16  20496417.839 9 107709382.414 9       565.300 9        55.977 9  20496417.012 6         0.000 6       440.494 6        37.977 6
G26  20655075.504 9 108543132.100 9     -1482.054 9        55.873 9  20655078.320 6         0.000 6     -1154.848 6        37.977 6
G20  21943369.742 9 115313153.206 9      2550.356 9        55.316 9  21943370.063 6         0.000 6      1987.291 6        37.977 6
> 2019 07 03 12 01  3.0000000  0  8       0.000000000000
G07  25344960.835 9 133188622.055 9      2198.266 9        54.132 9  25344961.503 6         0.000 6      1712.935 6        37.977 6
G10  23807475.622 9 125109074.172 9      3520.096 9        54.670 9  23807479.346 6         0.000 6      2742.935 6        37.977 6
G21  21172229.064 9 111260794.007 9     -1262.744 9        55.709 9  21172228.350 6         0.000 6      -983.956 6        37.977 6
G29  24303344.721 9 127714882.082 9     -3148.959 9        54.474 9  24303346.298 6         0.000 6     -2453.737 6        37.977 6
G27  22001876.718 9 115620615.548 9      2519.704 9        55.375 9  22001878.650 6         0.000 6      1963.406 6        37.977 6
G16  20496310.325 9 107708817.423 9       564.681 9        55.977 9  20496309.498 6         0.000 6       440.011 6        37.977 6
G26  20655357.584 9 108544614.441 9     -1482.631 9        55.873 9  20655360.401 6         0.000 6     -1155.297 6        37.977 6
G20  21942884.468 9 115310603.077 9      2549.911 9        55.316 9  21942884.788 6         0.000 6      1986.945 6        37.977 6
> 2019 07 03 12 01  4.0000000  0  8       0.000000000000
G07  25344542.562 9 133186424.020 9      2197.811 9        54.132 9  25344543.230 6         0.000 6      1712.581 6        37.977 6
G10  23806805.783 9 125105554.156 9      3519.957 9        54.670 9  23806809.506 6         0.000 6      2742.827 6        37.977 6
G21  21172469.391 9 111262056.933 9     -1263.109 9        55.709 9  21172468.677 6         0.000 6      -984.241 6        37.977 6
G29  24303943.956 9 127718031.074 9     -3149.046 9        54.473 9  24303945.534 6         0.000 6     -2453.804 6        37.977 6
G27  22001397.257 9 115618095.969 9      2519.461 9        55.376 9  22001399.189 6         0.000 6      1963.217 6        37.977 6
G16  20496202.929 9 107708253.052 9       564.062 9        55.977 9  20496202.101 6         0.000 6       439.528 6        37.977 6
G26  20655639.774 9 108546097.358 9     -1483.208 9        55.873 9  20655642.591 6         0.000 6     -1155.747 6        37.977 6
G20  21942399.278 9 115308053.393 9      2549.467 9        55.316 9  21942399.598 6         0.000 6      1986.599 6        37.977 6
> 2019 07 03 12 01  5.0000000  0  8       0.000000000000
G07  25344124.376 9 133184226.441 9      2197.356 9        54.132 9  25344125.044 6         0.000 6      1712.226 6        37.977 6
G10  23806135.970 9 125102034.279 9      3519.818 9        54.671 9  23806139.693 6         0.000 6      2742.718 6        37.977 6
G21  21172709.788 9 111263320.224 9     -1263.475 9        55.708 9  21172709.074 6         0.000 6      -984.526 6        37.977 6
G29  24304543.208 9 127721180.152 9     -3149.132 9        54.473 9  24304544.787 6         0.000 6     -2453.872 6        37.977 6
G27  22000917.843 9 115615576.631 9      2519.219 9        55.376 9  22000919.774 6         0.000 6      1963.029 6        37.977 6
G16  20496095.650 9 107707689.300 9       563.442 9        55.977 9  20496094.823 6         0.000 6       439.046 6        37.977 6
G26  20655922.074 9 108547580.852 9     -1483.784 9        55.872 9  20655924.891 6         0.000 6     -1156.196 6        37.977 6
G20  21941914.173 9 115305504.153 9      2549.022 9        55.316 9  21941914.493 6         0.000 6      1986.252 6        37.977 6
> 2019 07 03 12 01  6.0000000  0  8       0.000000000000
G07  25343706.276 9 133182029.316 9      2196.900 9        54.133 9  25343706.944 6         0.000 6      1711.871 6        37.977 6
G10  23805466.184 9 125098514.541 9      3519.679 9        54.671 9  23805469.907 6         0.000 6      2742.610 6        37.977 6
G21  21172950.254 9 111264583.881 9     -1263.840 9        55.708 9  21172949.540 6         0.000 6      -984.810 6        37.977 6
G29  24305142.476 9 127724329.318 9     -3149.219 9        54.473 9  24305144.055 6         0.000 6     -2453.939 6        37.977 6
G27  22000438.475 9 115613057.536 9      2518.977 9        55.376 9  22000440.406 6         0.000 6      1962.840 6        37.977 6
G16  20495988.490 9 107707126.168 9       562.823 9        55.977 9  20495987.662 6         0.000 6       438.563 6        37.977 6
G26  20656204.484 9 108549064.923 9     -1484.361 9        55.872 9  20656207.301 6         0.000 6     -1156.645 6        37.977 6
G20  21941429.152 9 115302955.357 9      2548.577 9        55.317 9  21941429.472 6         0.000 6      1985.906 6        37.977 6
> 2019 07 03 12 01  7.0000000  0  8       0.000000000000
G07  25343288.263 9 133179832.647 9      2196.445 9        54.133 9  25343288.931 6         0.000 6      1711.517 6        37.977 6
G10  23804796.425 9 125094994.942 9      3519.540 9        54.671 9  23804800.147 6         0.000 6      2742.501 6        37.977 6
G21  21173190.789 9 111265847.903 9     -1264.205 9        55.708 9  21173190.075 6         0.000 6      -985.095 6        37.977 6
G29  24305741.761 9 127727478.569 9     -3149.305 9        54.473 9  24305743.341 6         0.000 6     -2454.007 6        37.977 6
G27  21999959.152 9 115610538.683 9      2518.735 9        55.376 9  21999961.083 6         0.000 6      1962.651 6        37.977 6
G16  20495881.447 9 107706563.655 9       562.203 9        55.977 9  20495880.620 6         0.000 6       438.081 6        37.977 6
G26  20656487.003 9 108550549.571 9     -1484.938 9        55.872 9  20656489.820 6         0.000 6     -1157.095 6        37.977 6
G20  21940944.217 9 115300407.007 9      2548.133 9        55.317 9  21940944.536 6         0.000 6      1985.559 6        37.977 6
> 2019 07 03 12 01  8.0000000  0  8       0.000000000000
G07  25342870.337 9 133177636.433 9      2195.990 9        54.133 9  25342871.005 6         0.000 6      1711.162 6        37.977 6
G10  23804126.692 9 125091475.483 9      3519.401 9        54.671 9  23804130.413 6         0.000 6      2742.393 6        37.977 6
G21  21173431.394 9 111267112.290 9     -1264.570 9        55.708 9  21173430.680 6         0.000 6      -985.380 6        37.977 6
G29  24306341.062 9 127730627.908 9     -3149.392 9        54.473 9  24306342.642 6         0.000 6     -2454.074 6        37.977 6
G27  21999479.876 9 115608020.072 9      2518.492 9        55.376 9  21999481.807 6         0.000 6      1962.462 6        37.977 6
G16  20495774.522 9 107706001.761 9       561.584 9        55.977 9  20495773.695 6         0.000 6       437.598 6        37.977 6
G26  20656769.633 9 108552034.795 9     -1485.515 9        55.872 9  20656772.450 6         0.000 6     -1157.544 6        37.977 6
G20  21940459.365 9 115297859.101 9      2547.688 9        55.317 9  21940459.685 6         0.000 6      1985.212 6        37.977 6
> 2019 07 03 12 01  9.0000000  0  8       0.000000000000
G07  25342452.497 9 133175440.675 9      2195.534 9        54.133 9  25342453.165 6         0.000 6      1710.807 6        37.977 6
G10  23803456.986 9 125087956.162 9      3519.261 9        54.672 9  23803460.706 6         0.000 6      2742.284 6        37.977 6
G21  21173672.069 9 111268377.042 9     -1264.935 9        55.708 9  21173671.355 6         0.000 6      -985.664 6        37.977 6
G29  24306940.380 9 127733777.332 9     -3149.478 9        54.472 9  24306941.961 6         0.000 6     -2454.142 6        37.977 6
G27  21999000.646 9 115605501.704 9      2518.250 9        55.376 9  21999002.577 6         0.000 6      1962.273 6        37.977 6
G16  20495667.715 9 107705440.487 9       560.964 9        55.977 9  20495666.888 6         0.000 6       437.115 6        37.977 6
G26  20657052.371 9 108553520.597 9     -1486.091 9        55.872 9  20657055.189 6         0.000 6     -1157.994 6        37.977 6
G20  21939974.599 9 115295311.640 9      2547.243 9        55.317 9  21939974.918 6         0.000 6      1984.866 6        37.977 6
> 2019 07 03 12 01 10.0000000  0  8       0.000000000000
G07  25342034.744 9 133173245.372 9      2195.079 9        54.133 9  25342035.412 6         0.000 6      1710.452 6        37.977 6
G10  23802787.306 9 125084436.982 9      3519.122 9        54.672 9  23802791.026 6         0.000 6      2742.175 6        37.977 6
G21  21173912.813 9 111269642.159 9     -1265.301 9        55.708 9  21173912.099 6         0.000 6      -985.949 6        37.977 6
G29  24307539.714 9 127736926.844 9     -3149.565 9        54.472 9  24307541.295 6         0.000 6     -2454.209 6        37.977 6
G27  21998521.462 9 115602983.578 9      2518.007 9        55.377 9  21998523.393 6         0.000 6      1962.084 6        37.977 6
G16  20495561.026 9 107704879.833 9       560.345 9        55.977 9  20495560.199 6         0.000 6       436.632 6        37.977 6
G26  20657335.220 9 108555006.974 9     -1486.668 9        55.872 9  20657338.037 6         0.000 6     -1158.443 6        37.977 6
G20  21939489.917 9 115292764.625 9      2546.798 9        55.317 9  21939490.236 6         0.000 6      1984.519 6        37.977 6
> 2019 07 03 12 01 11.0000000  0  8       0.000000000000
G07  25341617.078 9 133171050.525 9      2194.623 9        54.133 9  25341617.745 6         0.000 6      1710.097 6        37.977 6
G10  23802117.653 9 125080917.941 9      3518.982 9        54.672 9  23802121.372 6         0.000 6      2742.066 6        37.977 6
G21  21174153.626 9 111270907.641 9     -1265.666 9        55.708 9  21174152.912 6         0.000 6      -986.233 6        37.977 6
G29  24308139.064 9 127740076.441 9     -3149.651 9        54.472 9  24308140.646 6         0.000 6     -2454.276 6        37.977 6
G27  21998042.324 9 115600465.694 9      2517.765 9        55.377 9  21998044.255 6         0.000 6      1961.895 6        37.977 6
G16  20495454.455 9 107704319.798 9       559.725 9        55.977 9  20495453.628 6         0.000 6       436.149 6        37.977 6
G26  20657618.178 9 108556493.929 9     -1487.244 9        55.872 9  20657620.996 6         0.000 6     -1158.892 6        37.977 6
G20  21939005.320 9 115290218.054 9      2546.352 9        55.318 9  21939005.638 6         0.000 6      1984.172 6        37.977 6
> 2019 07 03 12 01 12.0000000  0  8       0.000000000000
G07  25341199.499 9 133168856.134 9      2194.167 9        54.134 9  25341200.166 6         0.000 6      1709.742 6        37.977 6
G10  23801448.026 9 125077399.039 9      3518.842 9        54.672 9  23801451.744 6         0.000 6      2741.958 6        37.977 6
G21  21174394.509 9 111272173.489 9     -1266.031 9        55.708 9  21174393.795 6         0.000 6      -986.517 6        37.977 6
G29  24308738.431 9 127743226.126 9     -3149.738 9        54.472 9  24308740.014 6         0.000 6     -2454.344 6        37.977 6
G27  21997563.233 9 115597948.053 9      2517.522 9        55.377 9  21997565.163 6         0.000 6      1961.707 6        37.977 6
G16  20495348.002 9 107703760.383 9       559.106 9        55.977 9  20495347.175 6         0.000 6       435.667 6        37.977 6
G26  20657901.246 9 108557981.459 9     -1487.821 9        55.872 9  20657904.064 6         0.000 6     -1159.341 6        37.977 6
G20  21938520.808 9 115287671.929 9      2545.907 9        55.318 9  21938521.126 6         0.000 6      1983.825 6        37.977 6
> 2019 07 03 12 01 13.0000000  0  8       0.000000000000
G07  25340782.006 9 133166662.198 9      2193.711 9        54.134 9  25340782.673 6         0.000 6      1709.386 6        37.977 6
G10  23800778.426 9 125073880.278 9      3518.702 9        54.673 9  23800782.144 6         0.000 6      2741.849 6        37.977 6
G21  21174635.461 9 111273439.701 9     -1266.395 9        55.708 9  21174634.747 6         0.000 6      -986.802 6        37.977 6
G29  24309337.814 9 127746375.896 9     -3149.824 9        54.471 9  24309339.398 6         0.000 6     -2454.411 6        37.977 6
G27  21997084.187 9 115595430.655 9      2517.280 9        55.377 9  21997086.117 6         0.000 6      1961.518 6        37.977 6
G16  20495241.667 9 107703201.587 9       558.486 9        55.977 9  20495240.839 6         0.000 6       435.184 6        37.977 6
G26  20658184.424 9 108559469.567 9     -1488.397 9        55.872 9  20658187.242 6         0.000 6     -1159.791 6        37.977 6
G20  21938036.380 9 115285126.249 9      2545.462 9        55.318 9  21938036.698 6         0.000 6      1983.478 6        37.977 6
> 2019 07 03 12 01 14.0000000  0  8       0.000000000000
G07  25340364.600 9 133164468.718 9      2193.256 9        54.134 9  25340365.266 6         0.000 6      1709.031 6        37.977 6
G10  23800108.852 9 125070361.656 9      3518.562 9        54.673 9  23800112.570 6         0.000 6      2741.740 6        37.977 6
G21  21174876.483 9 111274706.278 9     -1266.760 9        55.708 9  21174875.769 6         0.000 6      -987.086 6        37.977 6
G29  24309937.214 9 127749525.753 9     -3149.910 9        54.471 9  24309938.798 6         0.000 6     -2454.478 6        37.977 6
G27  21996605.188 9 115592913.499 9      2517.037 9        55.377 9  21996607.117 6         0.000 6      1961.328 6        37.977 6
G16  20495135.449 9 107702643.411 9       557.866 9        55.977 9  20495134.622 6         0.000 6       434.701 6        37.977 6
G26  20658467.712 9 108560958.251 9     -1488.974 9        55.871 9  20658470.529 6         0.000 6     -1160.240 6        37.977 6
G20  21937552.037 9 115282581.014 9      2545.016 9        55.318 9  21937552.354 6         0.000 6      1983.131 6        37.977 6
> 2019 07 03 12 01 15.0000000  0  8       0.000000000000
G07  25339947.281 9 133162275.694 9      2192.800 9        54.134 9  25339947.947 6         0.000 6      1708.676 6        37.977 6
G10  23799439.306 9 125066843.174 9      3518.422 9        54.673 9  23799443.022 6         0.000 6      2741.630 6        37.977 6
G21  21175117.574 9 111275973.220 9     -1267.125 9        55.707 9  21175116.860 6         0.000 6      -987.370 6        37.977 6
G29  24310536.630 9 127752675.696 9     -3149.997 9        54.471 9  24310538.215 6         0.000 6     -2454.545 6        37.977 6
G27  21996126.234 9 115590396.586 9      2516.795 9        55.378 9  21996128.164 6         0.000 6      1961.139 6        37.977 6
G16  20495029.350 9 107702085.855 9       557.246 9        55.978 9  20495028.523 6         0.000 6       434.218 6        37.977 6
G26  20658751.109 9 108562447.511 9     -1489.550 9        55.871 9  20658753.927 6         0.000 6     -1160.689 6        37.977 6
G20  21937067.779 9 115280036.225 9      2544.571 9        55.318 9  21937068.096 6         0.000 6      1982.783 6        37.977 6
> 2019 07 03 12 01 16.0000000  0  8       0.000000000000
G07  25339530.048 9 133160083.126 9      2192.344 9        54.134 9  25339530.714 6         0.000 6      1708.321 6        37.977 6
G10  23798769.785 9 125063324.833 9      3518.282 9        54.673 9  23798773.501 6         0.000 6      2741.521 6        37.977 6
G21  21175358.735 9 111277240.527 9     -1267.490 9        55.707 9  21175358.021 6         0.000 6      -987.655 6        37.977 6
G29  24311136.063 9 127755825.726 9     -3150.083 9        54.471 9  24311137.648 6         0.000 6     -2454.613 6        37.977 6
G27  21995647.327 9 115587879.915 9      2516.552 9        55.378 9  21995649.257 6         0.000 6      1960.950 6        37.977 6
G16  20494923.368 9 107701528.918 9       556.627 9        55.978 9  20494922.541 6         0.000 6       433.735 6        37.977 6
G26  20659034.616 9 108563937.348 9     -1490.127 9        55.871 9  20659037.434 6         0.000 6     -1161.138 6        37.977 6
G20  21936583.606 9 115277491.882 9      2544.125 9        55.318 9  21936583.923 6         0.000 6      1982.436 6        37.977 6
> 2019 07 03 12 01 17.0000000  0  8       0.000000000000
G07  25339112.902 9 133157891.014 9      2191.888 9        54.134 9  25339113.568 6         0.000 6      1707.965 6        37.977 6
G10  23798100.292 9 125059806.631 9      3518.142 9        54.673 9  23798104.007 6         0.000 6      2741.412 6        37.977 6
G21  21175599.965 9 111278508.199 9     -1267.855 9        55.707 9  21175599.251 6         0.000 6      -987.939 6        37.977 6
G29  24311735.512 9 127758975.842 9     -3150.169 9        54.471 9  24311737.098 6         0.000 6     -2454.680 6        37.977 6
G27  21995168.467 9 115585363.487 9      2516.309 9        55.378 9  21995170.396 6         0.000 6      1960.761 6        37.977 6
G16  20494817.505 9 107700972.602 9       556.007 9        55.978 9  20494816.678 6         0.000 6       433.252 6        37.977 6
G26  20659318.232 9 108565427.761 9     -1490.703 9        55.871 9  20659321.050 6         0.000 6     -1161.587 6        37.977 6
G20  21936099.517 9 115274947.984 9      2543.679 9        55.319 9  21936099.834 6         0.000 6      1982.089 6        37.977 6
> 2019 07 03 12 01 18.0000000  0  8       0.000000000000
G07  25338695.843 9 133155699.358 9      2191.431 9        54.134 9  25338696.509 6         0.000 6      1707.610 6        37.977 6
G10  23797430.825 9 125056288.570 9      3518.001 9        54.674 9  23797434.540 6         0.000 6      2741.302 6        37.977 6
G21  21175841.264 9 111279776.235 9     -1268.219 9        55.707 9  21175840.551 6         0.000 6      -988.223 6        37.977 6
G29  24312334.978 9 127762126.044 9     -3150.256 9        54.470 9  24312336.564 6         0.000 6     -2454.747 6        37.977 6
G27  21994689.652 9 115582847.302 9      2516.067 9        55.378 9  21994691.581 6         0.000 6      1960.572 6        37.977 6
G16  20494711.759 9 107700416.905 9       555.387 9        55.978 9  20494710.932 6         0.000 6       432.769 6        37.977 6
G26  20659601.958 9 108566918.751 9     -1491.279 9        55.871 9  20659604.777 6         0.000 6     -1162.036 6        37.977 6
G20  21935615.514 9 115272404.532 9      2543.233 9        55.319 9  21935615.830 6         0.000 6      1981.741 6        37.977 6
> 2019 07 03 12 01 19.0000000  0  8       0.000000000000
G07  25338278.871 9 133153508.158 9      2190.975 9        54.135 9  25338279.537 6         0.000 6      1707.254 6        37.977 6
G10  23796761.385 9 125052770.650 9      3517.861 9        54.674 9  23796765.099 6         0.000 6      2741.193 6        37.977 6
G21  21176082.633 9 111281044.636 9     -1268.584 9        55.707 9  21176081.919 6         0.000 6      -988.507 6        37.977 6
G29  24312934.460 9 127765276.332 9     -3150.342 9        54.470 9  24312936.047 6         0.000 6     -2454.814 6        37.977 6
G27  21994210.883 9 115580331.359 9      2515.824 9        55.378 9  21994212.813 6         0.000 6      1960.383 6        37.977 6
G16  20494606.132 9 107699861.828 9       554.767 9        55.978 9  20494605.304 6         0.000 6       432.286 6        37.977 6
G26  20659885.794 9 108568410.317 9     -1491.856 9        55.871 9  20659888.613 6         0.000 6     -1162.485 6        37.977 6
G20  21935131.595 9 115269861.527 9      2542.787 9        55.319 9  21935131.911 6         0.000 6      1981.394 6        37.977 6
> 2019 07 03 12 01 20.0000000  0  8       0.000000000000
G07  25337861.986 9 133151317.415 9      2190.519 9        54.135 9  25337862.651 6         0.000 6      1706.899 6        37.977 6
G10  23796091.972 9 125049252.870 9      3517.720 9        54.674 9  23796095.685 6         0.000 6      2741.083 6        37.977 6
G21  21176324.071 9 111282313.401 9     -1268.948 9        55.707 9  21176323.358 6         0.000 6      -988.791 6        37.977 6
G29  24313533.958 9 127768426.707 9     -3150.428 9        54.470 9  24313535.546 6         0.000 6     -2454.882 6        37.977 6
G27  21993732.161 9 115577815.660 9      2515.581 9        55.379 9  21993734.090 6         0.000 6      1960.194 6        37.977 6
G16  20494500.622 9 107699307.371 9       554.147 9        55.978 9  20494499.795 6         0.000 6       431.803 6        37.977 6
G26  20660169.740 9 108569902.459 9     -1492.432 9        55.871 9  20660172.558 6         0.000 6     -1162.934 6        37.977 6
G20  21934647.761 9 115267318.967 9      2542.341 9        55.319 9  21934648.077 6         0.000 6      1981.046 6        37.977 6
> 2019 07 03 12 01 21.0000000  0  8       0.000000000000
G07  25337445.187 9 133149127.128 9      2190.062 9        54.135 9  25337445.852 6         0.000 6      1706.543 6        37.977 6
G10  23795422.585 9 125045735.230 9      3517.580 9        54.674 9  23795426.298 6         0.000 6      2740.974 6        37.977 6
G21  21176565.579 9 111283582.531 9     -1269.313 9        55.707 9  21176564.865 6         0.000 6      -989.075 6        37.977 6
G29  24314133.473 9 127771577.168 9     -3150.514 9        54.470 9  24314135.061 6         0.000 6     -2454.949 6        37.977 6
G27  21993253.485 9 115575300.203 9      2515.338 9        55.379 9  21993255.414 6         0.000 6      1960.004 6        37.977 6
G16  20494395.230 9 107698753.534 9       553.527 9        55.978 9  20494394.403 6         0.000 6       431.320 6        37.977 6
G26  20660453.795 9 108571395.177 9     -1493.008 9        55.871 9  20660456.613 6         0.000 6     -1163.383 6        37.977 6
G20  21934164.012 9 115264776.853 9      2541.895 9        55.319 9  21934164.327 6         0.000 6      1980.699 6        37.977 6
> 2019 07 03 12 01 22.0000000  0  8       0.000000000000
G07  25337028.476 9 133146937.297 9      2189.606 9        54.135 9  25337029.141 6         0.000 6      1706.187 6        37.977 6
G10  23794753.226 9 125042217.732 9      3517.439 9        54.675 9  23794756.937 6         0.000 6      2740.864 6        37.977 6
G21  21176807.156 9 111284852.025 9     -1269.677 9        55.707 9  21176806.442 6         0.000 6      -989.359 6        37.977 6
G29  24314733.004 9 127774727.715 9     -3150.600 9        54.470 9  24314734.593 6         0.000 6     -2455.016 6        37.977 6
G27  21992774.855 9 115572784.989 9      2515.095 9        55.379 9  21992776.784 6         0.000 6      1959.815 6        37.977 6
G16  20494289.956 9 107698200.317 9       552.907 9        55.978 9  20494289.129 6         0.000 6       430.837 6        37.977 6
G26  20660737.960 9 108572888.472 9     -1493.584 9        55.870 9  20660740.778 6         0.000 6     -1163.832 6        37.977 6
G20  21933680.348 9 115262235.185 9      2541.449 9        55.320 9  21933680.663 6         0.000 6      1980.351 6        37.977 6
> 2019 07 03 12 01 23.0000000  0  8       0.000000000000
G07  25336611.851 9 133144747.923 9      2189.149 9        54.135 9  25336612.516 6         0.000 6      1705.832 6        37.977 6
G10  23794083.893 9 125038700.374 9      3517.298 9        54.675 9  23794087.604 6         0.000 6      2740.754 6        37.977 6
G21  21177048.802 9 111286121.884 9     -1270.042 9        55.707 9  21177048.088 6         0.000 6      -989.643 6        37.977 6
G29  24315332.551 9 127777878.348 9     -3150.687 9        54.469 9  24315334.141 6         0.000 6     -2455.083 6        37.977 6
G27  21992296.272 9 115570270.018 9      2514.852 9        55.379 9  21992298.200 6         0.000 6      1959.626 6        37.977 6
G16  20494184.801 9 107697647.720 9       552.287 9        55.978 9  20494183.974 6         0.000 6       430.354 6        37.977 6
G26  20661022.234 9 108574382.342 9     -1494.161 9        55.870 9  20661025.053 6         0.000 6     -1164.281 6        37.977 6
G20  21933196.768 9 115259693.964 9      2541.003 9        55.320 9  21933197.083 6         0.000 6      1980.003 6        37.977 6
> 2019 07 03 12 01 24.0000000  0  8       0.000000000000
G07  25336195.313 9 133142559.005 9      2188.693 9        54.135 9  25336195.978 6         0.000 6      1705.476 6        37.977 6
G10  23793414.586 9 125035183.157 9      3517.157 9        54.675 9  23793418.297 6         0.000 6      2740.644 6        37.977 6
G21  21177290.517 9 111287392.107 9     -1270.406 9        55.707 9  21177289.804 6         0.000 6      -989.927 6        37.977 6
G29  24315932.115 9 127781029.068 9     -3150.773 9        54.469 9  24315933.706 6         0.000 6     -2455.150 6        37.977 6
G27  21991817.734 9 115567755.290 9      2514.609 9        55.379 9  21991819.663 6         0.000 6      1959.437 6        37.977 6
G16  20494079.763 9 107697095.743 9       551.667 9        55.978 9  20494078.936 6         0.000 6       429.870 6        37.977 6
G26  20661306.618 9 108575876.789 9     -1494.737 9        55.870 9  20661309.437 6         0.000 6     -1164.730 6        37.977 6
G20  21932713.274 9 115257153.189 9      2540.556 9        55.320 9  21932713.589 6         0.000 6      1979.655 6        37.977 6
> 2019 07 03 12 01 25.0000000  0  8       0.000000000000
G07  25335778.862 9 133140370.545 9      2188.236 9        54.135 9  25335779.526 6         0.000 6      1705.120 6        37.977 6
G10  23792745.307 9 125031666.081 9      3517.016 9        54.675 9  23792749.017 6         0.000 6      2740.534 6        37.977 6
G21  21177532.302 9 111288662.695 9     -1270.770 9        55.707 9  21177531.589 6         0.000 6      -990.211 6        37.977 6
G29  24316531.695 9 127784179.873 9     -3150.859 9        54.469 9  24316533.287 6         0.000 6     -2455.217 6        37.977 6
G27  21991339.243 9 115565240.805 9      2514.366 9        55.380 9  21991341.171 6         0.000 6      1959.247 6        37.977 6
G16  20493974.843 9 107696544.386 9       551.047 9        55.978 9  20493974.016 6         0.000 6       429.387 6        37.977 6
G26  20661591.112 9 108577371.812 9     -1495.313 9        55.870 9  20661593.931 6         0.000 6     -1165.179 6        37.977 6
G20  21932229.865 9 115254612.860 9      2540.110 9        55.320 9  21932230.179 6         0.000 6      1979.307 6        37.977 6
> 2019 07 03 12 01 26.0000000  0  8       0.000000000000
G07  25335362.498 9 133138182.540 9      2187.779 9        54.136 9  25335363.162 6         0.000 6      1704.764 6        37.977 6
G10  23792076.055 9 125028149.147 9      3516.875 9        54.676 9  23792079.764 6         0.000 6      2740.424 6        37.977 6
G21  21177774.156 9 111289933.646 9     -1271.134 9        55.706 9  21177773.443 6         0.000 6      -990.495 6        37.977 6
G29  24317131.292 9 127787330.764 9     -3150.945 9        54.469 9  24317132.884 6         0.000 6     -2455.284 6        37.977 6
G27  21990860.798 9 115562726.563 9      2514.123 9        55.380 9  21990862.726 6         0.000 6      1959.058 6        37.977 6
G16  20493870.042 9 107695993.649 9       550.427 9        55.978 9  20493869.214 6         0.000 6       428.904 6        37.977 6
G26  20661875.716 9 108578867.411 9     -1495.889 9        55.870 9  20661878.535 6         0.000 6     -1165.628 6        37.977 6
G20  21931746.541 9 115252072.978 9      2539.663 9        55.320 9  21931746.855 6         0.000 6      1978.959 6        37.977 6
> 2019 07 03 12 01 27.0000000  0  8       0.000000000000
G07  25334946.221 9 133135994.993 9      2187.322 9        54.136 9  25334946.885 6         0.000 6      1704.408 6        37.977 6
G10  23791406.829 9 125024632.354 9      3516.733 9        54.676 9  23791410.538 6         0.000 6      2740.314 6        37.977 6
G21  21178016.080 9 111291204.962 9     -1271.499 9        55.706 9  21178015.367 6         0.000 6      -990.778 6        37.977 6
G29  24317730.905 9 127790481.742 9     -3151.031 9        54.468 9  24317732.498 6         0.000 6     -2455.351 6        37.977 6
G27  21990382.400 9 115560212.564 9      2513.880 9        55.380 9  21990384.327 6         0.000 6      1958.868 6        37.977 6
G16  20493765.358 9 107695443.533 9       549.806 9        55.978 9  20493764.531 6         0.000 6       428.421 6        37.977 6
G26  20662160.429 9 108580363.586 9     -1496.465 9        55.870 9  20662163.248 6         0.000 6     -1166.077 6        37.977 6
G20  21931263.301 9 115249533.543 9      2539.216 9        55.321 9  21931263.615 6         0.000 6      1978.611 6        37.977 6
> 2019 07 03 12 01 28.0000000  0  8       0.000000000000
G07  25334530.031 9 133133807.903 9      2186.866 9        54.136 9  25334530.694 6         0.000 6      1704.052 6        37.977 6
G10  23790737.631 9 125021115.702 9      3516.592 9        54.676 9  23790741.339 6         0.000 6      2740.204 6        37.977 6
G21  21178258.073 9 111292476.642 9     -1271.863 9        55.706 9  21178257.359 6         0.000 6      -991.062 6        37.977 6
G29  24318330.535 9 127793632.806 9     -3151.117 9        54.468 9  24318332.128 6         0.000 6     -2455.418 6        37.977 6
G27  21989904.047 9 115557698.808 9      2513.637 9        55.380 9  21989905.975 6         0.000 6      1958.679 6        37.977 6
G16  20493660.792 9 107694894.037 9       549.186 9        55.978 9  20493659.965 6         0.000 6       427.937 6        37.977 6
G26  20662445.251 9 108581860.337 9     -1497.041 9        55.870 9  20662448.070 6         0.000 6     -1166.526 6        37.977 6
G20  21930780.147 9 115246994.554 9      2538.770 9        55.321 9  21930780.461 6         0.000 6      1978.263 6        37.977 6
> 2019 07 03 12 01 29.0000000  0  8       0.000000000000
G07  25334113.928 9 133131621.269 9      2186.409 9        54.136 9  25334114.591 6         0.000 6      1703.696 6        37.977 6
G10  23790068.459 9 125017599.191 9      3516.450 9        54.676 9  23790072.166 6         0.000 6      2740.094 6        37.977 6
G21  21178500.135 9 111293748.686 9     -1272.227 9        55.706 9  21178499.422 6         0.000 6      -991.346 6        37.977 6
G29  24318930.180 9 127796783.955 9     -3151.203 9        54.468 9  24318931.774 6         0.000 6     -2455.485 6        37.977 6
G27  21989425.741 9 115555185.295 9      2513.394 9        55.380 9  21989427.669 6         0.000 6      1958.489 6        37.977 6
G16  20493556.345 9 107694345.161 9       548.566 9        55.978 9  20493555.517 6         0.000 6       427.454 6        37.977 6
G26  20662730.183 9 108583357.664 9     -1497.617 9        55.870 9  20662733.003 6         0.000 6     -1166.975 6        37.977 6
G20  21930297.078 9 115244456.013 9      2538.323 9        55.321 9  21930297.391 6         0.000 6      1977.915 6        37.977 6
> 2019 07 03 12 01 30.0000000  0  8       0.000000000000
G07  25333697.912 9 133129435.093 9      2185.951 9        54.136 9  25333698.575 6         0.000 6      1703.340 6        37.977 6
G10  23789399.314 9 125014082.822 9      3516.309 9        54.677 9  23789403.021 6         0.000 6      2739.983 6        37.977 6
G21  21178742.266 9 111295021.094 9     -1272.591 9        55.706 9  21178741.553 6         0.000 6      -991.629 6        37.977 6
G29  24319529.843 9 127799935.191 9     -3151.289 9        54.468 9  24319531.437 6         0.000 6     -2455.552 6        37.977 6
G27  21988947.482 9 115552672.026 9      2513.151 9        55.380 9  21988949.409 6         0.000 6      1958.300 6        37.977 6
G16  20493452.015 9 107693796.905 9       547.946 9        55.978 9  20493451.188 6         0.000 6       426.971 6        37.977 6
G26  20663015.225 9 108584855.567 9     -1498.193 9        55.869 9  20663018.045 6         0.000 6     -1167.423 6        37.977 6
G20  21929814.093 9 115241917.918 9      2537.876 9        55.321 9  21929814.406 6         0.000 6      1977.567 6        37.977 6
> 2019 07 03 12 01 31.0000000  0  8       0.000000000000
G07  25333281.982 9 133127249.374 9      2185.494 9        54.136 9  25333282.645 6         0.000 6      1702.983 6        37.977 6
G10  23788730.196 9 125010566.595 9      3516.167 9        54.677 9  23788733.902 6         0.000 6      2739.873 6        37.977 6
G21  21178984.467 9 111296293.866 9     -1272.955 9        55.706 9  21178983.754 6         0.000 6      -991.913 6        37.977 6
G29  24320129.521 9 127803086.513 9     -3151.375 9        54.468 9  24320131.116 6         0.000 6     -2455.619 6        37.977 6
G27  21988469.268 9 115550159.000 9      2512.907 9        55.381 9  21988471.195 6         0.000 6      1958.110 6        37.977 6
G16  20493347.804 9 107693249.270 9       547.325 9        55.978 9  20493346.976 6         0.000 6       426.487 6        37.977 6
G26  20663300.377 9 108586354.046 9     -1498.769 9        55.869 9  20663303.196 6         0.000 6     -1167.872 6        37.977 6
G20  21929331.194 9 115239380.270 9      2537.429 9        55.321 9  21929331.507 6         0.000 6      1977.218 6        37.977 6
> 2019 07 03 12 01 32.0000000  0  8       0.000000000000
G07  25332866.140 9 133125064.111 9      2185.037 9        54.136 9  25332866.803 6         0.000 6      1702.627 6        37.977 6
G10  23788061.106 9 125007050.510 9      3516.025 9        54.677 9  23788064.811 6         0.000 6      2739.762 6        37.977 6
G21  21179226.736 9 111297567.001 9     -1273.318 9        55.706 9  21179226.023 6         0.000 6      -992.196 6        37.977 6
G29  24320729.216 9 127806237.920 9     -3151.461 9        54.467 9  24320730.811 6         0.000 6     -2455.686 6        37.977 6
G27  21987991.101 9 115547646.217 9      2512.664 9        55.381 9  21987993.028 6         0.000 6      1957.921 6        37.977 6
G16  20493243.710 9 107692702.255 9       546.705 9        55.978 9  20493242.883 6         0.000 6       426.004 6        37.977 6
G26  20663585.637 9 108587853.101 9     -1499.344 9        55.869 9  20663588.457 6         0.000 6     -1168.321 6        37.977 6
G20  21928848.380 9 115236843.070 9      2536.981 9        55.322 9  21928848.693 6         0.000 6      1976.870 6        37.977 6
> 2019 07 03 12 01 33.0000000  0  8       0.000000000000
G07  25332450.385 9 133122879.307 9      2184.580 9        54.137 9  25332451.047 6         0.000 6      1702.271 6        37.977 6
G10  23787392.042 9 125003534.566 9      3515.883 9        54.677 9  23787395.747 6         0.000 6      2739.652 6        37.977 6
G21  21179469.075 9 111298840.501 9     -1273.682 9        55.706 9  21179468.363 6         0.000 6      -992.480 6        37.977 6
G29  24321328.927 9 127809389.414 9     -3151.547 9        54.467 9  24321330.523 6         0.000 6     -2455.753 6        37.977 6
G27  21987512.980 9 115545133.677 9      2512.421 9        55.381 9  21987514.907 6         0.000 6      1957.731 6        37.977 6
G16  20493139.735 9 107692155.860 9       546.084 9        55.978 9  20493138.907 6         0.000 6       425.520 6        37.977 6
G26  20663871.008 9 108589352.731 9     -1499.920 9        55.869 9  20663873.828 6         0.000 6     -1168.769 6        37.977 6
G20  21928365.651 9 115234306.316 9      2536.534 9        55.322 9  21928365.963 6         0.000 6      1976.521 6        37.977 6
> 2019 07 03 12 01 34.0000000  0  8       0.000000000000
G07  25332034.717 9 133120694.959 9      2184.122 9        54.137 9  25332035.379 6         0.000 6      1701.914 6        37.977 6
G10  23786723.005 9 125000018.765 9      3515.741 9        54.678 9  23786726.709 6         0.000 6      2739.541 6        37.977 6
G21  21179711.484 9 111300114.365 9     -1274.046 9        55.706 9  21179710.771 6         0.000 6      -992.763 6        37.977 6
G29  24321928.655 9 127812540.993 9     -3151.633 9        54.467 9  24321930.252 6         0.000 6     -2455.820 6        37.977 6
G27  21987034.905 9 115542621.381 9      2512.177 9        55.381 9  21987036.832 6         0.000 6      1957.542 6        37.977 6
G16  20493035.877 9 107691610.086 9       545.464 9        55.978 9  20493035.050 6         0.000 6       425.037 6        37.977 6
G26  20664156.488 9 108590852.938 9     -1500.496 9        55.869 9  20664159.308 6         0.000 6     -1169.218 6        37.977 6
G20  21927883.007 9 115231770.010 9      2536.087 9        55.322 9  21927883.319 6         0.000 6      1976.173 6        37.977 6
> 2019 07 03 12 01 35.0000000  0  8       0.000000000000
G07  25331619.136 9 133118511.069 9      2183.665 9        54.137 9  25331619.798 6         0.000 6      1701.558 6        37.977 6
G10  23786053.995 9 124996503.105 9      3515.599 9        54.678 9  23786057.699 6         0.000 6      2739.430 6        37.977 6
G21  21179953.961 9 111301388.592 9     -1274.410 9        55.706 9  21179953.248 6         0.000 6      -993.047 6        37.977 6
G29  24322528.399 9 127815692.658 9     -3151.718 9        54.467 9  24322529.996 6         0.000 6     -2455.887 6        37.977 6
G27  21986556.877 9 115540109.328 9      2511.934 9        55.381 9  21986558.803 6         0.000 6      1957.352 6        37.977 6
G16  20492932.138 9 107691064.933 9       544.843 9        55.978 9  20492931.311 6         0.000 6       424.553 6        37.977 6
G26  20664442.078 9 108592353.720 9     -1501.072 9        55.869 9  20664444.898 6         0.000 6     -1169.667 6        37.977 6
G20  21927400.449 9 115229234.152 9      2535.639 9        55.322 9  21927400.760 6         0.000 6      1975.824 6        37.977 6
> 2019 07 03 12 01 36.0000000  0  8       0.000000000000
G07  25331203.642 9 133116327.637 9      2183.207 9        54.137 9  25331204.303 6         0.000 6      1701.201 6        37.977 6
G10  23785385.013 9 124992987.588 9      3515.457 9        54.678 9  23785388.715 6         0.000 6      2739.319 6        37.977 6
G21  21180196.508 9 111302663.182 9     -1274.773 9        55.705 9  21180195.795 6         0.000 6      -993.330 6        37.977 6
G29  24323128.159 9 127818844.409 9     -3151.804 9        54.467 9  24323129.757 6         0.000 6     -2455.954 6        37.977 6
G27  21986078.895 9 115537597.518 9      2511.691 9        55.382 9  21986080.821 6         0.000 6      1957.162 6        37.977 6
G16  20492828.517 9 107690520.400 9       544.223 9        55.978 9  20492827.690 6         0.000 6       424.070 6        37.977 6
G26  20664727.777 9 108593855.077 9     -1501.647 9        55.869 9  20664730.597 6         0.000 6     -1170.115 6        37.977 6
G20  21926917.975 9 115226698.740 9      2535.192 9        55.322 9  21926918.287 6         0.000 6      1975.475 6        37.977 6
> 2019 07 03 12 01 37.0000000  0  8       0.000000000000
G07  25330788.235 9 133114144.662 9      2182.750 9        54.137 9  25330788.896 6         0.000 6      1700.845 6        37.977 6
G10  23784716.057 9 124989472.213 9      3515.314 9        54.678 9  23784719.759 6         0.000 6      2739.209 6        37.977 6
G21  21180439.124 9 111303938.137 9     -1275.137 9        55.705 9  21180438.411 6         0.000 6      -993.613 6        37.977 6
G29  24323727.936 9 127821996.246 9     -3151.890 9        54.466 9  24323729.534 6         0.000 6     -2456.021 6        37.977 6
G27  21985600.959 9 115535085.952 9      2511.447 9        55.382 9  21985602.885 6         0.000 6      1956.972 6        37.977 6
G16  20492725.014 9 107689976.487 9       543.602 9        55.978 9  20492724.186 6         0.000 6       423.586 6        37.977 6
G26  20665013.586 9 108595357.011 9     -1502.223 9        55.869 9  20665016.406 6         0.000 6     -1170.564 6        37.977 6
G20  21926435.587 9 115224163.777 9      2534.744 9        55.322 9  21926435.898 6         0.000 6      1975.126 6        37.977 6
> 2019 07 03 12 01 38.0000000  0  8       0.000000000000
G07  25330372.915 9 133111962.144 9      2182.292 9        54.137 9  25330373.576 6         0.000 6      1700.488 6        37.977 6
G10  23784047.128 9 124985956.981 9      3515.172 9        54.679 9  23784050.830 6         0.000 6      2739.098 6        37.977 6
G21  21180681.809 9 111305213.455 9     -1275.500 9        55.705 9  21180681.096 6         0.000 6      -993.897 6        37.977 6
G29  24324327.728 9 127825148.169 9     -3151.976 9        54.466 9  24324329.328 6         0.000 6     -2456.088 6        37.977 6
G27  21985123.070 9 115532574.629 9      2511.204 9        55.382 9  21985124.996 6         0.000 6      1956.783 6        37.977 6
G16  20492621.629 9 107689433.195 9       542.982 9        55.979 9  20492620.801 6         0.000 6       423.103 6        37.977 6
G26  20665299.504 9 108596859.520 9     -1502.799 9        55.869 9  20665302.324 6         0.000 6     -1171.012 6        37.977 6
G20  21925953.284 9 115221629.261 9      2534.296 9        55.323 9  21925953.594 6         0.000 6      1974.778 6        37.977 6
> 2019 07 03 12 01 39.0000000  0  8       0.000000000000
G07  25329957.682 9 133109780.085 9      2181.834 9        54.137 9  25329958.343 6         0.000 6      1700.131 6        37.977 6
G10  23783378.227 9 124982441.891 9      3515.029 9        54.679 9  23783381.928 6         0.000 6      2738.986 6        37.977 6
G21  21180924.563 9 111306489.136 9     -1275.864 9        55.705 9  21180923.850 6         0.000 6      -994.180 6        37.977 6
G29  24324927.538 9 127828300.177 9     -3152.062 9        54.466 9  24324929.138 6         0.000 6     -2456.155 6        37.977 6
G27  21984645.227 9 115530063.550 9      2510.960 9        55.382 9  21984647.153 6         0.000 6      1956.593 6        37.977 6
G16  20492518.362 9 107688890.524 9       542.361 9        55.979 9  20492517.534 6         0.000 6       422.619 6        37.977 6
G26  20665585.532 9 108598362.604 9     -1503.374 9        55.868 9  20665588.352 6         0.000 6     -1171.461 6        37.977 6
G20  21925471.066 9 115219095.193 9      2533.849 9        55.323 9  21925471.376 6         0.000 6      1974.429 6        37.977 6
> 2019 07 03 12 01 40.0000000  0  8       0.000000000000
G07  25329542.536 9 133107598.483 9      2181.376 9        54.138 9  25329543.197 6         0.000 6      1699.775 6        37.977 6
G10  23782709.353 9 124978926.944 9      3514.886 9        54.679 9  23782713.053 6         0.000 6      2738.875 6        37.977 6
G21  21181167.387 9 111307765.181 9     -1276.227 9        55.705 9  21181166.674 6         0.000 6      -994.463 6        37.977 6
G29  24325527.363 9 127831452.271 9     -3152.147 9        54.466 9  24325528.964 6         0.000 6     -2456.221 6        37.977 6
G27  21984167.430 9 115527552.715 9      2510.716 9        55.382 9  21984169.356 6         0.000 6      1956.403 6        37.977 6
G16  20492415.213 9 107688348.474 9       541.740 9        55.979 9  20492414.386 6         0.000 6       422.135 6        37.977 6
G26  20665871.669 9 108599866.264 9     -1503.950 9        55.868 9  20665874.490 6         0.000 6     -1171.909 6        37.977 6
G20  21924988.933 9 115216561.573 9      2533.401 9        55.323 9  21924989.243 6         0.000 6      1974.080 6        37.977 6
> 2019 07 03 12 01 41.0000000  0  8       0.000000000000
G07  25329127.478 9 133105417.339 9      2180.918 9        54.138 9  25329128.138 6         0.000 6      1699.418 6        37.977 6
G10  23782040.506 9 124975412.139 9      3514.744 9        54.679 9  23782044.205 6         0.000 6      2738.764 6        37.977 6
G21  21181410.279 9 111309041.589 9     -1276.591 9        55.705 9  21181409.567 6         0.000 6      -994.746 6        37.977 6
G29  24326127.205 9 127834604.451 9     -3152.233 9        54.465 9  24326128.806 6         0.000 6     -2456.288 6        37.977 6
G27  21983689.680 9 115525042.123 9      2510.473 9        55.383 9  21983691.605 6         0.000 6      1956.213 6        37.977 6
G16  20492312.182 9 107687807.044 9       541.119 9        55.979 9  20492311.355 6         0.000 6       421.652 6        37.977 6
G26  20666157.916 9 108601370.500 9     -1504.525 9        55.868 9  20666160.737 6         0.000 6     -1172.358 6        37.977 6
G20  21924506.885 9 115214028.401 9      2532.953 9        55.323 9  21924507.195 6         0.000 6      1973.730 6        37.977 6
> 2019 07 03 12 01 42.0000000  0  8       0.000000000000
G07  25328712.506 9 133103236.653 9      2180.460 9        54.138 9  25328713.167 6         0.000 6      1699.061 6        37.977 6
G10  23781371.686 9 124971897.477 9      3514.601 9        54.680 9  23781375.385 6         0.000 6      2738.653 6        37.977 6
G21  21181653.241 9 111310318.361 9     -1276.954 9        55.705 9  21181652.528 6         0.000 6      -995.029 6        37.977 6
G29  24326727.063 9 127837756.717 9     -3152.319 9        54.465 9  24326728.665 6         0.000 6     -2456.355 6        37.977 6
G27  21983211.976 9 115522531.775 9      2510.229 9        55.383 9  21983213.901 6         0.000 6      1956.023 6        37.977 6
G16  20492209.270 9 107687266.235 9       540.499 9        55.979 9  20492208.442 6         0.000 6       421.168 6        37.977 6
G26  20666444.272 9 108602875.311 9     -1505.101 9        55.868 9  20666447.093 6         0.000 6     -1172.806 6        37.977 6
G20  21924024.923 9 115211495.676 9      2532.505 9        55.323 9  21924025.233 6         0.000 6      1973.381 6        37.977 6
> 2019 07 03 12 01 43.0000000  0  8       0.000000000000
G07  25328297.622 9 133101056.425 9      2180.002 9        54.138 9  25328298.282 6         0.000 6      1698.704 6        37.977 6
G10  23780702.893 9 124968382.959 9      3514.458 9        54.680 9  23780706.591 6         0.000 6      2738.541 6        37.977 6
G21  21181896.272 9 111311595.496 9     -1277.317 9        55.705 9  21181895.559 6         0.000 6      -995.312 6        37.977 6
G29  24327326.938 9 127840909.068 9     -3152.404 9        54.465 9  24327328.540 6         0.000 6     -2456.422 6        37.977 6
G27  21982734.319 9 115520021.670 9      2509.985 9        55.383 9  21982736.244 6         0.000 6      1955.833 6        37.977 6
G16  20492106.475 9 107686726.046 9       539.878 9        55.979 9  20492105.648 6         0.000 6       420.684 6        37.977 6
G26  20666730.738 9 108604380.698 9     -1505.676 9        55.868 9  20666733.559 6         0.000 6     -1173.255 6        37.977 6
G20  21923543.046 9 115208963.400 9      2532.056 9        55.324 9  21923543.356 6         0.000 6      1973.032 6        37.977 6
> 2019 07 03 12 01 44.0000000  0  8       0.000000000000
G07  25327882.825 9 133098876.656 9      2179.544 9        54.138 9  25327883.485 6         0.000 6      1698.347 6        37.977 6
G10  23780034.128 9 124964868.583 9      3514.315 9        54.680 9  23780037.825 6         0.000 6      2738.430 6        37.977 6
G21  21182139.372 9 111312872.994 9     -1277.680 9        55.705 9  21182138.659 6         0.000 6      -995.595 6        37.977 6
G29  24327926.828 9 127844061.505 9     -3152.490 9        54.465 9  24327928.432 6         0.000 6     -2456.488 6        37.977 6
G27  21982256.708 9 115517511.809 9      2509.742 9        55.383 9  21982258.632 6         0.000 6      1955.644 6        37.977 6
G16  20492003.799 9 107686186.479 9       539.257 9        55.979 9  20492002.972 6         0.000 6       420.200 6        37.977 6
G26  20667017.314 9 108605886.660 9     -1506.252 9        55.868 9  20667020.135 6         0.000 6     -1173.703 6        37.977 6
G20  21923061.255 9 115206431.573 9      2531.608 9        55.324 9  21923061.564 6         0.000 6      1972.683 6        37.977 6
> 2019 07 03 12 01 45.0000000  0  8       0.000000000000
G07  25327468.115 9 133096697.344 9      2179.086 9        54.138 9  25327468.775 6         0.000 6      1697.990 6        37.977 6
G10  23779365.389 9 124961354.351 9      3514.171 9        54.680 9  23779369.086 6         0.000 6      2738.318 6        37.977 6
G21  21182382.541 9 111314150.856 9     -1278.044 9        55.705 9  21182381.828 6         0.000 6      -995.878 6        37.977 6
G29  24328526.735 9 127847214.027 9     -3152.576 9        54.465 9  24328528.339 6         0.000 6     -2456.555 6        37.977 6
G27  21981779.143 9 115515002.192 9      2509.498 9        55.383 9  21981781.067 6         0.000 6      1955.454 6        37.977 6
G16  20491901.241 9 107685647.533 9       538.636 9        55.979 9  20491900.414 6         0.000 6       419.716 6        37.977 6
G26  20667303.999 9 108607393.197 9     -1506.827 9        55.868 9  20667306.820 6         0.000 6     -1174.151 6        37.977 6
G20  21922579.548 9 115203900.193 9      2531.160 9        55.324 9  21922579.857 6         0.000 6      1972.333 6        37.977 6
> 2019 07 03 12 01 46.0000000  0  8       0.000000000000
G07  25327053.492 9 133094518.491 9      2178.628 9        54.138 9  25327054.152 6         0.000 6      1697.633 6        37.977 6
G10  23778696.678 9 124957840.261 9      3514.028 9        54.681 9  23778700.375 6         0.000 6      2738.206 6        37.977 6
G21  21182625.779 9 111315429.080 9     -1278.407 9        55.704 9  21182625.066 6         0.000 6      -996.161 6        37.977 6
G29  24329126.659 9 127850366.635 9     -3152.661 9        54.464 9  24329128.263 6         0.000 6     -2456.622 6        37.977 6
G27  21981301.624 9 115512492.819 9      2509.254 9        55.383 9  21981303.549 6         0.000 6      1955.264 6        37.977 6
G16  20491798.801 9 107685109.207 9       538.015 9        55.979 9  20491797.974 6         0.000 6       419.233 6        37.977 6
G26  20667590.793 9 108608900.310 9     -1507.402 9        55.868 9  20667593.614 6         0.000 6     -1174.600 6        37.977 6
G20  21922097.927 9 115201369.262 9      2530.711 9        55.324 9  21922098.236 6         0.000 6      1971.984 6        37.977 6
> 2019 07 03 12 01 47.0000000  0  8       0.000000000000
G07  25326638.957 9 133092340.096 9      2178.169 9        54.138 9  25326639.616 6         0.000 6      1697.276 6        37.977 6
G10  23778027.995 9 124954326.315 9      3513.885 9        54.681 9  23778031.690 6         0.000 6      2738.095 6        37.977 6
G21  21182869.086 9 111316707.667 9     -1278.770 9        55.704 9  21182868.374 6         0.000 6      -996.444 6        37.977 6
G29  24329726.598 9 127853519.329 9     -3152.747 9        54.464 9  24329728.203 6         0.000 6     -2456.688 6        37.977 6
G27  21980824.152 9 115509983.690 9      2509.010 9        55.384 9  21980826.077 6         0.000 6      1955.074 6        37.977 6
G16  20491696.479 9 107684571.502 9       537.394 9        55.979 9  20491695.652 6         0.000 6       418.749 6        37.977 6
G26  20667877.697 9 108610407.998 9     -1507.978 9        55.867 9  20667880.518 6         0.000 6     -1175.048 6        37.977 6
G20  21921616.392 9 115198838.780 9      2530.263 9        55.324 9  21921616.700 6         0.000 6      1971.634 6        37.977 6
> 2019 07 03 12 01 48.0000000  0  8       0.000000000000
G07  25326224.509 9 133090162.159 9      2177.711 9        54.139 9  25326225.168 6         0.000 6      1696.918 6        37.977 6
G10  23777359.338 9 124950812.513 9      3513.741 9        54.681 9  23777363.033 6         0.000 6      2737.983 6        37.977 6
G21  21183112.462 9 111317986.618 9     -1279.133 9        55.704 9  21183111.750 6         0.000 6      -996.727 6        37.977 6
G29  24330326.554 9 127856672.108 9     -3152.832 9        54.464 9  24330328.160 6         0.000 6     -2456.755 6        37.977 6
G27  21980346.727 9 115507474.804 9      2508.766 9        55.384 9  21980348.651 6         0.000 6      1954.883 6        37.977 6
G16  20491594.276 9 107684034.419 9       536.773 9        55.979 9  20491593.448 6         0.000 6       418.265 6        37.977 6
G26  20668164.710 9 108611916.262 9     -1508.553 9        55.867 9  20668167.532 6         0.000 6     -1175.496 6        37.977 6
G20  21921134.941 9 115196308.746 9      2529.814 9        55.325 9  21921135.250 6         0.000 6      1971.285 6        37.977 6
> 2019 07 03 12 01 49.0000000  0  8       0.000000000000
G07  25325810.148 9 133087984.681 9      2177.252 9        54.139 9  25325810.806 6         0.000 6      1696.561 6        37.977 6
G10  23776690.709 9 124947298.854 9      3513.598 9        54.681 9  23776694.404 6         0.000 6      2737.871 6        37.977 6
G21  21183355.908 9 111319265.931 9     -1279.496 9        55.704 9  21183355.196 6         0.000 6      -997.010 6        37.977 6
G29  24330926.527 9 127859824.973 9     -3152.918 9        54.464 9  24330928.133 6         0.000 6     -2456.822 6        37.977 6
G27  21979869.348 9 115504966.163 9      2508.522 9        55.384 9  21979871.272 6         0.000 6      1954.693 6        37.977 6
G16  20491492.190 9 107683497.956 9       536.152 9        55.979 9  20491491.363 6         0.000 6       417.781 6        37.977 6
G26  20668451.833 9 108613425.100 9     -1509.128 9        55.867 9  20668454.654 6         0.000 6     -1175.944 6        37.977 6
G20  21920653.577 9 115193779.161 9      2529.365 9        55.325 9  21920653.884 6         0.000 6      1970.935 6        37.977 6
> 2019 07 03 12 01 50.0000000  0  8       0.000000000000
G07  25325395.874 9 133085807.662 9      2176.794 9        54.139 9  25325396.532 6         0.000 6      1696.204 6        37.977 6
G10  23776022.108 9 124943785.339 9      3513.454 9        54.682 9  23776025.801 6         0.000 6      2737.759 6        37.977 6
G21  21183599.422 9 111320545.608 9     -1279.858 9        55.704 9  21183598.710 6         0.000 6      -997.292 6        37.977 6
G29  24331526.515 9 127862977.923 9     -3153.003 9        54.464 9  24331528.122 6         0.000 6     -2456.888 6        37.977 6
G27  21979392.015 9 115502457.765 9      2508.278 9        55.384 9  21979393.939 6         0.000 6      1954.503 6        37.977 6
G16  20491390.223 9 107682962.114 9       535.531 9        55.979 9  20491389.396 6         0.000 6       417.297 6        37.977 6
G26  20668739.065 9 108614934.514 9     -1509.703 9        55.867 9  20668741.887 6         0.000 6     -1176.393 6        37.977 6
G20  21920172.297 9 115191250.025 9      2528.916 9        55.325 9  21920172.605 6         0.000 6      1970.585 6        37.977 6
> 2019 07 03 12 01 51.0000000  0  8       0.000000000000
G07  25324981.688 9 133083631.101 9      2176.335 9        54.139 9  25324982.346 6         0.000 6      1695.846 6        37.977 6
G10  23775353.533 9 124940271.967 9      3513.310 9        54.682 9  23775357.226 6         0.000 6      2737.647 6        37.977 6
G21  21183843.006 9 111321825.647 9     -1280.221 9        55.704 9  21183842.294 6         0.000 6      -997.575 6        37.977 6
G29  24332126.520 9 127866130.959 9     -3153.089 9        54.463 9  24332128.127 6         0.000 6     -2456.955 6        37.977 6
G27  21978914.729 9 115499949.611 9      2508.034 9        55.384 9  21978916.652 6         0.000 6      1954.313 6        37.977 6
G16  20491288.374 9 107682426.894 9       534.910 9        55.979 9  20491287.546 6         0.000 6       416.813 6        37.977 6
G26  20669026.407 9 108616444.503 9     -1510.278 9        55.867 9  20669029.229 6         0.000 6     -1176.841 6        37.977 6
G20  21919691.103 9 115188721.338 9      2528.467 9        55.325 9  21919691.410 6         0.000 6      1970.235 6        37.977 6
> 2019 07 03 12 01 52.0000000  0  8       0.000000000000
G07  25324567.588 9 133081454.999 9      2175.876 9        54.139 9  25324568.246 6         0.000 6      1695.489 6        37.977 6
G10  23774684.986 9 124936758.740 9      3513.166 9        54.682 9  23774688.679 6         0.000 6      2737.535 6        37.977 6
G21  21184086.658 9 111323106.049 9     -1280.584 9        55.704 9  21184085.946 6         0.000 6      -997.858 6        37.977 6
G29  24332726.541 9 127869284.080 9     -3153.174 9        54.463 9  24332728.149 6         0.000 6     -2457.022 6        37.977 6
G27  21978437.489 9 115497441.702 9      2507.790 9        55.385 9  21978439.412 6         0.000 6      1954.123 6        37.977 6
G16  20491186.643 9 107681892.294 9       534.289 9        55.979 9  20491185.816 6         0.000 6       416.329 6        37.977 6
G26  20669313.858 9 108617955.067 9     -1510.853 9        55.867 9  20669316.680 6         0.000 6     -1177.289 6        37.977 6
G20  21919209.994 9 115186193.099 9      2528.018 9        55.325 9  21919210.301 6         0.000 6      1969.885 6        37.977 6
> 2019 07 03 12 01 53.0000000  0  8       0.000000000000
G07  25324153.577 9 133079279.355 9      2175.417 9        54.139 9  25324154.234 6         0.000 6      1695.131 6        37.977 6
G10  23774016.467 9 124933245.656 9      3513.022 9        54.682 9  23774020.159 6         0.000 6      2737.422 6        37.977 6
G21  21184330.380 9 111324386.813 9     -1280.947 9        55.704 9  21184329.668 6         0.000 6      -998.140 6        37.977 6
G29  24333326.578 9 127872437.287 9     -3153.260 9        54.463 9  24333328.187 6         0.000 6     -2457.088 6        37.977 6
G27  21977960.296 9 115494934.036 9      2507.546 9        55.385 9  21977962.219 6         0.000 6      1953.933 6        37.977 6
G16  20491085.030 9 107681358.316 9       533.668 9        55.979 9  20491084.203 6         0.000 6       415.845 6        37.977 6
G26  20669601.419 9 108619466.206 9     -1511.428 9        55.867 9  20669604.241 6         0.000 6     -1177.737 6        37.977 6
G20  21918728.971 9 115183665.310 9      2527.569 9        55.326 9  21918729.278 6         0.000 6      1969.535 6        37.977 6
> 2019 07 03 12 01 54.0000000  0  8       0.000000000000
G07  25323739.652 9 133077104.171 9      2174.959 9        54.139 9  25323740.310 6         0.000 6      1694.774 6        37.977 6
G10  23773347.975 9 124929732.717 9      3512.878 9        54.683 9  23773351.666 6         0.000 6      2737.310 6        37.977 6
G21  21184574.170 9 111325667.941 9     -1281.309 9        55.704 9  21184573.458 6         0.000 6      -998.423 6        37.977 6
G29  24333926.631 9 127875590.579 9     -3153.345 9        54.463 9  24333928.241 6         0.000 6     -2457.155 6        37.977 6
G27  21977483.149 9 115492426.615 9      2507.302 9        55.385 9  21977485.072 6         0.000 6      1953.742 6        37.977 6
G16  20490983.536 9 107680824.959 9       533.046 9        55.979 9  20490982.708 6         0.000 6       415.361 6        37.977 6
G26  20669889.089 9 108620977.920 9     -1512.004 9        55.867 9  20669891.911 6         0.000 6     -1178.185 6        37.977 6
G20  21918248.034 9 115181137.970 9      2527.120 9        55.326 9  21918248.340 6         0.000 6      1969.185 6        37.977 6
> 2019 07 03 12 01 55.0000000  0  8       0.000000000000
G07  25323325.815 9 133074929.445 9      2174.500 9        54.140 9  25323326.472 6         0.000 6      1694.416 6        37.977 6
G10  23772679.510 9 124926219.922 9      3512.734 9        54.683 9  23772683.200 6         0.000 6      2737.198 6        37.977 6
G21  21184818.030 9 111326949.431 9     -1281.672 9        55.704 9  21184817.318 6         0.000 6      -998.706 6        37.977 6
G29  24334526.701 9 127878743.956 9     -3153.430 9        54.463 9  24334528.311 6         0.000 6     -2457.221 6        37.977 6
G27  21977006.048 9 115489919.438 9      2507.058 9        55.385 9  21977007.971 6         0.000 6      1953.552 6        37.977 6
G16  20490882.159 9 107680292.224 9       532.425 9        55.979 9  20490881.332 6         0.000 6       414.877 6        37.977 6
G26  20670176.868 9 108622490.210 9     -1512.579 9        55.866 9  20670179.690 6         0.000 6     -1178.633 6        37.977 6
G20  21917767.182 9 115178611.080 9      2526.670 9        55.326 9  21917767.488 6         0.000 6      1968.835 6        37.977 6
> 2019 07 03 12 01 56.0000000  0  8       0.000000000000
G07  25322912.065 9 133072755.179 9      2174.041 9        54.140 9  25322912.722 6         0.000 6      1694.058 6        37.977 6
G10  23772011.073 9 124922707.271 9      3512.589 9        54.683 9  23772014.763 6         0.000 6      2737.085 6        37.977 6
G21  21185061.958 9 111328231.283 9     -1282.034 9        55.703 9  21185061.247 6         0.000 6      -998.988 6        37.977 6
G29  24335126.787 9 127881897.419 9     -3153.516 9        54.462 9  24335128.398 6         0.000 6     -2457.288 6        37.977 6
G27  21976528.994 9 115487412.505 9      2506.814 9        55.385 9  21976530.917 6         0.000 6      1953.362 6        37.977 6
G16  20490780.901 9 107679760.109 9       531.804 9        55.979 9  20490780.074 6         0.000 6       414.393 6        37.977 6
G26  20670464.757 9 108624003.074 9     -1513.153 9        55.866 9  20670467.579 6         0.000 6     -1179.081 6        37.977 6
G20  21917286.415 9 115176084.638 9      2526.221 9        55.326 9  21917286.721 6         0.000 6      1968.485 6        37.977 6
> 2019 07 03 12 01 57.0000000  0  8       0.000000000000
G07  25322498.403 9 133070581.372 9      2173.581 9        54.140 9  25322499.060 6         0.000 6      1693.701 6        37.977 6
G10  23771342.663 9 124919194.764 9      3512.445 9        54.683 9  23771346.352 6         0.000 6      2736.973 6        37.977 6
G21  21185305.956 9 111329513.498 9     -1282.397 9        55.703 9  21185305.244 6         0.000 6      -999.271 6        37.977 6
G29  24335726.889 9 127885050.967 9     -3153.601 9        54.462 9  24335728.501 6         0.000 6     -2457.354 6        37.977 6
G27  21976051.987 9 115484905.816 9      2506.569 9        55.386 9  21976053.909 6         0.000 6      1953.172 6        37.977 6
G16  20490679.762 9 107679228.616 9       531.182 9        55.979 9  20490678.934 6         0.000 6       413.908 6        37.977 6
G26  20670752.755 9 108625516.513 9     -1513.728 9        55.866 9  20670755.577 6         0.000 6     -1179.529 6        37.977 6
G20  21916805.734 9 115173558.646 9      2525.772 9        55.326 9  21916806.039 6         0.000 6      1968.135 6        37.977 6
> 2019 07 03 12 01 58.0000000  0  8       0.000000000000
G07  25322084.827 9 133068408.023 9      2173.122 9        54.140 9  25322085.484 6         0.000 6      1693.343 6        37.977 6
G10  23770674.281 9 124915682.402 9      3512.300 9        54.684 9  23770677.969 6         0.000 6      2736.860 6        37.977 6
G21  21185550.023 9 111330796.076 9     -1282.759 9        55.703 9  21185549.311 6         0.000 6      -999.553 6        37.977 6
G29  24336327.008 9 127888204.600 9     -3153.686 9        54.462 9  24336328.620 6         0.000 6     -2457.421 6        37.977 6
G27  21975575.026 9 115482399.372 9      2506.325 9        55.386 9  21975576.948 6         0.000 6      1952.981 6        37.977 6
G16  20490578.740 9 107678697.744 9       530.561 9        55.979 9  20490577.913 6         0.000 6       413.424 6        37.977 6
G26  20671040.863 9 108627030.527 9     -1514.303 9        55.866 9  20671043.685 6         0.000 6     -1179.977 6        37.977 6
G20  21916325.138 9 115171033.104 9      2525.322 9        55.326 9  21916325.444 6         0.000 6      1967.784 6        37.977 6
> 2019 07 03 12 01 59.0000000  0  8       0.000000000000
G07  25321671.340 9 133066235.134 9      2172.663 9        54.140 9  25321671.996 6         0.000 6      1692.985 6        37.977 6
G10  23770005.926 9 124912170.185 9      3512.156 9        54.684 9  23770009.614 6         0.000 6      2736.747 6        37.977 6
G21  21185794.158 9 111332079.015 9     -1283.122 9        55.703 9  21185793.446 6         0.000 6      -999.835 6        37.977 6
G29  24336927.143 9 127891358.319 9     -3153.772 9        54.462 9  24336928.755 6         0.000 6     -2457.487 6        37.977 6
G27  21975098.111 9 115479893.172 9      2506.081 9        55.386 9  21975100.033 6         0.000 6      1952.791 6        37.977 6
G16  20490477.837 9 107678167.494 9       529.940 9        55.979 9  20490477.010 6         0.000 6       412.940 6        37.977 6
G26  20671329.080 9 108628545.116 9     -1514.878 9        55.866 9  20671331.902 6         0.000 6     -1180.425 6        37.977 6
G20  21915844.628 9 115168508.011 9      2524.872 9        55.327 9  21915844.933 6         0.000 6      1967.434 6        37.977 6
> 2019 07 03 12 02  0.0000000  0  8       0.000000000000
G07  25321257.939 9 133064062.705 9      2172.203 9        54.140 9  25321258.596 6         0.000 6      1692.627 6        37.977 6
G10  23769337.599 9 124908658.112 9      3512.011 9        54.684 9  23769341.286 6         0.000 6      2736.634 6        37.977 6
G21  21186038.362 9 111333362.318 9     -1283.484 9        55.703 9  21186037.651 6         0.000 6     -1000.118 6        37.977 6
G29  24337527.293 9 127894512.123 9     -3153.857 9        54.461 9  24337528.907 6         0.000 6     -2457.553 6        37.977 6
G27  21974621.243 9 115477387.216 9      2505.836 9        55.386 9  21974623.165 6         0.000 6      1952.600 6        37.977 6
G16  20490377.052 9 107677637.865 9       529.318 9        55.979 9  20490376.225 6         0.000 6       412.456 6        37.977 6
G26  20671617.406 9 108630060.280 9     -1515.453 9        55.866 9  20671620.229 6         0.000 6     -1180.873 6        37.977 6
G20  21915364.204 9 115165983.369 9      2524.422 9        55.327 9  21915364.509 6         0.000 6      1967.083 6        37.977 6
> 2019 07 03 12 02  1.0000000  0  8       0.000000000000
G07  25320844.627 9 133061890.735 9      2171.744 9        54.140 9  25320845.283 6         0.000 6      1692.269 6        37.977 6
G10  23768669.299 9 124905146.185 9      3511.866 9        54.684 9  23768672.986 6         0.000 6      2736.521 6        37.977 6
G21  21186282.636 9 111334645.982 9     -1283.846 9        55.703 9  21186281.924 6         0.000 6     -1000.400 6        37.977 6
G29  24338127.461 9 127897666.012 9     -3153.942 9        54.461 9  24338129.074 6         0.000 6     -2457.620 6        37.977 6
G27  21974144.421 9 115474881.504 9      2505.592 9        55.386 9  21974146.343 6         0.000 6      1952.410 6        37.977 6
G16  20490276.385 9 107677108.858 9       528.697 9        55.980 9  20490275.558 6         0.000 6       411.971 6        37.977 6
G26  20671905.842 9 108631576.018 9     -1516.028 9        55.866 9  20671908.665 6         0.000 6     -1181.321 6        37.977 6
G20  21914883.865 9 115163459.176 9      2523.972 9        55.327 9  21914884.170 6         0.000 6      1966.733 6        37.977 6
> 2019 07 03 12 02  2.0000000  0  8       0.000000000000
G07  25320431.401 9 133059719.224 9      2171.285 9        54.141 9  25320432.057 6         0.000 6      1691.911 6        37.977 6
G10  23768001.027 9 124901634.402 9      3511.721 9        54.684 9  23768004.713 6         0.000 6      2736.409 6        37.977 6
G21  21186526.978 9 111335930.009 9     -1284.208 9        55.703 9  21186526.266 6         0.000 6     -1000.682 6        37.977 6
G29  24338727.644 9 127900819.986 9     -3154.027 9        54.461 9  24338729.258 6         0.000 6     -2457.686 6        37.977 6
G27  21973667.646 9 115472376.037 9      2505.347 9        55.387 9  21973669.568 6         0.000 6      1952.219 6        37.977 6
G16  20490175.837 9 107676580.472 9       528.075 9        55.980 9  20490175.009 6         0.000 6       411.487 6        37.977 6
G26  20672194.387 9 108633092.332 9     -1516.602 9        55.866 9  20672197.210 6         0.000 6     -1181.769 6        37.977 6
G20  21914403.612 9 115160935.432 9      2523.522 9        55.327 9  21914403.916 6         0.000 6      1966.382 6        37.977 6
> 2019 07 03 12 02  3.0000000  0  8       0.000000000000
G07  25320018.263 9 133057548.173 9      2170.825 9        54.141 9  25320018.919 6         0.000 6      1691.553 6        37.977 6
G10  23767332.783 9 124898122.764 9      3511.576 9        54.685 9  23767336.468 6         0.000 6      2736.295 6        37.977 6
G21  21186771.389 9 111337214.397 9     -1284.571 9        55.703 9  21186770.678 6         0.000 6     -1000.964 6        37.977 6
G29  24339327.843 9 127903974.046 9     -3154.112 9        54.461 9  24339329.459 6         0.000 6     -2457.753 6        37.977 6
G27  21973190.918 9 115469870.815 9      2505.103 9        55.387 9  21973192.840 6         0.000 6      1952.029 6        37.977 6
G16  20490075.406 9 107676052.707 9       527.454 9        55.980 9  20490074.579 6         0.000 6       411.003 6        37.977 6
G26  20672483.042 9 108634609.220 9     -1517.177 9        55.866 9  20672485.865 6         0.000 6     -1182.216 6        37.977 6
G20  21913923.444 9 115158412.139 9      2523.072 9        55.327 9  21913923.748 6         0.000 6      1966.032 6        37.977 6
> 2019 07 03 12 02  4.0000000  0  8       0.000000000000
G07  25319605.213 9 133055377.581 9      2170.365 9        54.141 9  25319605.868 6         0.000 6      1691.195 6        37.977 6
G10  23766664.566 9 124894611.271 9      3511.431 9        54.685 9  23766668.250 6         0.000 6      2736.182 6        37.977 6
G21  21187015.869 9 111338499.148 9     -1284.933 9        55.703 9  21187015.158 6         0.000 6     -1001.246 6        37.977 6
G29  24339928.059 9 127907128.191 9     -3154.198 9        54.461 9  24339929.675 6         0.000 6     -2457.819 6        37.977 6
G27  21972714.236 9 115467365.837 9      2504.858 9        55.387 9  21972716.157 6         0.000 6      1951.838 6        37.977 6
G16  20489975.094 9 107675525.565 9       526.832 9        55.980 9  20489974.267 6         0.000 6       410.518 6        37.977 6
G26  20672771.806 9 108636126.683 9     -1517.752 9        55.865 9  20672774.629 6         0.000 6     -1182.664 6        37.977 6
G20  21913443.362 9 115155889.297 9      2522.622 9        55.328 9  21913443.666 6         0.000 6      1965.681 6        37.977 6
> 2019 07 03 12 02  5.0000000  0  8       0.000000000000
G07  25319192.250 9 133053207.449 9      2169.905 9        54.141 9  25319192.905 6         0.000 6      1690.836 6        37.977 6
G10  23765996.377 9 124891099.924 9      3511.285 9        54.685 9  23766000.061 6         0.000 6      2736.069 6        37.977 6
G21  21187260.418 9 111339784.261 9     -1285.295 9        55.703 9  21187259.707 6         0.000 6     -1001.529 6        37.977 6
G29  24340528.291 9 127910282.421 9     -3154.283 9        54.460 9  24340529.908 6         0.000 6     -2457.885 6        37.977 6
G27  21972237.600 9 115464861.103 9      2504.614 9        55.387 9  21972239.522 6         0.000 6      1951.648 6        37.977 6
G16  20489874.901 9 107674999.043 9       526.210 9        55.980 9  20489874.073 6         0.000 6       410.034 6        37.977 6
G26  20673060.679 9 108637644.720 9     -1518.327 9        55.865 9  20673063.502 6         0.000 6     -1183.112 6        37.977 6
G20  21912963.366 9 115153366.904 9      2522.172 9        55.328 9  21912963.670 6         0.000 6      1965.330 6        37.977 6
> 2019 07 03 12 02  6.0000000  0  8       0.000000000000
G07  25318779.374 9 133051037.777 9      2169.446 9        54.141 9  25318780.029 6         0.000 6      1690.478 6        37.977 6
G10  23765328.215 9 124887588.722 9      3511.140 9        54.685 9  23765331.898 6         0.000 6      2735.956 6        37.977 6
G21  21187505.036 9 111341069.736 9     -1285.657 9        55.702 9  21187504.325 6         0.000 6     -1001.811 6        37.977 6
G29  24341128.539 9 127913436.735 9     -3154.368 9        54.460 9  24341130.156 6         0.000 6     -2457.952 6        37.977 6
G27  21971761.012 9 115462356.615 9      2504.369 9        55.387 9  21971762.933 6         0.000 6      1951.457 6        37.977 6
G16  20489774.825 9 107674473.144 9       525.589 9        55.980 9  20489773.998 6         0.000 6       409.550 6        37.977 6
G26  20673349.661 9 108639163.332 9     -1518.901 9        55.865 9  20673352.485 6         0.000 6     -1183.560 6        37.977 6
G20  21912483.456 9 115150844.961 9      2521.722 9        55.328 9  21912483.759 6         0.000 6      1964.979 6        37.977 6
> 2019 07 03 12 02  7.0000000  0  8       0.000000000000
G07  25318366.586 9 133048868.565 9      2168.986 9        54.141 9  25318367.241 6         0.000 6      1690.120 6        37.977 6
G10  23764660.081 9 124884077.665 9      3510.994 9        54.686 9  23764663.764 6         0.000 6      2735.842 6        37.977 6
G21  21187749.723 9 111342355.573 9     -1286.019 9        55.702 9  21187749.012 6         0.000 6     -1002.093 6        37.977 6
G29  24341728.804 9 127916591.135 9     -3154.453 9        54.460 9  24341730.421 6         0.000 6     -2458.018 6        37.977 6
G27  21971284.469 9 115459852.370 9      2504.125 9        55.387 9  21971286.390 6         0.000 6      1951.267 6        37.977 6
G16  20489674.868 9 107673947.866 9       524.967 9        55.980 9  20489674.041 6         0.000 6       409.065 6        37.977 6
G26  20673638.753 9 108640682.518 9     -1519.476 9        55.865 9  20673641.577 6         0.000 6     -1184.007 6        37.977 6
G20  21912003.631 9 115148323.470 9      2521.271 9        55.328 9  21912003.934 6         0.000 6      1964.628 6        37.977 6
> 2019 07 03 12 02  8.0000000  0  8       0.000000000000
G07  25317953.886 9 133046699.813 9      2168.526 9        54.141 9  25317954.540 6         0.000 6      1689.761 6        37.977 6
G10  23763991.975 9 124880566.754 9      3510.849 9        54.686 9  23763995.657 6         0.000 6      2735.729 6        37.977 6
G21  21187994.479 9 111343641.772 9     -1286.380 9        55.702 9  21187993.767 6         0.000 6     -1002.375 6        37.977 6
G29  24342329.084 9 127919745.621 9     -3154.538 9        54.460 9  24342330.703 6         0.000 6     -2458.084 6        37.977 6
G27  21970807.973 9 115457348.371 9      2503.880 9        55.388 9  21970809.894 6         0.000 6      1951.076 6        37.977 6
G16  20489575.030 9 107673423.210 9       524.345 9        55.980 9  20489574.202 6         0.000 6       408.581 6        37.977 6
G26  20673927.955 9 108642202.280 9     -1520.050 9        55.865 9  20673930.778 6         0.000 6     -1184.455 6        37.977 6
G20  21911523.892 9 115145802.428 9      2520.821 9        55.328 9  21911524.194 6         0.000 6      1964.277 6        37.977 6
> 2019 07 03 12 02  9.0000000  0  8       0.000000000000
G07  25317541.273 9 133044531.521 9      2168.066 9        54.142 9  25317541.927 6         0.000 6      1689.403 6        37.977 6
G10  23763323.897 9 124877055.989 9      3510.703 9        54.686 9  23763327.578 6         0.000 6      2735.615 6        37.977 6
G21  21188239.303 9 111344928.333 9     -1286.742 9        55.702 9  21188238.592 6         0.000 6     -1002.656 6        37.977 6
G29  24342929.381 9 127922900.191 9     -3154.623 9        54.460 9  24342931.000 6         0.000 6     -2458.150 6        37.977 6
G27  21970331.524 9 115454844.616 9      2503.635 9        55.388 9  21970333.445 6         0.000 6      1950.885 6        37.977 6
G16  20489475.309 9 107672899.176 9       523.723 9        55.980 9  20489474.482 6         0.000 6       408.096 6        37.977 6
G26  20674217.265 9 108643722.615 9     -1520.625 9        55.865 9  20674220.089 6         0.000 6     -1184.903 6        37.977 6
G20  21911044.238 9 115143281.837 9      2520.370 9        55.329 9  21911044.541 6         0.000 6      1963.926 6        37.977 6
> 2019 07 03 12 02 10.0000000  0  8       0.000000000000
G07  25317128.747 9 133042363.689 9      2167.606 9        54.142 9  25317129.401 6         0.000 6      1689.044 6        37.977 6
G10  23762655.846 9 124873545.369 9      3510.557 9        54.686 9  23762659.527 6         0.000 6      2735.502 6        37.977 6
G21  21188484.196 9 111346215.255 9     -1287.104 9        55.702 9  21188483.485 6         0.000 6     -1002.938 6        37.977 6
G29  24343529.694 9 127926054.846 9     -3154.708 9        54.459 9  24343531.313 6         0.000 6     -2458.217 6        37.977 6
G27  21969855.122 9 115452341.106 9      2503.390 9        55.388 9  21969857.042 6         0.000 6      1950.695 6        37.977 6
G16  20489375.707 9 107672375.763 9       523.102 9        55.980 9  20489374.880 6         0.000 6       407.612 6        37.977 6
G26  20674506.685 9 108645243.525 9     -1521.199 9        55.865 9  20674509.509 6         0.000 6     -1185.350 6        37.977 6
G20  21910564.671 9 115140761.697 9      2519.919 9        55.329 9  21910564.973 6         0.000 6      1963.575 6        37.977 6
> 2019 07 03 12 02 11.0000000  0  8       0.000000000000
G07  25316716.309 9 133040196.317 9      2167.145 9        54.142 9  25316716.963 6         0.000 6      1688.686 6        37.977 6
G10  23761987.823 9 124870034.895 9      3510.411 9        54.687 9  23761991.503 6         0.000 6      2735.388 6        37.977 6
G21  21188729.159 9 111347502.539 9     -1287.466 9        55.702 9  21188728.447 6         0.000 6     -1003.220 6        37.977 6
G29  24344130.023 9 127929209.586 9     -3154.793 9        54.459 9  24344131.643 6         0.000 6     -2458.283 6        37.977 6
G27  21969378.765 9 115449837.840 9      2503.146 9        55.388 9  21969380.686 6         0.000 6      1950.504 6        37.977 6
G16  20489276.223 9 107671852.973 9       522.480 9        55.980 9  20489275.396 6         0.000 6       407.127 6        37.977 6
G26  20674796.214 9 108646765.010 9     -1521.774 9        55.865 9  20674799.038 6         0.000 6     -1185.798 6        37.977 6
G20  21910085.189 9 115138242.008 9      2519.468 9        55.329 9  21910085.491 6         0.000 6      1963.223 6        37.977 6
> 2019 07 03 12 02 12.0000000  0  8       0.000000000000
G07  25316303.959 9 133038029.405 9      2166.685 9        54.142 9  25316304.613 6         0.000 6      1688.327 6        37.977 6
G10  23761319.828 9 124866524.568 9      3510.265 9        54.687 9  23761323.507 6         0.000 6      2735.274 6        37.977 6
G21  21188974.190 9 111348790.185 9     -1287.827 9        55.702 9  21188973.478 6         0.000 6     -1003.502 6        37.977 6
G29  24344730.368 9 127932364.411 9     -3154.878 9        54.459 9  24344731.989 6         0.000 6     -2458.349 6        37.977 6
G27  21968902.456 9 115447334.820 9      2502.901 9        55.388 9  21968904.376 6         0.000 6      1950.313 6        37.977 6
G16  20489176.858 9 107671330.804 9       521.858 9        55.980 9  20489176.031 6         0.000 6       406.642 6        37.977 6
G26  20675085.853 9 108648287.069 9     -1522.348 9        55.864 9  20675088.677 6         0.000 6     -1186.246 6        37.977 6
G20  21909605.793 9 115135722.769 9      2519.017 9        55.329 9  21909606.095 6         0.000 6      1962.872 6        37.977 6
> 2019 07 03 12 02 13.0000000  0  8       0.000000000000
G07  25315891.696 9 133035862.954 9      2166.225 9        54.142 9  25315892.350 6         0.000 6      1687.968 6        37.977 6
G10  23760651.860 9 124863014.386 9      3510.119 9        54.687 9  23760655.539 6         0.000 6      2735.160 6        37.977 6
G21  21189219.289 9 111350078.192 9     -1288.189 9        55.702 9  21189218.578 6         0.000 6     -1003.784 6        37.977 6
G29  24345330.729 9 127935519.321 9     -3154.963 9        54.459 9  24345332.351 6         0.000 6     -2458.415 6        37.977 6
G27  21968426.193 9 115444832.044 9      2502.656 9        55.389 9  21968428.113 6         0.000 6      1950.122 6        37.977 6
G16  20489077.611 9 107670809.257 9       521.236 9        55.980 9  20489076.784 6         0.000 6       406.158 6        37.977 6
G26  20675375.601 9 108649809.702 9     -1522.922 9        55.864 9  20675378.425 6         0.000 6     -1186.693 6        37.977 6
G20  21909126.483 9 115133203.982 9      2518.566 9        55.329 9  21909126.784 6         0.000 6      1962.520 6        37.977 6
> 2019 07 03 12 02 14.0000000  0  8       0.000000000000
G07  25315479.521 9 133033696.963 9      2165.764 9        54.142 9  25315480.175 6         0.000 6      1687.609 6        37.977 6
G10  23759983.921 9 124859504.350 9      3509.973 9        54.687 9  23759987.599 6         0.000 6      2735.046 6        37.977 6
G21  21189464.458 9 111351366.561 9     -1288.550 9        55.702 9  21189463.747 6         0.000 6     -1004.065 6        37.977 6
G29  24345931.107 9 127938674.316 9     -3155.048 9        54.458 9  24345932.729 6         0.000 6     -2458.481 6        37.977 6
G27  21967949.977 9 115442329.513 9      2502.411 9        55.389 9  21967951.897 6         0.000 6      1949.931 6        37.977 6
G16  20488978.482 9 107670288.333 9       520.614 9        55.980 9  20488977.655 6         0.000 6       405.673 6        37.977 6
G26  20675665.458 9 108651332.910 9     -1523.497 9        55.864 9  20675668.282 6         0.000 6     -1187.141 6        37.977 6
G20  21908647.259 9 115130685.645 9      2518.115 9        55.329 9  21908647.560 6         0.000 6      1962.169 6        37.977 6
> 2019 07 03 12 02 15.0000000  0  8       0.000000000000
G07  25315067.434 9 133031531.432 9      2165.304 9        54.142 9  25315068.087 6         0.000 6      1687.251 6        37.977 6
G10  23759316.009 9 124855994.461 9      3509.826 9        54.688 9  23759319.687 6         0.000 6      2734.932 6        37.977 6
G21  21189709.695 9 111352655.292 9     -1288.912 9        55.701 9  21189708.984 6         0.000 6     -1004.347 6        37.977 6
G29  24346531.501 9 127941829.396 9     -3155.133 9        54.458 9  24346533.124 6         0.000 6     -2458.548 6        37.977 6
G27  21967473.807 9 115439827.228 9      2502.166 9        55.389 9  21967475.727 6         0.000 6      1949.740 6        37.977 6
G16  20488879.472 9 107669768.030 9       519.992 9        55.980 9  20488878.645 6         0.000 6       405.188 6        37.977 6
G26  20675955.424 9 108652856.692 9     -1524.071 9        55.864 9  20675958.249 6         0.000 6     -1187.588 6        37.977 6
G20  21908168.120 9 115128167.760 9      2517.664 9        55.330 9  21908168.421 6         0.000 6      1961.817 6        37.977 6
> 2019 07 03 12 02 16.0000000  0  8       0.000000000000
G07  25314655.434 9 133029366.362 9      2164.843 9        54.143 9  25314656.087 6         0.000 6      1686.892 6        37.977 6
G10  23758648.125 9 124852484.719 9      3509.680 9        54.688 9  23758651.802 6         0.000 6      2734.818 6        37.977 6
G21  21189955.002 9 111353944.384 9     -1289.273 9        55.701 9  21189954.291 6         0.000 6     -1004.629 6        37.977 6
G29  24347131.911 9 127944984.560 9     -3155.218 9        54.458 9  24347133.534 6         0.000 6     -2458.614 6        37.977 6
G27  21966997.684 9 115437325.187 9      2501.921 9        55.389 9  21966999.604 6         0.000 6      1949.550 6        37.977 6
G16  20488780.580 9 107669248.349 9       519.370 9        55.980 9  20488779.753 6         0.000 6       404.704 6        37.977 6
G26  20676245.500 9 108654381.048 9     -1524.645 9        55.864 9  20676248.324 6         0.000 6     -1188.036 6        37.977 6
G20  21907689.068 9 115125650.326 9      2517.213 9        55.330 9  21907689.368 6         0.000 6      1961.466 6        37.977 6
> 2019 07 03 12 02 17.0000000  0  8       0.000000000000
G07  25314243.522 9 133027201.753 9      2164.383 9        54.143 9  25314244.175 6         0.000 6      1686.533 6        37.977 6
G10  23757980.269 9 124848975.122 9      3509.533 9        54.688 9  23757983.946 6         0.000 6      2734.704 6        37.977 6
G21  21190200.377 9 111355233.837 9     -1289.635 9        55.701 9  21190199.665 6         0.000 6     -1004.910 6        37.977 6
G29  24347732.337 9 127948139.810 9     -3155.302 9        54.458 9  24347733.961 6         0.000 6     -2458.680 6        37.977 6
G27  21966521.608 9 115434823.391 9      2501.676 9        55.389 9  21966523.527 6         0.000 6      1949.359 6        37.977 6
G16  20488681.806 9 107668729.290 9       518.748 9        55.980 9  20488680.979 6         0.000 6       404.219 6        37.977 6
G26  20676535.685 9 108655905.978 9     -1525.219 9        55.864 9  20676538.509 6         0.000 6     -1188.483 6        37.977 6
G20  21907210.101 9 115123133.343 9      2516.761 9        55.330 9  21907210.401 6         0.000 6      1961.114 6        37.977 6
> 2019 07 03 12 02 18.0000000  0  8       0.000000000000
G07  25313831.698 9 133025037.604 9      2163.922 9        54.143 9  25313832.350 6         0.000 6      1686.174 6        37.977 6
G10  23757312.441 9 124845465.673 9      3509.387 9        54.688 9  23757316.117 6         0.000 6      2734.590 6        37.977 6
G21  21190445.820 9 111356523.651 9     -1289.996 9        55.701 9  21190445.109 6         0.000 6     -1005.192 6        37.977 6
G29  24348332.779 9 127951295.144 9     -3155.387 9        54.458 9  24348334.404 6         0.000 6     -2458.746 6        37.977 6
G27  21966045.578 9 115432321.840 9      2501.431 9        55.390 9  21966047.497 6         0.000 6      1949.168 6        37.977 6
G16  20488583.151 9 107668210.854 9       518.126 9        55.980 9  20488582.324 6         0.000 6       403.734 6        37.977 6
G26  20676825.979 9 108657431.482 9     -1525.793 9        55.864 9  20676828.804 6         0.000 6     -1188.930 6        37.977 6
G20  21906731.220 9 115120616.812 9      2516.310 9        55.330 9  21906731.520 6         0.000 6      1960.762 6        37.977 6
> 2019 07 03 12 02 19.0000000  0  8       0.000000000000
G07  25313419.961 9 133022873.916 9      2163.461 9        54.143 9  25313420.613 6         0.000 6      1685.815 6        37.977 6
G10  23756644.641 9 124841956.370 9      3509.240 9        54.689 9  23756648.316 6         0.000 6      2734.475 6        37.977 6
G21  21190691.333 9 111357813.827 9     -1290.357 9        55.701 9  21190690.622 6         0.000 6     -1005.473 6        37.977 6
G29  24348933.237 9 127954450.563 9     -3155.472 9        54.457 9  24348934.862 6         0.000 6     -2458.812 6        37.977 6
G27  21965569.595 9 115429820.535 9      2501.186 9        55.390 9  21965571.514 6         0.000 6      1948.977 6        37.977 6
G16  20488484.614 9 107667693.039 9       517.503 9        55.980 9  20488483.787 6         0.000 6       403.249 6        37.977 6
G26  20677116.382 9 108658957.561 9     -1526.368 9        55.864 9  20677119.207 6         0.000 6     -1189.378 6        37.977 6
G20  21906252.425 9 115118100.732 9      2515.858 9        55.330 9  21906252.725 6         0.000 6      1960.410 6        37.977 6
> 2019 07 03 12 02 20.0000000  0  8       0.000000000000
G07  25313008.312 9 133020710.689 9      2163.000 9        54.143 9  25313008.964 6         0.000 6      1685.456 6        37.977 6
G10  23755976.869 9 124838447.214 9      3509.093 9        54.689 9  23755980.543 6         0.000 6      2734.361 6        37.977 6
G21  21190936.914 9 111359104.364 9     -1290.718 9        55.701 9  21190936.203 6         0.000 6     -1005.755 6        37.977 6
G29  24349533.711 9 127957606.067 9     -3155.557 9        54.457 9  24349535.338 6         0.000 6     -2458.878 6        37.977 6
G27  21965093.658 9 115427319.474 9      2500.941 9        55.390 9  21965095.577 6         0.000 6      1948.786 6        37.977 6
G16  20488386.196 9 107667175.847 9       516.881 9        55.980 9  20488385.369 6         0.000 6       402.765 6        37.977 6
G26  20677406.895 9 108660484.214 9     -1526.942 9        55.863 9  20677409.720 6         0.000 6     -1189.825 6        37.977 6
G20  21905773.716 9 115115585.104 9      2515.407 9        55.331 9  21905774.016 6         0.000 6      1960.058 6        37.977 6
> 2019 07 03 12 02 21.0000000  0  8       0.000000000000
G07  25312596.750 9 133018547.923 9      2162.539 9        54.143 9  25312597.402 6         0.000 6      1685.096 6        37.977 6
G10  23755309.125 9 124834938.204 9      3508.946 9        54.689 9  23755312.798 6         0.000 6      2734.246 6        37.977 6
G21  21191182.564 9 111360395.263 9     -1291.080 9        55.701 9  21191181.853 6         0.000 6     -1006.036 6        37.977 6
G29  24350134.202 9 127960761.656 9     -3155.641 9        54.457 9  24350135.829 6         0.000 6     -2458.944 6        37.977 6
G27  21964617.768 9 115424818.659 9      2500.695 9        55.390 9  21964619.687 6         0.000 6      1948.595 6        37.977 6
G16  20488287.896 9 107666659.277 9       516.259 9        55.980 9  20488287.069 6         0.000 6       402.280 6        37.977 6
G26  20677697.517 9 108662011.441 9     -1527.516 9        55.863 9  20677700.342 6         0.000 6     -1190.272 6        37.977 6
G20  21905295.093 9 115113069.928 9      2514.955 9        55.331 9  21905295.392 6         0.000 6      1959.706 6        37.977 6
> 2019 07 03 12 02 22.0000000  0  8       0.000000000000
G07  25312185.277 9 133016385.618 9      2162.078 9        54.143 9  25312185.928 6         0.000 6      1684.737 6        37.977 6
G10  23754641.409 9 124831429.342 9      3508.799 9        54.689 9  23754645.082 6         0.000 6      2734.132 6        37.977 6
G21  21191428.282 9 111361686.522 9     -1291.441 9        55.701 9  21191427.572 6         0.000 6     -1006.318 6        37.977 6
G29  24350734.709 9 127963917.329 9     -3155.726 9        54.457 9  24350736.336 6         0.000 6     -2459.010 6        37.977 6
G27  21964141.925 9 115422318.088 9      2500.450 9        55.390 9  21964143.844 6         0.000 6      1948.403 6        37.977 6
G16  20488189.714 9 107666143.329 9       515.637 9        55.980 9  20488188.887 6         0.000 6       401.795 6        37.977 6
G26  20677988.248 9 108663539.241 9     -1528.090 9        55.863 9  20677991.073 6         0.000 6     -1190.720 6        37.977 6
G20  21904816.556 9 115110555.203 9      2514.503 9        55.331 9  21904816.855 6         0.000 6      1959.354 6        37.977 6
> 2019 07 03 12 02 23.0000000  0  8       0.000000000000
G07  25311773.891 9 133014223.774 9      2161.617 9        54.144 9  25311774.542 6         0.000 6      1684.378 6        37.977 6
G10  23753973.720 9 124827920.627 9      3508.652 9        54.690 9  23753977.393 6         0.000 6      2734.017 6        37.977 6
G21  21191674.070 9 111362978.142 9     -1291.802 9        55.701 9  21191673.359 6         0.000 6     -1006.599 6        37.977 6
G29  24351335.231 9 127967073.087 9     -3155.811 9        54.457 9  24351336.859 6         0.000 6     -2459.076 6        37.977 6
G27  21963666.129 9 115419817.764 9      2500.205 9        55.390 9  21963668.047 6         0.000 6      1948.212 6        37.977 6
G16  20488091.651 9 107665628.004 9       515.014 9        55.980 9  20488090.824 6         0.000 6       401.310 6        37.977 6
G26  20678279.089 9 108665067.616 9     -1528.664 9        55.863 9  20678281.914 6         0.000 6     -1191.167 6        37.977 6
G20  21904338.105 9 115108040.931 9      2514.051 9        55.331 9  21904338.404 6         0.000 6      1959.002 6        37.977 6
> 2019 07 03 12 02 24.0000000  0  8       0.000000000000
G07  25311362.593 9 133012062.391 9      2161.156 9        54.144 9  25311363.244 6         0.000 6      1684.018 6        37.977 6
G10  23753306.060 9 124824412.060 9      3508.505 9        54.690 9  23753309.732 6         0.000 6      2733.902 6        37.977 6
G21  21191919.926 9 111364270.124 9     -1292.163 9        55.701 9  21191919.215 6         0.000 6     -1006.880 6        37.977 6
G29  24351935.770 9 127970228.930 9     -3155.896 9        54.456 9  24351937.399 6         0.000 6     -2459.142 6        37.977 6
G27  21963190.379 9 115417317.684 9      2499.960 9        55.391 9  21963192.297 6         0.000 6      1948.021 6        37.977 6
G16  20487993.706 9 107665113.300 9       514.392 9        55.980 9  20487992.879 6         0.000 6       400.825 6        37.977 6
G26  20678570.038 9 108666596.565 9     -1529.238 9        55.863 9  20678572.864 6         0.000 6     -1191.614 6        37.977 6
G20  21903859.740 9 115105527.110 9      2513.599 9        55.331 9  21903860.038 6         0.000 6      1958.650 6        37.977 6
> 2019 07 03 12 02 25.0000000  0  8       0.000000000000
G07  25310951.382 9 133009901.469 9      2160.695 9        54.144 9  25310952.033 6         0.000 6      1683.659 6        37.977 6
G10  23752638.428 9 124820903.639 9      3508.357 9        54.690 9  23752642.099 6         0.000 6      2733.787 6        37.977 6
G21  21192165.850 9 111365562.466 9     -1292.524 9        55.700 9  21192165.140 6         0.000 6     -1007.161 6        37.977 6
G29  24352536.325 9 127973384.858 9     -3155.980 9        54.456 9  24352537.955 6         0.000 6     -2459.208 6        37.977 6
G27  21962714.676 9 115414817.850 9      2499.714 9        55.391 9  21962716.594 6         0.000 6      1947.830 6        37.977 6
G16  20487895.880 9 107664599.220 9       513.770 9        55.981 9  20487895.053 6         0.000 6       400.340 6        37.977 6
G26  20678861.097 9 108668126.088 9     -1529.811 9        55.863 9  20678863.923 6         0.000 6     -1192.061 6        37.977 6
G20  21903381.461 9 115103013.741 9      2513.147 9        55.332 9  21903381.759 6         0.000 6      1958.297 6        37.977 6
> 2019 07 03 12 02 26.0000000  0  8       0.000000000000
G07  25310540.260 9 133007741.009 9      2160.233 9        54.144 9  25310540.910 6         0.000 6      1683.300 6        37.977 6
G10  23751970.824 9 124817395.366 9      3508.210 9        54.690 9  23751974.494 6         0.000 6      2733.672 6        37.977 6
G21  21192411.844 9 111366855.169 9     -1292.884 9        55.700 9  21192411.133 6         0.000 6     -1007.443 6        37.977 6
G29  24353136.896 9 127976540.870 9     -3156.065 9        54.456 9  24353138.526 6         0.000 6     -2459.274 6        37.977 6
G27  21962239.019 9 115412318.261 9      2499.469 9        55.391 9  21962240.937 6         0.000 6      1947.639 6        37.977 6
G16  20487798.172 9 107664085.761 9       513.147 9        55.981 9  20487797.345 6         0.000 6       399.855 6        37.977 6
G26  20679152.265 9 108669656.184 9     -1530.385 9        55.863 9  20679155.091 6         0.000 6     -1192.508 6        37.977 6
G20  21902903.268 9 115100500.825 9      2512.695 9        55.332 9  21902903.566 6         0.000 6      1957.945 6        37.977 6
> 2019 07 03 12 02 27.0000000  0  8       0.000000000000
G07  25310129.225 9 133005581.010 9      2159.772 9        54.144 9  25310129.875 6         0.000 6      1682.940 6        37.977 6
G10  23751303.248 9 124813887.241 9      3508.062 9        54.691 9  23751306.917 6         0.000 6      2733.557 6        37.977 6
G21  21192657.906 9 111368148.233 9     -1293.245 9        55.700 9  21192657.195 6         0.000 6     -1007.724 6        37.977 6
G29  24353737.484 9 127979696.966 9     -3156.149 9        54.456 9  24353739.114 6         0.000 6     -2459.340 6        37.977 6
G27  21961763.409 9 115409818.917 9      2499.224 9        55.391 9  21961765.327 6         0.000 6      1947.448 6        37.977 6
G16  20487700.583 9 107663572.925 9       512.525 9        55.981 9  20487699.755 6         0.000 6       399.370 6        37.977 6
G26  20679443.542 9 108671186.855 9     -1530.959 9        55.863 9  20679446.368 6         0.000 6     -1192.956 6        37.977 6
G20  21902425.161 9 115097988.361 9      2512.242 9        55.332 9  21902425.459 6         0.000 6      1957.593 6        37.977 6
> 2019 07 03 12 02 28.0000000  0  8       0.000000000000
G07  25309718.278 9 133003421.472 9      2159.310 9        54.144 9  25309718.928 6         0.000 6      1682.580 6        37.977 6
G10  23750635.700 9 124810379.263 9      3507.914 9        54.691 9  23750639.369 6         0.000 6      2733.442 6        37.977 6
G21  21192904.037 9 111369441.658 9     -1293.606 9        55.700 9  21192903.326 6         0.000 6     -1008.005 6        37.977 6
G29  24354338.087 9 127982853.147 9     -3156.234 9        54.455 9  24354339.718 6         0.000 6     -2459.406 6        37.977 6
G27  21961287.846 9 115407319.819 9      2498.978 9        55.391 9  21961289.764 6         0.000 6      1947.256 6        37.977 6
G16  20487603.112 9 107663060.712 9       511.902 9        55.981 9  20487602.284 6         0.000 6       398.885 6        37.977 6
G26  20679734.929 9 108672718.099 9     -1531.533 9        55.862 9  20679737.755 6         0.000 6     -1193.403 6        37.977 6
G20  21901947.141 9 115095476.349 9      2511.790 9        55.332 9  21901947.438 6         0.000 6      1957.240 6        37.977 6
> 2019 07 03 12 02 29.0000000  0  8       0.000000000000
G07  25309307.419 9 133001262.396 9      2158.849 9        54.144 9  25309308.069 6         0.000 6      1682.221 6        37.977 6
G10  23749968.180 9 124806871.433 9      3507.767 9        54.691 9  23749971.848 6         0.000 6      2733.327 6        37.977 6
G21  21193150.236 9 111370735.444 9     -1293.967 9        55.700 9  21193149.525 6         0.000 6     -1008.286 6        37.977 6
G29  24354938.706 9 127986009.413 9     -3156.318 9        54.455 9  24354940.338 6         0.000 6     -2459.472 6        37.977 6
G27  21960812.330 9 115404820.966 9      2498.733 9        55.392 9  21960814.247 6         0.000 6      1947.065 6        37.977 6
G16  20487505.759 9 107662549.121 9       511.280 9        55.981 9  20487504.932 6         0.000 6       398.400 6        37.977 6
G26  20680026.424 9 108674249.917 9     -1532.107 9        55.862 9  20680029.250 6         0.000 6     -1193.850 6        37.977 6
G20  21901469.206 9 115092964.790 9      2511.337 9        55.332 9  21901469.503 6         0.000 6      1956.887 6        37.977 6
> 2019 07 03 12 02 30.0000000  0  8       0.000000000000
G07  25308896.647 9 132999103.782 9      2158.387 9        54.145 9  25308897.297 6         0.000 6      1681.861 6        37.977 6
G10  23749300.688 9 124803363.751 9      3507.619 9        54.691 9  23749304.356 6         0.000 6      2733.212 6        37.977 6
G21  21193396.504 9 111372029.590 9     -1294.327 9        55.700 9  21193395.793 6         0.000 6     -1008.567 6        37.977 6
G29  24355539.342 9 127989165.763 9     -3156.403 9        54.455 9  24355540.974 6         0.000 6     -2459.537 6        37.977 6
G27  21960336.860 9 115402322.359 9      2498.487 9        55.392 9  21960338.777 6         0.000 6      1946.874 6        37.977 6
G16  20487408.525 9 107662038.152 9       510.657 9        55.981 9  20487407.698 6         0.000 6       397.915 6        37.977 6
G26  20680318.029 9 108675782.308 9     -1532.680 9        55.862 9  20680320.855 6         0.000 6     -1194.297 6        37.977 6
G20  21900991.357 9 115090453.683 9      2510.885 9        55.332 9  21900991.654 6         0.000 6      1956.535 6        37.977 6
> 2019 07 03 12 02 31.0000000  0  8       0.000000000000
G07  25308485.964 9 132996945.629 9      2157.925 9        54.145 9  25308486.613 6         0.000 6      1681.501 6        37.977 6
G10  23748633.225 9 124799856.217 9      3507.471 9        54.692 9  23748636.892 6         0.000 6      2733.097 6        37.977 6
G21  21193642.840 9 111373324.097 9     -1294.688 9        55.700 9  21193642.130 6         0.000 6     -1008.848 6        37.977 6
G29  24356139.993 9 127992322.198 9     -3156.487 9        54.455 9  24356141.626 6         0.000 6     -2459.603 6        37.977 6
G27  21959861.437 9 115399823.998 9      2498.241 9        55.392 9  21959863.354 6         0.000 6      1946.682 6        37.977 6
G16  20487311.409 9 107661527.807 9       510.035 9        55.981 9  20487310.582 6         0.000 6       397.429 6        37.977 6
G26  20680609.743 9 108677315.274 9     -1533.254 9        55.862 9  20680612.569 6         0.000 6     -1194.744 6        37.977 6
G20  21900513.595 9 115087943.029 9      2510.432 9        55.333 9  21900513.891 6         0.000 6      1956.182 6        37.977 6
> 2019 07 03 12 02 32.0000000  0  8       0.000000000000
G07  25308075.368 9 132994787.938 9      2157.464 9        54.145 9  25308076.018 6         0.000 6      1681.141 6        37.977 6
G10  23747965.789 9 124796348.831 9      3507.322 9        54.692 9  23747969.456 6         0.000 6      2732.981 6        37.977 6
G21  21193889.246 9 111374618.964 9     -1295.048 9        55.700 9  21193888.535 6         0.000 6     -1009.129 6        37.977 6
G29  24356740.661 9 127995478.717 9     -3156.572 9        54.455 9  24356742.295 6         0.000 6     -2459.669 6        37.977 6
G27  21959386.061 9 115397325.882 9      2497.996 9        55.392 9  21959387.978 6         0.000 6      1946.491 6        37.977 6
G16  20487214.412 9 107661018.083 9       509.412 9        55.981 9  20487213.585 6         0.000 6       396.944 6        37.977 6
G26  20680901.566 9 108678848.813 9     -1533.828 9        55.862 9  20680904.393 6         0.000 6     -1195.191 6        37.977 6
G20  21900035.919 9 115085432.828 9      2509.979 9        55.333 9  21900036.215 6         0.000 6      1955.829 6        37.977 6
> 2019 07 03 12 02 33.0000000  0  8       0.000000000000
G07  25307664.860 9 132992630.709 9      2157.002 9        54.145 9  25307665.510 6         0.000 6      1680.781 6        37.977 6
G10  23747298.382 9 124792841.593 9      3507.174 9        54.692 9  23747302.048 6         0.000 6      2732.866 6        37.977 6
G21  21194135.719 9 111375914.192 9     -1295.409 9        55.700 9  21194135.009 6         0.000 6     -1009.410 6        37.977 6
G29  24357341.345 9 127998635.321 9     -3156.656 9        54.454 9  24357342.979 6         0.000 6     -2459.735 6        37.977 6
G27  21958910.732 9 115394828.012 9      2497.750 9        55.392 9  21958912.648 6         0.000 6      1946.299 6        37.977 6
G16  20487117.534 9 107660508.983 9       508.789 9        55.981 9  20487116.706 6         0.000 6       396.459 6        37.977 6
G26  20681193.499 9 108680382.926 9     -1534.401 9        55.862 9  20681196.325 6         0.000 6     -1195.638 6        37.977 6
G20  21899558.329 9 115082923.079 9      2509.526 9        55.333 9  21899558.625 6         0.000 6      1955.476 6        37.977 6
> 2019 07 03 12 02 34.0000000  0  8       0.000000000000
G07  25307254.441 9 132990473.942 9      2156.540 9        54.145 9  25307255.090 6         0.000 6      1680.422 6        37.977 6
G10  23746631.003 9 124789334.503 9      3507.026 9        54.692 9  23746634.668 6         0.000 6      2732.750 6        37.977 6
G21  21194382.262 9 111377209.780 9     -1295.769 9        55.700 9  21194381.552 6         0.000 6     -1009.690 6        37.977 6
G29  24357942.044 9 128001792.009 9     -3156.741 9        54.454 9  24357943.679 6         0.000 6     -2459.801 6        37.977 6
G27  21958435.449 9 115392330.387 9      2497.504 9        55.393 9  21958437.366 6         0.000 6      1946.108 6        37.977 6
G16  20487020.774 9 107660000.505 9       508.166 9        55.981 9  20487019.946 6         0.000 6       395.974 6        37.977 6
G26  20681485.540 9 108681917.612 9     -1534.975 9        55.862 9  20681488.366 6         0.000 6     -1196.085 6        37.977 6
G20  21899080.825 9 115080413.784 9      2509.073 9        55.333 9  21899081.120 6         0.000 6      1955.123 6        37.977 6
> 2019 07 03 12 02 35.0000000  0  8       0.000000000000
G07  25306844.109 9 132988317.636 9      2156.078 9        54.145 9  25306844.757 6         0.000 6      1680.061 6        37.977 6
G10  23745963.652 9 124785827.562 9      3506.877 9        54.693 9  23745967.317 6         0.000 6      2732.634 6        37.977 6
G21  21194628.873 9 111378505.729 9     -1296.130 9        55.699 9  21194628.163 6         0.000 6     -1009.971 6        37.977 6
G29  24358542.760 9 128004948.782 9     -3156.825 9        54.454 9  24358544.396 6         0.000 6     -2459.866 6        37.977 6
G27  21957960.213 9 115389833.008 9      2497.259 9        55.393 9  21957962.130 6         0.000 6      1945.917 6        37.977 6
G16  20486924.132 9 107659492.650 9       507.544 9        55.981 9  20486923.305 6         0.000 6       395.489 6        37.977 6
G26  20681777.691 9 108683452.872 9     -1535.548 9        55.862 9  20681780.517 6         0.000 6     -1196.532 6        37.977 6
G20  21898603.407 9 115077904.941 9      2508.620 9        55.333 9  21898603.702 6         0.000 6      1954.770 6        37.977 6
> 2019 07 03 12 02 36.0000000  0  8       0.000000000000
G07  25306433.865 9 132986161.793 9      2155.616 9        54.145 9  25306434.513 6         0.000 6      1679.701 6        37.977 6
G10  23745296.330 9 124782320.769 9      3506.729 9        54.693 9  23745299.994 6         0.000 6      2732.519 6        37.977 6
G21  21194875.552 9 111379802.037 9     -1296.490 9        55.699 9  21194874.842 6         0.000 6     -1010.252 6        37.977 6
G29  24359143.492 9 128008105.639 9     -3156.910 9        54.454 9  24359145.129 6         0.000 6     -2459.932 6        37.977 6
G27  21957485.024 9 115387335.875 9      2497.013 9        55.393 9  21957486.940 6         0.000 6      1945.725 6        37.977 6
G16  20486827.609 9 107658985.418 9       506.921 9        55.981 9  20486826.782 6         0.000 6       395.003 6        37.977 6
G26  20682069.950 9 108684988.705 9     -1536.122 9        55.862 9  20682072.777 6         0.000 6     -1196.979 6        37.977 6
G20  21898126.076 9 115075396.552 9      2508.167 9        55.334 9  21898126.371 6         0.000 6      1954.417 6        37.977 6
> 2019 07 03 12 02 37.0000000  0  8       0.000000000000
G07  25306023.709 9 132984006.412 9      2155.154 9        54.146 9  25306024.357 6         0.000 6      1679.341 6        37.977 6
G10  23744629.036 9 124778814.125 9      3506.580 9        54.693 9  23744632.699 6         0.000 6      2732.403 6        37.977 6
G21  21195122.300 9 111381098.707 9     -1296.850 9        55.699 9  21195121.590 6         0.000 6     -1010.533 6        37.977 6
G29  24359744.240 9 128011262.580 9     -3156.994 9        54.454 9  24359745.877 6         0.000 6     -2459.998 6        37.977 6
G27  21957009.882 9 115384838.988 9      2496.767 9        55.393 9  21957011.798 6         0.000 6      1945.533 6        37.977 6
G16  20486731.204 9 107658478.808 9       506.298 9        55.981 9  20486730.377 6         0.000 6       394.518 6        37.977 6
G26  20682362.319 9 108686525.111 9     -1536.695 9        55.861 9  20682365.146 6         0.000 6     -1197.425 6        37.977 6
G20  21897648.830 9 115072888.616 9      2507.714 9        55.334 9  21897649.125 6         0.000 6      1954.064 6        37.977 6
> 2019 07 03 12 02 38.0000000  0  8       0.000000000000
G07  25305613.641 9 132981851.493 9      2154.691 9        54.146 9  25305614.289 6         0.000 6      1678.981 6        37.977 6
G10  23743961.770 9 124775307.630 9      3506.431 9        54.693 9  23743965.433 6         0.000 6      2732.287 6        37.977 6
G21  21195369.117 9 111382395.736 9     -1297.210 9        55.699 9  21195368.407 6         0.000 6     -1010.813 6        37.977 6
G29  24360345.004 9 128014419.605 9     -3157.078 9        54.453 9  24360346.642 6         0.000 6     -2460.064 6        37.977 6
G27  21956534.786 9 115382342.346 9      2496.521 9        55.393 9  21956536.702 6         0.000 6      1945.342 6        37.977 6
G16  20486634.918 9 107657972.822 9       505.675 9        55.981 9  20486634.091 6         0.000 6       394.033 6        37.977 6
G26  20682654.797 9 108688062.092 9     -1537.269 9        55.861 9  20682657.624 6         0.000 6     -1197.872 6        37.977 6
G20  21897171.671 9 115070381.133 9      2507.261 9        55.334 9  21897171.966 6         0.000 6      1953.711 6        37.977 6
> 2019 07 03 12 02 39.0000000  0  8       0.000000000000
G07  25305203.660 9 132979697.037 9      2154.229 9        54.146 9  25305204.308 6         0.000 6      1678.621 6        37.977 6
G10  23743294.532 9 124771801.283 9      3506.283 9        54.694 9  23743298.195 6         0.000 6      2732.171 6        37.977 6
G21  21195616.002 9 111383693.126 9     -1297.570 9        55.699 9  21195615.292 6         0.000 6     -1011.094 6        37.977 6
G29  24360945.784 9 128017576.715 9     -3157.163 9        54.453 9  24360947.422 6         0.000 6     -2460.129 6        37.977 6
G27  21956059.737 9 115379845.951 9      2496.275 9        55.393 9  21956061.653 6         0.000 6      1945.150 6        37.977 6
G16  20486538.751 9 107657467.458 9       505.052 9        55.981 9  20486537.923 6         0.000 6       393.547 6        37.977 6
G26  20682947.384 9 108689599.645 9     -1537.842 9        55.861 9  20682950.211 6         0.000 6     -1198.319 6        37.977 6
G20  21896694.599 9 115067874.104 9      2506.807 9        55.334 9  21896694.893 6         0.000 6      1953.357 6        37.977 6
> 2019 07 03 12 02 40.0000000  0  8       0.000000000000
G07  25304793.768 9 132977543.042 9      2153.767 9        54.146 9  25304794.416 6         0.000 6      1678.261 6        37.977 6
G10  23742627.323 9 124768295.086 9      3506.134 9        54.694 9  23742630.985 6         0.000 6      2732.055 6        37.977 6
G21  21195862.956 9 111384990.875 9     -1297.930 9        55.699 9  21195862.246 6         0.000 6     -1011.375 6        37.977 6
G29  24361546.580 9 128020733.910 9     -3157.247 9        54.453 9  24361548.219 6         0.000 6     -2460.195 6        37.977 6
G27  21955584.735 9 115377349.801 9      2496.029 9        55.394 9  21955586.651 6         0.000 6      1944.959 6        37.977 6
G16  20486442.702 9 107656962.717 9       504.429 9        55.981 9  20486441.874 6         0.000 6       393.062 6        37.977 6
G26  20683240.080 9 108691137.772 9     -1538.415 9        55.861 9  20683242.907 6         0.000 6     -1198.766 6        37.977 6
G20  21896217.612 9 115065367.528 9      2506.354 9        55.334 9  21896217.906 6         0.000 6      1953.004 6        37.977 6
> 2019 07 03 12 02 41.0000000  0  8       0.000000000000
G07  25304383.964 9 132975389.511 9      2153.304 9        54.146 9  25304384.612 6         0.000 6      1677.900 6        37.977 6
G10  23741960.142 9 124764789.037 9      3505.984 9        54.694 9  23741963.803 6         0.000 6      2731.939 6        37.977 6
G21  21196109.978 9 111386288.985 9     -1298.290 9        55.699 9  21196109.268 6         0.000 6     -1011.655 6        37.977 6
G29  24362147.392 9 128023891.188 9     -3157.331 9        54.453 9  24362149.032 6         0.000 6     -2460.261 6        37.977 6
G27  21955109.780 9 115374853.897 9      2495.783 9        55.394 9  21955111.695 6         0.000 6      1944.767 6        37.977 6
G16  20486346.771 9 107656458.599 9       503.806 9        55.981 9  20486345.944 6         0.000 6       392.576 6        37.977 6
G26  20683532.885 9 108692676.472 9     -1538.989 9        55.861 9  20683535.713 6         0.000 6     -1199.212 6        37.977 6
G20  21895740.712 9 115062861.405 9      2505.900 9        55.335 9  21895741.006 6         0.000 6      1952.650 6        37.977 6
> 2019 07 03 12 02 42.0000000  0  8       0.000000000000
G07  25303974.248 9 132973236.441 9      2152.842 9        54.146 9  25303974.895 6         0.000 6      1677.540 6        37.977 6
G10  23741292.990 9 124761283.137 9      3505.835 9        54.694 9  23741296.650 6         0.000 6      2731.822 6        37.977 6
G21  21196357.069 9 111387587.455 9     -1298.650 9        55.699 9  21196356.359 6         0.000 6     -1011.936 6        37.977 6
G29  24362748.220 9 128027048.551 9     -3157.415 9        54.452 9  24362749.861 6         0.000 6     -2460.326 6        37.977 6
G27  21954634.872 9 115372358.239 9      2495.537 9        55.394 9  21954636.787 6         0.000 6      1944.575 6        37.977 6
G16  20486250.959 9 107655955.104 9       503.183 9        55.981 9  20486250.132 6         0.000 6       392.091 6        37.977 6
G26  20683825.800 9 108694215.746 9     -1539.562 9        55.861 9  20683828.627 6         0.000 6     -1199.659 6        37.977 6
G20  21895263.899 9 115060355.737 9      2505.446 9        55.335 9  21895264.192 6         0.000 6      1952.297 6        37.977 6
> 2019 07 03 12 02 43.0000000  0  8       0.000000000000
G07  25303564.620 9 132971083.835 9      2152.379 9        54.146 9  25303565.267 6         0.000 6      1677.179 6        37.977 6
G10  23740625.866 9 124757777.387 9      3505.686 9        54.694 9  23740629.525 6         0.000 6      2731.706 6        37.977 6
G21  21196604.228 9 111388886.284 9     -1299.010 9        55.699 9  21196603.518 6         0.000 6     -1012.216 6        37.977 6
G29  24363349.065 9 128030205.998 9     -3157.499 9        54.452 9  24363350.705 6         0.000 6     -2460.392 6        37.977 6
G27  21954160.010 9 115369862.828 9      2495.291 9        55.394 9  21954161.925 6         0.000 6      1944.384 6        37.977 6
G16  20486155.266 9 107655452.232 9       502.560 9        55.981 9  20486154.439 6         0.000 6       391.605 6        37.977 6
G26  20684118.823 9 108695755.593 9     -1540.135 9        55.861 9  20684121.651 6         0.000 6     -1200.106 6        37.977 6
G20  21894787.171 9 115057850.522 9      2504.992 9        55.335 9  21894787.464 6         0.000 6      1951.943 6        37.977 6
> 2019 07 03 12 02 44.0000000  0  8       0.000000000000
G07  25303155.080 9 132968931.691 9      2151.916 9        54.147 9  25303155.727 6         0.000 6      1676.819 6        37.977 6
G10  23739958.770 9 124754271.786 9      3505.537 9        54.695 9  23739962.429 6         0.000 6      2731.590 6        37.977 6
G21  21196851.456 9 111390185.474 9     -1299.370 9        55.699 9  21196850.746 6         0.000 6     -1012.496 6        37.977 6
G29  24363949.925 9 128033363.529 9     -3157.584 9        54.452 9  24363951.566 6         0.000 6     -2460.457 6        37.977 6
G27  21953685.195 9 115367367.662 9      2495.045 9        55.394 9  21953687.110 6         0.000 6      1944.192 6        37.977 6
G16  20486059.691 9 107654949.983 9       501.937 9        55.981 9  20486058.864 6         0.000 6       391.120 6        37.977 6
G26  20684411.956 9 108697296.012 9     -1540.708 9        55.861 9  20684414.783 6         0.000 6     -1200.552 6        37.977 6
G20  21894310.530 9 115055345.761 9      2504.538 9        55.335 9  21894310.823 6         0.000 6      1951.590 6        37.977 6
> 2019 07 03 12 02 45.0000000  0  8       0.000000000000
G07  25302745.628 9 132966780.009 9      2151.453 9        54.147 9  25302746.274 6         0.000 6      1676.458 6        37.977 6
G10  23739291.703 9 124750766.335 9      3505.387 9        54.695 9  23739295.361 6         0.000 6      2731.473 6        37.977 6
G21  21197098.752 9 111391485.023 9     -1299.730 9        55.698 9  21197098.042 6         0.000 6     -1012.777 6        37.977 6
G29  24364550.801 9 128036521.144 9     -3157.668 9        54.452 9  24364552.443 6         0.000 6     -2460.523 6        37.977 6
G27  21953210.427 9 115364872.742 9      2494.799 9        55.395 9  21953212.342 6         0.000 6      1944.000 6        37.977 6
G16  20485964.235 9 107654448.358 9       501.314 9        55.981 9  20485963.408 6         0.000 6       390.634 6        37.977 6
G26  20684705.197 9 108698837.006 9     -1541.282 9        55.860 9  20684708.025 6         0.000 6     -1200.999 6        37.977 6
G20  21893833.976 9 115052841.453 9      2504.084 9        55.335 9  21893834.268 6         0.000 6      1951.236 6        37.977 6
> 2019 07 03 12 02 46.0000000  0  8       0.000000000000
G07  25302336.264 9 132964628.791 9      2150.991 9        54.147 9  25302336.910 6         0.000 6      1676.097 6        37.977 6
G10  23738624.664 9 124747261.033 9      3505.238 9        54.695 9  23738628.322 6         0.000 6      2731.357 6        37.977 6
G21  21197346.116 9 111392784.932 9     -1300.090 9        55.698 9  21197345.407 6         0.000 6     -1013.057 6        37.977 6
G29  24365151.693 9 128039678.843 9     -3157.752 9        54.452 9  24365153.336 6         0.000 6     -2460.589 6        37.977 6
G27  21952735.706 9 115362378.069 9      2494.553 9        55.395 9  21952737.621 6         0.000 6      1943.808 6        37.977 6
G16  20485868.898 9 107653947.355 9       500.691 9        55.981 9  20485868.070 6         0.000 6       390.149 6        37.977 6
G26  20684998.548 9 108700378.572 9     -1541.855 9        55.860 9  20685001.376 6         0.000 6     -1201.446 6        37.977 6
G20  21893357.507 9 115050337.600 9      2503.630 9        55.335 9  21893357.800 6         0.000 6      1950.882 6        37.977 6
> 2019 07 03 12 02 47.0000000  0  8       0.000000000000
G07  25301926.988 9 132962478.035 9      2150.528 9        54.147 9  25301927.634 6         0.000 6      1675.737 6        37.977 6
G10  23737957.654 9 124743755.880 9      3505.088 9        54.695 9  23737961.311 6         0.000 6      2731.240 6        37.977 6
G21  21197593.550 9 111394085.201 9     -1300.449 9        55.698 9  21197592.840 6         0.000 6     -1013.337 6        37.977 6
G29  24365752.601 9 128042836.627 9     -3157.836 9        54.451 9  24365754.245 6         0.000 6     -2460.654 6        37.977 6
G27  21952261.032 9 115359883.642 9      2494.307 9        55.395 9  21952262.946 6         0.000 6      1943.616 6        37.977 6
G16  20485773.679 9 107653446.976 9       500.068 9        55.981 9  20485772.851 6         0.000 6       389.663 6        37.977 6
G26  20685292.008 9 108701920.711 9     -1542.428 9        55.860 9  20685294.836 6         0.000 6     -1201.892 6        37.977 6
G20  21892881.126 9 115047834.202 9      2503.176 9        55.336 9  21892881.418 6         0.000 6      1950.528 6        37.977 6
> 2019 07 03 12 02 48.0000000  0  8       0.000000000000
G07  25301517.800 9 132960327.743 9      2150.065 9        54.147 9  25301518.446 6         0.000 6      1675.376 6        37.977 6
G10  23737290.672 9 124740250.878 9      3504.938 9        54.696 9  23737294.328 6         0.000 6      2731.123 6        37.977 6
G21  21197841.051 9 111395385.830 9     -1300.809 9        55.698 9  21197840.341 6         0.000 6     -1013.618 6        37.977 6
G29  24366353.526 9 128045994.494 9     -3157.920 9        54.451 9  24366355.170 6         0.000 6     -2460.720 6        37.977 6
G27  21951786.405 9 115357389.461 9      2494.061 9        55.395 9  21951788.319 6         0.000 6      1943.424 6        37.977 6
G16  20485678.578 9 107652947.220 9       499.445 9        55.981 9  20485677.751 6         0.000 6       389.178 6        37.977 6
G26  20685585.576 9 108703463.424 9     -1543.001 9        55.860 9  20685588.405 6         0.000 6     -1202.339 6        37.977 6
G20  21892404.830 9 115045331.257 9      2502.722 9        55.336 9  21892405.122 6         0.000 6      1950.174 6        37.977 6
> 2019 07 03 12 02 49.0000000  0  8       0.000000000000
G07  25301108.701 9 132958177.913 9      2149.602 9        54.147 9  25301109.346 6         0.000 6      1675.015 6        37.977 6
G10  23736623.719 9 124736746.025 9      3504.788 9        54.696 9  23736627.375 6         0.000 6      2731.006 6        37.977 6
G21  21198088.621 9 111396686.818 9     -1301.169 9        55.698 9  21198087.911 6         0.000 6     -1013.898 6        37.977 6
G29  24366954.466 9 128049152.446 9     -3158.004 9        54.451 9  24366956.111 6         0.000 6     -2460.785 6        37.977 6
G27  21951311.824 9 115354895.526 9      2493.814 9        55.395 9  21951313.738 6         0.000 6      1943.233 6        37.977 6
G16  20485583.596 9 107652448.087 9       498.821 9        55.982 9  20485582.769 6         0.000 6       388.692 6        37.977 6
G26  20685879.254 9 108705006.709 9     -1543.574 9        55.860 9  20685882.083 6         0.000 6     -1202.785 6        37.977 6
G20  21891928.621 9 115042828.767 9      2502.268 9        55.336 9  21891928.913 6         0.000 6      1949.820 6        37.977 6
> 2019 07 03 12 02 50.0000000  0  8       0.000000000000
G07  25300699.689 9 132956028.546 9      2149.138 9        54.147 9  25300700.335 6         0.000 6      1674.654 6        37.977 6
G10  23735956.794 9 124733241.323 9      3504.638 9        54.696 9  23735960.449 6         0.000 6      2730.889 6        37.977 6
G21  21198336.259 9 111397988.165 9     -1301.528 9        55.698 9  21198335.550 6         0.000 6     -1014.178 6        37.977 6
G29  24367555.422 9 128052310.482 9     -3158.088 9        54.451 9  24367557.067 6         0.000 6     -2460.851 6        37.977 6
G27  21950837.291 9 115352401.837 9      2493.568 9        55.396 9  21950839.204 6         0.000 6      1943.041 6        37.977 6
G16  20485488.733 9 107651949.577 9       498.198 9        55.982 9  20485487.906 6         0.000 6       388.206 6        37.977 6
G26  20686173.041 9 108706550.567 9     -1544.147 9        55.860 9  20686175.869 6         0.000 6     -1203.232 6        37.977 6
G20  21891452.499 9 115040326.731 9      2501.813 9        55.336 9  21891452.790 6         0.000 6      1949.466 6        37.977 6
> 2019 07 03 12 02 51.0000000  0  8       0.000000000000
G07  25300290.766 9 132953879.643 9      2148.675 9        54.148 9  25300291.411 6         0.000 6      1674.293 6        37.977 6
G10  23735289.898 9 124729736.770 9      3504.488 9        54.696 9  23735293.552 6         0.000 6      2730.772 6        37.977 6
G21  21198583.966 9 111399289.872 9     -1301.888 9        55.698 9  21198583.257 6         0.000 6     -1014.458 6        37.977 6
G29  24368156.394 9 128055468.601 9     -3158.172 9        54.451 9  24368158.040 6         0.000 6     -2460.916 6        37.977 6
G27  21950362.804 9 115349908.395 9      2493.322 9        55.396 9  21950364.717 6         0.000 6      1942.849 6        37.977 6
G16  20485393.988 9 107651451.691 9       497.575 9        55.982 9  20485393.161 6         0.000 6       387.720 6        37.977 6
G26  20686466.937 9 108708094.999 9     -1544.720 9        55.860 9  20686469.765 6         0.000 6     -1203.678 6        37.977 6
G20  21890976.463 9 115037825.149 9      2501.358 9        55.336 9  21890976.754 6         0.000 6      1949.112 6        37.977 6
> 2019 07 03 12 02 52.0000000  0  8       0.000000000000
G07  25299881.931 9 132951731.203 9      2148.212 9        54.148 9  25299882.576 6         0.000 6      1673.932 6        37.977 6
G10  23734623.030 9 124726232.367 9      3504.338 9        54.697 9  23734626.684 6         0.000 6      2730.655 6        37.977 6
G21  21198831.741 9 111400591.939 9     -1302.247 9        55.698 9  21198831.032 6         0.000 6     -1014.738 6        37.977 6
G29  24368757.382 9 128058626.805 9     -3158.256 9        54.450 9  24368759.029 6         0.000 6     -2460.981 6        37.977 6
G27  21949888.364 9 115347415.200 9      2493.075 9        55.396 9  21949890.277 6         0.000 6      1942.657 6        37.977 6
G16  20485299.362 9 107650954.428 9       496.951 9        55.982 9  20485298.535 6         0.000 6       387.235 6        37.977 6
G26  20686760.942 9 108709640.003 9     -1545.292 9        55.860 9  20686763.770 6         0.000 6     -1204.124 6        37.977 6
G20  21890500.513 9 115035324.022 9      2500.904 9        55.337 9  21890500.804 6         0.000 6      1948.757 6        37.977 6
> 2019 07 03 12 02 53.0000000  0  8       0.000000000000
G07  25299473.184 9 132949583.226 9      2147.749 9        54.148 9  25299473.828 6         0.000 6      1673.571 6        37.977 6
G10  23733956.191 9 124722728.115 9      3504.187 9        54.697 9  23733959.845 6         0.000 6      2730.538 6        37.977 6
G21  21199079.585 9 111401894.365 9     -1302.606 9        55.698 9  21199078.875 6         0.000 6     -1015.018 6        37.977 6
G29  24369358.386 9 128061785.093 9     -3158.340 9        54.450 9  24369360.034 6         0.000 6     -2461.047 6        37.977 6
G27  21949413.971 9 115344922.250 9      2492.829 9        55.396 9  21949415.884 6         0.000 6      1942.465 6        37.977 6
G16  20485204.855 9 107650457.788 9       496.328 9        55.982 9  20485204.028 6         0.000 6       386.749 6        37.977 6
G26  20687055.056 9 108711185.580 9     -1545.865 9        55.859 9  20687057.884 6         0.000 6     -1204.571 6        37.977 6
G20  21890024.651 9 115032823.350 9      2500.449 9        55.337 9  21890024.941 6         0.000 6      1948.403 6        37.977 6
> 2019 07 03 12 02 54.0000000  0  8       0.000000000000
G07  25299064.525 9 132947435.713 9      2147.285 9        54.148 9  25299065.169 6         0.000 6      1673.210 6        37.977 6
G10  23733289.381 9 124719224.013 9      3504.037 9        54.697 9  23733293.033 6         0.000 6      2730.421 6        37.977 6
G21  21199327.497 9 111403197.150 9     -1302.966 9        55.698 9  21199326.787 6         0.000 6     -1015.298 6        37.977 6
G29  24369959.407 9 128064943.464 9     -3158.424 9        54.450 9  24369961.055 6         0.000 6     -2461.112 6        37.977 6
G27  21948939.625 9 115342429.548 9      2492.582 9        55.396 9  21948941.538 6         0.000 6      1942.273 6        37.977 6
G16  20485110.466 9 107649961.772 9       495.704 9        55.982 9  20485109.639 6         0.000 6       386.263 6        37.977 6
G26  20687349.279 9 108712731.730 9     -1546.438 9        55.859 9  20687352.107 6         0.000 6     -1205.017 6        37.977 6
G20  21889548.874 9 115030323.133 9      2499.994 9        55.337 9  21889549.164 6         0.000 6      1948.049 6        37.977 6
> 2019 07 03 12 02 55.0000000  0  8       0.000000000000
G07  25298655.954 9 132945288.663 9      2146.822 9        54.148 9  25298656.598 6         0.000 6      1672.849 6        37.977 6
G10  23732622.599 9 124715720.062 9      3503.886 9        54.697 9  23732626.251 6         0.000 6      2730.304 6        37.977 6
G21  21199575.477 9 111404500.295 9     -1303.325 9        55.697 9  21199574.768 6         0.000 6     -1015.578 6        37.977 6
G29  24370560.443 9 128068101.920 9     -3158.508 9        54.450 9  24370562.091 6         0.000 6     -2461.178 6        37.977 6
G27  21948465.326 9 115339937.091 9      2492.336 9        55.397 9  21948467.239 6         0.000 6      1942.080 6        37.977 6
G16  20485016.196 9 107649466.379 9       495.081 9        55.982 9  20485015.369 6         0.000 6       385.777 6        37.977 6
G26  20687643.611 9 108714278.453 9     -1547.011 9        55.859 9  20687646.439 6         0.000 6     -1205.464 6        37.977 6
G20  21889073.184 9 115027823.371 9      2499.539 9        55.337 9  21889073.474 6         0.000 6      1947.694 6        37.977 6
> 2019 07 03 12 02 56.0000000  0  8       0.000000000000
G07  25298247.472 9 132943142.077 9      2146.358 9        54.148 9  25298248.116 6         0.000 6      1672.488 6        37.977 6
G10  23731955.846 9 124712216.261 9      3503.736 9        54.698 9  23731959.497 6         0.000 6      2730.186 6        37.977 6
G21  21199823.526 9 111405803.798 9     -1303.684 9        55.697 9  21199822.816 6         0.000 6     -1015.858 6        37.977 6
G29  24371161.495 9 128071260.459 9     -3158.592 9        54.449 9  24371163.144 6         0.000 6     -2461.243 6        37.977 6
G27  21947991.073 9 115337444.881 9      2492.089 9        55.397 9  21947992.986 6         0.000 6      1941.888 6        37.977 6
G16  20484922.045 9 107648971.610 9       494.457 9        55.982 9  20484921.217 6         0.000 6       385.291 6        37.977 6
G26  20687938.051 9 108715825.748 9     -1547.584 9        55.859 9  20687940.880 6         0.000 6     -1205.910 6        37.977 6
G20  21888597.581 9 115025324.063 9      2499.084 9        55.337 9  21888597.871 6         0.000 6      1947.339 6        37.977 6
> 2019 07 03 12 02 57.0000000  0  8       0.000000000000
G07  25297839.077 9 132940995.955 9      2145.894 9        54.148 9  25297839.721 6         0.000 6      1672.126 6        37.977 6
G10  23731289.122 9 124708712.611 9      3503.585 9        54.698 9  23731292.772 6         0.000 6      2730.069 6        37.977 6
G21  21200071.643 9 111407107.661 9     -1304.043 9        55.697 9  21200070.933 6         0.000 6     -1016.138 6        37.977 6
G29  24371762.563 9 128074419.082 9     -3158.676 9        54.449 9  24371764.213 6         0.000 6     -2461.308 6        37.977 6
G27  21947516.868 9 115334952.918 9      2491.843 9        55.397 9  21947518.781 6         0.000 6      1941.696 6        37.977 6
G16  20484828.012 9 107648477.465 9       493.834 9        55.982 9  20484827.185 6         0.000 6       384.806 6        37.977 6
G26  20688232.601 9 108717373.616 9     -1548.156 9        55.859 9  20688235.430 6         0.000 6     -1206.356 6        37.977 6
G20  21888122.065 9 115022825.211 9      2498.629 9        55.338 9  21888122.354 6         0.000 6      1946.985 6        37.977 6
> 2019 07 03 12 02 58.0000000  0  8       0.000000000000
G07  25297430.771 9 132938850.296 9      2145.430 9        54.149 9  25297431.415 6         0.000 6      1671.765 6        37.977 6
G10  23730622.426 9 124705209.112 9      3503.434 9        54.698 9  23730626.076 6         0.000 6      2729.951 6        37.977 6
G21  21200319.828 9 111408411.883 9     -1304.402 9        55.697 9  21200319.119 6         0.000 6     -1016.417 6        37.977 6
G29  24372363.647 9 128077577.790 9     -3158.760 9        54.449 9  24372365.297 6         0.000 6     -2461.374 6        37.977 6
G27  21947042.710 9 115332461.202 9      2491.596 9        55.397 9  21947044.622 6         0.000 6      1941.504 6        37.977 6
G16  20484734.098 9 107647983.943 9       493.210 9        55.982 9  20484733.271 6         0.000 6       384.320 6        37.977 6
G26  20688527.260 9 108718922.057 9     -1548.729 9        55.859 9  20688530.089 6         0.000 6     -1206.802 6        37.977 6
G20  21887646.635 9 115020326.814 9      2498.174 9        55.338 9  21887646.924 6         0.000 6      1946.630 6        37.977 6
> 2019 07 03 12 02 59.0000000  0  8       0.000000000000
G07  25297022.554 9 132936705.101 9      2144.967 9        54.149 9  25297023.197 6         0.000 6      1671.403 6        37.977 6
G10  23729955.759 9 124701705.764 9      3503.283 9        54.698 9  23729959.408 6         0.000 6      2729.834 6        37.977 6
G21  21200568.082 9 111409716.464 9     -1304.761 9        55.697 9  21200567.373 6         0.000 6     -1016.697 6        37.977 6
G29  24372964.747 9 128080736.581 9     -3158.843 9        54.449 9  24372966.398 6         0.000 6     -2461.439 6        37.977 6
G27  21946568.598 9 115329969.732 9      2491.349 9        55.397 9  21946570.510 6         0.000 6      1941.312 6        37.977 6
G16  20484640.302 9 107647491.044 9       492.587 9        55.982 9  20484639.475 6         0.000 6       383.834 6        37.977 6
G26  20688822.028 9 108720471.071 9     -1549.302 9        55.859 9  20688824.857 6         0.000 6     -1207.248 6        37.977 6
G20  21887171.291 9 115017828.872 9      2497.719 9        55.338 9  21887171.580 6         0.000 6      1946.275 6        37.977 6
> 2019 07 03 12 03  0.0000000  0  8       0.000000000000
G07  25296614.424 9 132934560.369 9      2144.503 9        54.149 9  25296615.068 6         0.000 6      1671.042 6        37.977 6
G10  23729289.121 9 124698202.567 9      3503.132 9        54.699 9  23729292.769 6         0.000 6      2729.716 6        37.977 6
G21  21200816.404 9 111411021.404 9     -1305.120 9        55.697 9  21200815.695 6         0.000 6     -1016.977 6        37.977 6
G29  24373565.863 9 128083895.455 9     -3158.927 9        54.449 9  24373567.515 6         0.000 6     -2461.504 6        37.977 6
G27  21946094.534 9 115327478.508 9      2491.103 9        55.397 9  21946096.446 6         0.000 6      1941.120 6        37.977 6
G16  20484546.626 9 107646998.769 9       491.963 9        55.982 9  20484545.798 6         0.000 6       383.348 6        37.977 6
G26  20689116.905 9 108722020.657 9     -1549.874 9        55.859 9  20689119.734 6         0.000 6     -1207.695 6        37.977 6
G20  21886696.034 9 115015331.385 9      2497.263 9        55.338 9  21886696.323 6         0.000 6      1945.920 6        37.977 6
> 2019 07 03 12 03  1.0000000  0  8       0.000000000000
G07  25296206.383 9 132932416.102 9      2144.039 9        54.149 9  25296207.026 6         0.000 6      1670.680 6        37.977 6
G10  23728622.511 9 124694699.520 9      3502.981 9        54.699 9  23728626.159 6         0.000 6      2729.598 6        37.977 6
G21  21201064.794 9 111412326.703 9     -1305.479 9        55.697 9  21201064.085 6         0.000 6     -1017.257 6        37.977 6
G29  24374166.994 9 128087054.414 9     -3159.011 9        54.448 9  24374168.647 6         0.000 6     -2461.570 6        37.977 6
G27  21945620.516 9 115324987.532 9      2490.856 9        55.398 9  21945622.428 6         0.000 6      1940.927 6        37.977 6
G16  20484453.068 9 107646507.118 9       491.339 9        55.982 9  20484452.240 6         0.000 6       382.862 6        37.977 6
G26  20689411.890 9 108723570.815 9     -1550.447 9        55.858 9  20689414.720 6         0.000 6     -1208.141 6        37.977 6
G20  21886220.864 9 115012834.354 9      2496.808 9        55.338 9  21886221.153 6         0.000 6      1945.566 6        37.977 6
> 2019 07 03 12 03  2.0000000  0  8       0.000000000000
G07  25295798.430 9 132930272.299 9      2143.575 9        54.149 9  25295799.073 6         0.000 6      1670.319 6        37.977 6
G10  23727955.931 9 124691196.626 9      3502.830 9        54.699 9  23727959.578 6         0.000 6      2729.480 6        37.977 6
G21  21201313.252 9 111413632.361 9     -1305.838 9        55.697 9  21201312.543 6         0.000 6     -1017.536 6        37.977 6
G29  24374768.142 9 128090213.456 9     -3159.095 9        54.448 9  24374769.795 6         0.000 6     -2461.635 6        37.977 6
G27  21945146.545 9 115322496.802 9      2490.609 9        55.398 9  21945148.457 6         0.000 6      1940.735 6        37.977 6
G16  20484359.628 9 107646016.091 9       490.716 9        55.982 9  20484358.801 6         0.000 6       382.376 6        37.977 6
G26  20689706.985 9 108725121.546 9     -1551.019 9        55.858 9  20689709.815 6         0.000 6     -1208.587 6        37.977 6
G20  21885745.781 9 115010337.779 9      2496.352 9        55.338 9  21885746.069 6         0.000 6      1945.211 6        37.977 6
> 2019 07 03 12 03  3.0000000  0  8       0.000000000000
G07  25295390.566 9 132928128.960 9      2143.111 9        54.149 9  25295391.208 6         0.000 6      1669.957 6        37.977 6
G10  23727289.379 9 124687693.882 9      3502.678 9        54.699 9  23727293.025 6         0.000 6      2729.362 6        37.977 6
G21  21201561.779 9 111414938.377 9     -1306.197 9        55.697 9  21201561.070 6         0.000 6     -1017.816 6        37.977 6
G29  24375369.306 9 128093372.582 9     -3159.178 9        54.448 9  24375370.960 6         0.000 6     -2461.700 6        37.977 6
G27  21944672.622 9 115320006.319 9      2490.362 9        55.398 9  21944674.533 6         0.000 6      1940.543 6        37.977 6
G16  20484266.307 9 107645525.687 9       490.092 9        55.982 9  20484265.480 6         0.000 6       381.890 6        37.977 6
G26  20690002.189 9 108726672.850 9     -1551.592 9        55.858 9  20690005.019 6         0.000 6     -1209.033 6        37.977 6
G20  21885270.784 9 115007841.659 9      2495.896 9        55.339 9  21885271.072 6         0.000 6      1944.855 6        37.977 6
> 2019 07 03 12 03  4.0000000  0  8       0.000000000000
G07  25294982.789 9 132925986.085 9      2142.646 9        54.149 9  25294983.432 6         0.000 6      1669.595 6        37.977 6
G10  23726622.856 9 124684191.290 9      3502.527 9        54.700 9  23726626.502 6         0.000 6      2729.244 6        37.977 6
G21  21201810.374 9 111416244.752 9     -1306.555 9        55.697 9  21201809.665 6         0.000 6     -1018.095 6        37.977 6
G29  24375970.485 9 128096531.792 9     -3159.262 9        54.448 9  24375972.140 6         0.000 6     -2461.765 6        37.977 6
G27  21944198.745 9 115317516.083 9      2490.115 9        55.398 9  21944200.657 6         0.000 6      1940.350 6        37.977 6
G16  20484173.105 9 107645035.907 9       489.468 9        55.982 9  20484172.278 6         0.000 6       381.404 6        37.977 6
G26  20690297.501 9 108728224.726 9     -1552.164 9        55.858 9  20690300.331 6         0.000 6     -1209.479 6        37.977 6
G20  21884795.874 9 115005345.994 9      2495.441 9        55.339 9  21884796.162 6         0.000 6      1944.500 6        37.977 6
> 2019 07 03 12 03  5.0000000  0  8       0.000000000000
G07  25294575.102 9 132923843.674 9      2142.182 9        54.150 9  25294575.744 6         0.000 6      1669.234 6        37.977 6
G10  23725956.361 9 124680688.849 9      3502.375 9        54.700 9  23725960.007 6         0.000 6      2729.126 6        37.977 6
G21  21202059.038 9 111417551.486 9     -1306.914 9        55.696 9  21202058.329 6         0.000 6     -1018.375 6        37.977 6
G29  24376571.681 9 128099691.085 9     -3159.346 9        54.448 9  24376573.336 6         0.000 6     -2461.831 6        37.977 6
G27  21943724.915 9 115315026.094 9      2489.868 9        55.398 9  21943726.827 6         0.000 6      1940.158 6        37.977 6
G16  20484080.022 9 107644546.751 9       488.844 9        55.982 9  20484079.195 6         0.000 6       380.917 6        37.977 6
G26  20690592.923 9 108729777.175 9     -1552.737 9        55.858 9  20690595.753 6         0.000 6     -1209.925 6        37.977 6
G20  21884321.051 9 115002850.786 9      2494.985 9        55.339 9  21884321.339 6         0.000 6      1944.145 6        37.977 6
> 2019 07 03 12 03  6.0000000  0  8       0.000000000000
G07  25294167.502 9 132921701.727 9      2141.718 9        54.150 9  25294168.144 6         0.000 6      1668.872 6        37.977 6
G10  23725289.896 9 124677186.560 9      3502.223 9        54.700 9  23725293.541 6         0.000 6      2729.008 6        37.977 6
G21  21202307.769 9 111418858.579 9     -1307.273 9        55.696 9  21202307.061 6         0.000 6     -1018.654 6        37.977 6
G29  24377172.892 9 128102850.462 9     -3159.429 9        54.447 9  24377174.548 6         0.000 6     -2461.896 6        37.977 6
G27  21943251.133 9 115312536.352 9      2489.621 9        55.399 9  21943253.044 6         0.000 6      1939.965 6        37.977 6
G16  20483987.058 9 107644058.219 9       488.220 9        55.982 9  20483986.230 6         0.000 6       380.431 6        37.977 6
G26  20690888.453 9 108731330.196 9     -1553.309 9        55.858 9  20690891.283 6         0.000 6     -1210.371 6        37.977 6
G20  21883846.315 9 115000356.033 9      2494.529 9        55.339 9  21883846.602 6         0.000 6      1943.790 6        37.977 6
> 2019 07 03 12 03  7.0000000  0  8       0.000000000000
G07  25293759.991 9 132919560.245 9      2141.253 9        54.150 9  25293760.633 6         0.000 6      1668.510 6        37.977 6
G10  23724623.459 9 124673684.423 9      3502.072 9        54.700 9  23724627.104 6         0.000 6      2728.890 6        37.977 6
G21  21202556.569 9 111420166.030 9     -1307.631 9        55.696 9  21202555.860 6         0.000 6     -1018.934 6        37.977 6
G29  24377774.120 9 128106009.923 9     -3159.513 9        54.447 9  24377775.776 6         0.000 6     -2461.961 6        37.977 6
G27  21942777.397 9 115310046.856 9      2489.374 9        55.399 9  21942779.308 6         0.000 6      1939.773 6        37.977 6
G16  20483894.212 9 107643570.311 9       487.596 9        55.982 9  20483893.384 6         0.000 6       379.945 6        37.977 6
G26  20691184.093 9 108732883.789 9     -1553.881 9        55.858 9  20691186.923 6         0.000 6     -1210.817 6        37.977 6
G20  21883371.665 9 114997861.737 9      2494.073 9        55.339 9  21883371.952 6         0.000 6      1943.434 6        37.977 6
> 2019 07 03 12 03  8.0000000  0  8       0.000000000000
G07  25293352.568 9 132917419.228 9      2140.789 9        54.150 9  25293353.210 6         0.000 6      1668.148 6        37.977 6
G10  23723957.052 9 124670182.437 9      3501.920 9        54.701 9  23723960.695 6         0.000 6      2728.771 6        37.977 6
G21  21202805.437 9 111421473.840 9     -1307.990 9        55.696 9  21202804.729 6         0.000 6     -1019.213 6        37.977 6
G29  24378375.363 9 128109169.467 9     -3159.597 9        54.447 9  24378377.020 6         0.000 6     -2462.026 6        37.977 6
G27  21942303.708 9 115307557.608 9      2489.127 9        55.399 9  21942305.619 6         0.000 6      1939.581 6        37.977 6
G16  20483801.485 9 107643083.027 9       486.972 9        55.982 9  20483800.657 6         0.000 6       379.459 6        37.977 6
G26  20691479.841 9 108734437.954 9     -1554.454 9        55.858 9  20691482.671 6         0.000 6     -1211.263 6        37.977 6
G20  21882897.102 9 114995367.897 9      2493.617 9        55.340 9  21882897.389 6         0.000 6      1943.079 6        37.977 6
> 2019 07 03 12 03  9.0000000  0  8       0.000000000000
G07  25292945.234 9 132915278.675 9      2140.324 9        54.150 9  25292945.875 6         0.000 6      1667.786 6        37.977 6
G10  23723290.673 9 124666680.604 9      3501.768 9        54.701 9  23723294.316 6         0.000 6      2728.653 6        37.977 6
G21  21203054.374 9 111422782.008 9     -1308.348 9        55.696 9  21203053.665 6         0.000 6     -1019.492 6        37.977 6
G29  24378976.622 9 128112329.095 9     -3159.680 9        54.447 9  24378978.280 6         0.000 6     -2462.091 6        37.977 6
G27  21941830.067 9 115305068.607 9      2488.880 9        55.399 9  21941831.977 6         0.000 6      1939.388 6        37.977 6
G16  20483708.876 9 107642596.366 9       486.348 9        55.982 9  20483708.049 6         0.000 6       378.973 6        37.977 6
G26  20691775.698 9 108735992.692 9     -1555.026 9        55.857 9  20691778.528 6         0.000 6     -1211.709 6        37.977 6
G20  21882422.626 9 114992874.512 9      2493.160 9        55.340 9  21882422.912 6         0.000 6      1942.723 6        37.977 6
> 2019 07 03 12 03 10.0000000  0  8       0.000000000000
G07  25292537.988 9 132913138.586 9      2139.860 9        54.150 9  25292538.629 6         0.000 6      1667.424 6        37.977 6
G10  23722624.323 9 124663178.923 9      3501.616 9        54.701 9  23722627.966 6         0.000 6      2728.534 6        37.977 6
G21  21203303.378 9 111424090.535 9     -1308.707 9        55.696 9  21203302.669 6         0.000 6     -1019.772 6        37.977 6
G29  24379577.897 9 128115488.806 9     -3159.764 9        54.446 9  24379579.556 6         0.000 6     -2462.156 6        37.977 6
G27  21941356.472 9 115302579.853 9      2488.633 9        55.399 9  21941358.382 6         0.000 6      1939.195 6        37.977 6
G16  20483616.387 9 107642110.330 9       485.724 9        55.982 9  20483615.559 6         0.000 6       378.486 6        37.977 6
G26  20692071.664 9 108737548.002 9     -1555.598 9        55.857 9  20692074.494 6         0.000 6     -1212.155 6        37.977 6
G20  21881948.237 9 114990381.584 9      2492.704 9        55.340 9  21881948.523 6         0.000 6      1942.368 6        37.977 6
> 2019 07 03 12 03 11.0000000  0  8       0.000000000000
G07  25292130.830 9 132910998.963 9      2139.395 9        54.150 9  25292131.471 6         0.000 6      1667.062 6        37.977 6
G10  23721958.002 9 124659677.393 9      3501.463 9        54.701 9  23721961.644 6         0.000 6      2728.416 6        37.977 6
G21  21203552.451 9 111425399.420 9     -1309.065 9        55.696 9  21203551.742 6         0.000 6     -1020.051 6        37.977 6
G29  24380179.188 9 128118648.601 9     -3159.847 9        54.446 9  24380180.847 6         0.000 6     -2462.221 6        37.977 6
G27  21940882.924 9 115300091.345 9      2488.386 9        55.400 9  21940884.835 6         0.000 6      1939.003 6        37.977 6
G16  20483524.016 9 107641624.918 9       485.100 9        55.982 9  20483523.188 6         0.000 6       378.000 6        37.977 6
G26  20692367.739 9 108739103.884 9     -1556.170 9        55.857 9  20692370.569 6         0.000 6     -1212.601 6        37.977 6
G20  21881473.935 9 114987889.113 9      2492.248 9        55.340 9  21881474.220 6         0.000 6      1942.012 6        37.977 6
> 2019 07 03 12 03 12.0000000  0  8       0.000000000000
G07  25291723.761 9 132908859.804 9      2138.930 9        54.150 9  25291724.402 6         0.000 6      1666.700 6        37.977 6
G10  23721291.711 9 124656176.016 9      3501.311 9        54.702 9  23721295.352 6         0.000 6      2728.297 6        37.977 6
G21  21203801.592 9 111426708.664 9     -1309.423 9        55.696 9  21203800.883 6         0.000 6     -1020.330 6        37.977 6
G29  24380780.495 9 128121808.480 9     -3159.931 9        54.446 9  24380782.155 6         0.000 6     -2462.286 6        37.977 6
G27  21940409.424 9 115297603.086 9      2488.139 9        55.400 9  21940411.334 6         0.000 6      1938.810 6        37.977 6
G16  20483431.764 9 107641140.130 9       484.476 9        55.982 9  20483430.936 6         0.000 6       377.514 6        37.977 6
G26  20692663.923 9 108740660.339 9     -1556.742 9        55.857 9  20692666.753 6         0.000 6     -1213.046 6        37.977 6
G20  21880999.719 9 114985397.098 9      2491.791 9        55.340 9  21881000.004 6         0.000 6      1941.657 6        37.977 6
> 2019 07 03 12 03 13.0000000  0  8       0.000000000000
G07  25291316.781 9 132906721.109 9      2138.465 9        54.151 9  25291317.421 6         0.000 6      1666.337 6        37.977 6
G10  23720625.448 9 124652674.792 9      3501.159 9        54.702 9  23720629.088 6         0.000 6      2728.178 6        37.977 6
G21  21204050.801 9 111428018.265 9     -1309.781 9        55.696 9  21204050.092 6         0.000 6     -1020.609 6        37.977 6
G29  24381381.818 9 128124968.442 9     -3160.014 9        54.446 9  24381383.478 6         0.000 6     -2462.351 6        37.977 6
G27  21939935.970 9 115295115.073 9      2487.892 9        55.400 9  21939937.880 6         0.000 6      1938.618 6        37.977 6
G16  20483339.630 9 107640655.966 9       483.852 9        55.982 9  20483338.803 6         0.000 6       377.028 6        37.977 6
G26  20692960.215 9 108742217.365 9     -1557.314 9        55.857 9  20692963.046 6         0.000 6     -1213.492 6        37.977 6
G20  21880525.590 9 114982905.539 9      2491.335 9        55.341 9  21880525.876 6         0.000 6      1941.301 6        37.977 6
> 2019 07 03 12 03 14.0000000  0  8       0.000000000000
G07  25290909.888 9 132904582.880 9      2138.000 9        54.151 9  25290910.529 6         0.000 6      1665.975 6        37.977 6
G10  23719959.214 9 124649173.720 9      3501.006 9        54.702 9  23719962.854 6         0.000 6      2728.059 6        37.977 6
G21  21204300.078 9 111429328.225 9     -1310.140 9        55.696 9  21204299.369 6         0.000 6     -1020.888 6        37.977 6
G29  24381983.157 9 128128128.487 9     -3160.098 9        54.446 9  24381984.818 6         0.000 6     -2462.416 6        37.977 6
G27  21939462.563 9 115292627.308 9      2487.644 9        55.400 9  21939464.473 6         0.000 6      1938.425 6        37.977 6
G16  20483247.616 9 107640172.426 9       483.228 9        55.983 9  20483246.788 6         0.000 6       376.541 6        37.977 6
G26  20693256.617 9 108743774.964 9     -1557.886 9        55.857 9  20693259.448 6         0.000 6     -1213.938 6        37.977 6
G20  21880051.549 9 114980414.437 9      2490.878 9        55.341 9  21880051.834 6         0.000 6      1940.945 6        37.977 6
> 2019 07 03 12 03 15.0000000  0  8       0.000000000000
G07  25290503.085 9 132902445.116 9      2137.535 9        54.151 9  25290503.725 6         0.000 6      1665.613 6        37.977 6
G10  23719293.009 9 124645672.800 9      3500.853 9        54.702 9  23719296.648 6         0.000 6      2727.940 6        37.977 6
G21  21204549.423 9 111430638.543 9     -1310.498 9        55.695 9  21204548.715 6         0.000 6     -1021.167 6        37.977 6
G29  24382584.511 9 128131288.616 9     -3160.181 9        54.445 9  24382586.173 6         0.000 6     -2462.481 6        37.977 6
G27  21938989.204 9 115290139.789 9      2487.397 9        55.400 9  21938991.114 6         0.000 6      1938.232 6        37.977 6
G16  20483155.720 9 107639689.510 9       482.604 9        55.983 9  20483154.893 6         0.000 6       376.055 6        37.977 6
G26  20693553.127 9 108745333.134 9     -1558.458 9        55.857 9  20693555.958 6         0.000 6     -1214.384 6        37.977 6
G20  21879577.594 9 114977923.792 9      2490.421 9        55.341 9  21879577.878 6         0.000 6      1940.589 6        37.977 6
> 2019 07 03 12 03 16.0000000  0  8       0.000000000000
G07  25290096.370 9 132900307.817 9      2137.070 9        54.151 9  25290097.009 6         0.000 6      1665.250 6        37.977 6
G10  23718626.833 9 124642172.034 9      3500.701 9        54.703 9  23718630.472 6         0.000 6      2727.821 6        37.977 6
G21  21204798.837 9 111431949.219 9     -1310.856 9        55.695 9  21204798.128 6         0.000 6     -1021.446 6        37.977 6
G29  24383185.882 9 128134448.828 9     -3160.264 9        54.445 9  24383187.544 6         0.000 6     -2462.546 6        37.977 6
G27  21938515.892 9 115287652.519 9      2487.150 9        55.400 9  21938517.801 6         0.000 6      1938.040 6        37.977 6
G16  20483063.943 9 107639207.218 9       481.979 9        55.983 9  20483063.115 6         0.000 6       375.568 6        37.977 6
G26  20693849.746 9 108746891.877 9     -1559.030 9        55.857 9  20693852.577 6         0.000 6     -1214.829 6        37.977 6
G20  21879103.726 9 114975433.604 9      2489.964 9        55.341 9  21879104.010 6         0.000 6      1940.233 6        37.977 6
> 2019 07 03 12 03 17.0000000  0  8       0.000000000000
G07  25289689.743 9 132898170.983 9      2136.605 9        54.151 9  25289690.383 6         0.000 6      1664.888 6        37.977 6
G10  23717960.687 9 124638671.420 9      3500.548 9        54.703 9  23717964.325 6         0.000 6      2727.702 6        37.977 6
G21  21205048.318 9 111433260.253 9     -1311.214 9        55.695 9  21205047.610 6         0.000 6     -1021.725 6        37.977 6
G29  24383787.268 9 128137609.124 9     -3160.348 9        54.445 9  24383788.931 6         0.000 6     -2462.611 6        37.977 6
G27  21938042.626 9 115285165.495 9      2486.902 9        55.401 9  21938044.536 6         0.000 6      1937.847 6        37.977 6
G16  20482972.285 9 107638725.551 9       481.355 9        55.983 9  20482971.457 6         0.000 6       375.082 6        37.977 6
G26  20694146.474 9 108748451.191 9     -1559.602 9        55.856 9  20694149.306 6         0.000 6     -1215.275 6        37.977 6
G20  21878629.945 9 114972943.873 9      2489.507 9        55.341 9  21878630.229 6         0.000 6      1939.877 6        37.977 6
> 2019 07 03 12 03 18.0000000  0  8       0.000000000000
G07  25289283.205 9 132896034.614 9      2136.140 9        54.151 9  25289283.844 6         0.000 6      1664.525 6        37.977 6
G10  23717294.569 9 124635170.958 9      3500.395 9        54.703 9  23717298.206 6         0.000 6      2727.583 6        37.977 6
G21  21205297.868 9 111434571.645 9     -1311.572 9        55.695 9  21205297.160 6         0.000 6     -1022.004 6        37.977 6
G29  24384388.670 9 128140769.502 9     -3160.431 9        54.445 9  24384390.334 6         0.000 6     -2462.676 6        37.977 6
G27  21937569.408 9 115282678.719 9      2486.655 9        55.401 9  21937571.317 6         0.000 6      1937.654 6        37.977 6
G16  20482880.745 9 107638244.508 9       480.731 9        55.983 9  20482879.918 6         0.000 6       374.595 6        37.977 6
G26  20694443.311 9 108750011.078 9     -1560.174 9        55.856 9  20694446.143 6         0.000 6     -1215.721 6        37.977 6
G20  21878156.251 9 114970454.598 9      2489.050 9        55.341 9  21878156.535 6         0.000 6      1939.521 6        37.977 6
> 2019 07 03 12 03 19.0000000  0  8       0.000000000000
G07  25288876.755 9 132893898.710 9      2135.674 9        54.151 9  25288877.394 6         0.000 6      1664.163 6        37.977 6
G10  23716628.481 9 124631670.650 9      3500.242 9        54.703 9  23716632.117 6         0.000 6      2727.464 6        37.977 6
G21  21205547.486 9 111435883.395 9     -1311.930 9        55.695 9  21205546.778 6         0.000 6     -1022.283 6        37.977 6
G29  24384990.088 9 128143929.965 9     -3160.515 9        54.445 9  24384991.752 6         0.000 6     -2462.741 6        37.977 6
G27  21937096.237 9 115280192.190 9      2486.408 9        55.401 9  21937098.146 6         0.000 6      1937.461 6        37.977 6
G16  20482789.324 9 107637764.090 9       480.106 9        55.983 9  20482788.497 6         0.000 6       374.109 6        37.977 6
G26  20694740.257 9 108751571.536 9     -1560.746 9        55.856 9  20694743.088 6         0.000 6     -1216.166 6        37.977 6
G20  21877682.644 9 114967965.781 9      2488.593 9        55.342 9  21877682.928 6         0.000 6      1939.164 6        37.977 6
> 2019 07 03 12 03 20.0000000  0  8       0.000000000000
G07  25288470.394 9 132891763.272 9      2135.209 9        54.152 9  25288471.033 6         0.000 6      1663.800 6        37.977 6
G10  23715962.421 9 124628170.495 9      3500.089 9        54.704 9  23715966.057 6         0.000 6      2727.344 6        37.977 6
G21  21205797.172 9 111437195.503 9     -1312.288 9        55.695 9  21205796.464 6         0.000 6     -1022.562 6        37.977 6
G29  24385591.522 9 128147090.510 9     -3160.598 9        54.444 9  24385593.187 6         0.000 6     -2462.806 6        37.977 6
G27  21936623.113 9 115277705.909 9      2486.160 9        55.401 9  21936625.022 6         0.000 6      1937.268 6        37.977 6
G16  20482698.023 9 107637284.295 9       479.482 9        55.983 9  20482697.195 6         0.000 6       373.622 6        37.977 6
G26  20695037.311 9 108753132.566 9     -1561.318 9        55.856 9  20695040.143 6         0.000 6     -1216.612 6        37.977 6
G20  21877209.124 9 114965477.421 9      2488.136 9        55.342 9  21877209.407 6         0.000 6      1938.808 6        37.977 6
> 2019 07 03 12 03 21.0000000  0  8       0.000000000000
G07  25288064.122 9 132889628.299 9      2134.743 9        54.152 9  25288064.761 6         0.000 6      1663.437 6        37.977 6
G10  23715296.391 9 124624670.494 9      3499.935 9        54.704 9  23715300.027 6         0.000 6      2727.225 6        37.977 6
G21  21206046.926 9 111438507.969 9     -1312.645 9        55.695 9  21206046.218 6         0.000 6     -1022.841 6        37.977 6
G29  24386192.972 9 128150251.139 9     -3160.681 9        54.444 9  24386194.637 6         0.000 6     -2462.871 6        37.977 6
G27  21936150.036 9 115275219.876 9      2485.913 9        55.401 9  21936151.944 6         0.000 6      1937.075 6        37.977 6
G16  20482606.840 9 107636805.125 9       478.858 9        55.983 9  20482606.012 6         0.000 6       373.136 6        37.977 6
G26  20695334.475 9 108754694.168 9     -1561.890 9        55.856 9  20695337.306 6         0.000 6     -1217.057 6        37.977 6
G20  21876735.691 9 114962989.518 9      2487.678 9        55.342 9  21876735.974 6         0.000 6      1938.452 6        37.977 6
> 2019 07 03 12 03 22.0000000  0  8       0.000000000000
G07  25287657.938 9 132887493.792 9      2134.278 9        54.152 9  25287658.576 6         0.000 6      1663.075 6        37.977 6
G10  23714630.390 9 124621170.645 9      3499.782 9        54.704 9  23714634.025 6         0.000 6      2727.106 6        37.977 6
G21  21206296.748 9 111439820.792 9     -1313.003 9        55.695 9  21206296.040 6         0.000 6     -1023.119 6        37.977 6
G29  24386794.437 9 128153411.851 9     -3160.764 9        54.444 9  24386796.103 6         0.000 6     -2462.936 6        37.977 6
G27  21935677.006 9 115272734.089 9      2485.665 9        55.402 9  21935678.914 6         0.000 6      1936.882 6        37.977 6
G16  20482515.776 9 107636326.580 9       478.233 9        55.983 9  20482514.948 6         0.000 6       372.649 6        37.977 6
G26  20695631.747 9 108756256.342 9     -1562.461 9        55.856 9  20695634.579 6         0.000 6     -1217.503 6        37.977 6
G20  21876262.345 9 114960502.073 9      2487.221 9        55.342 9  21876262.628 6         0.000 6      1938.095 6        37.977 6
> 2019 07 03 12 03 23.0000000  0  8       0.000000000000
G07  25287251.843 9 132885359.751 9      2133.812 9        54.152 9  25287252.481 6         0.000 6      1662.712 6        37.977 6
G10  23713964.418 9 124617670.950 9      3499.629 9        54.704 9  23713968.053 6         0.000 6      2726.986 6        37.977 6
G21  21206546.638 9 111441133.973 9     -1313.361 9        55.695 9  21206545.930 6         0.000 6     -1023.398 6        37.977 6
G29  24387395.918 9 128156572.647 9     -3160.848 9        54.444 9  24387397.585 6         0.000 6     -2463.001 6        37.977 6
G27  21935204.023 9 115270248.551 9      2485.417 9        55.402 9  21935205.932 6         0.000 6      1936.690 6        37.977 6
G16  20482424.830 9 107635848.659 9       477.609 9        55.983 9  20482424.003 6         0.000 6       372.163 6        37.977 6
G26  20695929.128 9 108757819.087 9     -1563.033 9        55.856 9  20695931.960 6         0.000 6     -1217.948 6        37.977 6
G20  21875789.086 9 114958015.085 9      2486.763 9        55.342 9  21875789.369 6         0.000 6      1937.739 6        37.977 6
> 2019 07 03 12 03 24.0000000  0  8       0.000000000000
G07  25286845.836 9 132883226.175 9      2133.347 9        54.152 9  25286846.474 6         0.000 6      1662.349 6        37.977 6
G10  23713298.476 9 124614171.409 9      3499.475 9        54.704 9  23713302.109 6         0.000 6      2726.866 6        37.977 6
G21  21206796.597 9 111442447.512 9     -1313.718 9        55.694 9  21206795.889 6         0.000 6     -1023.677 6        37.977 6
G29  24387997.416 9 128159733.525 9     -3160.931 9        54.443 9  24387999.083 6         0.000 6     -2463.066 6        37.977 6
G27  21934731.088 9 115267763.260 9      2485.170 9        55.402 9  21934732.996 6         0.000 6      1936.497 6        37.977 6
G16  20482334.004 9 107635371.363 9       476.984 9        55.983 9  20482333.176 6         0.000 6       371.676 6        37.977 6
G26  20696226.617 9 108759382.404 9     -1563.605 9        55.856 9  20696229.450 6         0.000 6     -1218.394 6        37.977 6
G20  21875315.914 9 114955528.555 9      2486.306 9        55.343 9  21875316.197 6         0.000 6      1937.382 6        37.977 6
> 2019 07 03 12 03 25.0000000  0  8       0.000000000000
G07  25286439.918 9 132881093.064 9      2132.881 9        54.152 9  25286440.556 6         0.000 6      1661.986 6        37.977 6
G10  23712632.563 9 124610672.021 9      3499.321 9        54.705 9  23712636.195 6         0.000 6      2726.746 6        37.977 6
G21  21207046.623 9 111443761.408 9     -1314.076 9        55.694 9  21207045.915 6         0.000 6     -1023.955 6        37.977 6
G29  24388598.929 9 128162894.487 9     -3161.014 9        54.443 9  24388600.597 6         0.000 6     -2463.130 6        37.977 6
G27  21934258.199 9 115265278.217 9      2484.922 9        55.402 9  21934260.107 6         0.000 6      1936.304 6        37.977 6
G16  20482243.296 9 107634894.691 9       476.360 9        55.983 9  20482242.469 6         0.000 6       371.189 6        37.977 6
G26  20696524.216 9 108760946.293 9     -1564.176 9        55.855 9  20696527.048 6         0.000 6     -1218.839 6        37.977 6
G20  21874842.830 9 114953042.482 9      2485.848 9        55.343 9  21874843.112 6         0.000 6      1937.026 6        37.977 6
> 2019 07 03 12 03 26.0000000  0  8       0.000000000000
G07  25286034.088 9 132878960.420 9      2132.415 9        54.152 9  25286034.726 6         0.000 6      1661.623 6        37.977 6
G10  23711966.679 9 124607172.787 9      3499.168 9        54.705 9  23711970.311 6         0.000 6      2726.627 6        37.977 6
G21  21207296.717 9 111445075.662 9     -1314.433 9        55.694 9  21207296.009 6         0.000 6     -1024.234 6        37.977 6
G29  24389200.458 9 128166055.532 9     -3161.097 9        54.443 9  24389202.126 6         0.000 6     -2463.195 6        37.977 6
G27  21933785.358 9 115262793.421 9      2484.674 9        55.402 9  21933787.266 6         0.000 6      1936.110 6        37.977 6
G16  20482152.707 9 107634418.643 9       475.735 9        55.983 9  20482151.880 6         0.000 6       370.703 6        37.977 6
G26  20696821.923 9 108762510.753 9     -1564.748 9        55.855 9  20696824.756 6         0.000 6     -1219.285 6        37.977 6
G20  21874369.832 9 114950556.867 9      2485.390 9        55.343 9  21874370.114 6         0.000 6      1936.669 6        37.977 6
> 2019 07 03 12 03 27.0000000  0  8       0.000000000000
G07  25285628.348 9 132876828.242 9      2131.949 9        54.153 9  25285628.985 6         0.000 6      1661.260 6        37.977 6
G10  23711300.824 9 124603673.707 9      3499.014 9        54.705 9  23711304.455 6         0.000 6      2726.507 6        37.977 6
G21  21207546.880 9 111446390.273 9     -1314.791 9        55.694 9  21207546.172 6         0.000 6     -1024.513 6        37.977 6
G29  24389802.002 9 128169216.660 9     -3161.180 9        54.443 9  24389803.672 6         0.000 6     -2463.260 6        37.977 6
G27  21933312.563 9 115260308.874 9      2484.427 9        55.403 9  21933314.471 6         0.000 6      1935.917 6        37.977 6
G16  20482062.237 9 107633943.221 9       475.110 9        55.983 9  20482061.410 6         0.000 6       370.216 6        37.977 6
G26  20697119.739 9 108764075.785 9     -1565.320 9        55.855 9  20697122.572 6         0.000 6     -1219.730 6        37.977 6
G20  21873896.922 9 114948071.710 9      2484.932 9        55.343 9  21873897.203 6         0.000 6      1936.312 6        37.977 6
> 2019 07 03 12 03 28.0000000  0  8       0.000000000000
G07  25285222.696 9 132874696.529 9      2131.483 9        54.153 9  25285223.333 6         0.000 6      1660.897 6        37.977 6
G10  23710634.998 9 124600174.780 9      3498.860 9        54.705 9  23710638.629 6         0.000 6      2726.387 6        37.977 6
G21  21207797.110 9 111447705.242 9     -1315.148 9        55.694 9  21207796.402 6         0.000 6     -1024.791 6        37.977 6
G29  24390403.563 9 128172377.872 9     -3161.263 9        54.443 9  24390405.233 6         0.000 6     -2463.325 6        37.977 6
G27  21932839.816 9 115257824.574 9      2484.179 9        55.403 9  21932841.724 6         0.000 6      1935.724 6        37.977 6
G16  20481971.886 9 107633468.423 9       474.486 9        55.983 9  20481971.059 6         0.000 6       369.729 6        37.977 6
G26  20697417.664 9 108765641.389 9     -1565.891 9        55.855 9  20697420.497 6         0.000 6     -1220.175 6        37.977 6
G20  21873424.098 9 114945587.011 9      2484.474 9        55.343 9  21873424.380 6         0.000 6      1935.955 6        37.977 6
> 2019 07 03 12 03 29.0000000  0  8       0.000000000000
G07  25284817.132 9 132872565.282 9      2131.017 9        54.153 9  25284817.769 6         0.000 6      1660.534 6        37.977 6
G10  23709969.202 9 124596676.008 9      3498.705 9        54.706 9  23709972.832 6         0.000 6      2726.267 6        37.977 6
G21  21208047.408 9 111449020.568 9     -1315.506 9        55.694 9  21208046.701 6         0.000 6     -1025.069 6        37.977 6
G29  24391005.139 9 128175539.166 9     -3161.346 9        54.442 9  24391006.810 6         0.000 6     -2463.390 6        37.977 6
G27  21932367.116 9 115255340.522 9      2483.931 9        55.403 9  21932369.024 6         0.000 6      1935.531 6        37.977 6
G16  20481881.654 9 107632994.249 9       473.861 9        55.983 9  20481880.827 6         0.000 6       369.242 6        37.977 6
G26  20697715.697 9 108767207.563 9     -1566.463 9        55.855 9  20697718.530 6         0.000 6     -1220.621 6        37.977 6
G20  21872951.362 9 114943102.770 9      2484.016 9        55.344 9  21872951.643 6         0.000 6      1935.598 6        37.977 6
> 2019 07 03 12 03 30.0000000  0  8       0.000000000000
G07  25284411.658 9 132870434.502 9      2130.551 9        54.153 9  25284412.295 6         0.000 6      1660.170 6        37.977 6
G10  23709303.435 9 124593177.390 9      3498.551 9        54.706 9  23709307.065 6         0.000 6      2726.146 6        37.977 6
G21  21208297.775 9 111450336.252 9     -1315.863 9        55.694 9  21208297.067 6         0.000 6     -1025.348 6        37.977 6
G29  24391606.731 9 128178700.543 9     -3161.430 9        54.442 9  24391608.403 6         0.000 6     -2463.454 6        37.977 6
G27  21931894.464 9 115252856.717 9      2483.683 9        55.403 9  21931896.371 6         0.000 6      1935.338 6        37.977 6
G16  20481791.541 9 107632520.701 9       473.236 9        55.983 9  20481790.713 6         0.000 6       368.756 6        37.977 6
G26  20698013.840 9 108768774.310 9     -1567.034 9        55.855 9  20698016.673 6         0.000 6     -1221.066 6        37.977 6
G20  21872478.713 9 114940618.987 9      2483.558 9        55.344 9  21872478.994 6         0.000 6      1935.241 6        37.977 6
> 2019 07 03 12 03 31.0000000  0  8       0.000000000000
G07  25284006.272 9 132868304.188 9      2130.085 9        54.153 9  25284006.908 6         0.000 6      1659.807 6        37.977 6
G10  23708637.698 9 124589678.926 9      3498.397 9        54.706 9  23708641.327 6         0.000 6      2726.026 6        37.977 6
G21  21208548.209 9 111451652.292 9     -1316.220 9        55.694 9  21208547.501 6         0.000 6     -1025.626 6        37.977 6
G29  24392208.339 9 128181862.004 9     -3161.513 9        54.442 9  24392210.011 6         0.000 6     -2463.519 6        37.977 6
G27  21931421.858 9 115250373.161 9      2483.435 9        55.403 9  21931423.765 6         0.000 6      1935.145 6        37.977 6
G16  20481701.546 9 107632047.777 9       472.611 9        55.983 9  20481700.719 6         0.000 6       368.269 6        37.977 6
G26  20698312.091 9 108770341.628 9     -1567.605 9        55.855 9  20698314.924 6         0.000 6     -1221.511 6        37.977 6
G20  21872006.151 9 114938135.663 9      2483.100 9        55.344 9  21872006.432 6         0.000 6      1934.884 6        37.977 6
> 2019 07 03 12 03 32.0000000  0  8       0.000000000000
G07  25283600.974 9 132866174.340 9      2129.618 9        54.153 9  25283601.611 6         0.000 6      1659.444 6        37.977 6
G10  23707971.990 9 124586180.617 9      3498.243 9        54.706 9  23707975.618 6         0.000 6      2725.906 6        37.977 6
G21  21208798.711 9 111452968.690 9     -1316.577 9        55.694 9  21208798.004 6         0.000 6     -1025.904 6        37.977 6
G29  24392809.963 9 128185023.547 9     -3161.596 9        54.442 9  24392811.636 6         0.000 6     -2463.584 6        37.977 6
G27  21930949.300 9 115247889.853 9      2483.187 9        55.403 9  21930951.207 6         0.000 6      1934.952 6        37.977 6
G16  20481611.671 9 107631575.478 9       471.987 9        55.983 9  20481610.844 6         0.000 6       367.782 6        37.977 6
G26  20698610.451 9 108771909.517 9     -1568.177 9        55.855 9  20698613.284 6         0.000 6     -1221.956 6        37.977 6
G20  21871533.677 9 114935652.797 9      2482.641 9        55.344 9  21871533.957 6         0.000 6      1934.527 6        37.977 6
> 2019 07 03 12 03 33.0000000  0  8       0.000000000000
G07  25283195.766 9 132864044.958 9      2129.152 9        54.153 9  25283196.402 6         0.000 6      1659.080 6        37.977 6
G10  23707306.311 9 124582682.462 9      3498.088 9        54.707 9  23707309.939 6         0.000 6      2725.785 6        37.977 6
G21  21209049.282 9 111454285.445 9     -1316.934 9        55.694 9  21209048.574 6         0.000 6     -1026.183 6        37.977 6
G29  24393411.602 9 128188185.174 9     -3161.679 9        54.442 9  24393413.276 6         0.000 6     -2463.648 6        37.977 6
G27  21930476.789 9 115245406.792 9      2482.939 9        55.404 9  21930478.695 6         0.000 6      1934.758 6        37.977 6
G16  20481521.914 9 107631103.803 9       471.362 9        55.983 9  20481521.087 6         0.000 6       367.295 6        37.977 6
G26  20698908.919 9 108773477.977 9     -1568.748 9        55.854 9  20698911.752 6         0.000 6     -1222.402 6        37.977 6
G20  21871061.290 9 114933170.389 9      2482.183 9        55.344 9  21871061.569 6         0.000 6      1934.170 6        37.977 6
> 2019 07 03 12 03 34.0000000  0  8       0.000000000000
G07  25282790.646 9 132861916.043 9      2128.685 9        54.154 9  25282791.282 6         0.000 6      1658.717 6        37.977 6
G10  23706640.662 9 124579184.461 9      3497.933 9        54.707 9  23706644.289 6         0.000 6      2725.665 6        37.977 6
G21  21209299.920 9 111455602.557 9     -1317.291 9        55.693 9  21209299.212 6         0.000 6     -1026.461 6        37.977 6
G29  24394013.258 9 128191346.883 9     -3161.762 9        54.441 9  24394014.932 6         0.000 6     -2463.713 6        37.977 6
G27  21930004.325 9 115242923.980 9      2482.691 9        55.404 9  21930006.231 6         0.000 6      1934.565 6        37.977 6
G16  20481432.276 9 107630632.754 9       470.737 9        55.983 9  20481431.449 6         0.000 6       366.808 6        37.977 6
G26  20699207.496 9 108775047.009 9     -1569.319 9        55.854 9  20699210.330 6         0.000 6     -1222.847 6        37.977 6
G20  21870588.989 9 114930688.439 9      2481.724 9        55.344 9  21870589.269 6         0.000 6      1933.812 6        37.977 6
> 2019 07 03 12 03 35.0000000  0  8       0.000000000000
G07  25282385.615 9 132859787.594 9      2128.219 9        54.154 9  25282386.251 6         0.000 6      1658.353 6        37.977 6
G10  23705975.042 9 124575686.615 9      3497.779 9        54.707 9  23705978.668 6         0.000 6      2725.544 6        37.977 6
G21  21209550.626 9 111456920.026 9     -1317.648 9        55.693 9  21209549.919 6         0.000 6     -1026.739 6        37.977 6
G29  24394614.929 9 128194508.676 9     -3161.844 9        54.441 9  24394616.604 6         0.000 6     -2463.778 6        37.977 6
G27  21929531.908 9 115240441.416 9      2482.443 9        55.404 9  21929533.814 6         0.000 6      1934.372 6        37.977 6
G16  20481342.758 9 107630162.329 9       470.112 9        55.983 9  20481341.930 6         0.000 6       366.321 6        37.977 6
G26  20699506.182 9 108776616.612 9     -1569.891 9        55.854 9  20699509.016 6         0.000 6     -1223.292 6        37.977 6
G20  21870116.777 9 114928206.948 9      2481.266 9        55.345 9  21870117.056 6         0.000 6      1933.455 6        37.977 6
> 2019 07 03 12 03 36.0000000  0  8       0.000000000000
G07  25281980.673 9 132857659.612 9      2127.752 9        54.154 9  25281981.309 6         0.000 6      1657.990 6        37.977 6
G10  23705309.451 9 124572188.925 9      3497.624 9        54.707 9  23705313.077 6         0.000 6      2725.424 6        37.977 6
G21  21209801.400 9 111458237.852 9     -1318.005 9        55.693 9  21209800.693 6         0.000 6     -1027.017 6        37.977 6
G29  24395216.616 9 128197670.551 9     -3161.927 9        54.441 9  24395218.291 6         0.000 6     -2463.842 6        37.977 6
G27  21929059.538 9 115237959.099 9      2482.195 9        55.404 9  21929061.444 6         0.000 6      1934.178 6        37.977 6
G16  20481253.358 9 107629692.530 9       469.487 9        55.983 9  20481252.531 6         0.000 6       365.834 6        37.977 6
G26  20699804.977 9 108778186.787 9     -1570.462 9        55.854 9  20699807.810 6         0.000 6     -1223.737 6        37.977 6
G20  21869644.651 9 114925725.916 9      2480.807 9        55.345 9  21869644.930 6         0.000 6      1933.097 6        37.977 6
> 2019 07 03 12 03 37.0000000  0  8       0.000000000000
G07  25281575.820 9 132855532.097 9      2127.286 9        54.154 9  25281576.455 6         0.000 6      1657.626 6        37.977 6
G10  23704643.890 9 124568691.389 9      3497.469 9        54.708 9  23704647.516 6         0.000 6      2725.303 6        37.977 6
G21  21210052.242 9 111459556.035 9     -1318.362 9        55.693 9  21210051.535 6         0.000 6     -1027.295 6        37.977 6
G29  24395818.318 9 128200832.509 9     -3162.010 9        54.441 9  24395819.994 6         0.000 6     -2463.907 6        37.977 6
G27  21928587.216 9 115235477.031 9      2481.947 9        55.404 9  21928589.122 6         0.000 6      1933.985 6        37.977 6
G16  20481164.077 9 107629223.355 9       468.862 9        55.983 9  20481163.250 6         0.000 6       365.347 6        37.977 6
G26  20700103.880 9 108779757.532 9     -1571.033 9        55.854 9  20700106.714 6         0.000 6     -1224.182 6        37.977 6
G20  21869172.613 9 114923245.343 9      2480.348 9        55.345 9  21869172.892 6         0.000 6      1932.740 6        37.977 6
> 2019 07 03 12 03 38.0000000  0  8       0.000000000000
G07  25281171.055 9 132853405.048 9      2126.819 9        54.154 9  25281171.690 6         0.000 6      1657.262 6        37.977 6
G10  23703978.359 9 124565194.007 9      3497.314 9        54.708 9  23703981.983 6         0.000 6      2725.182 6        37.977 6
G21  21210303.152 9 111460874.575 9     -1318.719 9        55.693 9  21210302.445 6         0.000 6     -1027.573 6        37.977 6
G29  24396420.037 9 128203994.550 9     -3162.093 9        54.440 9  24396421.714 6         0.000 6     -2463.971 6        37.977 6
G27  21928114.941 9 115232995.211 9      2481.698 9        55.405 9  21928116.847 6         0.000 6      1933.792 6        37.977 6
G16  20481074.915 9 107628754.806 9       468.237 9        55.983 9  20481074.088 6         0.000 6       364.860 6        37.977 6
G26  20700402.892 9 108781328.849 9     -1571.604 9        55.854 9  20700405.726 6         0.000 6     -1224.627 6        37.977 6
G20  21868700.662 9 114920765.229 9      2479.889 9        55.345 9  21868700.940 6         0.000 6      1932.382 6        37.977 6
> 2019 07 03 12 03 39.0000000  0  8       0.000000000000
G07  25280766.379 9 132851278.466 9      2126.352 9        54.154 9  25280767.014 6         0.000 6      1656.899 6        37.977 6
G10  23703312.857 9 124561696.782 9      3497.159 9        54.708 9  23703316.481 6         0.000 6      2725.061 6        37.977 6
G21  21210554.130 9 111462193.472 9     -1319.076 9        55.693 9  21210553.423 6         0.000 6     -1027.851 6        37.977 6
G29  24397021.771 9 128207156.674 9     -3162.176 9        54.440 9  24397023.448 6         0.000 6     -2464.036 6        37.977 6
G27  21927642.713 9 115230513.640 9      2481.450 9        55.405 9  21927644.619 6         0.000 6      1933.598 6        37.977 6
G16  20480985.872 9 107628286.881 9       467.612 9        55.983 9  20480985.044 6         0.000 6       364.373 6        37.977 6
G26  20700702.013 9 108782900.736 9     -1572.175 9        55.854 9  20700704.846 6         0.000 6     -1225.072 6        37.977 6
G20  21868228.798 9 114918285.573 9      2479.430 9        55.345 9  21868229.077 6         0.000 6      1932.025 6        37.977 6
> 2019 07 03 12 03 40.0000000  0  8       0.000000000000
G07  25280361.792 9 132849152.351 9      2125.885 9        54.154 9  25280362.427 6         0.000 6      1656.535 6        37.977 6
G10  23702647.385 9 124558199.711 9      3497.003 9        54.708 9  23702651.008 6         0.000 6      2724.940 6        37.977 6
G21  21210805.176 9 111463512.725 9     -1319.432 9        55.693 9  21210804.468 6         0.000 6     -1028.129 6        37.977 6
G29  24397623.521 9 128210318.881 9     -3162.259 9        54.440 9  24397625.199 6         0.000 6     -2464.100 6        37.977 6
G27  21927170.532 9 115228032.316 9      2481.202 9        55.405 9  21927172.438 6         0.000 6      1933.405 6        37.977 6
G16  20480896.948 9 107627819.582 9       466.987 9        55.984 9  20480896.120 6         0.000 6       363.886 6        37.977 6
G26  20701001.242 9 108784473.195 9     -1572.746 9        55.854 9  20701004.076 6         0.000 6     -1225.517 6        37.977 6
G20  21867757.022 9 114915806.377 9      2478.971 9        55.346 9  21867757.300 6         0.000 6      1931.667 6        37.977 6
> 2019 07 03 12 03 41.0000000  0  8       0.000000000000
G07  25279957.294 9 132847026.702 9      2125.418 9        54.155 9  25279957.929 6         0.000 6      1656.171 6        37.977 6
G10  23701981.942 9 124554702.795 9      3496.848 9        54.709 9  23701985.564 6         0.000 6      2724.819 6        37.977 6
G21  21211056.289 9 111464832.335 9     -1319.789 9        55.693 9  21211055.582 6         0.000 6     -1028.407 6        37.977 6
G29  24398225.287 9 128213481.170 9     -3162.342 9        54.440 9  24398226.965 6         0.000 6     -2464.165 6        37.977 6
G27  21926698.399 9 115225551.241 9      2480.954 9        55.405 9  21926700.304 6         0.000 6      1933.211 6        37.977 6
G16  20480808.142 9 107627352.907 9       466.362 9        55.984 9  20480807.315 6         0.000 6       363.399 6        37.977 6
G26  20701300.580 9 108786046.225 9     -1573.317 9        55.853 9  20701303.414 6         0.000 6     -1225.962 6        37.977 6
G20  21867285.333 9 114913327.639 9      2478.512 9        55.346 9  21867285.611 6         0.000 6      1931.309 6        37.977 6
> 2019 07 03 12 03 42.0000000  0  8       0.000000000000
G07  25279552.885 9 132844901.521 9      2124.951 9        54.155 9  25279553.519 6         0.000 6      1655.807 6        37.977 6
G10  23701316.529 9 124551206.035 9      3496.693 9        54.709 9  23701320.151 6         0.000 6      2724.698 6        37.977 6
G21  21211307.471 9 111466152.302 9     -1320.146 9        55.693 9  21211306.764 6         0.000 6     -1028.685 6        37.977 6
G29  24398827.068 9 128216643.543 9     -3162.424 9        54.440 9  24398828.747 6         0.000 6     -2464.229 6        37.977 6
G27  21926226.313 9 115223070.414 9      2480.705 9        55.405 9  21926228.218 6         0.000 6      1933.018 6        37.977 6
G16  20480719.456 9 107626886.858 9       465.737 9        55.984 9  20480718.629 6         0.000 6       362.912 6        37.977 6
G26  20701600.027 9 108787619.826 9     -1573.888 9        55.853 9  20701602.861 6         0.000 6     -1226.407 6        37.977 6
G20  21866813.732 9 114910849.361 9      2478.053 9        55.346 9  21866814.009 6         0.000 6      1930.951 6        37.977 6
> 2019 07 03 12 03 43.0000000  0  8       0.000000000000
G07  25279148.565 9 132842776.807 9      2124.484 9        54.155 9  25279149.199 6         0.000 6      1655.443 6        37.977 6
G10  23700651.145 9 124547709.431 9      3496.537 9        54.709 9  23700654.766 6         0.000 6      2724.577 6        37.977 6
G21  21211558.720 9 111467472.625 9     -1320.502 9        55.693 9  21211558.013 6         0.000 6     -1028.963 6        37.977 6
G29  24399428.865 9 128219805.998 9     -3162.507 9        54.439 9  24399430.545 6         0.000 6     -2464.294 6        37.977 6
G27  21925754.274 9 115220589.836 9      2480.457 9        55.406 9  21925756.179 6         0.000 6      1932.824 6        37.977 6
G16  20480630.889 9 107626421.434 9       465.111 9        55.984 9  20480630.062 6         0.000 6       362.424 6        37.977 6
G26  20701899.582 9 108789193.998 9     -1574.459 9        55.853 9  20701902.416 6         0.000 6     -1226.852 6        37.977 6
G20  21866342.218 9 114908371.543 9      2477.593 9        55.346 9  21866342.495 6         0.000 6      1930.593 6        37.977 6
> 2019 07 03 12 03 44.0000000  0  8       0.000000000000
G07  25278744.333 9 132840652.560 9      2124.017 9        54.155 9  25278744.967 6         0.000 6      1655.079 6        37.977 6
G10  23699985.791 9 124544212.982 9      3496.381 9        54.709 9  23699989.412 6         0.000 6      2724.456 6        37.977 6
G21  21211810.037 9 111468793.305 9     -1320.859 9        55.692 9  21211809.330 6         0.000 6     -1029.241 6        37.977 6
G29  24400030.678 9 128222968.536 9     -3162.590 9        54.439 9  24400032.359 6         0.000 6     -2464.358 6        37.977 6
G27  21925282.282 9 115218109.506 9      2480.208 9        55.406 9  21925284.187 6         0.000 6      1932.631 6        37.977 6
G16  20480542.441 9 107625956.635 9       464.486 9        55.984 9  20480541.613 6         0.000 6       361.937 6        37.977 6
G26  20702199.246 9 108790768.740 9     -1575.030 9        55.853 9  20702202.080 6         0.000 6     -1227.297 6        37.977 6
G20  21865870.791 9 114905894.183 9      2477.134 9        55.346 9  21865871.068 6         0.000 6      1930.235 6        37.977 6
> 2019 07 03 12 03 45.0000000  0  8       0.000000000000
G07  25278340.191 9 132838528.780 9      2123.550 9        54.155 9  25278340.824 6         0.000 6      1654.715 6        37.977 6
G10  23699320.466 9 124540716.689 9      3496.225 9        54.710 9  23699324.087 6         0.000 6      2724.334 6        37.977 6
G21  21212061.422 9 111470114.341 9     -1321.215 9        55.692 9  21212060.715 6         0.000 6     -1029.519 6        37.977 6
G29  24400632.507 9 128226131.156 9     -3162.673 9        54.439 9  24400634.188 6         0.000 6     -2464.423 6        37.977 6
G27  21924810.338 9 115215629.425 9      2479.960 9        55.406 9  21924812.243 6         0.000 6      1932.437 6        37.977 6
G16  20480454.111 9 107625492.461 9       463.861 9        55.984 9  20480453.284 6         0.000 6       361.450 6        37.977 6
G26  20702499.018 9 108792344.054 9     -1575.601 9        55.853 9  20702501.853 6         0.000 6     -1227.741 6        37.977 6
G20  21865399.452 9 114903417.284 9      2476.674 9        55.347 9  21865399.729 6         0.000 6      1929.877 6        37.977 6
> 2019 07 03 12 03 46.0000000  0  8       0.000000000000
G07  25277936.137 9 132836405.468 9      2123.082 9        54.155 9  25277936.771 6         0.000 6      1654.351 6        37.977 6
G10  23698655.172 9 124537220.552 9      3496.070 9        54.710 9  23698658.791 6         0.000 6      2724.213 6        37.977 6
G21  21212312.875 9 111471435.734 9     -1321.572 9        55.692 9  21212312.168 6         0.000 6     -1029.796 6        37.977 6
G29  24401234.352 9 128229293.860 9     -3162.755 9        54.439 9  24401236.033 6         0.000 6     -2464.487 6        37.977 6
G27  21924338.441 9 115213149.592 9      2479.711 9        55.406 9  21924340.345 6         0.000 6      1932.243 6        37.977 6
G16  20480365.901 9 107625028.913 9       463.236 9        55.984 9  20480365.074 6         0.000 6       360.963 6        37.977 6
G26  20702798.899 9 108793919.938 9     -1576.172 9        55.853 9  20702801.734 6         0.000 6     -1228.186 6        37.977 6
G20  21864928.200 9 114900940.843 9      2476.215 9        55.347 9  21864928.477 6         0.000 6      1929.519 6        37.977 6
> 2019 07 03 12 03 47.0000000  0  8       0.000000000000
G07  25277532.173 9 132834282.623 9      2122.615 9        54.155 9  25277532.806 6         0.000 6      1653.986 6        37.977 6
G10  23697989.907 9 124533724.570 9      3495.914 9        54.710 9  23697993.525 6         0.000 6      2724.091 6        37.977 6
G21  21212564.396 9 111472757.483 9     -1321.928 9        55.692 9  21212563.689 6         0.000 6     -1030.074 6        37.977 6
G29  24401836.212 9 128232456.645 9     -3162.838 9        54.439 9  24401837.894 6         0.000 6     -2464.552 6        37.977 6
G27  21923866.591 9 115210670.007 9      2479.463 9        55.406 9  21923868.495 6         0.000 6      1932.050 6        37.977 6
G16  20480277.810 9 107624565.990 9       462.610 9        55.984 9  20480276.983 6         0.000 6       360.476 6        37.977 6
G26  20703098.889 9 108795496.394 9     -1576.742 9        55.853 9  20703101.724 6         0.000 6     -1228.631 6        37.977 6
G20  21864457.036 9 114898464.863 9      2475.755 9        55.347 9  21864457.312 6         0.000 6      1929.161 6        37.977 6
> 2019 07 03 12 03 48.0000000  0  8       0.000000000000
G07  25277128.297 9 132832160.245 9      2122.147 9        54.156 9  25277128.930 6         0.000 6      1653.622 6        37.977 6
G10  23697324.671 9 124530228.745 9      3495.757 9        54.710 9  23697328.289 6         0.000 6      2723.969 6        37.977 6
G21  21212815.984 9 111474079.588 9     -1322.284 9        55.692 9  21212815.277 6         0.000 6     -1030.352 6        37.977 6
G29  24402438.088 9 128235619.514 9     -3162.920 9        54.438 9  24402439.771 6         0.000 6     -2464.616 6        37.977 6
G27  21923394.789 9 115208190.671 9      2479.214 9        55.406 9  21923396.693 6         0.000 6      1931.856 6        37.977 6
G16  20480189.837 9 107624103.693 9       461.985 9        55.984 9  20480189.010 6         0.000 6       359.988 6        37.977 6
G26  20703398.988 9 108797073.420 9     -1577.313 9        55.853 9  20703401.823 6         0.000 6     -1229.076 6        37.977 6
G20  21863985.959 9 114895989.342 9      2475.295 9        55.347 9  21863986.235 6         0.000 6      1928.802 6        37.977 6
> 2019 07 03 12 03 49.0000000  0  8       0.000000000000
G07  25276724.510 9 132830038.335 9      2121.680 9        54.156 9  25276725.143 6         0.000 6      1653.258 6        37.977 6
G10  23696659.466 9 124526733.076 9      3495.601 9        54.711 9  23696663.083 6         0.000 6      2723.848 6        37.977 6
G21  21213067.640 9 111475402.050 9     -1322.640 9        55.692 9  21213066.933 6         0.000 6     -1030.629 6        37.977 6
G29  24403039.979 9 128238782.465 9     -3163.003 9        54.438 9  24403041.663 6         0.000 6     -2464.680 6        37.977 6
G27  21922923.033 9 115205711.584 9      2478.966 9        55.407 9  21922924.938 6         0.000 6      1931.662 6        37.977 6
G16  20480101.984 9 107623642.020 9       461.359 9        55.984 9  20480101.157 6         0.000 6       359.501 6        37.977 6
G26  20703699.195 9 108798651.016 9     -1577.884 9        55.852 9  20703702.030 6         0.000 6     -1229.520 6        37.977 6
G20  21863514.970 9 114893514.282 9      2474.835 9        55.347 9  21863515.246 6         0.000 6      1928.444 6        37.977 6
> 2019 07 03 12 03 50.0000000  0  8       0.000000000000
G07  25276320.812 9 132827916.893 9      2121.212 9        54.156 9  25276321.445 6         0.000 6      1652.893 6        37.977 6
G10  23695994.290 9 124523237.563 9      3495.445 9        54.711 9  23695997.907 6         0.000 6      2723.726 6        37.977 6
G21  21213319.364 9 111476724.868 9     -1322.997 9        55.692 9  21213318.658 6         0.000 6     -1030.907 6        37.977 6
G29  24403641.887 9 128241945.499 9     -3163.086 9        54.438 9  24403643.571 6         0.000 6     -2464.745 6        37.977 6
G27  21922451.326 9 115203232.745 9      2478.717 9        55.407 9  21922453.230 6         0.000 6      1931.468 6        37.977 6
G16  20480014.250 9 107623180.974 9       460.734 9        55.984 9  20480013.423 6         0.000 6       359.014 6        37.977 6
G26  20703999.510 9 108800229.184 9     -1578.455 9        55.852 9  20704002.346 6         0.000 6     -1229.965 6        37.977 6
G20  21863044.069 9 114891039.681 9      2474.375 9        55.347 9  21863044.344 6         0.000 6      1928.086 6        37.977 6
> 2019 07 03 12 03 51.0000000  0  8       0.000000000000
G07  25275917.204 9 132825795.918 9      2120.744 9        54.156 9  25275917.836 6         0.000 6      1652.529 6        37.977 6
G10  23695329.143 9 124519742.207 9      3495.289 9        54.711 9  23695332.760 6         0.000 6      2723.604 6        37.977 6
G21  21213571.156 9 111478048.041 9     -1323.353 9        55.692 9  21213570.449 6         0.000 6     -1031.184 6        37.977 6
G29  24404243.810 9 128245108.615 9     -3163.168 9        54.438 9  24404245.495 6         0.000 6     -2464.809 6        37.977 6
G27  21921979.665 9 115200754.155 9      2478.468 9        55.407 9  21921981.569 6         0.000 6      1931.275 6        37.977 6
G16  20479926.635 9 107622720.552 9       460.109 9        55.984 9  20479925.807 6         0.000 6       358.526 6        37.977 6
G26  20704299.935 9 108801807.922 9     -1579.025 9        55.852 9  20704302.770 6         0.000 6     -1230.410 6        37.977 6
G20  21862573.254 9 114888565.540 9      2473.915 9        55.348 9  21862573.529 6         0.000 6      1927.727 6        37.977 6
> 2019 07 03 12 03 52.0000000  0  8       0.000000000000
G07  25275513.684 9 132823675.411 9      2120.277 9        54.156 9  25275514.316 6         0.000 6      1652.164 6        37.977 6
G10  23694664.027 9 124516247.007 9      3495.132 9        54.711 9  23694667.643 6         0.000 6      2723.482 6        37.977 6
G21  21213823.016 9 111479371.571 9     -1323.709 9        55.692 9  21213822.309 6         0.000 6     -1031.462 6        37.977 6
G29  24404845.748 9 128248271.814 9     -3163.251 9        54.437 9  24404847.434 6         0.000 6     -2464.873 6        37.977 6
G27  21921508.052 9 115198275.814 9      2478.219 9        55.407 9  21921509.956 6         0.000 6      1931.081 6        37.977 6
G16  20479839.138 9 107622260.756 9       459.483 9        55.984 9  20479838.311 6         0.000 6       358.039 6        37.977 6
G26  20704600.467 9 108803387.230 9     -1579.596 9        55.852 9  20704603.303 6         0.000 6     -1230.854 6        37.977 6
G20  21862102.528 9 114886091.860 9      2473.455 9        55.348 9  21862102.803 6         0.000 6      1927.368 6        37.977 6
> 2019 07 03 12 03 53.0000000  0  8       0.000000000000
G07  25275110.253 9 132821555.371 9      2119.809 9        54.156 9  25275110.885 6         0.000 6      1651.800 6        37.977 6
G10  23693998.940 9 124512751.963 9      3494.975 9        54.712 9  23694002.556 6         0.000 6      2723.360 6        37.977 6
G21  21214074.943 9 111480695.457 9     -1324.065 9        55.691 9  21214074.236 6         0.000 6     -1031.739 6        37.977 6
G29  24405447.703 9 128251435.095 9     -3163.333 9        54.437 9  24405449.389 6         0.000 6     -2464.938 6        37.977 6
G27  21921036.486 9 115195797.722 9      2477.971 9        55.407 9  21921038.390 6         0.000 6      1930.887 6        37.977 6
G16  20479751.761 9 107621801.586 9       458.857 9        55.984 9  20479750.934 6         0.000 6       357.551 6        37.977 6
G26  20704901.109 9 108804967.109 9     -1580.166 9        55.852 9  20704903.944 6         0.000 6     -1231.299 6        37.977 6
G20  21861631.889 9 114883618.639 9      2472.994 9        55.348 9  21861632.163 6         0.000 6      1927.010 6        37.977 6
> 2019 07 03 12 03 54.0000000  0  8       0.000000000000
G07  25274706.912 9 132819435.800 9      2119.341 9        54.156 9  25274707.543 6         0.000 6      1651.435 6        37.977 6
G10  23693333.884 9 124509257.077 9      3494.819 9        54.712 9  23693337.498 6         0.000 6      2723.238 6        37.977 6
G21  21214326.938 9 111482019.699 9     -1324.421 9        55.691 9  21214326.231 6         0.000 6     -1032.016 6        37.977 6
G29  24406049.673 9 128254598.459 9     -3163.416 9        54.437 9  24406051.360 6         0.000 6     -2465.002 6        37.977 6
G27  21920564.968 9 115193319.878 9      2477.722 9        55.408 9  21920566.871 6         0.000 6      1930.693 6        37.977 6
G16  20479664.503 9 107621343.041 9       458.232 9        55.984 9  20479663.676 6         0.000 6       357.064 6        37.977 6
G26  20705201.859 9 108806547.559 9     -1580.737 9        55.852 9  20705204.694 6         0.000 6     -1231.743 6        37.977 6
G20  21861161.337 9 114881145.879 9      2472.534 9        55.348 9  21861161.612 6         0.000 6      1926.651 6        37.977 6
> 2019 07 03 12 03 55.0000000  0  8       0.000000000000
G07  25274303.659 9 132817316.697 9      2118.873 9        54.156 9  25274304.291 6         0.000 6      1651.071 6        37.977 6
G10  23692668.857 9 124505762.347 9      3494.662 9        54.712 9  23692672.471 6         0.000 6      2723.116 6        37.977 6
G21  21214579.001 9 111483344.297 9     -1324.777 9        55.691 9  21214578.294 6         0.000 6     -1032.294 6        37.977 6
G29  24406651.659 9 128257761.905 9     -3163.498 9        54.437 9  24406653.347 6         0.000 6     -2465.066 6        37.977 6
G27  21920093.497 9 115190842.283 9      2477.473 9        55.408 9  21920095.400 6         0.000 6      1930.499 6        37.977 6
G16  20479577.364 9 107620885.122 9       457.606 9        55.984 9  20479576.537 6         0.000 6       356.576 6        37.977 6
G26  20705502.717 9 108808128.579 9     -1581.307 9        55.852 9  20705505.553 6         0.000 6     -1232.188 6        37.977 6
G20  21860690.874 9 114878673.580 9      2472.074 9        55.348 9  21860691.148 6         0.000 6      1926.292 6        37.977 6
> 2019 07 03 12 03 56.0000000  0  8       0.000000000000
G07  25273900.495 9 132815198.061 9      2118.405 9        54.157 9  25273901.127 6         0.000 6      1650.706 6        37.977 6
G10  23692003.860 9 124502267.773 9      3494.505 9        54.712 9  23692007.473 6         0.000 6      2722.993 6        37.977 6
G21  21214831.131 9 111484669.251 9     -1325.132 9        55.691 9  21214830.425 6         0.000 6     -1032.571 6        37.977 6
G29  24407253.660 9 128260925.434 9     -3163.581 9        54.437 9  24407255.349 6         0.000 6     -2465.130 6        37.977 6
G27  21919622.073 9 115188364.937 9      2477.224 9        55.408 9  21919623.976 6         0.000 6      1930.305 6        37.977 6
G16  20479490.344 9 107620427.829 9       456.981 9        55.984 9  20479489.517 6         0.000 6       356.089 6        37.977 6
G26  20705803.684 9 108809710.170 9     -1581.878 9        55.852 9  20705806.520 6         0.000 6     -1232.632 6        37.977 6
G20  21860220.498 9 114876201.741 9      2471.613 9        55.349 9  21860220.771 6         0.000 6      1925.933 6        37.977 6
> 2019 07 03 12 03 57.0000000  0  8       0.000000000000
G07  25273497.421 9 132813079.894 9      2117.937 9        54.157 9  25273498.052 6         0.000 6      1650.341 6        37.977 6
G10  23691338.892 9 124498773.357 9      3494.348 9        54.713 9  23691342.505 6         0.000 6      2722.871 6        37.977 6
G21  21215083.329 9 111485994.560 9     -1325.488 9        55.691 9  21215082.623 6         0.000 6     -1032.848 6        37.977 6
G29  24407855.678 9 128264089.045 9     -3163.663 9        54.436 9  24407857.367 6         0.000 6     -2465.195 6        37.977 6
G27  21919150.697 9 115185887.841 9      2476.975 9        55.408 9  21919152.599 6         0.000 6      1930.111 6        37.977 6
G16  20479403.443 9 107619971.161 9       456.355 9        55.984 9  20479402.616 6         0.000 6       355.601 6        37.977 6
G26  20706104.760 9 108811292.331 9     -1582.448 9        55.851 9  20706107.596 6         0.000 6     -1233.077 6        37.977 6
G20  21859750.209 9 114873730.363 9      2471.152 9        55.349 9  21859750.483 6         0.000 6      1925.574 6        37.977 6
> 2019 07 03 12 03 58.0000000  0  8       0.000000000000
G07  25273094.436 9 132810962.195 9      2117.468 9        54.157 9  25273095.067 6         0.000 6      1649.976 6        37.977 6
G10  23690673.955 9 124495279.098 9      3494.191 9        54.713 9  23690677.567 6         0.000 6      2722.749 6        37.977 6
G21  21215335.595 9 111487320.225 9     -1325.844 9        55.691 9  21215334.889 6         0.000 6     -1033.125 6        37.977 6
G29  24408457.710 9 128267252.739 9     -3163.745 9        54.436 9  24408459.400 6         0.000 6     -2465.259 6        37.977 6
G27  21918679.368 9 115183410.993 9      2476.726 9        55.408 9  21918681.270 6         0.000 6      1929.917 6        37.977 6
G16  20479316.661 9 107619515.119 9       455.729 9        55.984 9  20479315.834 6         0.000 6       355.114 6        37.977 6
G26  20706405.944 9 108812875.062 9     -1583.018 9        55.851 9  20706408.780 6         0.000 6     -1233.521 6        37.977 6
G20  21859280.008 9 114871259.445 9      2470.691 9        55.349 9  21859280.282 6         0.000 6      1925.215 6        37.977 6
> 2019 07 03 12 03 59.0000000  0  8       0.000000000000
G07  25272691.539 9 132808844.965 9      2117.000 9        54.157 9  25272692.170 6         0.000 6      1649.611 6        37.977 6
G10  23690009.048 9 124491784.996 9      3494.033 9        54.713 9  23690012.659 6         0.000 6      2722.626 6        37.977 6
G21  21215587.929 9 111488646.246 9     -1326.199 9        55.691 9  21215587.222 6         0.000 6     -1033.402 6        37.977 6
G29  24409059.759 9 128270416.515 9     -3163.828 9        54.436 9  24409061.449 6         0.000 6     -2465.323 6        37.977 6
G27  21918208.086 9 115180934.394 9      2476.477 9        55.409 9  21918209.988 6         0.000 6      1929.723 6        37.977 6
G16  20479229.998 9 107619059.702 9       455.103 9        55.984 9  20479229.171 6         0.000 6       354.626 6        37.977 6
G26  20706707.237 9 108814458.364 9     -1583.589 9        55.851 9  20706710.073 6         0.000 6     -1233.966 6        37.977 6
G20  21858809.895 9 114868788.988 9      2470.231 9        55.349 9  21858810.168 6         0.000 6      1924.856 6        37.977 6
> 2019 07 03 12 04  0.0000000  0  8       0.000000000000
G07  25272288.732 9 132806728.202 9      2116.532 9        54.157 9  25272289.363 6         0.000 6      1649.246 6        37.977 6
G10  23689344.170 9 124488291.052 9      3493.876 9        54.713 9  23689347.781 6         0.000 6      2722.503 6        37.977 6
G21  21215840.330 9 111489972.623 9     -1326.555 9        55.691 9  21215839.623 6         0.000 6     -1033.679 6        37.977 6
G29  24409661.823 9 128273580.373 9     -3163.910 9        54.436 9  24409663.514 6         0.000 6     -2465.387 6        37.977 6
G27  21917736.852 9 115178458.044 9      2476.228 9        55.409 9  21917738.754 6         0.000 6      1929.529 6        37.977 6
G16  20479143.454 9 107618604.912 9       454.478 9        55.984 9  20479142.627 6         0.000 6       354.138 6        37.977 6
G26  20707008.638 9 108816042.236 9     -1584.159 9        55.851 9  20707011.474 6         0.000 6     -1234.410 6        37.977 6
G20  21858339.870 9 114866318.992 9      2469.770 9        55.349 9  21858340.143 6         0.000 6      1924.497 6        37.977 6
> 2019 07 03 12 04  1.0000000  0  8       0.000000000000
G07  25271886.014 9 132804611.908 9      2116.063 9        54.157 9  25271886.645 6         0.000 6      1648.881 6        37.977 6
G10  23688679.323 9 124484797.265 9      3493.719 9        54.714 9  23688682.933 6         0.000 6      2722.381 6        37.977 6
G21  21216092.799 9 111491299.355 9     -1326.911 9        55.691 9  21216092.092 6         0.000 6     -1033.957 6        37.977 6
G29  24410263.903 9 128276744.314 9     -3163.992 9        54.436 9  24410265.595 6         0.000 6     -2465.451 6        37.977 6
G27  21917265.665 9 115175981.943 9      2475.979 9        55.409 9  21917267.567 6         0.000 6      1929.335 6        37.977 6
G16  20479057.030 9 107618150.747 9       453.852 9        55.984 9  20479056.202 6         0.000 6       353.651 6        37.977 6
G26  20707310.147 9 108817626.678 9     -1584.729 9        55.851 9  20707312.984 6         0.000 6     -1234.854 6        37.977 6
G20  21857869.932 9 114863849.457 9      2469.309 9        55.349 9  21857870.205 6         0.000 6      1924.138 6        37.977 6
> 2019 07 03 12 04  2.0000000  0  8       0.000000000000
G07  25271483.385 9 132802496.083 9      2115.595 9        54.157 9  25271484.015 6         0.000 6      1648.516 6        37.977 6
G10  23688014.505 9 124481303.635 9      3493.561 9        54.714 9  23688018.115 6         0.000 6      2722.258 6        37.977 6
G21  21216345.335 9 111492626.442 9     -1327.266 9        55.691 9  21216344.629 6         0.000 6     -1034.234 6        37.977 6
G29  24410865.999 9 128279908.336 9     -3164.075 9        54.435 9  24410867.691 6         0.000 6     -2465.515 6        37.977 6
G27  21916794.525 9 115173506.091 9      2475.730 9        55.409 9  21916796.427 6         0.000 6      1929.141 6        37.977 6
G16  20478970.724 9 107617697.208 9       453.226 9        55.984 9  20478969.897 6         0.000 6       353.163 6        37.977 6
G26  20707611.766 9 108819211.691 9     -1585.299 9        55.851 9  20707614.602 6         0.000 6     -1235.299 6        37.977 6
G20  21857400.082 9 114861380.384 9      2468.848 9        55.350 9  21857400.354 6         0.000 6      1923.778 6        37.977 6
> 2019 07 03 12 04  3.0000000  0  8       0.000000000000
G07  25271080.846 9 132800380.726 9      2115.126 9        54.158 9  25271081.476 6         0.000 6      1648.151 6        37.977 6
G10  23687349.718 9 124477810.163 9      3493.403 9        54.714 9  23687353.326 6         0.000 6      2722.135 6        37.977 6
G21  21216597.939 9 111493953.885 9     -1327.622 9        55.690 9  21216597.233 6         0.000 6     -1034.510 6        37.977 6
G29  24411468.110 9 128283072.442 9     -3164.157 9        54.435 9  24411469.803 6         0.000 6     -2465.580 6        37.977 6
G27  21916323.433 9 115171030.488 9      2475.481 9        55.409 9  21916325.335 6         0.000 6      1928.947 6        37.977 6
G16  20478884.538 9 107617244.295 9       452.600 9        55.984 9  20478883.710 6         0.000 6       352.675 6        37.977 6
G26  20707913.492 9 108820797.273 9     -1585.870 9        55.851 9  20707916.329 6         0.000 6     -1235.743 6        37.977 6
G20  21856930.320 9 114858911.771 9      2468.386 9        55.350 9  21856930.592 6         0.000 6      1923.419 6        37.977 6
> 2019 07 03 12 04  4.0000000  0  8       0.000000000000
G07  25270678.395 9 132798265.838 9      2114.657 9        54.158 9  25270679.025 6         0.000 6      1647.786 6        37.977 6
G10  23686684.960 9 124474316.849 9      3493.246 9        54.714 9  23686688.568 6         0.000 6      2722.012 6        37.977 6
G21  21216850.611 9 111495281.684 9     -1327.977 9        55.690 9  21216849.905 6         0.000 6     -1034.787 6        37.977 6
G29  24412070.237 9 128286236.629 9     -3164.239 9        54.435 9  24412071.930 6         0.000 6     -2465.644 6        37.977 6
G27  21915852.389 9 115168555.135 9      2475.231 9        55.409 9  21915854.290 6         0.000 6      1928.752 6        37.977 6
G16  20478798.470 9 107616792.008 9       451.974 9        55.984 9  20478797.643 6         0.000 6       352.188 6        37.977 6
G26  20708215.328 9 108822383.426 9     -1586.440 9        55.851 9  20708218.164 6         0.000 6     -1236.187 6        37.977 6
G20  21856460.646 9 114856443.620 9      2467.925 9        55.350 9  21856460.917 6         0.000 6      1923.059 6        37.977 6
> 2019 07 03 12 04  5.0000000  0  8       0.000000000000
G07  25270276.034 9 132796151.418 9      2114.189 9        54.158 9  25270276.663 6         0.000 6      1647.421 6        37.977 6
G10  23686020.232 9 124470823.693 9      3493.088 9        54.714 9  23686023.840 6         0.000 6      2721.889 6        37.977 6
G21  21217103.350 9 111496609.838 9     -1328.332 9        55.690 9  21217102.644 6         0.000 6     -1035.064 6        37.977 6
G29  24412672.379 9 128289400.899 9     -3164.321 9        54.435 9  24412674.074 6         0.000 6     -2465.708 6        37.977 6
G27  21915381.392 9 115166080.031 9      2474.982 9        55.410 9  21915383.293 6         0.000 6      1928.558 6        37.977 6
G16  20478712.522 9 107616340.347 9       451.348 9        55.984 9  20478711.695 6         0.000 6       351.700 6        37.977 6
G26  20708517.271 9 108823970.149 9     -1587.010 9        55.850 9  20708520.108 6         0.000 6     -1236.631 6        37.977 6
G20  21855991.059 9 114853975.930 9      2467.464 9        55.350 9  21855991.330 6         0.000 6      1922.700 6        37.977 6
> 2019 07 03 12 04  6.0000000  0  8       0.000000000000
G07  25269873.762 9 132794037.468 9      2113.720 9        54.158 9  25269874.391 6         0.000 6      1647.055 6        37.977 6
G10  23685355.535 9 124467330.694 9      3492.930 9        54.715 9  23685359.142 6         0.000 6      2721.766 6        37.977 6
G21  21217356.157 9 111497938.347 9     -1328.687 9        55.690 9  21217355.452 6         0.000 6     -1035.341 6        37.977 6
G29  24413274.537 9 128292565.250 9     -3164.404 9        54.434 9  24413276.232 6         0.000 6     -2465.772 6        37.977 6
G27  21914910.442 9 115163605.176 9      2474.733 9        55.410 9  21914912.343 6         0.000 6      1928.364 6        37.977 6
G16  20478626.693 9 107615889.312 9       450.722 9        55.984 9  20478625.866 6         0.000 6       351.212 6        37.977 6
G26  20708819.323 9 108825557.442 9     -1587.580 9        55.850 9  20708822.161 6         0.000 6     -1237.076 6        37.977 6
G20  21855521.560 9 114851508.701 9      2467.002 9        55.350 9  21855521.831 6         0.000 6      1922.340 6        37.977 6
> 2019 07 03 12 04  7.0000000  0  8       0.000000000000
G07  25269471.579 9 132791923.986 9      2113.251 9        54.158 9  25269472.208 6         0.000 6      1646.690 6        37.977 6
G10  23684690.868 9 124463837.854 9      3492.772 9        54.715 9  23684694.474 6         0.000 6      2721.643 6        37.977 6
G21  21217609.032 9 111499267.211 9     -1329.043 9        55.690 9  21217608.326 6         0.000 6     -1035.618 6        37.977 6
G29  24413876.711 9 128295729.684 9     -3164.486 9        54.434 9  24413878.407 6         0.000 6     -2465.836 6        37.977 6
G27  21914439.540 9 115161130.571 9      2474.483 9        55.410 9  21914441.441 6         0.000 6      1928.170 6        37.977 6
G16  20478540.983 9 107615438.902 9       450.096 9        55.985 9  20478540.156 6         0.000 6       350.724 6        37.977 6
G26  20709121.484 9 108827145.305 9     -1588.150 9        55.850 9  20709124.321 6         0.000 6     -1237.520 6        37.977 6
G20  21855052.149 9 114849041.934 9      2466.540 9        55.351 9  21855052.420 6         0.000 6      1921.981 6        37.977 6
> 2019 07 03 12 04  8.0000000  0  8       0.000000000000
G07  25269069.485 9 132789810.973 9      2112.782 9        54.158 9  25269070.114 6         0.000 6      1646.324 6        37.977 6
G10  23684026.230 9 124460345.172 9      3492.613 9        54.715 9  23684029.836 6         0.000 6      2721.519 6        37.977 6
G21  21217861.974 9 111500596.431 9     -1329.398 9        55.690 9  21217861.268 6         0.000 6     -1035.895 6        37.977 6
G29  24414478.901 9 128298894.201 9     -3164.568 9        54.434 9  24414480.597 6         0.000 6     -2465.900 6        37.977 6
G27  21913968.685 9 115158656.214 9      2474.234 9        55.410 9  21913970.586 6         0.000 6      1927.975 6        37.977 6
G16  20478455.392 9 107614989.119 9       449.470 9        55.985 9  20478454.565 6         0.000 6       350.236 6        37.977 6
G26  20709423.753 9 108828733.738 9     -1588.720 9        55.850 9  20709426.591 6         0.000 6     -1237.964 6        37.977 6
G20  21854582.826 9 114846575.629 9      2466.079 9        55.351 9  21854583.097 6         0.000 6      1921.621 6        37.977 6
> 2019 07 03 12 04  9.0000000  0  8       0.000000000000
G07  25268667.481 9 132787698.429 9      2112.313 9        54.158 9  25268668.110 6         0.000 6      1645.959 6        37.977 6
G10  23683361.623 9 124456852.648 9      3492.455 9        54.715 9  23683365.228 6         0.000 6      2721.396 6        37.977 6
G21  21218114.984 9 111501926.005 9     -1329.753 9        55.690 9  21218114.278 6         0.000 6     -1036.171 6        37.977 6
G29  24415081.106 9 128302058.799 9     -3164.650 9        54.434 9  24415082.803 6         0.000 6     -2465.964 6        37.977 6
G27  21913497.877 9 115156182.108 9      2473.985 9        55.410 9  21913499.778 6         0.000 6      1927.781 6        37.977 6
G16  20478369.920 9 107614539.962 9       448.844 9        55.985 9  20478369.093 6         0.000 6       349.749 6        37.977 6
G26  20709726.131 9 108830322.741 9     -1589.290 9        55.850 9  20709728.968 6         0.000 6     -1238.408 6        37.977 6
G20  21854113.591 9 114844109.785 9      2465.617 9        55.351 9  21854113.861 6         0.000 6      1921.261 6        37.977 6
> 2019 07 03 12 04 10.0000000  0  8       0.000000000000
G07  25268265.566 9 132785586.354 9      2111.844 9        54.159 9  25268266.194 6         0.000 6      1645.593 6        37.977 6
G10  23682697.046 9 124453360.282 9      3492.297 9        54.716 9  23682700.651 6         0.000 6      2721.273 6        37.977 6
G21  21218368.061 9 111503255.935 9     -1330.108 9        55.690 9  21218367.356 6         0.000 6     -1036.448 6        37.977 6
G29  24415683.326 9 128305223.479 9     -3164.732 9        54.434 9  24415685.024 6         0.000 6     -2466.028 6        37.977 6
G27  21913027.118 9 115153708.250 9      2473.735 9        55.411 9  21913029.018 6         0.000 6      1927.587 6        37.977 6
G16  20478284.568 9 107614091.431 9       448.218 9        55.985 9  20478283.740 6         0.000 6       349.261 6        37.977 6
G26  20710028.617 9 108831912.314 9     -1589.860 9        55.850 9  20710031.454 6         0.000 6     -1238.852 6        37.977 6
G20  21853644.444 9 114841644.403 9      2465.155 9        55.351 9  21853644.714 6         0.000 6      1920.901 6        37.977 6
> 2019 07 03 12 04 11.0000000  0  8       0.000000000000
G07  25267863.740 9 132783474.748 9      2111.374 9        54.159 9  25267864.368 6         0.000 6      1645.228 6        37.977 6
G10  23682032.499 9 124449868.075 9      3492.138 9        54.716 9  23682036.103 6         0.000 6      2721.149 6        37.977 6
G21  21218621.206 9 111504586.219 9     -1330.463 9        55.690 9  21218620.501 6         0.000 6     -1036.725 6        37.977 6
G29  24416285.563 9 128308388.242 9     -3164.814 9        54.433 9  24416287.261 6         0.000 6     -2466.092 6        37.977 6
G27  21912556.405 9 115151234.643 9      2473.486 9        55.411 9  21912558.306 6         0.000 6      1927.392 6        37.977 6
G16  20478199.334 9 107613643.526 9       447.592 9        55.985 9  20478198.507 6         0.000 6       348.773 6        37.977 6
G26  20710331.211 9 108833502.456 9     -1590.429 9        55.850 9  20710334.049 6         0.000 6     -1239.296 6        37.977 6
G20  21853175.384 9 114839179.483 9      2464.693 9        55.351 9  21853175.654 6         0.000 6      1920.541 6        37.977 6
> 2019 07 03 12 04 12.0000000  0  8       0.000000000000
G07  25267462.003 9 132781363.612 9      2110.905 9        54.159 9  25267462.631 6         0.000 6      1644.862 6        37.977 6
G10  23681367.983 9 124446376.026 9      3491.979 9        54.716 9  23681371.586 6         0.000 6      2721.026 6        37.977 6
G21  21218874.419 9 111505916.859 9     -1330.818 9        55.690 9  21218873.713 6         0.000 6     -1037.001 6        37.977 6
G29  24416887.815 9 128311553.086 9     -3164.896 9        54.433 9  24416889.514 6         0.000 6     -2466.156 6        37.977 6
G27  21912085.740 9 115148761.284 9      2473.236 9        55.411 9  21912087.641 6         0.000 6      1927.198 6        37.977 6
G16  20478114.220 9 107613196.248 9       446.965 9        55.985 9  20478113.393 6         0.000 6       348.285 6        37.977 6
G26  20710633.914 9 108835093.169 9     -1590.999 9        55.850 9  20710636.752 6         0.000 6     -1239.740 6        37.977 6
G20  21852706.412 9 114836715.025 9      2464.231 9        55.352 9  21852706.682 6         0.000 6      1920.181 6        37.977 6
> 2019 07 03 12 04 13.0000000  0  8       0.000000000000
G07  25267060.356 9 132779252.945 9      2110.436 9        54.159 9  25267060.984 6         0.000 6      1644.496 6        37.977 6
G10  23680703.496 9 124442884.136 9      3491.821 9        54.716 9  23680707.099 6         0.000 6      2720.902 6        37.977 6
G21  21219127.699 9 111507247.854 9     -1331.173 9        55.689 9  21219126.993 6         0.000 6     -1037.278 6        37.977 6
G29  24417490.082 9 128314718.013 9     -3164.978 9        54.433 9  24417491.782 6         0.000 6     -2466.220 6        37.977 6
G27  21911615.123 9 115146288.175 9      2472.987 9        55.411 9  21911617.023 6         0.000 6      1927.003 6        37.977 6
G16  20478029.225 9 107612749.596 9       446.339 9        55.985 9  20478028.398 6         0.000 6       347.797 6        37.977 6
G26  20710936.725 9 108836684.451 9     -1591.569 9        55.849 9  20710939.563 6         0.000 6     -1240.184 6        37.977 6
G20  21852237.529 9 114834251.030 9      2463.769 9        55.352 9  21852237.798 6         0.000 6      1919.821 6        37.977 6
> 2019 07 03 12 04 14.0000000  0  8       0.000000000000
G07  25266658.798 9 132777142.747 9      2109.966 9        54.159 9  25266659.426 6         0.000 6      1644.131 6        37.977 6
G10  23680039.040 9 124439392.405 9      3491.662 9        54.717 9  23680042.642 6         0.000 6      2720.778 6        37.977 6
G21  21219381.046 9 111508579.203 9     -1331.528 9        55.689 9  21219380.341 6         0.000 6     -1037.554 6        37.977 6
G29  24418092.365 9 128317883.021 9     -3165.060 9        54.433 9  24418094.066 6         0.000 6     -2466.283 6        37.977 6
G27  21911144.553 9 115143815.316 9      2472.737 9        55.411 9  21911146.453 6         0.000 6      1926.809 6        37.977 6
G16  20477944.349 9 107612303.569 9       445.713 9        55.985 9  20477943.522 6         0.000 6       347.309 6        37.977 6
G26  20711239.645 9 108838276.303 9     -1592.139 9        55.849 9  20711242.483 6         0.000 6     -1240.628 6        37.977 6
G20  21851768.733 9 114831787.496 9      2463.307 9        55.352 9  21851769.002 6         0.000 6      1919.461 6        37.977 6
> 2019 07 03 12 04 15.0000000  0  8       0.000000000000
G07  25266257.330 9 132775033.019 9      2109.497 9        54.159 9  25266257.957 6         0.000 6      1643.765 6        37.977 6
G10  23679374.614 9 124435900.833 9      3491.503 9        54.717 9  23679378.215 6         0.000 6      2720.654 6        37.977 6
G21  21219634.461 9 111509910.907 9     -1331.882 9        55.689 9  21219633.756 6         0.000 6     -1037.831 6        37.977 6
G29  24418694.664 9 128321048.112 9     -3165.142 9        54.433 9  24418696.365 6         0.000 6     -2466.347 6        37.977 6
G27  21910674.030 9 115141342.707 9      2472.487 9        55.412 9  21910675.930 6         0.000 6      1926.614 6        37.977 6
G16  20477859.592 9 107611858.170 9       445.087 9        55.985 9  20477858.765 6         0.000 6       346.821 6        37.977 6
G26  20711542.673 9 108839868.724 9     -1592.708 9        55.849 9  20711545.511 6         0.000 6     -1241.072 6        37.977 6
G20  21851300.026 9 114829324.425 9      2462.844 9        55.352 9  21851300.294 6         0.000 6      1919.101 6        37.977 6
> 2019 07 03 12 04 16.0000000  0  8       0.000000000000
G07  25265855.950 9 132772923.760 9      2109.027 9        54.159 9  25265856.578 6         0.000 6      1643.399 6        37.977 6
G10  23678710.218 9 124432409.419 9      3491.344 9        54.717 9  23678713.819 6         0.000 6      2720.530 6        37.977 6
G21  21219887.944 9 111511242.966 9     -1332.237 9        55.689 9  21219887.238 6         0.000 6     -1038.107 6        37.977 6
G29  24419296.978 9 128324213.284 9     -3165.224 9        54.432 9  24419298.680 6         0.000 6     -2466.411 6        37.977 6
G27  21910203.555 9 115138870.347 9      2472.238 9        55.412 9  21910205.455 6         0.000 6      1926.420 6        37.977 6
G16  20477774.955 9 107611413.396 9       444.460 9        55.985 9  20477774.127 6         0.000 6       346.333 6        37.977 6
G26  20711845.810 9 108841461.716 9     -1593.278 9        55.849 9  20711848.648 6         0.000 6     -1241.516 6        37.977 6
G20  21850831.406 9 114826861.816 9      2462.382 9        55.352 9  21850831.674 6         0.000 6      1918.740 6        37.977 6
> 2019 07 03 12 04 17.0000000  0  8       0.000000000000
G07  25265454.660 9 132770814.971 9      2108.558 9        54.160 9  25265455.287 6         0.000 6      1643.033 6        37.977 6
G10  23678045.852 9 124428918.165 9      3491.185 9        54.717 9  23678049.452 6         0.000 6      2720.406 6        37.977 6
G21  21220141.494 9 111512575.380 9     -1332.592 9        55.689 9  21220140.788 6         0.000 6     -1038.383 6        37.977 6
G29  24419899.308 9 128327378.539 9     -3165.306 9        54.432 9  24419901.011 6         0.000 6     -2466.475 6        37.977 6
G27  21909733.128 9 115136398.237 9      2471.988 9        55.412 9  21909735.028 6         0.000 6      1926.225 6        37.977 6
G16  20477690.436 9 107610969.249 9       443.834 9        55.985 9  20477689.609 6         0.000 6       345.845 6        37.977 6
G26  20712149.055 9 108843055.277 9     -1593.848 9        55.849 9  20712151.893 6         0.000 6     -1241.960 6        37.977 6
G20  21850362.874 9 114824399.669 9      2461.919 9        55.352 9  21850363.142 6         0.000 6      1918.380 6        37.977 6
> 2019 07 03 12 04 18.0000000  0  9       0.000000000000
G07  25265053.460 9 132768706.652 9      2108.088 9        54.160 9  25265054.087 6         0.000 6      1642.667 6        37.977 6
G10  23677381.517 9 124425427.070 9      3491.026 9        54.718 9  23677385.117 6         0.000 6      2720.282 6        37.977 6
G21  21220395.111 9 111513908.148 9     -1332.946 9        55.689 9  21220394.406 6         0.000 6     -1038.660 6        37.977 6
G29  24420501.654 9 128330543.875 9     -3165.388 9        54.432 9  24420503.357 6         0.000 6     -2466.539 6        37.977 6
G27  21909262.748 9 115133926.376 9      2471.738 9        55.412 9  21909264.647 6         0.000 6      1926.030 6        37.977 6
G16  20477606.037 9 107610525.728 9       443.207 9        55.985 9  20477605.210 6         0.000 6       345.356 6        37.977 6
G26  20712452.408 9 108844649.407 9     -1594.417 9        55.849 9  20712455.246 6         0.000 6     -1242.403 6        37.977 6
G20  21849894.430 9 114821937.985 9      2461.457 9        55.353 9  21849894.698 6         0.000 6      1918.019 6        37.977 6
G08  25188243.286 9 132365064.223 9      3229.806 9        54.196 9  25188247.211 6         0.000 6      2516.732 6        37.977 6
> 2019 07 03 12 04 19.0000000  0  9       0.000000000000
G07  25264652.349 9 132766598.802 9      2107.618 9        54.160 9  25264652.975 6         0.000 6      1642.301 6        37.977 6
G10  23676717.212 9 124421936.135 9      3490.866 9        54.718 9  23676720.811 6         0.000 6      2720.158 6        37.977 6
G21  21220648.796 9 111515241.270 9     -1333.301 9        55.689 9  21220648.091 6         0.000 6     -1038.936 6        37.977 6
G29  24421104.015 9 128333709.293 9     -3165.470 9        54.432 9  24421105.719 6         0.000 6     -2466.603 6        37.977 6
G27  21908792.416 9 115131454.766 9      2471.488 9        55.412 9  21908794.315 6         0.000 6      1925.836 6        37.977 6
G16  20477521.757 9 107610082.834 9       442.581 9        55.985 9  20477520.930 6         0.000 6       344.868 6        37.977 6
G26  20712755.870 9 108846244.107 9     -1594.987 9        55.849 9  20712758.708 6         0.000 6     -1242.847 6        37.977 6
G20  21849426.075 9 114819476.764 9      2460.994 9        55.353 9  21849426.343 6         0.000 6      1917.659 6        37.977 6
G08  25187628.652 9 132361834.305 9      3229.915 9        54.196 9  25187632.577 6         0.000 6      2516.818 6        37.977 6
> 2019 07 03 12 04 20.0000000  0  9       0.000000000000
G07  25264251.327 9 132764491.422 9      2107.148 9        54.160 9  25264251.954 6         0.000 6      1641.935 6        37.977 6
G10  23676052.938 9 124418445.358 9      3490.707 9        54.718 9  23676056.536 6         0.000 6      2720.034 6        37.977 6
G21  21220902.549 9 111516574.748 9     -1333.655 9        55.689 9  21220901.843 6         0.000 6     -1039.212 6        37.977 6
G29  24421706.392 9 128336874.793 9     -3165.552 9        54.432 9  24421708.096 6         0.000 6     -2466.666 6        37.977 6
G27  21908322.131 9 115128983.405 9      2471.238 9        55.412 9  21908324.030 6         0.000 6      1925.641 6        37.977 6
G16  20477437.596 9 107609640.566 9       441.955 9        55.985 9  20477436.769 6         0.000 6       344.380 6        37.977 6
G26  20713059.440 9 108847839.377 9     -1595.556 9        55.849 9  20713062.278 6         0.000 6     -1243.291 6        37.977 6
G20  21848957.807 9 114817016.006 9      2460.531 9        55.353 9  21848958.075 6         0.000 6      1917.298 6        37.977 6
G08  25187014.021 9 132358604.406 9      3229.897 9        54.196 9  25187017.946 6         0.000 6      2516.804 6        37.977 6
> 2019 07 03 12 04 21.0000000  0  9       0.000000000000
G07  25263850.395 9 132762384.512 9      2106.678 9        54.160 9  25263851.021 6         0.000 6      1641.568 6        37.977 6
G10  23675388.694 9 124414954.741 9      3490.547 9        54.718 9  23675392.291 6         0.000 6      2719.909 6        37.977 6
G21  21221156.369 9 111517908.579 9     -1334.010 9        55.689 9  21221155.663 6         0.000 6     -1039.488 6        37.977 6
G29  24422308.784 9 128340040.375 9     -3165.634 9        54.431 9  24422310.489 6         0.000 6     -2466.730 6        37.977 6
G27  21907851.894 9 115126512.294 9      2470.989 9        55.413 9  21907853.793 6         0.000 6      1925.446 6        37.977 6
G16  20477353.555 9 107609198.925 9       441.328 9        55.985 9  20477352.728 6         0.000 6       343.892 6        37.977 6
G26  20713363.118 9 108849435.216 9     -1596.126 9        55.848 9  20713365.957 6         0.000 6     -1243.735 6        37.977 6
G20  21848489.628 9 114814555.710 9      2460.068 9        55.353 9  21848489.895 6         0.000 6      1916.938 6        37.977 6
G08  25186399.394 9 132355374.524 9      3229.879 9        54.196 9  25186403.318 6         0.000 6      2516.790 6        37.977 6
> 2019 07 03 12 04 22.0000000  0  9       0.000000000000
G07  25263449.552 9 132760278.072 9      2106.208 9        54.160 9  25263450.178 6         0.000 6      1641.202 6        37.977 6
G10  23674724.480 9 124411464.284 9      3490.388 9        54.719 9  23674728.077 6         0.000 6      2719.785 6        37.977 6
G21  21221410.256 9 111519242.765 9     -1334.364 9        55.688 9  21221409.551 6         0.000 6     -1039.764 6        37.977 6
G29  24422911.192 9 128343206.039 9     -3165.715 9        54.431 9  24422912.897 6         0.000 6     -2466.794 6        37.977 6
G27  21907381.704 9 115124041.433 9      2470.739 9        55.413 9  21907383.603 6         0.000 6      1925.252 6        37.977 6
G16  20477269.632 9 107608757.910 9       440.701 9        55.985 9  20477268.805 6         0.000 6       343.404 6        37.977 6
G26  20713666.905 9 108851031.624 9     -1596.695 9        55.848 9  20713669.744 6         0.000 6     -1244.178 6        37.977 6
G20  21848021.536 9 114812095.877 9      2459.606 9        55.353 9  21848021.803 6         0.000 6      1916.577 6        37.977 6
G08  25185784.770 9 132352144.661 9      3229.861 9        54.197 9  25185788.694 6         0.000 6      2516.776 6        37.977 6
> 2019 07 03 12 04 23.0000000  0  9       0.000000000000
G07  25263048.799 9 132758172.102 9      2105.738 9        54.160 9  25263049.424 6         0.000 6      1640.836 6        37.977 6
G10  23674060.296 9 124407973.987 9      3490.228 9        54.719 9  23674063.892 6         0.000 6      2719.661 6        37.977 6
G21  21221664.211 9 111520577.306 9     -1334.718 9        55.688 9  21221663.506 6         0.000 6     -1040.040 6        37.977 6
G29  24423513.615 9 128346371.785 9     -3165.797 9        54.431 9  24423515.321 6         0.000 6     -2466.858 6        37.977 6
G27  21906911.562 9 115121570.822 9      2470.489 9        55.413 9  21906913.460 6         0.000 6      1925.057 6        37.977 6
G16  20477185.829 9 107608317.522 9       440.075 9        55.985 9  20477185.002 6         0.000 6       342.915 6        37.977 6
G26  20713970.800 9 108852628.602 9     -1597.264 9        55.848 9  20713973.639 6         0.000 6     -1244.622 6        37.977 6
G20  21847553.533 9 114809636.507 9      2459.142 9        55.354 9  21847553.800 6         0.000 6      1916.216 6        37.977 6
G08  25185170.150 9 132348914.816 9      3229.842 9        54.197 9  25185174.073 6         0.000 6      2516.762 6        37.977 6
> 2019 07 03 12 04 24.0000000  0  9       0.000000000000
G07  25262648.135 9 132756066.603 9      2105.268 9        54.160 9  25262648.760 6         0.000 6      1640.470 6        37.977 6
G10  23673396.143 9 124404483.849 9      3490.068 9        54.719 9  23673399.739 6         0.000 6      2719.536 6        37.977 6
G21  21221918.233 9 111521912.200 9     -1335.073 9        55.688 9  21221917.528 6         0.000 6     -1040.316 6        37.977 6
G29  24424116.054 9 128349537.612 9     -3165.879 9        54.431 9  24424117.761 6         0.000 6     -2466.921 6        37.977 6
G27  21906441.467 9 115119100.461 9      2470.239 9        55.413 9  21906443.366 6         0.000 6      1924.862 6        37.977 6
G16  20477102.145 9 107607877.760 9       439.448 9        55.985 9  20477101.318 6         0.000 6       342.427 6        37.977 6
G26  20714274.804 9 108854226.149 9     -1597.834 9        55.848 9  20714277.643 6         0.000 6     -1245.066 6        37.977 6
G20  21847085.618 9 114807177.601 9      2458.679 9        55.354 9  21847085.884 6         0.000 6      1915.855 6        37.977 6
G08  25184555.533 9 132345684.988 9      3229.824 9        54.197 9  25184559.456 6         0.000 6      2516.748 6        37.977 6
> 2019 07 03 12 04 25.0000000  0  9       0.000000000000
G07  25262247.560 9 132753961.573 9      2104.798 9        54.161 9  25262248.186 6         0.000 6      1640.103 6        37.977 6
G10  23672732.021 9 124400993.871 9      3489.908 9        54.719 9  23672735.616 6         0.000 6      2719.411 6        37.977 6
G21  21222172.322 9 111523247.449 9     -1335.427 9        55.688 9  21222171.617 6         0.000 6     -1040.592 6        37.977 6
G29  24424718.509 9 128352703.521 9     -3165.961 9        54.430 9  24424720.216 6         0.000 6     -2466.985 6        37.977 6
G27  21905971.420 9 115116630.350 9      2469.989 9        55.413 9  21905973.318 6         0.000 6      1924.667 6        37.977 6
G16  20477018.581 9 107607438.626 9       438.822 9        55.985 9  20477017.754 6         0.000 6       341.939 6        37.977 6
G26  20714578.915 9 108855824.265 9     -1598.403 9        55.848 9  20714581.755 6         0.000 6     -1245.509 6        37.977 6
G20  21846617.791 9 114804719.157 9      2458.216 9        55.354 9  21846618.057 6         0.000 6      1915.494 6        37.977 6
G08  25183940.920 9 132342455.179 9      3229.806 9        54.197 9  25183944.842 6         0.000 6      2516.734 6        37.977 6
> 2019 07 03 12 04 26.0000000  0  9       0.000000000000
G07  25261847.075 9 132751857.014 9      2104.328 9        54.161 9  25261847.700 6         0.000 6      1639.737 6        37.977 6
G10  23672067.928 9 124397504.054 9      3489.748 9        54.720 9  23672071.523 6         0.000 6      2719.287 6        37.977 6
G21  21222426.479 9 111524583.052 9     -1335.781 9        55.688 9  21222425.774 6         0.000 6     -1040.868 6        37.977 6
G29  24425320.979 9 128355869.512 9     -3166.042 9        54.430 9  24425322.687 6         0.000 6     -2467.049 6        37.977 6
G27  21905501.421 9 115114160.489 9      2469.739 9        55.414 9  21905503.319 6         0.000 6      1924.472 6        37.977 6
G16  20476935.136 9 107607000.117 9       438.195 9        55.985 9  20476934.308 6         0.000 6       341.451 6        37.977 6
G26  20714883.135 9 108857422.951 9     -1598.972 9        55.848 9  20714885.975 6         0.000 6     -1245.953 6        37.977 6
G20  21846150.052 9 114802261.177 9      2457.753 9        55.354 9  21846150.318 6         0.000 6      1915.133 6        37.977 6
G08  25183326.310 9 132339225.388 9      3229.788 9        54.198 9  25183330.232 6         0.000 6      2516.720 6        37.977 6
