     3.00           Observation Data    M (Mixed)           RINEX VERSION / TYPE
SimGEN V6.06.00     Spirent             03-Jul-19 12:00     PGM / RUN BY / DATE 
                                                            MARKER NAME         
1                                                           MARKER NUMBER       
GROUND_CRAFT                                                MARKER TYPE         
liy4hi              Spirent                                 OBSERVER / AGENCY   
rec_num             rec_type            rec_vers            REC # / TYPE / VERS 
1                   ant_type                                ANT # / TYPE        
  1000.000                                                  INTERVAL            
  2019     7     3    12     0    0.0000000     GPS         TIME OF FIRST OBS   
  4162685.5480   664338.0690  4770530.1970                  APPROX POSITION XYZ 
        0.0000        0.0000        0.0000                  ANTENNA: DELTA H/E/N
G    8 C1C L1C D1C S1C C2C L2C D2C S2C                      SYS / # / OBS TYPES 
        0.0000        0.0000        0.0000                  ANTENNA: DELTA X/Y/Z
DBHZ                                                        SIGNAL STRENGTH UNIT
                                                            END OF HEADER       
> 2019 07 03 12 00  0.0000000  0  8       0.000000000000
G07  25371995.290 9 133330688.842 9      2226.257 9        54.123 9  25371995.973 6         0.000 6      1734.746 6        37.977 6
G10  23849387.646 9 125329322.672 9      3528.777 9        54.655 9  23849391.412 6         0.000 6      2749.696 6        37.977 6
G21  21156837.877 9 111179912.813 9     -1239.092 9        55.715 9  21156837.160 6         0.000 6      -965.526 6        37.977 6
G29  24264458.470 9 127510534.099 9     -3143.286 9        54.487 9  24264460.007 6         0.000 6     -2449.314 6        37.977 6
G27  22033080.512 9 115784592.408 9      2535.432 9        55.363 9  22033082.455 6         0.000 6      1975.661 6        37.977 6
G16  20503744.600 9 107747884.797 9       603.959 9        55.974 9  20503743.774 6         0.000 6       470.617 6        37.977 6
G26  20637929.164 9 108453027.578 9     -1445.983 9        55.880 9  20637931.974 6         0.000 6     -1126.740 6        37.977 6
G20  21973057.805 9 115469164.748 9      2577.836 9        55.304 9  21973058.143 6         0.000 6      2008.704 6        37.977 6
> 2019 07 03 12 00  1.0000000  0  8       0.000000000000
G07  25371571.680 9 133328462.761 9      2225.862 9        54.123 9  25371572.363 6         0.000 6      1734.439 6        37.977 6
G10  23848716.151 9 125325793.951 9      3528.663 9        54.655 9  23848719.916 6         0.000 6      2749.611 6        37.977 6
G21  21157073.703 9 111181152.088 9     -1239.462 9        55.715 9  21157072.986 6         0.000 6      -965.815 6        37.977 6
G29  24265056.630 9 127513677.441 9     -3143.402 9        54.487 9  24265058.168 6         0.000 6     -2449.406 6        37.977 6
G27  22032598.058 9 115782057.098 9      2535.197 9        55.363 9  22032600.000 6         0.000 6      1975.479 6        37.977 6
G16  20503629.730 9 107747281.147 9       603.343 9        55.974 9  20503628.903 6         0.000 6       470.137 6        37.977 6
G26  20638204.380 9 108454473.850 9     -1446.563 9        55.880 9  20638207.191 6         0.000 6     -1127.193 6        37.977 6
G20  21972567.299 9 115466587.127 9      2577.403 9        55.304 9  21972567.637 6         0.000 6      2008.367 6        37.977 6
> 2019 07 03 12 00  2.0000000  0  8       0.000000000000
G07  25371148.238 9 133326237.561 9      2223.535 9        54.123 9  25371148.921 6         0.000 6      1732.625 6        37.977 6
G10  23848044.625 9 125322265.072 9      3529.798 9        54.655 9  23848048.390 6         0.000 6      2750.495 6        37.977 6
G21  21157309.538 9 111182391.409 9     -1238.424 9        55.715 9  21157308.822 6         0.000 6      -965.006 6        37.977 6
G29  24265654.623 9 127516819.905 9     -3139.275 9        54.487 9  24265656.161 6         0.000 6     -2446.191 6        37.977 6
G27  22032115.792 9 115779522.779 9      2531.682 9        55.363 9  22032117.735 6         0.000 6      1972.740 6        37.977 6
G16  20503515.044 9 107746678.472 9       601.167 9        55.974 9  20503514.218 6         0.000 6       468.442 6        37.977 6
G26  20638479.727 9 108455920.803 9     -1447.586 9        55.880 9  20638482.537 6         0.000 6     -1127.990 6        37.977 6
G20  21972076.787 9 115464009.473 9      2579.024 9        55.305 9  21972077.124 6         0.000 6      2009.630 6        37.977 6
> 2019 07 03 12 00  3.0000000  0  8       0.000000000000
G07  25370725.612 9 133324016.651 9      2218.538 9        54.123 9  25370726.295 6         0.000 6      1728.732 6        37.977 6
G10  23847372.632 9 125318733.735 9      3532.732 9        54.656 9  23847376.396 6         0.000 6      2752.781 6        37.977 6
G21  21157544.896 9 111183628.221 9     -1235.386 9        55.715 9  21157544.179 6         0.000 6      -962.639 6        37.977 6
G29  24266250.992 9 127519953.835 9     -3129.159 9        54.487 9  24266252.531 6         0.000 6     -2438.308 6        37.977 6
G27  22031634.847 9 115776995.399 9      2523.515 9        55.364 9  22031636.790 6         0.000 6      1966.376 6        37.977 6
G16  20503401.083 9 107746079.602 9       596.778 9        55.974 9  20503400.256 6         0.000 6       465.022 6        37.977 6
G26  20638755.356 9 108457369.244 9     -1449.241 9        55.880 9  20638758.167 6         0.000 6     -1129.279 6        37.977 6
G20  21971585.557 9 115461428.045 9      2583.570 9        55.305 9  21971585.894 6         0.000 6      2013.173 6        37.977 6
> 2019 07 03 12 00  4.0000000  0  8       0.000000000000
G07  25370303.808 9 133321800.057 9      2214.904 9        54.124 9  25370304.490 6         0.000 6      1725.900 6        37.977 6
G10  23846700.168 9 125315199.925 9      3534.746 9        54.656 9  23846703.932 6         0.000 6      2754.350 6        37.977 6
G21  21157779.773 9 111184862.506 9     -1233.369 9        55.715 9  21157779.056 6         0.000 6      -961.067 6        37.977 6
G29  24266845.727 9 127523079.179 9     -3122.109 9        54.487 9  24266847.267 6         0.000 6     -2432.814 6        37.977 6
G27  22031155.230 9 115774474.995 9      2517.734 9        55.364 9  22031157.172 6         0.000 6      1961.871 6        37.977 6
G16  20503287.849 9 107745484.555 9       593.526 9        55.974 9  20503287.023 6         0.000 6       462.488 6        37.977 6
G26  20639031.270 9 108458819.179 9     -1450.569 9        55.880 9  20639034.081 6         0.000 6     -1130.314 6        37.977 6
G20  21971093.604 9 115458842.819 9      2586.620 9        55.305 9  21971093.941 6         0.000 6      2015.550 6        37.977 6
> 2019 07 03 12 00  5.0000000  0  8       0.000000000000
G07  25369882.549 9 133319586.332 9      2212.775 9        54.124 9  25369883.231 6         0.000 6      1724.241 6        37.977 6
G10  23846027.419 9 125311664.616 9      3535.744 9        54.656 9  23846031.182 6         0.000 6      2755.128 6        37.977 6
G21  21158014.375 9 111186095.346 9     -1232.479 9        55.715 9  21158013.658 6         0.000 6      -960.373 6        37.977 6
G29  24267439.447 9 127526199.190 9     -3118.436 9        54.486 9  24267440.987 6         0.000 6     -2429.952 6        37.977 6
G27  22030676.459 9 115771959.037 9      2514.577 9        55.364 9  22030678.401 6         0.000 6      1959.412 6        37.977 6
G16  20503175.114 9 107744892.125 9       591.522 9        55.974 9  20503174.287 6         0.000 6       460.926 6        37.977 6
G26  20639307.402 9 108460270.260 9     -1451.542 9        55.879 9  20639310.213 6         0.000 6     -1131.072 6        37.977 6
G20  21970601.230 9 115456255.383 9      2588.019 9        55.305 9  21970601.567 6         0.000 6      2016.640 6        37.977 6
> 2019 07 03 12 00  6.0000000  0  8       0.000000000000
G07  25369461.596 9 133317374.210 9      2211.574 9        54.124 9  25369462.278 6         0.000 6      1723.306 6        37.977 6
G10  23845354.548 9 125308128.663 9      3536.115 9        54.656 9  23845358.310 6         0.000 6      2755.417 6        37.977 6
G21  21158248.882 9 111187327.690 9     -1232.284 9        55.714 9  21158248.165 6         0.000 6      -960.221 6        37.977 6
G29  24268032.694 9 127529316.712 9     -3116.847 9        54.486 9  24268034.235 6         0.000 6     -2428.714 6        37.977 6
G27  22030198.113 9 115769445.315 9      2513.040 9        55.364 9  22030200.055 6         0.000 6      1958.214 6        37.977 6
G16  20503062.676 9 107744301.259 9       590.287 9        55.974 9  20503061.849 6         0.000 6       459.964 6        37.977 6
G26  20639583.695 9 108461722.187 9     -1452.297 9        55.879 9  20639586.506 6         0.000 6     -1131.660 6        37.977 6
G20  21970108.700 9 115453667.123 9      2588.399 9        55.305 9  21970109.036 6         0.000 6      2016.935 6        37.977 6
> 2019 07 03 12 00  7.0000000  0  8       0.000000000000
G07  25369040.827 9 133315163.059 9      2210.779 9        54.124 9  25369041.509 6         0.000 6      1722.686 6        37.977 6
G10  23844681.636 9 125304592.496 9      3536.212 9        54.657 9  23844685.397 6         0.000 6      2755.493 6        37.977 6
G21  21158483.385 9 111188560.011 9     -1232.393 9        55.714 9  21158482.668 6         0.000 6      -960.307 6        37.977 6
G29  24268625.736 9 127532433.158 9     -3116.168 9        54.486 9  24268627.277 6         0.000 6     -2428.185 6        37.977 6
G27  22029719.984 9 115766932.734 9      2512.210 9        55.364 9  22029721.926 6         0.000 6      1957.567 6        37.977 6
G16  20502950.437 9 107743711.442 9       589.389 9        55.974 9  20502949.610 6         0.000 6       459.264 6        37.977 6
G26  20639860.122 9 108463174.819 9     -1452.956 9        55.879 9  20639862.933 6         0.000 6     -1132.174 6        37.977 6
G20  21969616.146 9 115451078.738 9      2588.333 9        55.306 9  21969616.482 6         0.000 6      2016.884 6        37.977 6
> 2019 07 03 12 00  8.0000000  0  8       0.000000000000
G07  25368620.190 9 133312952.602 9      2210.168 9        54.124 9  25368620.872 6         0.000 6      1722.210 6        37.977 6
G10  23844008.717 9 125301056.297 9      3536.188 9        54.657 9  23844012.478 6         0.000 6      2755.474 6        37.977 6
G21  21158717.923 9 111189792.517 9     -1232.640 9        55.714 9  21158717.207 6         0.000 6      -960.499 6        37.977 6
G29  24269218.694 9 127535549.163 9     -3115.908 9        54.486 9  24269220.236 6         0.000 6     -2427.983 6        37.977 6
G27  22029241.977 9 115764420.795 9      2511.707 9        55.365 9  22029243.919 6         0.000 6      1957.175 6        37.977 6
G16  20502838.352 9 107743122.429 9       588.649 9        55.974 9  20502837.525 6         0.000 6       458.688 6        37.977 6
G26  20640136.668 9 108464628.077 9     -1453.565 9        55.879 9  20640139.479 6         0.000 6     -1132.649 6        37.977 6
G20  21969123.625 9 115448490.529 9      2588.067 9        55.306 9  21969123.960 6         0.000 6      2016.677 6        37.977 6
> 2019 07 03 12 00  9.0000000  0  8       0.000000000000
G07  25368199.659 9 133310742.701 9      2209.644 9        54.124 9  25368200.341 6         0.000 6      1721.801 6        37.977 6
G10  23843335.811 9 125297520.163 9      3536.102 9        54.657 9  23843339.571 6         0.000 6      2755.407 6        37.977 6
G21  21158952.516 9 111191025.312 9     -1232.952 9        55.714 9  21158951.800 6         0.000 6      -960.742 6        37.977 6
G29  24269811.624 9 127538665.022 9     -3115.840 9        54.486 9  24269813.166 6         0.000 6     -2427.930 6        37.977 6
G27  22028764.050 9 115761909.273 9      2511.351 9        55.365 9  22028765.991 6         0.000 6      1956.898 6        37.977 6
G16  20502726.400 9 107742534.118 9       587.977 9        55.974 9  20502725.573 6         0.000 6       458.164 6        37.977 6
G26  20640413.329 9 108466081.940 9     -1454.159 9        55.879 9  20640416.140 6         0.000 6     -1133.112 6        37.977 6
G20  21968631.166 9 115445902.647 9      2587.704 9        55.306 9  21968631.502 6         0.000 6      2016.394 6        37.977 6
> 2019 07 03 12 00 10.0000000  0  8       0.000000000000
G07  25367779.224 9 133308533.305 9      2209.161 9        54.124 9  25367779.906 6         0.000 6      1721.425 6        37.977 6
G10  23842662.924 9 125293984.126 9      3535.988 9        54.657 9  23842666.683 6         0.000 6      2755.318 6        37.977 6
G21  21159187.172 9 111192258.432 9     -1233.295 9        55.714 9  21159186.455 6         0.000 6      -961.009 6        37.977 6
G29  24270404.550 9 127541780.858 9     -3115.864 9        54.485 9  24270406.093 6         0.000 6     -2427.949 6        37.977 6
G27  22028286.183 9 115759398.070 9      2511.068 9        55.365 9  22028288.125 6         0.000 6      1956.677 6        37.977 6
G16  20502614.573 9 107741946.461 9       587.340 9        55.974 9  20502613.746 6         0.000 6       457.668 6        37.977 6
G26  20640690.102 9 108467536.389 9     -1454.743 9        55.879 9  20640692.913 6         0.000 6     -1133.566 6        37.977 6
G20  21968138.781 9 115443315.149 9      2587.295 9        55.306 9  21968139.116 6         0.000 6      2016.075 6        37.977 6
> 2019 07 03 12 00 11.0000000  0  8       0.000000000000
G07  25367358.880 9 133306324.383 9      2208.692 9        54.125 9  25367359.561 6         0.000 6      1721.060 6        37.977 6
G10  23841990.059 9 125290448.211 9      3535.865 9        54.657 9  23841993.818 6         0.000 6      2755.222 6        37.977 6
G21  21159421.893 9 111193491.902 9     -1233.648 9        55.714 9  21159421.177 6         0.000 6      -961.285 6        37.977 6
G29  24270997.483 9 127544896.736 9     -3115.920 9        54.485 9  24270999.027 6         0.000 6     -2427.992 6        37.977 6
G27  22027808.368 9 115756887.138 9      2510.809 9        55.365 9  22027810.310 6         0.000 6      1956.475 6        37.977 6
G16  20502502.866 9 107741359.437 9       586.714 9        55.974 9  20502502.039 6         0.000 6       457.180 6        37.977 6
G26  20640966.986 9 108468991.423 9     -1455.323 9        55.879 9  20640969.797 6         0.000 6     -1134.018 6        37.977 6
G20  21967646.475 9 115440728.069 9      2586.872 9        55.306 9  21967646.810 6         0.000 6      2015.745 6        37.977 6
> 2019 07 03 12 00 12.0000000  0  8       0.000000000000
G07  25366938.624 9 133304115.925 9      2208.231 9        54.125 9  25366939.304 6         0.000 6      1720.701 6        37.977 6
G10  23841317.219 9 125286912.420 9      3535.738 9        54.658 9  23841320.977 6         0.000 6      2755.123 6        37.977 6
G21  21159656.683 9 111194725.730 9     -1234.008 9        55.714 9  21159655.967 6         0.000 6      -961.565 6        37.977 6
G29  24271590.430 9 127548012.684 9     -3115.996 9        54.485 9  24271591.975 6         0.000 6     -2428.052 6        37.977 6
G27  22027330.600 9 115754376.453 9      2510.566 9        55.365 9  22027332.541 6         0.000 6      1956.286 6        37.977 6
G16  20502391.276 9 107740773.031 9       586.097 9        55.974 9  20502390.450 6         0.000 6       456.699 6        37.977 6
G26  20641243.980 9 108470447.032 9     -1455.899 9        55.879 9  20641246.791 6         0.000 6     -1134.467 6        37.977 6
G20  21967154.251 9 115438141.418 9      2586.439 9        55.306 9  21967154.586 6         0.000 6      2015.408 6        37.977 6
> 2019 07 03 12 00 13.0000000  0  8       0.000000000000
G07  25366518.455 9 133301907.928 9      2207.773 9        54.125 9  25366519.135 6         0.000 6      1720.344 6        37.977 6
G10  23840644.402 9 125283376.757 9      3535.608 9        54.658 9  23840648.160 6         0.000 6      2755.022 6        37.977 6
G21  21159891.541 9 111195959.917 9     -1234.369 9        55.714 9  21159890.825 6         0.000 6      -961.846 6        37.977 6
G29  24272183.392 9 127551128.708 9     -3116.078 9        54.485 9  24272184.937 6         0.000 6     -2428.115 6        37.977 6
G27  22026852.879 9 115751866.011 9      2510.328 9        55.365 9  22026854.819 6         0.000 6      1956.100 6        37.977 6
G16  20502279.804 9 107740187.242 9       585.482 9        55.974 9  20502278.978 6         0.000 6       456.220 6        37.977 6
G26  20641521.083 9 108471903.217 9     -1456.475 9        55.879 9  20641523.894 6         0.000 6     -1134.916 6        37.977 6
G20  21966662.109 9 115435555.199 9      2586.004 9        55.307 9  21966662.443 6         0.000 6      2015.069 6        37.977 6
> 2019 07 03 12 00 14.0000000  0  8       0.000000000000
G07  25366098.373 9 133299700.386 9      2207.317 9        54.125 9  25366099.053 6         0.000 6      1719.988 6        37.977 6
G10  23839971.612 9 125279841.228 9      3535.473 9        54.658 9  23839975.368 6         0.000 6      2754.917 6        37.977 6
G21  21160126.468 9 111197194.467 9     -1234.733 9        55.714 9  21160125.752 6         0.000 6      -962.130 6        37.977 6
G29  24272776.369 9 127554244.814 9     -3116.159 9        54.485 9  24272777.915 6         0.000 6     -2428.179 6        37.977 6
G27  22026375.203 9 115749355.809 9      2510.087 9        55.366 9  22026377.143 6         0.000 6      1955.913 6        37.977 6
G16  20502168.450 9 107739602.072 9       584.863 9        55.974 9  20502167.623 6         0.000 6       455.737 6        37.977 6
G26  20641798.296 9 108473359.983 9     -1457.056 9        55.878 9  20641801.108 6         0.000 6     -1135.369 6        37.977 6
G20  21966170.051 9 115432969.420 9      2585.564 9        55.307 9  21966170.385 6         0.000 6      2014.726 6        37.977 6
> 2019 07 03 12 00 15.0000000  0  8       0.000000000000
G07  25365678.378 9 133297493.303 9      2206.862 9        54.125 9  25365679.058 6         0.000 6      1719.633 6        37.977 6
G10  23839298.845 9 125276305.828 9      3535.341 9        54.658 9  23839302.601 6         0.000 6      2754.814 6        37.977 6
G21  21160361.464 9 111198429.379 9     -1235.096 9        55.714 9  21160360.748 6         0.000 6      -962.413 6        37.977 6
G29  24273369.363 9 127557361.007 9     -3116.246 9        54.484 9  24273370.909 6         0.000 6     -2428.246 6        37.977 6
G27  22025897.571 9 115746845.840 9      2509.852 9        55.366 9  22025899.511 6         0.000 6      1955.729 6        37.977 6
G16  20502057.212 9 107739017.513 9       584.249 9        55.975 9  20502056.385 6         0.000 6       455.259 6        37.977 6
G26  20642075.619 9 108474817.320 9     -1457.632 9        55.878 9  20642078.430 6         0.000 6     -1135.818 6        37.977 6
G20  21965678.075 9 115430384.076 9      2585.125 9        55.307 9  21965678.409 6         0.000 6      2014.384 6        37.977 6
> 2019 07 03 12 00 16.0000000  0  8       0.000000000000
G07  25365258.470 9 133295286.673 9      2206.406 9        54.125 9  25365259.150 6         0.000 6      1719.278 6        37.977 6
G10  23838626.105 9 125272770.564 9      3535.208 9        54.659 9  23838629.860 6         0.000 6      2754.710 6        37.977 6
G21  21160596.530 9 111199664.656 9     -1235.460 9        55.713 9  21160595.814 6         0.000 6      -962.696 6        37.977 6
G29  24273962.373 9 127560477.286 9     -3116.333 9        54.484 9  24273963.920 6         0.000 6     -2428.314 6        37.977 6
G27  22025419.984 9 115744336.109 9      2509.617 9        55.366 9  22025421.925 6         0.000 6      1955.546 6        37.977 6
G16  20501946.092 9 107738433.571 9       583.635 9        55.975 9  20501945.265 6         0.000 6       454.780 6        37.977 6
G26  20642353.052 9 108476275.239 9     -1458.209 9        55.878 9  20642355.864 6         0.000 6     -1136.267 6        37.977 6
G20  21965186.184 9 115427799.175 9      2584.686 9        55.307 9  21965186.518 6         0.000 6      2014.042 6        37.977 6
> 2019 07 03 12 00 17.0000000  0  8       0.000000000000
G07  25364838.649 9 133293080.501 9      2205.950 9        54.125 9  25364839.328 6         0.000 6      1718.923 6        37.977 6
G10  23837953.389 9 125269235.428 9      3535.076 9        54.659 9  23837957.144 6         0.000 6      2754.607 6        37.977 6
G21  21160831.664 9 111200900.294 9     -1235.823 9        55.713 9  21160830.948 6         0.000 6      -962.979 6        37.977 6
G29  24274555.400 9 127563593.652 9     -3116.419 9        54.484 9  24274556.947 6         0.000 6     -2428.381 6        37.977 6
G27  22024942.442 9 115741826.611 9      2509.382 9        55.366 9  22024944.382 6         0.000 6      1955.363 6        37.977 6
G16  20501835.088 9 107737850.241 9       583.020 9        55.975 9  20501834.261 6         0.000 6       454.301 6        37.977 6
G26  20642630.594 9 108477733.730 9     -1458.785 9        55.878 9  20642633.406 6         0.000 6     -1136.716 6        37.977 6
G20  21964694.376 9 115425214.709 9      2584.247 9        55.307 9  21964694.709 6         0.000 6      2013.700 6        37.977 6
> 2019 07 03 12 00 18.0000000  0  8       0.000000000000
G07  25364418.914 9 133290874.782 9      2205.494 9        54.126 9  25364419.593 6         0.000 6      1718.568 6        37.977 6
G10  23837280.699 9 125265700.430 9      3534.943 9        54.659 9  23837284.453 6         0.000 6      2754.504 6        37.977 6
G21  21161066.868 9 111202136.298 9     -1236.186 9        55.713 9  21161066.152 6         0.000 6      -963.262 6        37.977 6
G29  24275148.443 9 127566710.104 9     -3116.506 9        54.484 9  24275149.991 6         0.000 6     -2428.449 6        37.977 6
G27  22024464.945 9 115739317.349 9      2509.146 9        55.366 9  22024466.885 6         0.000 6      1955.180 6        37.977 6
G16  20501724.201 9 107737267.528 9       582.406 9        55.975 9  20501723.374 6         0.000 6       453.823 6        37.977 6
G26  20642908.246 9 108479192.801 9     -1459.361 9        55.878 9  20642911.058 6         0.000 6     -1137.165 6        37.977 6
G20  21964202.652 9 115422630.686 9      2583.808 9        55.308 9  21964202.985 6         0.000 6      2013.358 6        37.977 6
> 2019 07 03 12 00 19.0000000  0  8       0.000000000000
G07  25363999.266 9 133288669.523 9      2205.038 9        54.126 9  25363999.945 6         0.000 6      1718.213 6        37.977 6
G10  23836608.033 9 125262165.559 9      3534.810 9        54.659 9  23836611.787 6         0.000 6      2754.400 6        37.977 6
G21  21161302.140 9 111203372.662 9     -1236.549 9        55.713 9  21161301.424 6         0.000 6      -963.545 6        37.977 6
G29  24275741.502 9 127569826.643 9     -3116.592 9        54.483 9  24275743.051 6         0.000 6     -2428.516 6        37.977 6
G27  22023987.493 9 115736808.322 9      2508.911 9        55.367 9  22023989.432 6         0.000 6      1954.996 6        37.977 6
G16  20501613.431 9 107736685.426 9       581.791 9        55.975 9  20501612.604 6         0.000 6       453.344 6        37.977 6
G26  20643186.007 9 108480652.444 9     -1459.937 9        55.878 9  20643188.819 6         0.000 6     -1137.614 6        37.977 6
G20  21963711.010 9 115420047.098 9      2583.368 9        55.308 9  21963711.343 6         0.000 6      2013.016 6        37.977 6
> 2019 07 03 12 00 20.0000000  0  8       0.000000000000
G07  25363579.705 9 133286464.716 9      2204.582 9        54.126 9  25363580.384 6         0.000 6      1717.857 6        37.977 6
G10  23835935.394 9 125258630.827 9      3534.677 9        54.660 9  23835939.147 6         0.000 6      2754.297 6        37.977 6
G21  21161537.482 9 111204609.393 9     -1236.912 9        55.713 9  21161536.766 6         0.000 6      -963.828 6        37.977 6
G29  24276334.578 9 127572943.268 9     -3116.679 9        54.483 9  24276336.128 6         0.000 6     -2428.583 6        37.977 6
G27  22023510.085 9 115734299.531 9      2508.676 9        55.367 9  22023512.025 6         0.000 6      1954.813 6        37.977 6
G16  20501502.778 9 107736103.942 9       581.177 9        55.975 9  20501501.951 6         0.000 6       452.865 6        37.977 6
G26  20643463.879 9 108482112.668 9     -1460.514 9        55.878 9  20643466.691 6         0.000 6     -1138.063 6        37.977 6
G20  21963219.453 9 115417463.954 9      2582.929 9        55.308 9  21963219.786 6         0.000 6      2012.673 6        37.977 6
> 2019 07 03 12 00 21.0000000  0  8       0.000000000000
G07  25363160.231 9 133284260.368 9      2204.126 9        54.126 9  25363160.909 6         0.000 6      1717.502 6        37.977 6
G10  23835262.780 9 125255096.224 9      3534.544 9        54.660 9  23835266.532 6         0.000 6      2754.193 6        37.977 6
G21  21161772.893 9 111205846.484 9     -1237.275 9        55.713 9  21161772.177 6         0.000 6      -964.111 6        37.977 6
G29  24276927.670 9 127576059.975 9     -3116.765 9        54.483 9  24276929.220 6         0.000 6     -2428.651 6        37.977 6
G27  22023032.723 9 115731790.979 9      2508.440 9        55.367 9  22023034.662 6         0.000 6      1954.630 6        37.977 6
G16  20501392.242 9 107735523.074 9       580.562 9        55.975 9  20501391.416 6         0.000 6       452.386 6        37.977 6
G26  20643741.860 9 108483573.467 9     -1461.090 9        55.878 9  20643744.672 6         0.000 6     -1138.512 6        37.977 6
G20  21962727.980 9 115414881.246 9      2582.490 9        55.308 9  21962728.312 6         0.000 6      2012.331 6        37.977 6
> 2019 07 03 12 00 22.0000000  0  8       0.000000000000
G07  25362740.843 9 133282056.477 9      2203.670 9        54.126 9  25362741.522 6         0.000 6      1717.146 6        37.977 6
G10  23834590.190 9 125251561.753 9      3534.411 9        54.660 9  23834593.941 6         0.000 6      2754.089 6        37.977 6
G21  21162008.373 9 111207083.937 9     -1237.638 9        55.713 9  21162007.657 6         0.000 6      -964.394 6        37.977 6
G29  24277520.779 9 127579176.773 9     -3116.852 9        54.483 9  24277522.329 6         0.000 6     -2428.718 6        37.977 6
G27  22022555.405 9 115729282.658 9      2508.205 9        55.367 9  22022557.344 6         0.000 6      1954.446 6        37.977 6
G16  20501281.823 9 107734942.815 9       579.948 9        55.975 9  20501280.996 6         0.000 6       451.907 6        37.977 6
G26  20644019.950 9 108485034.839 9     -1461.666 9        55.877 9  20644022.763 6         0.000 6     -1138.961 6        37.977 6
G20  21962236.589 9 115412298.977 9      2582.050 9        55.308 9  21962236.921 6         0.000 6      2011.988 6        37.977 6
> 2019 07 03 12 00 23.0000000  0  8       0.000000000000
G07  25362321.542 9 133279853.039 9      2203.213 9        54.126 9  25362322.221 6         0.000 6      1716.791 6        37.977 6
G10  23833917.627 9 125248027.419 9      3534.278 9        54.660 9  23833921.377 6         0.000 6      2753.985 6        37.977 6
G21  21162243.922 9 111208321.757 9     -1238.001 9        55.713 9  21162243.206 6         0.000 6      -964.677 6        37.977 6
G29  24278113.904 9 127582293.657 9     -3116.938 9        54.483 9  24278115.455 6         0.000 6     -2428.785 6        37.977 6
G27  22022078.132 9 115726774.573 9      2507.970 9        55.367 9  22022080.071 6         0.000 6      1954.263 6        37.977 6
G16  20501171.521 9 107734363.175 9       579.333 9        55.975 9  20501170.694 6         0.000 6       451.429 6        37.977 6
G26  20644298.151 9 108486496.791 9     -1462.242 9        55.877 9  20644300.963 6         0.000 6     -1139.410 6        37.977 6
G20  21961745.283 9 115409717.151 9      2581.610 9        55.309 9  21961745.615 6         0.000 6      2011.646 6        37.977 6
> 2019 07 03 12 00 24.0000000  0  8       0.000000000000
G07  25361902.329 9 133277650.060 9      2202.757 9        54.126 9  25361903.007 6         0.000 6      1716.435 6        37.977 6
G10  23833245.088 9 125244493.215 9      3534.144 9        54.661 9  23833248.838 6         0.000 6      2753.882 6        37.977 6
G21  21162479.540 9 111209559.936 9     -1238.364 9        55.713 9  21162478.824 6         0.000 6      -964.959 6        37.977 6
G29  24278707.046 9 127585410.628 9     -3117.024 9        54.482 9  24278708.598 6         0.000 6     -2428.853 6        37.977 6
G27  22021600.903 9 115724266.722 9      2507.734 9        55.368 9  22021602.842 6         0.000 6      1954.079 6        37.977 6
G16  20501061.335 9 107733784.146 9       578.719 9        55.975 9  20501060.509 6         0.000 6       450.950 6        37.977 6
G26  20644576.460 9 108487959.314 9     -1462.818 9        55.877 9  20644579.273 6         0.000 6     -1139.859 6        37.977 6
G20  21961254.060 9 115407135.761 9      2581.171 9        55.309 9  21961254.391 6         0.000 6      2011.303 6        37.977 6
> 2019 07 03 12 00 25.0000000  0  8       0.000000000000
G07  25361483.201 9 133275447.535 9      2202.301 9        54.127 9  25361483.879 6         0.000 6      1716.079 6        37.977 6
G10  23832572.575 9 125240959.148 9      3534.011 9        54.661 9  23832576.325 6         0.000 6      2753.778 6        37.977 6
G21  21162715.227 9 111210798.481 9     -1238.727 9        55.713 9  21162714.512 6         0.000 6      -965.242 6        37.977 6
G29  24279300.204 9 127588527.686 9     -3117.111 9        54.482 9  24279301.757 6         0.000 6     -2428.920 6        37.977 6
G27  22021123.719 9 115721759.108 9      2507.499 9        55.368 9  22021125.658 6         0.000 6      1953.896 6        37.977 6
G16  20500951.267 9 107733205.734 9       578.104 9        55.975 9  20500950.441 6         0.000 6       450.471 6        37.977 6
G26  20644854.880 9 108489422.419 9     -1463.394 9        55.877 9  20644857.693 6         0.000 6     -1140.308 6        37.977 6
G20  21960762.922 9 115404554.815 9      2580.731 9        55.309 9  21960763.253 6         0.000 6      2010.960 6        37.977 6
> 2019 07 03 12 00 26.0000000  0  8       0.000000000000
G07  25361064.161 9 133273245.469 9      2201.844 9        54.127 9  25361064.839 6         0.000 6      1715.724 6        37.977 6
G10  23831900.087 9 125237425.210 9      3533.877 9        54.661 9  23831903.836 6         0.000 6      2753.673 6        37.977 6
G21  21162950.983 9 111212037.387 9     -1239.090 9        55.712 9  21162950.268 6         0.000 6      -965.525 6        37.977 6
G29  24279893.379 9 127591644.830 9     -3117.197 9        54.482 9  24279894.932 6         0.000 6     -2428.987 6        37.977 6
G27  22020646.580 9 115719251.729 9      2507.263 9        55.368 9  22020648.519 6         0.000 6      1953.712 6        37.977 6
G16  20500841.316 9 107732627.934 9       577.489 9        55.975 9  20500840.489 6         0.000 6       449.992 6        37.977 6
G26  20645133.408 9 108490886.094 9     -1463.970 9        55.877 9  20645136.221 6         0.000 6     -1140.756 6        37.977 6
G20  21960271.866 9 115401974.305 9      2580.291 9        55.309 9  21960272.197 6         0.000 6      2010.617 6        37.977 6
> 2019 07 03 12 00 27.0000000  0  8       0.000000000000
G07  25360645.208 9 133271043.856 9      2201.387 9        54.127 9  25360645.885 6         0.000 6      1715.368 6        37.977 6
G10  23831227.625 9 125233891.410 9      3533.744 9        54.661 9  23831231.373 6         0.000 6      2753.569 6        37.977 6
G21  21163186.809 9 111213276.657 9     -1239.453 9        55.712 9  21163186.093 6         0.000 6      -965.807 6        37.977 6
G29  24280486.570 9 127594762.060 9     -3117.283 9        54.482 9  24280488.124 6         0.000 6     -2429.055 6        37.977 6
G27  22020169.486 9 115716744.586 9      2507.027 9        55.368 9  22020171.425 6         0.000 6      1953.529 6        37.977 6
G16  20500731.482 9 107732050.752 9       576.875 9        55.975 9  20500730.655 6         0.000 6       449.513 6        37.977 6
G26  20645412.047 9 108492350.351 9     -1464.546 9        55.877 9  20645414.860 6         0.000 6     -1141.205 6        37.977 6
G20  21959780.895 9 115399394.239 9      2579.851 9        55.309 9  21959781.225 6         0.000 6      2010.274 6        37.977 6
> 2019 07 03 12 00 28.0000000  0  8       0.000000000000
G07  25360226.342 9 133268842.704 9      2200.931 9        54.127 9  25360227.019 6         0.000 6      1715.012 6        37.977 6
G10  23830555.188 9 125230357.739 9      3533.610 9        54.662 9  23830558.936 6         0.000 6      2753.465 6        37.977 6
G21  21163422.703 9 111214516.288 9     -1239.815 9        55.712 9  21163421.987 6         0.000 6      -966.090 6        37.977 6
G29  24281079.777 9 127597879.376 9     -3117.370 9        54.482 9  24281081.332 6         0.000 6     -2429.122 6        37.977 6
G27  22019692.437 9 115714237.677 9      2506.792 9        55.368 9  22019694.375 6         0.000 6      1953.345 6        37.977 6
G16  20500621.764 9 107731474.182 9       576.260 9        55.975 9  20500620.937 6         0.000 6       449.034 6        37.977 6
G26  20645690.795 9 108493815.178 9     -1465.122 9        55.877 9  20645693.608 6         0.000 6     -1141.654 6        37.977 6
G20  21959290.007 9 115396814.609 9      2579.410 9        55.310 9  21959290.337 6         0.000 6      2009.931 6        37.977 6
> 2019 07 03 12 00 29.0000000  0  8       0.000000000000
G07  25359807.562 9 133266642.008 9      2200.474 9        54.127 9  25359808.239 6         0.000 6      1714.656 6        37.977 6
G10  23829882.777 9 125226824.205 9      3533.476 9        54.662 9  23829886.524 6         0.000 6      2753.361 6        37.977 6
G21  21163658.666 9 111215756.282 9     -1240.178 9        55.712 9  21163657.950 6         0.000 6      -966.372 6        37.977 6
G29  24281673.000 9 127600996.774 9     -3117.456 9        54.481 9  24281674.555 6         0.000 6     -2429.189 6        37.977 6
G27  22019215.434 9 115711731.010 9      2506.556 9        55.368 9  22019217.372 6         0.000 6      1953.161 6        37.977 6
G16  20500512.164 9 107730898.231 9       575.645 9        55.975 9  20500511.337 6         0.000 6       448.555 6        37.977 6
G26  20645969.653 9 108495280.586 9     -1465.698 9        55.877 9  20645972.467 6         0.000 6     -1142.103 6        37.977 6
G20  21958799.202 9 115394235.420 9      2578.970 9        55.310 9  21958799.532 6         0.000 6      2009.588 6        37.977 6
> 2019 07 03 12 00 30.0000000  0  8       0.000000000000
G07  25359388.870 9 133264441.766 9      2200.017 9        54.127 9  25359389.546 6         0.000 6      1714.300 6        37.977 6
G10  23829210.391 9 125223290.806 9      3533.342 9        54.662 9  23829214.137 6         0.000 6      2753.256 6        37.977 6
G21  21163894.699 9 111216996.640 9     -1240.540 9        55.712 9  21163893.983 6         0.000 6      -966.655 6        37.977 6
G29  24282266.241 9 127604114.263 9     -3117.542 9        54.481 9  24282267.796 6         0.000 6     -2429.256 6        37.977 6
G27  22018738.474 9 115709224.574 9      2506.320 9        55.369 9  22018740.412 6         0.000 6      1952.978 6        37.977 6
G16  20500402.681 9 107730322.894 9       575.030 9        55.975 9  20500401.854 6         0.000 6       448.075 6        37.977 6
G26  20646248.621 9 108496746.570 9     -1466.274 9        55.877 9  20646251.434 6         0.000 6     -1142.551 6        37.977 6
G20  21958308.483 9 115391656.674 9      2578.530 9        55.310 9  21958308.812 6         0.000 6      2009.245 6        37.977 6
> 2019 07 03 12 00 31.0000000  0  8       0.000000000000
G07  25358970.264 9 133262241.983 9      2199.560 9        54.127 9  25358970.941 6         0.000 6      1713.944 6        37.977 6
G10  23828538.031 9 125219757.537 9      3533.208 9        54.662 9  23828541.776 6         0.000 6      2753.152 6        37.977 6
G21  21164130.800 9 111218237.358 9     -1240.903 9        55.712 9  21164130.084 6         0.000 6      -966.937 6        37.977 6
G29  24282859.497 9 127607231.838 9     -3117.628 9        54.481 9  24282861.054 6         0.000 6     -2429.323 6        37.977 6
G27  22018261.559 9 115706718.372 9      2506.085 9        55.369 9  22018263.497 6         0.000 6      1952.794 6        37.977 6
G16  20500293.314 9 107729748.168 9       574.415 9        55.975 9  20500292.488 6         0.000 6       447.596 6        37.977 6
G26  20646527.698 9 108498213.125 9     -1466.850 9        55.876 9  20646530.511 6         0.000 6     -1143.000 6        37.977 6
G20  21957817.846 9 115389078.365 9      2578.089 9        55.310 9  21957818.175 6         0.000 6      2008.902 6        37.977 6
> 2019 07 03 12 00 32.0000000  0  8       0.000000000000
G07  25358551.745 9 133260042.655 9      2199.103 9        54.128 9  25358552.422 6         0.000 6      1713.588 6        37.977 6
G10  23827865.696 9 125216224.407 9      3533.074 9        54.663 9  23827869.441 6         0.000 6      2753.047 6        37.977 6
G21  21164366.970 9 111219478.442 9     -1241.265 9        55.712 9  21164366.254 6         0.000 6      -967.220 6        37.977 6
G29  24283452.770 9 127610349.499 9     -3117.715 9        54.481 9  24283454.328 6         0.000 6     -2429.391 6        37.977 6
G27  22017784.690 9 115704212.408 9      2505.849 9        55.369 9  22017786.627 6         0.000 6      1952.610 6        37.977 6
G16  20500184.065 9 107729174.060 9       573.800 9        55.975 9  20500183.238 6         0.000 6       447.117 6        37.977 6
G26  20646806.885 9 108499680.261 9     -1467.425 9        55.876 9  20646809.698 6         0.000 6     -1143.449 6        37.977 6
G20  21957327.294 9 115386500.501 9      2577.649 9        55.310 9  21957327.623 6         0.000 6      2008.559 6        37.977 6
> 2019 07 03 12 00 33.0000000  0  8       0.000000000000
G07  25358133.314 9 133257843.787 9      2198.646 9        54.128 9  25358133.990 6         0.000 6      1713.232 6        37.977 6
G10  23827193.387 9 125212691.407 9      3532.940 9        54.663 9  23827197.131 6         0.000 6      2752.943 6        37.977 6
G21  21164603.209 9 111220719.885 9     -1241.628 9        55.712 9  21164602.493 6         0.000 6      -967.502 6        37.977 6
G29  24284046.060 9 127613467.247 9     -3117.801 9        54.481 9  24284047.618 6         0.000 6     -2429.458 6        37.977 6
G27  22017307.864 9 115701706.678 9      2505.613 9        55.369 9  22017309.802 6         0.000 6      1952.427 6        37.977 6
G16  20500074.933 9 107728600.564 9       573.185 9        55.975 9  20500074.106 6         0.000 6       446.638 6        37.977 6
G26  20647086.180 9 108501147.968 9     -1468.001 9        55.876 9  20647088.994 6         0.000 6     -1143.897 6        37.977 6
G20  21956836.825 9 115383923.072 9      2577.208 9        55.311 9  21956837.153 6         0.000 6      2008.215 6        37.977 6
> 2019 07 03 12 00 34.0000000  0  8       0.000000000000
G07  25357714.969 9 133255645.373 9      2198.189 9        54.128 9  25357715.645 6         0.000 6      1712.875 6        37.977 6
G10  23826521.103 9 125209158.545 9      3532.805 9        54.663 9  23826524.847 6         0.000 6      2752.838 6        37.977 6
G21  21164839.517 9 111221961.693 9     -1241.990 9        55.712 9  21164838.802 6         0.000 6      -967.785 6        37.977 6
G29  24284639.366 9 127616585.081 9     -3117.887 9        54.480 9  24284640.924 6         0.000 6     -2429.525 6        37.977 6
G27  22016831.085 9 115699201.185 9      2505.377 9        55.369 9  22016833.022 6         0.000 6      1952.243 6        37.977 6
G16  20499965.917 9 107728027.686 9       572.570 9        55.975 9  20499965.091 6         0.000 6       446.159 6        37.977 6
G26  20647365.586 9 108502616.255 9     -1468.577 9        55.876 9  20647368.400 6         0.000 6     -1144.346 6        37.977 6
G20  21956346.440 9 115381346.089 9      2576.767 9        55.311 9  21956346.769 6         0.000 6      2007.872 6        37.977 6
> 2019 07 03 12 00 35.0000000  0  8       0.000000000000
G07  25357296.712 9 133253447.419 9      2197.732 9        54.128 9  25357297.387 6         0.000 6      1712.519 6        37.977 6
G10  23825848.845 9 125205625.813 9      3532.671 9        54.663 9  23825852.588 6         0.000 6      2752.733 6        37.977 6
G21  21165075.894 9 111223203.861 9     -1242.352 9        55.712 9  21165075.179 6         0.000 6      -968.067 6        37.977 6
G29  24285232.688 9 127619703.001 9     -3117.973 9        54.480 9  24285234.247 6         0.000 6     -2429.592 6        37.977 6
G27  22016354.349 9 115696695.927 9      2505.142 9        55.370 9  22016356.286 6         0.000 6      1952.059 6        37.977 6
G16  20499857.019 9 107727455.420 9       571.955 9        55.975 9  20499856.192 6         0.000 6       445.679 6        37.977 6
G26  20647645.101 9 108504085.113 9     -1469.152 9        55.876 9  20647647.915 6         0.000 6     -1144.795 6        37.977 6
G20  21955856.139 9 115378769.542 9      2576.327 9        55.311 9  21955856.467 6         0.000 6      2007.528 6        37.977 6
> 2019 07 03 12 00 36.0000000  0  8       0.000000000000
G07  25356878.541 9 133251249.922 9      2197.274 9        54.128 9  25356879.216 6         0.000 6      1712.163 6        37.977 6
G10  23825176.612 9 125202093.218 9      3532.536 9        54.664 9  23825180.354 6         0.000 6      2752.628 6        37.977 6
G21  21165312.340 9 111224446.392 9     -1242.714 9        55.712 9  21165311.625 6         0.000 6      -968.349 6        37.977 6
G29  24285826.026 9 127622821.001 9     -3118.059 9        54.480 9  24285827.586 6         0.000 6     -2429.659 6        37.977 6
G27  22015877.660 9 115694190.909 9      2504.906 9        55.370 9  22015879.597 6         0.000 6      1951.875 6        37.977 6
G16  20499748.238 9 107726883.774 9       571.340 9        55.976 9  20499747.411 6         0.000 6       445.200 6        37.977 6
G26  20647924.726 9 108505554.551 9     -1469.728 9        55.876 9  20647927.540 6         0.000 6     -1145.243 6        37.977 6
G20  21955365.921 9 115376193.438 9      2575.886 9        55.311 9  21955366.249 6         0.000 6      2007.185 6        37.977 6
> 2019 07 03 12 00 37.0000000  0  8       0.000000000000
G07  25356460.458 9 133249052.882 9      2196.817 9        54.128 9  25356461.133 6         0.000 6      1711.806 6        37.977 6
G10  23824504.405 9 125198560.756 9      3532.401 9        54.664 9  23824508.147 6         0.000 6      2752.523 6        37.977 6
G21  21165548.855 9 111225689.284 9     -1243.077 9        55.711 9  21165548.139 6         0.000 6      -968.631 6        37.977 6
G29  24286419.381 9 127625939.094 9     -3118.145 9        54.480 9  24286420.942 6         0.000 6     -2429.726 6        37.977 6
G27  22015401.014 9 115691686.123 9      2504.670 9        55.370 9  22015402.951 6         0.000 6      1951.691 6        37.977 6
G16  20499639.574 9 107726312.738 9       570.725 9        55.976 9  20499638.747 6         0.000 6       444.721 6        37.977 6
G26  20648204.460 9 108507024.561 9     -1470.304 9        55.876 9  20648207.274 6         0.000 6     -1145.692 6        37.977 6
G20  21954875.788 9 115373617.773 9      2575.445 9        55.311 9  21954876.115 6         0.000 6      2006.841 6        37.977 6
> 2019 07 03 12 00 38.0000000  0  8       0.000000000000
G07  25356042.461 9 133246856.298 9      2196.360 9        54.128 9  25356043.136 6         0.000 6      1711.450 6        37.977 6
G10  23823832.224 9 125195028.433 9      3532.267 9        54.664 9  23823835.965 6         0.000 6      2752.418 6        37.977 6
G21  21165785.439 9 111226932.541 9     -1243.439 9        55.711 9  21165784.723 6         0.000 6      -968.913 6        37.977 6
G29  24287012.753 9 127629057.272 9     -3118.231 9        54.479 9  24287014.314 6         0.000 6     -2429.793 6        37.977 6
G27  22014924.414 9 115689181.574 9      2504.434 9        55.370 9  22014926.350 6         0.000 6      1951.507 6        37.977 6
G16  20499531.027 9 107725742.320 9       570.110 9        55.976 9  20499530.200 6         0.000 6       444.241 6        37.977 6
G26  20648484.304 9 108508495.150 9     -1470.879 9        55.876 9  20648487.118 6         0.000 6     -1146.140 6        37.977 6
G20  21954385.739 9 115371042.553 9      2575.004 9        55.311 9  21954386.066 6         0.000 6      2006.497 6        37.977 6
> 2019 07 03 12 00 39.0000000  0  8       0.000000000000
G07  25355624.552 9 133244660.173 9      2195.902 9        54.129 9  25355625.226 6         0.000 6      1711.094 6        37.977 6
G10  23823160.068 9 125191496.240 9      3532.132 9        54.664 9  23823163.808 6         0.000 6      2752.313 6        37.977 6
G21  21166022.091 9 111228176.158 9     -1243.801 9        55.711 9  21166021.376 6         0.000 6      -969.196 6        37.977 6
G29  24287606.141 9 127632175.536 9     -3118.317 9        54.479 9  24287607.702 6         0.000 6     -2429.860 6        37.977 6
G27  22014447.858 9 115686677.259 9      2504.198 9        55.370 9  22014449.794 6         0.000 6      1951.324 6        37.977 6
G16  20499422.596 9 107725172.515 9       569.495 9        55.976 9  20499421.770 6         0.000 6       443.762 6        37.977 6
G26  20648764.257 9 108509966.311 9     -1471.455 9        55.875 9  20648767.071 6         0.000 6     -1146.589 6        37.977 6
G20  21953895.773 9 115368467.771 9      2574.562 9        55.312 9  21953896.100 6         0.000 6      2006.154 6        37.977 6
> 2019 07 03 12 00 40.0000000  0  8       0.000000000000
G07  25355206.729 9 133242464.503 9      2195.444 9        54.129 9  25355207.403 6         0.000 6      1710.737 6        37.977 6
G10  23822487.939 9 125187964.187 9      3531.997 9        54.665 9  23822491.678 6         0.000 6      2752.208 6        37.977 6
G21  21166258.813 9 111229420.139 9     -1244.163 9        55.711 9  21166258.098 6         0.000 6      -969.478 6        37.977 6
G29  24288199.545 9 127635293.886 9     -3118.404 9        54.479 9  24288201.107 6         0.000 6     -2429.927 6        37.977 6
G27  22013971.348 9 115684173.182 9      2503.962 9        55.371 9  22013973.284 6         0.000 6      1951.140 6        37.977 6
G16  20499314.284 9 107724603.328 9       568.879 9        55.976 9  20499313.457 6         0.000 6       443.283 6        37.977 6
G26  20649044.321 9 108511438.052 9     -1472.030 9        55.875 9  20649047.135 6         0.000 6     -1147.037 6        37.977 6
G20  21953405.892 9 115365893.433 9      2574.121 9        55.312 9  21953406.219 6         0.000 6      2005.810 6        37.977 6
> 2019 07 03 12 00 41.0000000  0  8       0.000000000000
G07  25354788.993 9 133240269.291 9      2194.987 9        54.129 9  25354789.667 6         0.000 6      1710.380 6        37.977 6
G10  23821815.835 9 125184432.268 9      3531.861 9        54.665 9  23821819.574 6         0.000 6      2752.103 6        37.977 6
G21  21166495.604 9 111230664.482 9     -1244.525 9        55.711 9  21166494.889 6         0.000 6      -969.760 6        37.977 6
G29  24288792.966 9 127638412.323 9     -3118.490 9        54.479 9  24288794.528 6         0.000 6     -2429.994 6        37.977 6
G27  22013494.882 9 115681669.341 9      2503.725 9        55.371 9  22013496.818 6         0.000 6      1950.956 6        37.977 6
G16  20499206.088 9 107724034.756 9       568.264 9        55.976 9  20499205.261 6         0.000 6       442.803 6        37.977 6
G26  20649324.493 9 108512910.368 9     -1472.606 9        55.875 9  20649327.308 6         0.000 6     -1147.486 6        37.977 6
G20  21952916.095 9 115363319.538 9      2573.680 9        55.312 9  21952916.422 6         0.000 6      2005.466 6        37.977 6
> 2019 07 03 12 00 42.0000000  0  8       0.000000000000
G07  25354371.345 9 133238074.540 9      2194.529 9        54.129 9  25354372.019 6         0.000 6      1710.024 6        37.977 6
G10  23821143.756 9 125180900.481 9      3531.726 9        54.665 9  23821147.494 6         0.000 6      2751.997 6        37.977 6
G21  21166732.463 9 111231909.184 9     -1244.887 9        55.711 9  21166731.748 6         0.000 6      -970.042 6        37.977 6
G29  24289386.403 9 127641530.845 9     -3118.575 9        54.479 9  24289387.966 6         0.000 6     -2430.061 6        37.977 6
G27  22013018.461 9 115679165.735 9      2503.489 9        55.371 9  22013020.397 6         0.000 6      1950.772 6        37.977 6
G16  20499098.009 9 107723466.797 9       567.649 9        55.976 9  20499097.182 6         0.000 6       442.324 6        37.977 6
G26  20649604.775 9 108514383.255 9     -1473.181 9        55.875 9  20649607.589 6         0.000 6     -1147.934 6        37.977 6
G20  21952426.382 9 115360746.079 9      2573.238 9        55.312 9  21952426.708 6         0.000 6      2005.122 6        37.977 6
> 2019 07 03 12 00 43.0000000  0  8       0.000000000000
G07  25353953.784 9 133235880.243 9      2194.071 9        54.129 9  25353954.458 6         0.000 6      1709.667 6        37.977 6
G10  23820471.704 9 125177368.833 9      3531.591 9        54.665 9  23820475.441 6         0.000 6      2751.892 6        37.977 6
G21  21166969.391 9 111233154.251 9     -1245.248 9        55.711 9  21166968.676 6         0.000 6      -970.324 6        37.977 6
G29  24289979.856 9 127644649.453 9     -3118.661 9        54.478 9  24289981.420 6         0.000 6     -2430.128 6        37.977 6
G27  22012542.085 9 115676662.366 9      2503.253 9        55.371 9  22012544.021 6         0.000 6      1950.588 6        37.977 6
G16  20498990.048 9 107722899.456 9       567.033 9        55.976 9  20498989.221 6         0.000 6       441.844 6        37.977 6
G26  20649885.167 9 108515856.723 9     -1473.757 9        55.875 9  20649887.981 6         0.000 6     -1148.382 6        37.977 6
G20  21951936.753 9 115358173.066 9      2572.797 9        55.312 9  21951937.079 6         0.000 6      2004.778 6        37.977 6
> 2019 07 03 12 00 44.0000000  0  8       0.000000000000
G07  25353536.311 9 133233686.410 9      2193.613 9        54.129 9  25353536.984 6         0.000 6      1709.310 6        37.977 6
G10  23819799.676 9 125173837.314 9      3531.455 9        54.666 9  23819803.413 6         0.000 6      2751.786 6        37.977 6
G21  21167206.388 9 111234399.675 9     -1245.610 9        55.711 9  21167205.673 6         0.000 6      -970.605 6        37.977 6
G29  24290573.325 9 127647768.143 9     -3118.747 9        54.478 9  24290574.889 6         0.000 6     -2430.195 6        37.977 6
G27  22012065.755 9 115674159.236 9      2503.017 9        55.371 9  22012067.690 6         0.000 6      1950.404 6        37.977 6
G16  20498882.203 9 107722332.728 9       566.418 9        55.976 9  20498881.376 6         0.000 6       441.365 6        37.977 6
G26  20650165.667 9 108517330.760 9     -1474.332 9        55.875 9  20650168.482 6         0.000 6     -1148.831 6        37.977 6
G20  21951447.206 9 115355600.488 9      2572.355 9        55.313 9  21951447.532 6         0.000 6      2004.434 6        37.977 6
> 2019 07 03 12 00 45.0000000  0  8       0.000000000000
G07  25353118.923 9 133231493.030 9      2193.155 9        54.129 9  25353119.597 6         0.000 6      1708.953 6        37.977 6
G10  23819127.675 9 125170305.937 9      3531.320 9        54.666 9  23819131.412 6         0.000 6      2751.681 6        37.977 6
G21  21167443.454 9 111235645.465 9     -1245.972 9        55.711 9  21167442.739 6         0.000 6      -970.887 6        37.977 6
G29  24291166.811 9 127650886.923 9     -3118.833 9        54.478 9  24291168.376 6         0.000 6     -2430.262 6        37.977 6
G27  22011589.469 9 115671656.340 9      2502.781 9        55.372 9  22011591.404 6         0.000 6      1950.219 6        37.977 6
G16  20498774.476 9 107721766.618 9       565.803 9        55.976 9  20498773.649 6         0.000 6       440.885 6        37.977 6
G26  20650446.278 9 108518805.378 9     -1474.907 9        55.875 9  20650449.093 6         0.000 6     -1149.279 6        37.977 6
G20  21950957.746 9 115353028.358 9      2571.913 9        55.313 9  21950958.071 6         0.000 6      2004.089 6        37.977 6
> 2019 07 03 12 00 46.0000000  0  8       0.000000000000
G07  25352701.624 9 133229300.110 9      2192.697 9        54.130 9  25352702.297 6         0.000 6      1708.596 6        37.977 6
G10  23818455.700 9 125166774.691 9      3531.184 9        54.666 9  23818459.435 6         0.000 6      2751.575 6        37.977 6
G21  21167680.589 9 111236891.615 9     -1246.333 9        55.711 9  21167679.874 6         0.000 6      -971.169 6        37.977 6
G29  24291760.313 9 127654005.789 9     -3118.919 9        54.478 9  24291761.879 6         0.000 6     -2430.329 6        37.977 6
G27  22011113.228 9 115669153.678 9      2502.544 9        55.372 9  22011115.163 6         0.000 6      1950.035 6        37.977 6
G16  20498666.865 9 107721201.120 9       565.187 9        55.976 9  20498666.038 6         0.000 6       440.405 6        37.977 6
G26  20650726.997 9 108520280.567 9     -1475.483 9        55.875 9  20650729.812 6         0.000 6     -1149.727 6        37.977 6
G20  21950468.368 9 115350456.666 9      2571.471 9        55.313 9  21950468.693 6         0.000 6      2003.745 6        37.977 6
> 2019 07 03 12 00 47.0000000  0  8       0.000000000000
G07  25352284.411 9 133227107.646 9      2192.239 9        54.130 9  25352285.084 6         0.000 6      1708.239 6        37.977 6
G10  23817783.751 9 125163243.585 9      3531.048 9        54.666 9  23817787.485 6         0.000 6      2751.469 6        37.977 6
G21  21167917.792 9 111238138.128 9     -1246.695 9        55.710 9  21167917.077 6         0.000 6      -971.451 6        37.977 6
G29  24292353.832 9 127657124.741 9     -3119.005 9        54.478 9  24292355.398 6         0.000 6     -2430.396 6        37.977 6
G27  22010637.032 9 115666651.254 9      2502.308 9        55.372 9  22010638.967 6         0.000 6      1949.851 6        37.977 6
G16  20498559.372 9 107720636.241 9       564.571 9        55.976 9  20498558.545 6         0.000 6       439.926 6        37.977 6
G26  20651007.827 9 108521756.335 9     -1476.058 9        55.875 9  20651010.642 6         0.000 6     -1150.176 6        37.977 6
G20  21949979.075 9 115347885.420 9      2571.029 9        55.313 9  21949979.400 6         0.000 6      2003.401 6        37.977 6
> 2019 07 03 12 00 48.0000000  0  8       0.000000000000
G07  25351867.286 9 133224915.642 9      2191.781 9        54.130 9  25351867.959 6         0.000 6      1707.882 6        37.977 6
G10  23817111.827 9 125159712.611 9      3530.913 9        54.667 9  23817115.561 6         0.000 6      2751.363 6        37.977 6
G21  21168155.064 9 111239385.001 9     -1247.057 9        55.710 9  21168154.350 6         0.000 6      -971.733 6        37.977 6
G29  24292947.367 9 127660243.778 9     -3119.091 9        54.477 9  24292948.934 6         0.000 6     -2430.463 6        37.977 6
G27  22010160.881 9 115664149.065 9      2502.072 9        55.372 9  22010162.816 6         0.000 6      1949.667 6        37.977 6
G16  20498451.996 9 107720071.974 9       563.956 9        55.976 9  20498451.169 6         0.000 6       439.446 6        37.977 6
G26  20651288.765 9 108523232.675 9     -1476.633 9        55.874 9  20651291.580 6         0.000 6     -1150.624 6        37.977 6
G20  21949489.866 9 115345314.613 9      2570.587 9        55.313 9  21949490.191 6         0.000 6      2003.056 6        37.977 6
> 2019 07 03 12 00 49.0000000  0  8       0.000000000000
G07  25351450.248 9 133222724.094 9      2191.322 9        54.130 9  25351450.920 6         0.000 6      1707.525 6        37.977 6
G10  23816439.929 9 125156181.777 9      3530.777 9        54.667 9  23816443.663 6         0.000 6      2751.257 6        37.977 6
G21  21168392.406 9 111240632.238 9     -1247.418 9        55.710 9  21168391.691 6         0.000 6      -972.014 6        37.977 6
G29  24293540.918 9 127663362.902 9     -3119.177 9        54.477 9  24293542.486 6         0.000 6     -2430.530 6        37.977 6
G27  22009684.775 9 115661647.115 9      2501.835 9        55.372 9  22009686.709 6         0.000 6      1949.483 6        37.977 6
G16  20498344.737 9 107719508.326 9       563.340 9        55.976 9  20498343.910 6         0.000 6       438.966 6        37.977 6
G26  20651569.814 9 108524709.594 9     -1477.209 9        55.874 9  20651572.629 6         0.000 6     -1151.072 6        37.977 6
G20  21949000.742 9 115342744.251 9      2570.145 9        55.314 9  21949001.066 6         0.000 6      2002.712 6        37.977 6
> 2019 07 03 12 00 50.0000000  0  8       0.000000000000
G07  25351033.297 9 133220533.005 9      2190.864 9        54.130 9  25351033.969 6         0.000 6      1707.168 6        37.977 6
G10  23815768.058 9 125152651.079 9      3530.641 9        54.667 9  23815771.791 6         0.000 6      2751.151 6        37.977 6
G21  21168629.816 9 111241879.836 9     -1247.780 9        55.710 9  21168629.101 6         0.000 6      -972.296 6        37.977 6
G29  24294134.486 9 127666482.112 9     -3119.263 9        54.477 9  24294136.055 6         0.000 6     -2430.597 6        37.977 6
G27  22009208.714 9 115659145.400 9      2501.599 9        55.372 9  22009210.648 6         0.000 6      1949.299 6        37.977 6
G16  20498237.595 9 107718945.293 9       562.725 9        55.976 9  20498236.769 6         0.000 6       438.487 6        37.977 6
G26  20651850.972 9 108526187.088 9     -1477.784 9        55.874 9  20651853.788 6         0.000 6     -1151.520 6        37.977 6
G20  21948511.701 9 115340174.331 9      2569.703 9        55.314 9  21948512.025 6         0.000 6      2002.367 6        37.977 6
> 2019 07 03 12 00 51.0000000  0  8       0.000000000000
G07  25350616.433 9 133218342.376 9      2190.406 9        54.130 9  25350617.105 6         0.000 6      1706.810 6        37.977 6
G10  23815096.211 9 125149120.513 9      3530.504 9        54.667 9  23815099.943 6         0.000 6      2751.045 6        37.977 6
G21  21168867.294 9 111243127.793 9     -1248.141 9        55.710 9  21168866.580 6         0.000 6      -972.577 6        37.977 6
G29  24294728.070 9 127669601.407 9     -3119.348 9        54.477 9  24294729.639 6         0.000 6     -2430.664 6        37.977 6
G27  22008732.698 9 115656643.920 9      2501.362 9        55.373 9  22008734.632 6         0.000 6      1949.114 6        37.977 6
G16  20498130.571 9 107718382.873 9       562.109 9        55.976 9  20498129.744 6         0.000 6       438.007 6        37.977 6
G26  20652132.239 9 108527665.153 9     -1478.359 9        55.874 9  20652135.054 6         0.000 6     -1151.968 6        37.977 6
G20  21948022.744 9 115337604.850 9      2569.261 9        55.314 9  21948023.068 6         0.000 6      2002.022 6        37.977 6
> 2019 07 03 12 00 52.0000000  0  8       0.000000000000
G07  25350199.657 9 133216152.206 9      2189.947 9        54.130 9  25350200.329 6         0.000 6      1706.453 6        37.977 6
G10  23814424.391 9 125145590.085 9      3530.368 9        54.668 9  23814428.123 6         0.000 6      2750.939 6        37.977 6
G21  21169104.842 9 111244376.112 9     -1248.502 9        55.710 9  21169104.127 6         0.000 6      -972.859 6        37.977 6
G29  24295321.670 9 127672720.783 9     -3119.434 9        54.476 9  24295323.239 6         0.000 6     -2430.730 6        37.977 6
G27  22008256.727 9 115654142.683 9      2501.126 9        55.373 9  22008258.662 6         0.000 6      1948.930 6        37.977 6
G16  20498023.664 9 107717821.074 9       561.493 9        55.976 9  20498022.837 6         0.000 6       437.527 6        37.977 6
G26  20652413.616 9 108529143.797 9     -1478.934 9        55.874 9  20652416.431 6         0.000 6     -1152.416 6        37.977 6
G20  21947533.872 9 115335035.812 9      2568.818 9        55.314 9  21947534.195 6         0.000 6      2001.678 6        37.977 6
> 2019 07 03 12 00 53.0000000  0  8       0.000000000000
G07  25349782.968 9 133213962.495 9      2189.488 9        54.131 9  25349783.640 6         0.000 6      1706.096 6        37.977 6
G10  23813752.597 9 125142059.792 9      3530.232 9        54.668 9  23813756.327 6         0.000 6      2750.833 6        37.977 6
G21  21169342.458 9 111245624.792 9     -1248.863 9        55.710 9  21169341.743 6         0.000 6      -973.141 6        37.977 6
G29  24295915.286 9 127675840.249 9     -3119.520 9        54.476 9  24295916.857 6         0.000 6     -2430.797 6        37.977 6
G27  22007780.801 9 115651641.676 9      2500.889 9        55.373 9  22007782.735 6         0.000 6      1948.746 6        37.977 6
G16  20497916.873 9 107717259.885 9       560.877 9        55.976 9  20497916.046 6         0.000 6       437.047 6        37.977 6
G26  20652695.101 9 108530623.012 9     -1479.509 9        55.874 9  20652697.917 6         0.000 6     -1152.865 6        37.977 6
G20  21947045.083 9 115332467.216 9      2568.376 9        55.314 9  21947045.407 6         0.000 6      2001.333 6        37.977 6
> 2019 07 03 12 00 54.0000000  0  8       0.000000000000
G07  25349366.366 9 133211773.240 9      2189.030 9        54.131 9  25349367.037 6         0.000 6      1705.738 6        37.977 6
G10  23813080.829 9 125138529.639 9      3530.095 9        54.668 9  23813084.559 6         0.000 6      2750.726 6        37.977 6
G21  21169580.143 9 111246873.835 9     -1249.225 9        55.710 9  21169579.428 6         0.000 6      -973.422 6        37.977 6
G29  24296508.919 9 127678959.802 9     -3119.605 9        54.476 9  24296510.490 6         0.000 6     -2430.864 6        37.977 6
G27  22007304.920 9 115649140.907 9      2500.653 9        55.373 9  22007306.854 6         0.000 6      1948.561 6        37.977 6
G16  20497810.200 9 107716699.316 9       560.262 9        55.976 9  20497809.373 6         0.000 6       436.568 6        37.977 6
G26  20652976.697 9 108532102.807 9     -1480.084 9        55.874 9  20652979.513 6         0.000 6     -1153.313 6        37.977 6
G20  21946556.380 9 115329899.066 9      2567.933 9        55.315 9  21946556.703 6         0.000 6      2000.988 6        37.977 6
> 2019 07 03 12 00 55.0000000  0  8       0.000000000000
G07  25348949.852 9 133209584.446 9      2188.571 9        54.131 9  25348950.523 6         0.000 6      1705.381 6        37.977 6
G10  23812409.086 9 125134999.618 9      3529.959 9        54.668 9  23812412.816 6         0.000 6      2750.620 6        37.977 6
G21  21169817.896 9 111248123.237 9     -1249.586 9        55.710 9  21169817.182 6         0.000 6      -973.703 6        37.977 6
G29  24297102.569 9 127682079.440 9     -3119.691 9        54.476 9  24297104.140 6         0.000 6     -2430.931 6        37.977 6
G27  22006829.084 9 115646640.374 9      2500.416 9        55.373 9  22006831.018 6         0.000 6      1948.377 6        37.977 6
G16  20497703.644 9 107716139.359 9       559.646 9        55.976 9  20497702.817 6         0.000 6       436.088 6        37.977 6
G26  20653258.402 9 108533583.172 9     -1480.659 9        55.874 9  20653261.218 6         0.000 6     -1153.761 6        37.977 6
G20  21946067.760 9 115327331.355 9      2567.490 9        55.315 9  21946068.082 6         0.000 6      2000.643 6        37.977 6
> 2019 07 03 12 00 56.0000000  0  8       0.000000000000
G07  25348533.424 9 133207396.108 9      2188.112 9        54.131 9  25348534.095 6         0.000 6      1705.023 6        37.977 6
G10  23811737.370 9 125131469.739 9      3529.822 9        54.669 9  23811741.099 6         0.000 6      2750.513 6        37.977 6
G21  21170055.719 9 111249373.003 9     -1249.947 9        55.710 9  21170055.005 6         0.000 6      -973.985 6        37.977 6
G29  24297696.234 9 127685199.163 9     -3119.777 9        54.476 9  24297697.807 6         0.000 6     -2430.997 6        37.977 6
G27  22006353.293 9 115644140.079 9      2500.179 9        55.374 9  22006355.227 6         0.000 6      1948.192 6        37.977 6
G16  20497597.205 9 107715580.021 9       559.030 9        55.976 9  20497596.379 6         0.000 6       435.608 6        37.977 6
G26  20653540.217 9 108535064.117 9     -1481.234 9        55.873 9  20653543.033 6         0.000 6     -1154.209 6        37.977 6
G20  21945579.225 9 115324764.091 9      2567.047 9        55.315 9  21945579.547 6         0.000 6      2000.298 6        37.977 6
> 2019 07 03 12 00 57.0000000  0  8       0.000000000000
G07  25348117.084 9 133205208.232 9      2187.653 9        54.131 9  25348117.755 6         0.000 6      1704.666 6        37.977 6
G10  23811065.680 9 125127939.992 9      3529.685 9        54.669 9  23811069.408 6         0.000 6      2750.407 6        37.977 6
G21  21170293.610 9 111250623.127 9     -1250.308 9        55.709 9  21170292.895 6         0.000 6      -974.266 6        37.977 6
G29  24298289.916 9 127688318.973 9     -3119.862 9        54.475 9  24298291.489 6         0.000 6     -2431.064 6        37.977 6
G27  22005877.547 9 115641640.018 9      2499.943 9        55.374 9  22005879.480 6         0.000 6      1948.008 6        37.977 6
G16  20497490.884 9 107715021.296 9       558.414 9        55.976 9  20497490.057 6         0.000 6       435.128 6        37.977 6
G26  20653822.140 9 108536545.632 9     -1481.809 9        55.873 9  20653824.956 6         0.000 6     -1154.657 6        37.977 6
G20  21945090.773 9 115322197.265 9      2566.604 9        55.315 9  21945091.095 6         0.000 6      1999.953 6        37.977 6
> 2019 07 03 12 00 58.0000000  0  8       0.000000000000
G07  25347700.832 9 133203020.812 9      2187.194 9        54.131 9  25347701.502 6         0.000 6      1704.308 6        37.977 6
G10  23810394.016 9 125124410.386 9      3529.548 9        54.669 9  23810397.744 6         0.000 6      2750.300 6        37.977 6
G21  21170531.570 9 111251873.615 9     -1250.669 9        55.709 9  21170530.856 6         0.000 6      -974.547 6        37.977 6
G29  24298883.615 9 127691438.868 9     -3119.948 9        54.475 9  24298885.188 6         0.000 6     -2431.131 6        37.977 6
G27  22005401.846 9 115639140.197 9      2499.706 9        55.374 9  22005403.779 6         0.000 6      1947.824 6        37.977 6
G16  20497384.680 9 107714463.190 9       557.798 9        55.977 9  20497383.853 6         0.000 6       434.648 6        37.977 6
G26  20654104.173 9 108538027.726 9     -1482.384 9        55.873 9  20654106.990 6         0.000 6     -1155.105 6        37.977 6
G20  21944602.407 9 115319630.887 9      2566.161 9        55.315 9  21944602.729 6         0.000 6      1999.607 6        37.977 6
> 2019 07 03 12 00 59.0000000  0  8       0.000000000000
G07  25347284.666 9 133200833.851 9      2186.735 9        54.131 9  25347285.336 6         0.000 6      1703.950 6        37.977 6
G10  23809722.378 9 125120880.917 9      3529.411 9        54.669 9  23809726.105 6         0.000 6      2750.193 6        37.977 6
G21  21170769.599 9 111253124.463 9     -1251.030 9        55.709 9  21170768.884 6         0.000 6      -974.829 6        37.977 6
G29  24299477.329 9 127694558.849 9     -3120.034 9        54.475 9  24299478.903 6         0.000 6     -2431.198 6        37.977 6
G27  22004926.190 9 115636640.612 9      2499.469 9        55.374 9  22004928.123 6         0.000 6      1947.639 6        37.977 6
G16  20497278.593 9 107713905.700 9       557.182 9        55.977 9  20497277.766 6         0.000 6       434.168 6        37.977 6
G26  20654386.316 9 108539510.396 9     -1482.959 9        55.873 9  20654389.133 6         0.000 6     -1155.553 6        37.977 6
G20  21944114.125 9 115317064.951 9      2565.718 9        55.316 9  21944114.446 6         0.000 6      1999.262 6        37.977 6
> 2019 07 03 12 01  0.0000000  0  8       0.000000000000
G07  25346868.589 9 133198647.355 9      2186.276 9        54.132 9  25346869.259 6         0.000 6      1703.592 6        37.977 6
G10  23809050.766 9 125117351.578 9      3529.274 9        54.669 9  23809054.492 6         0.000 6      2750.086 6        37.977 6
G21  21171007.695 9 111254375.668 9     -1251.391 9        55.709 9  21171006.981 6         0.000 6      -975.110 6        37.977 6
G29  24300071.059 9 127697678.909 9     -3120.119 9        54.475 9  24300072.634 6         0.000 6     -2431.264 6        37.977 6
G27  22004450.580 9 115634141.265 9      2499.232 9        55.374 9  22004452.513 6         0.000 6      1947.455 6        37.977 6
G16  20497172.623 9 107713348.824 9       556.566 9        55.977 9  20497171.796 6         0.000 6       433.688 6        37.977 6
G26  20654668.568 9 108540993.635 9     -1483.534 9        55.873 9  20654671.384 6         0.000 6     -1156.001 6        37.977 6
G20  21943625.925 9 115314499.452 9      2565.275 9        55.316 9  21943626.247 6         0.000 6      1998.917 6        37.977 6
> 2019 07 03 12 01  1.0000000  0  8       0.000000000000
G07  25346452.598 9 133196461.312 9      2185.816 9        54.132 9  25346453.268 6         0.000 6      1703.234 6        37.977 6
G10  23808379.180 9 125113822.384 9      3529.137 9        54.670 9  23808382.906 6         0.000 6      2749.979 6        37.977 6
G21  21171245.861 9 111255627.239 9     -1251.752 9        55.709 9  21171245.147 6         0.000 6      -975.391 6        37.977 6
G29  24300664.806 9 127700799.061 9     -3120.205 9        54.475 9  24300666.381 6         0.000 6     -2431.331 6        37.977 6
G27  22003975.014 9 115631642.154 9      2498.996 9        55.375 9  22003976.947 6         0.000 6      1947.270 6        37.977 6
G16  20497066.770 9 107712792.566 9       555.950 9        55.977 9  20497065.944 6         0.000 6       433.208 6        37.977 6
G26  20654950.929 9 108542477.454 9     -1484.108 9        55.873 9  20654953.746 6         0.000 6     -1156.449 6        37.977 6
G20  21943137.812 9 115311934.403 9      2564.832 9        55.316 9  21943138.133 6         0.000 6      1998.571 6        37.977 6
> 2019 07 03 12 01  2.0000000  0  8       0.000000000000
G07  25346036.695 9 133194275.732 9      2185.357 9        54.132 9  25346037.365 6         0.000 6      1702.877 6        37.977 6
G10  23807707.620 9 125110293.322 9      3528.999 9        54.670 9  23807711.345 6         0.000 6      2749.872 6        37.977 6
G21  21171484.095 9 111256879.168 9     -1252.112 9        55.709 9  21171483.381 6         0.000 6      -975.672 6        37.977 6
G29  24301258.569 9 127703919.299 9     -3120.290 9        54.474 9  24301260.145 6         0.000 6     -2431.398 6        37.977 6
G27  22003499.494 9 115629143.278 9      2498.759 9        55.375 9  22003501.426 6         0.000 6      1947.085 6        37.977 6
G16  20496961.035 9 107712236.921 9       555.334 9        55.977 9  20496960.208 6         0.000 6       432.728 6        37.977 6
G26  20655233.400 9 108543961.843 9     -1484.683 9        55.873 9  20655236.216 6         0.000 6     -1156.896 6        37.977 6
G20  21942649.782 9 115309369.793 9      2564.388 9        55.316 9  21942650.103 6         0.000 6      1998.226 6        37.977 6
> 2019 07 03 12 01  3.0000000  0  8       0.000000000000
G07  25345620.880 9 133192090.608 9      2184.898 9        54.132 9  25345621.549 6         0.000 6      1702.519 6        37.977 6
G10  23807036.087 9 125106764.402 9      3528.862 9        54.670 9  23807039.811 6         0.000 6      2749.765 6        37.977 6
G21  21171722.399 9 111258131.460 9     -1252.473 9        55.709 9  21171721.685 6         0.000 6      -975.953 6        37.977 6
G29  24301852.349 9 127707039.621 9     -3120.376 9        54.474 9  24301853.925 6         0.000 6     -2431.464 6        37.977 6
G27  22003024.018 9 115626644.640 9      2498.522 9        55.375 9  22003025.951 6         0.000 6      1946.901 6        37.977 6
G16  20496855.417 9 107711681.896 9       554.718 9        55.977 9  20496854.590 6         0.000 6       432.247 6        37.977 6
G26  20655515.980 9 108545446.812 9     -1485.258 9        55.873 9  20655518.797 6         0.000 6     -1157.344 6        37.977 6
G20  21942161.837 9 115306805.631 9      2563.945 9        55.316 9  21942162.158 6         0.000 6      1997.880 6        37.977 6
> 2019 07 03 12 01  4.0000000  0  8       0.000000000000
G07  25345205.152 9 133189905.946 9      2184.438 9        54.132 9  25345205.821 6         0.000 6      1702.161 6        37.977 6
G10  23806364.579 9 125103235.615 9      3528.724 9        54.670 9  23806368.303 6         0.000 6      2749.658 6        37.977 6
G21  21171960.770 9 111259384.110 9     -1252.834 9        55.709 9  21171960.056 6         0.000 6      -976.234 6        37.977 6
G29  24302446.145 9 127710160.030 9     -3120.461 9        54.474 9  24302447.722 6         0.000 6     -2431.531 6        37.977 6
G27  22002548.587 9 115624146.238 9      2498.285 9        55.375 9  22002550.520 6         0.000 6      1946.716 6        37.977 6
G16  20496749.916 9 107711127.483 9       554.101 9        55.977 9  20496749.089 6         0.000 6       431.767 6        37.977 6
G26  20655798.669 9 108546932.351 9     -1485.833 9        55.873 9  20655801.486 6         0.000 6     -1157.792 6        37.977 6
G20  21941673.976 9 115304241.908 9      2563.501 9        55.316 9  21941674.296 6         0.000 6      1997.535 6        37.977 6
> 2019 07 03 12 01  5.0000000  0  8       0.000000000000
G07  25344789.510 9 133187721.741 9      2183.979 9        54.132 9  25344790.179 6         0.000 6      1701.802 6        37.977 6
G10  23805693.098 9 125099706.970 9      3528.587 9        54.671 9  23805696.821 6         0.000 6      2749.551 6        37.977 6
G21  21172199.211 9 111260637.123 9     -1253.194 9        55.709 9  21172198.497 6         0.000 6      -976.515 6        37.977 6
G29  24303039.957 9 127713280.523 9     -3120.547 9        54.474 9  24303041.535 6         0.000 6     -2431.597 6        37.977 6
G27  22002073.202 9 115621648.074 9      2498.048 9        55.375 9  22002075.134 6         0.000 6      1946.531 6        37.977 6
G16  20496644.532 9 107710573.690 9       553.485 9        55.977 9  20496643.705 6         0.000 6       431.287 6        37.977 6
G26  20656081.468 9 108548418.469 9     -1486.407 9        55.872 9  20656084.285 6         0.000 6     -1158.240 6        37.977 6
G20  21941186.200 9 115301678.633 9      2563.058 9        55.317 9  21941186.520 6         0.000 6      1997.189 6        37.977 6
> 2019 07 03 12 01  6.0000000  0  8       0.000000000000
G07  25344373.957 9 133185537.999 9      2183.519 9        54.132 9  25344374.626 6         0.000 6      1701.444 6        37.977 6
G10  23805021.643 9 125096178.458 9      3528.449 9        54.671 9  23805025.365 6         0.000 6      2749.443 6        37.977 6
G21  21172437.720 9 111261890.494 9     -1253.555 9        55.709 9  21172437.006 6         0.000 6      -976.796 6        37.977 6
G29  24303633.785 9 127716401.102 9     -3120.632 9        54.474 9  24303635.364 6         0.000 6     -2431.664 6        37.977 6
G27  22001597.862 9 115619150.146 9      2497.811 9        55.375 9  22001599.794 6         0.000 6      1946.347 6        37.977 6
G16  20496539.266 9 107710020.510 9       552.869 9        55.977 9  20496538.439 6         0.000 6       430.807 6        37.977 6
G26  20656364.376 9 108549905.157 9     -1486.982 9        55.872 9  20656367.193 6         0.000 6     -1158.688 6        37.977 6
G20  21940698.508 9 115299115.797 9      2562.614 9        55.317 9  21940698.828 6         0.000 6      1996.843 6        37.977 6
> 2019 07 03 12 01  7.0000000  0  8       0.000000000000
G07  25343958.492 9 133183354.716 9      2183.059 9        54.133 9  25343959.160 6         0.000 6      1701.086 6        37.977 6
G10  23804350.214 9 125092650.087 9      3528.311 9        54.671 9  23804353.936 6         0.000 6      2749.336 6        37.977 6
G21  21172676.297 9 111263144.226 9     -1253.915 9        55.708 9  21172675.583 6         0.000 6      -977.077 6        37.977 6
G29  24304227.629 9 127719521.762 9     -3120.718 9        54.473 9  24304229.208 6         0.000 6     -2431.731 6        37.977 6
G27  22001122.567 9 115616652.460 9      2497.574 9        55.376 9  22001124.499 6         0.000 6      1946.162 6        37.977 6
G16  20496434.117 9 107709467.951 9       552.252 9        55.977 9  20496433.290 6         0.000 6       430.327 6        37.977 6
G26  20656647.394 9 108551392.424 9     -1487.556 9        55.872 9  20656650.211 6         0.000 6     -1159.135 6        37.977 6
G20  21940210.901 9 115296553.406 9      2562.170 9        55.317 9  21940211.220 6         0.000 6      1996.497 6        37.977 6
> 2019 07 03 12 01  8.0000000  0  8       0.000000000000
G07  25343543.114 9 133181171.893 9      2182.600 9        54.133 9  25343543.782 6         0.000 6      1700.728 6        37.977 6
G10  23803678.811 9 125089121.851 9      3528.173 9        54.671 9  23803682.532 6         0.000 6      2749.228 6        37.977 6
G21  21172914.943 9 111264398.319 9     -1254.276 9        55.708 9  21172914.229 6         0.000 6      -977.358 6        37.977 6
G29  24304821.490 9 127722642.512 9     -3120.803 9        54.473 9  24304823.070 6         0.000 6     -2431.797 6        37.977 6
G27  22000647.317 9 115614155.005 9      2497.337 9        55.376 9  22000649.249 6         0.000 6      1945.977 6        37.977 6
G16  20496329.085 9 107708916.003 9       551.636 9        55.977 9  20496328.258 6         0.000 6       429.846 6        37.977 6
G26  20656930.520 9 108552880.261 9     -1488.131 9        55.872 9  20656933.337 6         0.000 6     -1159.583 6        37.977 6
G20  21939723.377 9 115293991.459 9      2561.726 9        55.317 9  21939723.696 6         0.000 6      1996.151 6        37.977 6
> 2019 07 03 12 01  9.0000000  0  8       0.000000000000
G07  25343127.823 9 133178989.527 9      2182.140 9        54.133 9  25343128.491 6         0.000 6      1700.369 6        37.977 6
G10  23803007.435 9 125085593.757 9      3528.035 9        54.672 9  23803011.155 6         0.000 6      2749.121 6        37.977 6
G21  21173153.658 9 111265652.774 9     -1254.636 9        55.708 9  21173152.944 6         0.000 6      -977.639 6        37.977 6
G29  24305415.367 9 127725763.347 9     -3120.888 9        54.473 9  24305416.947 6         0.000 6     -2431.864 6        37.977 6
G27  22000172.112 9 115611657.790 9      2497.099 9        55.376 9  22000174.044 6         0.000 6      1945.792 6        37.977 6
G16  20496224.171 9 107708364.675 9       551.020 9        55.977 9  20496223.344 6         0.000 6       429.366 6        37.977 6
G26  20657213.757 9 108554368.677 9     -1488.705 9        55.872 9  20657216.574 6         0.000 6     -1160.031 6        37.977 6
G20  21939235.939 9 115291429.959 9      2561.282 9        55.317 9  21939236.258 6         0.000 6      1995.805 6        37.977 6
> 2019 07 03 12 01 10.0000000  0  8       0.000000000000
G07  25342712.619 9 133176807.621 9      2181.680 9        54.133 9  25342713.287 6         0.000 6      1700.011 6        37.977 6
G10  23802336.085 9 125082065.802 9      3527.897 9        54.672 9  23802339.805 6         0.000 6      2749.013 6        37.977 6
G21  21173392.442 9 111266907.589 9     -1254.996 9        55.708 9  21173391.728 6         0.000 6      -977.919 6        37.977 6
G29  24306009.261 9 127728884.268 9     -3120.974 9        54.473 9  24306010.842 6         0.000 6     -2431.930 6        37.977 6
G27  21999696.953 9 115609160.812 9      2496.862 9        55.376 9  21999698.884 6         0.000 6      1945.608 6        37.977 6
G16  20496119.374 9 107707813.964 9       550.403 9        55.977 9  20496118.547 6         0.000 6       428.886 6        37.977 6
G26  20657497.103 9 108555857.668 9     -1489.280 9        55.872 9  20657499.920 6         0.000 6     -1160.478 6        37.977 6
G20  21938748.586 9 115288868.903 9      2560.838 9        55.318 9  21938748.904 6         0.000 6      1995.459 6        37.977 6
> 2019 07 03 12 01 11.0000000  0  8       0.000000000000
G07  25342297.503 9 133174626.177 9      2181.220 9        54.133 9  25342298.171 6         0.000 6      1699.653 6        37.977 6
G10  23801664.761 9 125078537.981 9      3527.759 9        54.672 9  23801668.480 6         0.000 6      2748.905 6        37.977 6
G21  21173631.293 9 111268162.763 9     -1255.357 9        55.708 9  21173630.580 6         0.000 6      -978.200 6        37.977 6
G29  24306603.170 9 127732005.274 9     -3121.059 9        54.472 9  24306604.752 6         0.000 6     -2431.997 6        37.977 6
G27  21999221.838 9 115606664.069 9      2496.625 9        55.376 9  21999223.769 6         0.000 6      1945.423 6        37.977 6
G16  20496014.694 9 107707263.866 9       549.787 9        55.977 9  20496013.867 6         0.000 6       428.405 6        37.977 6
G26  20657780.557 9 108557347.229 9     -1489.854 9        55.872 9  20657783.375 6         0.000 6     -1160.926 6        37.977 6
G20  21938261.316 9 115286308.288 9      2560.394 9        55.318 9  21938261.634 6         0.000 6      1995.113 6        37.977 6
> 2019 07 03 12 01 12.0000000  0  8       0.000000000000
G07  25341882.475 9 133172445.191 9      2180.760 9        54.133 9  25341883.142 6         0.000 6      1699.294 6        37.977 6
G10  23800993.464 9 125075010.302 9      3527.620 9        54.672 9  23800997.183 6         0.000 6      2748.798 6        37.977 6
G21  21173870.214 9 111269418.298 9     -1255.717 9        55.708 9  21173869.500 6         0.000 6      -978.481 6        37.977 6
G29  24307197.096 9 127735126.365 9     -3121.144 9        54.472 9  24307198.678 6         0.000 6     -2432.063 6        37.977 6
G27  21998746.768 9 115604167.565 9      2496.388 9        55.377 9  21998748.699 6         0.000 6      1945.238 6        37.977 6
G16  20495910.131 9 107706714.387 9       549.170 9        55.977 9  20495909.304 6         0.000 6       427.925 6        37.977 6
G26  20658064.121 9 108558837.369 9     -1490.429 9        55.872 9  20658066.939 6         0.000 6     -1161.374 6        37.977 6
G20  21937774.132 9 115283748.121 9      2559.949 9        55.318 9  21937774.449 6         0.000 6      1994.767 6        37.977 6
> 2019 07 03 12 01 13.0000000  0  8       0.000000000000
G07  25341467.534 9 133170264.668 9      2180.299 9        54.133 9  25341468.201 6         0.000 6      1698.936 6        37.977 6
G10  23800322.193 9 125071482.757 9      3527.482 9        54.673 9  23800325.911 6         0.000 6      2748.690 6        37.977 6
G21  21174109.203 9 111270674.192 9     -1256.077 9        55.708 9  21174108.489 6         0.000 6      -978.761 6        37.977 6
G29  24307791.038 9 127738247.542 9     -3121.229 9        54.472 9  24307792.621 6         0.000 6     -2432.129 6        37.977 6
G27  21998271.744 9 115601671.297 9      2496.150 9        55.377 9  21998273.674 6         0.000 6      1945.053 6        37.977 6
G16  20495805.686 9 107706165.522 9       548.554 9        55.977 9  20495804.859 6         0.000 6       427.444 6        37.977 6
G26  20658347.794 9 108560328.078 9     -1491.003 9        55.871 9  20658350.612 6         0.000 6     -1161.821 6        37.977 6
G20  21937287.031 9 115281188.394 9      2559.505 9        55.318 9  21937287.348 6         0.000 6      1994.421 6        37.977 6
> 2019 07 03 12 01 14.0000000  0  8       0.000000000000
G07  25341052.681 9 133168084.602 9      2179.839 9        54.134 9  25341053.348 6         0.000 6      1698.577 6        37.977 6
G10  23799650.949 9 125067955.355 9      3527.343 9        54.673 9  23799654.666 6         0.000 6      2748.582 6        37.977 6
G21  21174348.261 9 111271930.448 9     -1256.437 9        55.708 9  21174347.547 6         0.000 6      -979.042 6        37.977 6
G29  24308384.996 9 127741368.804 9     -3121.315 9        54.472 9  24308386.580 6         0.000 6     -2432.196 6        37.977 6
G27  21997796.765 9 115599175.268 9      2495.913 9        55.377 9  21997798.695 6         0.000 6      1944.868 6        37.977 6
G16  20495701.358 9 107705617.277 9       547.937 9        55.977 9  20495700.531 6         0.000 6       426.964 6        37.977 6
G26  20658631.577 9 108561819.367 9     -1491.578 9        55.871 9  20658634.395 6         0.000 6     -1162.269 6        37.977 6
G20  21936800.016 9 115278629.116 9      2559.060 9        55.318 9  21936800.333 6         0.000 6      1994.074 6        37.977 6
> 2019 07 03 12 01 15.0000000  0  8       0.000000000000
G07  25340637.916 9 133165905.002 9      2179.379 9        54.134 9  25340638.583 6         0.000 6      1698.218 6        37.977 6
G10  23798979.729 9 125064428.086 9      3527.204 9        54.673 9  23798983.446 6         0.000 6      2748.474 6        37.977 6
G21  21174587.386 9 111273187.060 9     -1256.797 9        55.708 9  21174586.672 6         0.000 6      -979.322 6        37.977 6
G29  24308978.970 9 127744490.145 9     -3121.400 9        54.472 9  24308980.554 6         0.000 6     -2432.262 6        37.977 6
G27  21997321.831 9 115596679.478 9      2495.676 9        55.377 9  21997323.762 6         0.000 6      1944.683 6        37.977 6
G16  20495597.147 9 107705069.646 9       547.320 9        55.977 9  20495596.321 6         0.000 6       426.483 6        37.977 6
G26  20658915.469 9 108563311.225 9     -1492.152 9        55.871 9  20658918.287 6         0.000 6     -1162.716 6        37.977 6
G20  21936313.083 9 115276070.275 9      2558.616 9        55.319 9  21936313.400 6         0.000 6      1993.728 6        37.977 6
> 2019 07 03 12 01 16.0000000  0  8       0.000000000000
G07  25340223.238 9 133163725.857 9      2178.918 9        54.134 9  25340223.904 6         0.000 6      1697.859 6        37.977 6
G10  23798308.538 9 125060900.961 9      3527.066 9        54.673 9  23798312.254 6         0.000 6      2748.365 6        37.977 6
G21  21174826.581 9 111274444.036 9     -1257.157 9        55.708 9  21174825.867 6         0.000 6      -979.603 6        37.977 6
G29  24309572.961 9 127747611.578 9     -3121.485 9        54.471 9  24309574.546 6         0.000 6     -2432.329 6        37.977 6
G27  21996846.942 9 115594183.924 9      2495.438 9        55.377 9  21996848.873 6         0.000 6      1944.498 6        37.977 6
G16  20495493.055 9 107704522.634 9       546.704 9        55.977 9  20495492.228 6         0.000 6       426.003 6        37.977 6
G26  20659199.471 9 108564803.662 9     -1492.726 9        55.871 9  20659202.289 6         0.000 6     -1163.164 6        37.977 6
G20  21935826.237 9 115273511.886 9      2558.171 9        55.319 9  21935826.554 6         0.000 6      1993.381 6        37.977 6
> 2019 07 03 12 01 17.0000000  0  8       0.000000000000
G07  25339808.648 9 133161547.175 9      2178.458 9        54.134 9  25339809.314 6         0.000 6      1697.501 6        37.977 6
G10  23797637.372 9 125057373.971 9      3526.927 9        54.674 9  23797641.087 6         0.000 6      2748.257 6        37.977 6
G21  21175065.844 9 111275701.370 9     -1257.517 9        55.708 9  21175065.130 6         0.000 6      -979.883 6        37.977 6
G29  24310166.968 9 127750733.095 9     -3121.570 9        54.471 9  24310168.553 6         0.000 6     -2432.395 6        37.977 6
G27  21996372.099 9 115591688.605 9      2495.201 9        55.378 9  21996374.029 6         0.000 6      1944.313 6        37.977 6
G16  20495389.078 9 107703976.235 9       546.087 9        55.977 9  20495388.251 6         0.000 6       425.522 6        37.977 6
G26  20659483.581 9 108566296.669 9     -1493.300 9        55.871 9  20659486.399 6         0.000 6     -1163.611 6        37.977 6
G20  21935339.475 9 115270953.937 9      2557.726 9        55.319 9  21935339.792 6         0.000 6      1993.035 6        37.977 6
> 2019 07 03 12 01 18.0000000  0  8       0.000000000000
G07  25339394.145 9 133159368.951 9      2177.997 9        54.134 9  25339394.811 6         0.000 6      1697.142 6        37.977 6
G10  23796966.234 9 125053847.125 9      3526.788 9        54.674 9  23796969.948 6         0.000 6      2748.149 6        37.977 6
G21  21175305.175 9 111276959.066 9     -1257.877 9        55.707 9  21175304.462 6         0.000 6      -980.164 6        37.977 6
G29  24310760.991 9 127753854.698 9     -3121.655 9        54.471 9  24310762.577 6         0.000 6     -2432.461 6        37.977 6
G27  21995897.300 9 115589193.525 9      2494.963 9        55.378 9  21995899.230 6         0.000 6      1944.128 6        37.977 6
G16  20495285.220 9 107703430.457 9       545.470 9        55.977 9  20495284.393 6         0.000 6       425.042 6        37.977 6
G26  20659767.801 9 108567790.255 9     -1493.875 9        55.871 9  20659770.619 6         0.000 6     -1164.059 6        37.977 6
G20  21934852.798 9 115268396.438 9      2557.281 9        55.319 9  21934853.115 6         0.000 6      1992.688 6        37.977 6
> 2019 07 03 12 01 19.0000000  0  8       0.000000000000
G07  25338979.730 9 133157191.188 9      2177.537 9        54.134 9  25338980.396 6         0.000 6      1696.783 6        37.977 6
G10  23796295.121 9 125050320.417 9      3526.648 9        54.674 9  23796298.835 6         0.000 6      2748.040 6        37.977 6
G21  21175544.575 9 111278217.122 9     -1258.237 9        55.707 9  21175543.862 6         0.000 6      -980.444 6        37.977 6
G29  24311355.030 9 127756976.386 9     -3121.741 9        54.471 9  24311356.617 6         0.000 6     -2432.528 6        37.977 6
G27  21995422.547 9 115586698.683 9      2494.726 9        55.378 9  21995424.477 6         0.000 6      1943.943 6        37.977 6
G16  20495181.479 9 107702885.295 9       544.853 9        55.977 9  20495180.652 6         0.000 6       424.561 6        37.977 6
G26  20660052.130 9 108569284.414 9     -1494.449 9        55.871 9  20660054.949 6         0.000 6     -1164.506 6        37.977 6
G20  21934366.206 9 115265839.383 9      2556.836 9        55.319 9  21934366.522 6         0.000 6      1992.341 6        37.977 6
> 2019 07 03 12 01 20.0000000  0  8       0.000000000000
G07  25338565.403 9 133155013.888 9      2177.076 9        54.134 9  25338566.068 6         0.000 6      1696.424 6        37.977 6
G10  23795624.035 9 125046793.845 9      3526.509 9        54.674 9  23795627.748 6         0.000 6      2747.932 6        37.977 6
G21  21175784.044 9 111279475.535 9     -1258.596 9        55.707 9  21175783.330 6         0.000 6      -980.725 6        37.977 6
G29  24311949.086 9 127760098.158 9     -3121.826 9        54.471 9  24311950.673 6         0.000 6     -2432.594 6        37.977 6
G27  21994947.839 9 115584204.077 9      2494.488 9        55.378 9  21994949.768 6         0.000 6      1943.758 6        37.977 6
G16  20495077.855 9 107702340.747 9       544.237 9        55.977 9  20495077.028 6         0.000 6       424.080 6        37.977 6
G26  20660336.568 9 108570779.144 9     -1495.023 9        55.871 9  20660339.387 6         0.000 6     -1164.953 6        37.977 6
G20  21933879.698 9 115263282.770 9      2556.391 9        55.320 9  21933880.014 6         0.000 6      1991.994 6        37.977 6
> 2019 07 03 12 01 21.0000000  0  8       0.000000000000
G07  25338151.163 9 133152837.046 9      2176.615 9        54.135 9  25338151.828 6         0.000 6      1696.065 6        37.977 6
G10  23794952.976 9 125043267.416 9      3526.370 9        54.675 9  23794956.688 6         0.000 6      2747.823 6        37.977 6
G21  21176023.581 9 111280734.311 9     -1258.956 9        55.707 9  21176022.867 6         0.000 6      -981.005 6        37.977 6
G29  24312543.158 9 127763220.016 9     -3121.911 9        54.470 9  24312544.746 6         0.000 6     -2432.660 6        37.977 6
G27  21994473.176 9 115581709.710 9      2494.251 9        55.378 9  21994475.105 6         0.000 6      1943.573 6        37.977 6
G16  20494974.349 9 107701796.818 9       543.620 9        55.978 9  20494973.522 6         0.000 6       423.600 6        37.977 6
G26  20660621.116 9 108572274.452 9     -1495.597 9        55.870 9  20660623.935 6         0.000 6     -1165.401 6        37.977 6
G20  21933393.275 9 115260726.605 9      2555.946 9        55.320 9  21933393.591 6         0.000 6      1991.647 6        37.977 6
> 2019 07 03 12 01 22.0000000  0  8       0.000000000000
G07  25337737.011 9 133150660.667 9      2176.154 9        54.135 9  25337737.676 6         0.000 6      1695.706 6        37.977 6
G10  23794281.942 9 125039741.122 9      3526.230 9        54.675 9  23794285.654 6         0.000 6      2747.715 6        37.977 6
G21  21176263.186 9 111281993.444 9     -1259.316 9        55.707 9  21176262.473 6         0.000 6      -981.285 6        37.977 6
G29  24313137.246 9 127766341.959 9     -3121.996 9        54.470 9  24313138.834 6         0.000 6     -2432.727 6        37.977 6
G27  21993998.558 9 115579215.579 9      2494.013 9        55.378 9  21994000.487 6         0.000 6      1943.388 6        37.977 6
G16  20494870.960 9 107701253.504 9       543.003 9        55.978 9  20494870.133 6         0.000 6       423.119 6        37.977 6
G26  20660905.773 9 108573770.329 9     -1496.171 9        55.870 9  20660908.592 6         0.000 6     -1165.848 6        37.977 6
G20  21932906.936 9 115258170.882 9      2555.501 9        55.320 9  21932907.251 6         0.000 6      1991.301 6        37.977 6
> 2019 07 03 12 01 23.0000000  0  8       0.000000000000
G07  25337322.947 9 133148484.750 9      2175.693 9        54.135 9  25337323.612 6         0.000 6      1695.346 6        37.977 6
G10  23793610.936 9 125036214.969 9      3526.091 9        54.675 9  23793614.647 6         0.000 6      2747.606 6        37.977 6
G21  21176502.860 9 111283252.936 9     -1259.675 9        55.707 9  21176502.146 6         0.000 6      -981.565 6        37.977 6
G29  24313731.349 9 127769463.982 9     -3122.081 9        54.470 9  24313732.938 6         0.000 6     -2432.793 6        37.977 6
G27  21993523.986 9 115576721.691 9      2493.775 9        55.379 9  21993525.916 6         0.000 6      1943.202 6        37.977 6
G16  20494767.689 9 107700710.811 9       542.386 9        55.978 9  20494766.862 6         0.000 6       422.638 6        37.977 6
G26  20661190.539 9 108575266.786 9     -1496.745 9        55.870 9  20661193.358 6         0.000 6     -1166.295 6        37.977 6
G20  21932420.682 9 115255615.605 9      2555.056 9        55.320 9  21932420.997 6         0.000 6      1990.953 6        37.977 6
> 2019 07 03 12 01 24.0000000  0  8       0.000000000000
G07  25336908.971 9 133146309.293 9      2175.232 9        54.135 9  25336909.635 6         0.000 6      1694.987 6        37.977 6
G10  23792939.955 9 125032688.954 9      3525.951 9        54.675 9  23792943.666 6         0.000 6      2747.497 6        37.977 6
G21  21176742.602 9 111284512.788 9     -1260.035 9        55.707 9  21176741.888 6         0.000 6      -981.845 6        37.977 6
G29  24314325.469 9 127772586.095 9     -3122.166 9        54.470 9  24314327.059 6         0.000 6     -2432.859 6        37.977 6
G27  21993049.459 9 115574228.035 9      2493.538 9        55.379 9  21993051.388 6         0.000 6      1943.017 6        37.977 6
G16  20494664.534 9 107700168.730 9       541.769 9        55.978 9  20494663.707 6         0.000 6       422.158 6        37.977 6
G26  20661475.414 9 108576763.811 9     -1497.319 9        55.870 9  20661478.233 6         0.000 6     -1166.743 6        37.977 6
G20  21931934.513 9 115253060.773 9      2554.610 9        55.320 9  21931934.828 6         0.000 6      1990.606 6        37.977 6
> 2019 07 03 12 01 25.0000000  0  8       0.000000000000
G07  25336495.082 9 133144134.295 9      2174.771 9        54.135 9  25336495.746 6         0.000 6      1694.628 6        37.977 6
G10  23792269.003 9 125029163.084 9      3525.811 9        54.676 9  23792272.713 6         0.000 6      2747.388 6        37.977 6
G21  21176982.412 9 111285773.002 9     -1260.394 9        55.707 9  21176981.699 6         0.000 6      -982.126 6        37.977 6
G29  24314919.606 9 127775708.293 9     -3122.251 9        54.469 9  24314921.196 6         0.000 6     -2432.925 6        37.977 6
G27  21992574.977 9 115571734.619 9      2493.300 9        55.379 9  21992576.906 6         0.000 6      1942.832 6        37.977 6
G16  20494561.498 9 107699627.270 9       541.152 9        55.978 9  20494560.671 6         0.000 6       421.677 6        37.977 6
G26  20661760.399 9 108578261.415 9     -1497.893 9        55.870 9  20661763.218 6         0.000 6     -1167.190 6        37.977 6
G20  21931448.429 9 115250506.390 9      2554.165 9        55.321 9  21931448.744 6         0.000 6      1990.259 6        37.977 6
> 2019 07 03 12 01 26.0000000  0  8       0.000000000000
G07  25336081.281 9 133141959.760 9      2174.310 9        54.135 9  25336081.945 6         0.000 6      1694.269 6        37.977 6
G10  23791598.075 9 125025637.348 9      3525.672 9        54.676 9  23791601.785 6         0.000 6      2747.279 6        37.977 6
G21  21177222.291 9 111287033.572 9     -1260.754 9        55.707 9  21177221.578 6         0.000 6      -982.406 6        37.977 6
G29  24315513.758 9 127778830.576 9     -3122.336 9        54.469 9  24315515.349 6         0.000 6     -2432.992 6        37.977 6
G27  21992100.540 9 115569241.439 9      2493.062 9        55.379 9  21992102.469 6         0.000 6      1942.647 6        37.977 6
G16  20494458.578 9 107699086.423 9       540.535 9        55.978 9  20494457.751 6         0.000 6       421.196 6        37.977 6
G26  20662045.492 9 108579759.589 9     -1498.467 9        55.870 9  20662048.312 6         0.000 6     -1167.637 6        37.977 6
G20  21930962.430 9 115247952.449 9      2553.719 9        55.321 9  21930962.744 6         0.000 6      1989.912 6        37.977 6
> 2019 07 03 12 01 27.0000000  0  8       0.000000000000
G07  25335667.567 9 133139785.684 9      2173.849 9        54.135 9  25335668.231 6         0.000 6      1693.909 6        37.977 6
G10  23790927.176 9 125022111.757 9      3525.532 9        54.676 9  23790930.884 6         0.000 6      2747.170 6        37.977 6
G21  21177462.239 9 111288294.505 9     -1261.113 9        55.707 9  21177461.526 6         0.000 6      -982.686 6        37.977 6
G29  24316107.927 9 127781952.945 9     -3122.421 9        54.469 9  24316109.519 6         0.000 6     -2433.058 6        37.977 6
G27  21991626.149 9 115566748.498 9      2492.824 9        55.379 9  21991628.077 6         0.000 6      1942.461 6        37.977 6
G16  20494355.776 9 107698546.197 9       539.918 9        55.978 9  20494354.950 6         0.000 6       420.715 6        37.977 6
G26  20662330.696 9 108581258.341 9     -1499.041 9        55.870 9  20662333.515 6         0.000 6     -1168.084 6        37.977 6
G20  21930476.516 9 115245398.957 9      2553.273 9        55.321 9  21930476.829 6         0.000 6      1989.565 6        37.977 6
> 2019 07 03 12 01 28.0000000  0  8       0.000000000000
G07  25335253.942 9 133137612.072 9      2173.388 9        54.136 9  25335254.606 6         0.000 6      1693.550 6        37.977 6
G10  23790256.302 9 125018586.302 9      3525.392 9        54.676 9  23790260.010 6         0.000 6      2747.061 6        37.977 6
G21  21177702.254 9 111289555.794 9     -1261.472 9        55.706 9  21177701.541 6         0.000 6      -982.966 6        37.977 6
G29  24316702.112 9 127785075.397 9     -3122.506 9        54.469 9  24316703.704 6         0.000 6     -2433.124 6        37.977 6
G27  21991151.803 9 115564255.794 9      2492.587 9        55.380 9  21991153.731 6         0.000 6      1942.276 6        37.977 6
G16  20494253.092 9 107698006.585 9       539.301 9        55.978 9  20494252.265 6         0.000 6       420.234 6        37.977 6
G26  20662616.007 9 108582757.662 9     -1499.615 9        55.870 9  20662618.827 6         0.000 6     -1168.531 6        37.977 6
G20  21929990.685 9 115242845.907 9      2552.827 9        55.321 9  21929990.999 6         0.000 6      1989.217 6        37.977 6
> 2019 07 03 12 01 29.0000000  0  8       0.000000000000
G07  25334840.404 9 133135438.919 9      2172.926 9        54.136 9  25334841.067 6         0.000 6      1693.190 6        37.977 6
G10  23789585.455 9 125015060.991 9      3525.251 9        54.677 9  23789589.163 6         0.000 6      2746.952 6        37.977 6
G21  21177942.339 9 111290817.446 9     -1261.831 9        55.706 9  21177941.626 6         0.000 6      -983.245 6        37.977 6
G29  24317296.313 9 127788197.935 9     -3122.591 9        54.469 9  24317297.906 6         0.000 6     -2433.190 6        37.977 6
G27  21990677.502 9 115561763.329 9      2492.349 9        55.380 9  21990679.430 6         0.000 6      1942.090 6        37.977 6
G16  20494150.525 9 107697467.593 9       538.683 9        55.978 9  20494149.698 6         0.000 6       419.753 6        37.977 6
G26  20662901.429 9 108584257.562 9     -1500.189 9        55.870 9  20662904.249 6         0.000 6     -1168.979 6        37.977 6
G20  21929504.941 9 115240293.307 9      2552.381 9        55.321 9  21929505.254 6         0.000 6      1988.870 6        37.977 6
> 2019 07 03 12 01 30.0000000  0  8       0.000000000000
G07  25334426.954 9 133133266.227 9      2172.465 9        54.136 9  25334427.617 6         0.000 6      1692.830 6        37.977 6
G10  23788914.636 9 125011535.820 9      3525.111 9        54.677 9  23788918.342 6         0.000 6      2746.842 6        37.977 6
G21  21178182.491 9 111292079.456 9     -1262.191 9        55.706 9  21178181.778 6         0.000 6      -983.525 6        37.977 6
G29  24317890.531 9 127791320.558 9     -3122.676 9        54.468 9  24317892.124 6         0.000 6     -2433.256 6        37.977 6
G27  21990203.246 9 115559271.102 9      2492.111 9        55.380 9  21990205.174 6         0.000 6      1941.905 6        37.977 6
G16  20494048.076 9 107696929.218 9       538.066 9        55.978 9  20494047.249 6         0.000 6       419.272 6        37.977 6
G26  20663186.960 9 108585758.036 9     -1500.762 9        55.869 9  20663189.780 6         0.000 6     -1169.426 6        37.977 6
G20  21929019.281 9 115237741.154 9      2551.935 9        55.321 9  21929019.594 6         0.000 6      1988.522 6        37.977 6
> 2019 07 03 12 01 31.0000000  0  8       0.000000000000
G07  25334013.592 9 133131094.003 9      2172.003 9        54.136 9  25334014.256 6         0.000 6      1692.471 6        37.977 6
G10  23788243.842 9 125008010.783 9      3524.971 9        54.677 9  23788247.548 6         0.000 6      2746.733 6        37.977 6
G21  21178422.712 9 111293341.821 9     -1262.550 9        55.706 9  21178421.999 6         0.000 6      -983.805 6        37.977 6
G29  24318484.763 9 127794443.261 9     -3122.760 9        54.468 9  24318486.357 6         0.000 6     -2433.322 6        37.977 6
G27  21989729.036 9 115556779.115 9      2491.873 9        55.380 9  21989730.964 6         0.000 6      1941.720 6        37.977 6
G16  20493945.743 9 107696391.459 9       537.449 9        55.978 9  20493944.916 6         0.000 6       418.791 6        37.977 6
G26  20663472.599 9 108587259.078 9     -1501.336 9        55.869 9  20663475.419 6         0.000 6     -1169.873 6        37.977 6
G20  21928533.705 9 115235189.438 9      2551.489 9        55.322 9  21928534.018 6         0.000 6      1988.175 6        37.977 6
> 2019 07 03 12 01 32.0000000  0  8       0.000000000000
G07  25333600.318 9 133128922.234 9      2171.541 9        54.136 9  25333600.981 6         0.000 6      1692.111 6        37.977 6
G10  23787573.075 9 125004485.893 9      3524.830 9        54.677 9  23787576.781 6         0.000 6      2746.624 6        37.977 6
G21  21178663.001 9 111294604.549 9     -1262.909 9        55.706 9  21178662.288 6         0.000 6      -984.085 6        37.977 6
G29  24319079.013 9 127797566.053 9     -3122.845 9        54.468 9  24319080.607 6         0.000 6     -2433.388 6        37.977 6
G27  21989254.871 9 115554287.364 9      2491.635 9        55.380 9  21989256.799 6         0.000 6      1941.534 6        37.977 6
G16  20493843.529 9 107695854.319 9       536.832 9        55.978 9  20493842.702 6         0.000 6       418.310 6        37.977 6
G26  20663758.349 9 108588760.700 9     -1501.910 9        55.869 9  20663761.169 6         0.000 6     -1170.320 6        37.977 6
G20  21928048.216 9 115232638.177 9      2551.043 9        55.322 9  21928048.528 6         0.000 6      1987.827 6        37.977 6
> 2019 07 03 12 01 33.0000000  0  8       0.000000000000
G07  25333187.132 9 133126750.930 9      2171.080 9        54.136 9  25333187.794 6         0.000 6      1691.751 6        37.977 6
G10  23786902.335 9 125000961.139 9      3524.690 9        54.678 9  23786906.040 6         0.000 6      2746.514 6        37.977 6
G21  21178903.358 9 111295867.635 9     -1263.268 9        55.706 9  21178902.645 6         0.000 6      -984.365 6        37.977 6
G29  24319673.278 9 127800688.930 9     -3122.930 9        54.468 9  24319674.874 6         0.000 6     -2433.455 6        37.977 6
G27  21988780.751 9 115551795.849 9      2491.397 9        55.381 9  21988782.679 6         0.000 6      1941.349 6        37.977 6
G16  20493741.431 9 107695317.793 9       536.214 9        55.978 9  20493740.605 6         0.000 6       417.829 6        37.977 6
G26  20664044.206 9 108590262.890 9     -1502.484 9        55.869 9  20664047.026 6         0.000 6     -1170.767 6        37.977 6
G20  21927562.810 9 115230087.357 9      2550.597 9        55.322 9  21927563.122 6         0.000 6      1987.479 6        37.977 6
> 2019 07 03 12 01 34.0000000  0  8       0.000000000000
G07  25332774.033 9 133124580.084 9      2170.618 9        54.136 9  25332774.695 6         0.000 6      1691.391 6        37.977 6
G10  23786231.622 9 124997436.531 9      3524.549 9        54.678 9  23786235.326 6         0.000 6      2746.404 6        37.977 6
G21  21179143.784 9 111297131.081 9     -1263.627 9        55.706 9  21179143.072 6         0.000 6      -984.644 6        37.977 6
G29  24320267.560 9 127803811.892 9     -3123.015 9        54.468 9  24320269.156 6         0.000 6     -2433.521 6        37.977 6
G27  21988306.677 9 115549304.574 9      2491.159 9        55.381 9  21988308.604 6         0.000 6      1941.163 6        37.977 6
G16  20493639.452 9 107694781.887 9       535.597 9        55.978 9  20493638.625 6         0.000 6       417.348 6        37.977 6
G26  20664330.174 9 108591765.658 9     -1503.057 9        55.869 9  20664332.994 6         0.000 6     -1171.214 6        37.977 6
G20  21927077.490 9 115227536.988 9      2550.150 9        55.322 9  21927077.802 6         0.000 6      1987.131 6        37.977 6
> 2019 07 03 12 01 35.0000000  0  8       0.000000000000
G07  25332361.023 9 133122409.704 9      2170.156 9        54.137 9  25332361.685 6         0.000 6      1691.032 6        37.977 6
G10  23785560.935 9 124993912.058 9      3524.408 9        54.678 9  23785564.639 6         0.000 6      2746.295 6        37.977 6
G21  21179384.278 9 111298394.885 9     -1263.986 9        55.706 9  21179383.565 6         0.000 6      -984.924 6        37.977 6
G29  24320861.858 9 127806934.939 9     -3123.100 9        54.467 9  24320863.455 6         0.000 6     -2433.587 6        37.977 6
G27  21987832.648 9 115546813.535 9      2490.920 9        55.381 9  21987834.575 6         0.000 6      1940.978 6        37.977 6
G16  20493537.589 9 107694246.596 9       534.979 9        55.978 9  20493536.763 6         0.000 6       416.867 6        37.977 6
G26  20664616.250 9 108593268.996 9     -1503.631 9        55.869 9  20664619.070 6         0.000 6     -1171.661 6        37.977 6
G20  21926592.254 9 115224987.062 9      2549.704 9        55.322 9  21926592.566 6         0.000 6      1986.783 6        37.977 6
> 2019 07 03 12 01 36.0000000  0  8       0.000000000000
G07  25331948.100 9 133120239.782 9      2169.694 9        54.137 9  25331948.762 6         0.000 6      1690.672 6        37.977 6
G10  23784890.276 9 124990387.731 9      3524.267 9        54.678 9  23784893.979 6         0.000 6      2746.185 6        37.977 6
G21  21179624.841 9 111299659.049 9     -1264.345 9        55.706 9  21179624.128 6         0.000 6      -985.204 6        37.977 6
G29  24321456.172 9 127810058.071 9     -3123.184 9        54.467 9  24321457.770 6         0.000 6     -2433.653 6        37.977 6
G27  21987358.664 9 115544322.737 9      2490.682 9        55.381 9  21987360.591 6         0.000 6      1940.792 6        37.977 6
G16  20493435.845 9 107693711.925 9       534.362 9        55.978 9  20493435.018 6         0.000 6       416.386 6        37.977 6
G26  20664902.436 9 108594772.912 9     -1504.204 9        55.869 9  20664905.256 6         0.000 6     -1172.108 6        37.977 6
G20  21926107.104 9 115222437.586 9      2549.257 9        55.323 9  21926107.415 6         0.000 6      1986.435 6        37.977 6
> 2019 07 03 12 01 37.0000000  0  8       0.000000000000
G07  25331535.265 9 133118070.325 9      2169.232 9        54.137 9  25331535.927 6         0.000 6      1690.312 6        37.977 6
G10  23784219.643 9 124986863.541 9      3524.126 9        54.679 9  23784223.345 6         0.000 6      2746.075 6        37.977 6
G21  21179865.471 9 111300923.570 9     -1264.703 9        55.706 9  21179864.759 6         0.000 6      -985.483 6        37.977 6
G29  24322050.503 9 127813181.287 9     -3123.269 9        54.467 9  24322052.101 6         0.000 6     -2433.719 6        37.977 6
G27  21986884.725 9 115541832.174 9      2490.444 9        55.381 9  21986886.652 6         0.000 6      1940.606 6        37.977 6
G16  20493334.217 9 107693177.869 9       533.744 9        55.978 9  20493333.391 6         0.000 6       415.905 6        37.977 6
G26  20665188.730 9 108596277.396 9     -1504.778 9        55.869 9  20665191.551 6         0.000 6     -1172.555 6        37.977 6
G20  21925622.038 9 115219888.552 9      2548.810 9        55.323 9  21925622.349 6         0.000 6      1986.087 6        37.977 6
> 2019 07 03 12 01 38.0000000  0  8       0.000000000000
G07  25331122.518 9 133115901.328 9      2168.770 9        54.137 9  25331123.179 6         0.000 6      1689.951 6        37.977 6
G10  23783549.037 9 124983339.496 9      3523.985 9        54.679 9  23783552.739 6         0.000 6      2745.965 6        37.977 6
G21  21180106.170 9 111302188.452 9     -1265.062 9        55.705 9  21180105.458 6         0.000 6      -985.763 6        37.977 6
G29  24322644.849 9 127816304.588 9     -3123.354 9        54.467 9  24322646.448 6         0.000 6     -2433.785 6        37.977 6
G27  21986410.832 9 115539341.852 9      2490.206 9        55.381 9  21986412.758 6         0.000 6      1940.421 6        37.977 6
G16  20493232.708 9 107692644.433 9       533.127 9        55.978 9  20493231.881 6         0.000 6       415.424 6        37.977 6
G26  20665475.134 9 108597782.459 9     -1505.351 9        55.868 9  20665477.955 6         0.000 6     -1173.002 6        37.977 6
G20  21925137.058 9 115217339.970 9      2548.364 9        55.323 9  21925137.369 6         0.000 6      1985.739 6        37.977 6
> 2019 07 03 12 01 39.0000000  0  8       0.000000000000
G07  25330709.859 9 133113732.796 9      2168.308 9        54.137 9  25330710.520 6         0.000 6      1689.591 6        37.977 6
G10  23782878.458 9 124979815.589 9      3523.844 9        54.679 9  23782882.159 6         0.000 6      2745.855 6        37.977 6
G21  21180346.937 9 111303453.690 9     -1265.421 9        55.705 9  21180346.225 6         0.000 6      -986.042 6        37.977 6
G29  24323239.211 9 127819427.969 9     -3123.438 9        54.467 9  24323240.810 6         0.000 6     -2433.851 6        37.977 6
G27  21985936.985 9 115536851.772 9      2489.968 9        55.382 9  21985938.911 6         0.000 6      1940.235 6        37.977 6
G16  20493131.316 9 107692111.616 9       532.509 9        55.978 9  20493130.489 6         0.000 6       414.942 6        37.977 6
G26  20665761.648 9 108599288.095 9     -1505.925 9        55.868 9  20665764.469 6         0.000 6     -1173.448 6        37.977 6
G20  21924652.163 9 115214791.831 9      2547.917 9        55.323 9  21924652.473 6         0.000 6      1985.391 6        37.977 6
> 2019 07 03 12 01 40.0000000  0  8       0.000000000000
G07  25330297.288 9 133111564.725 9      2167.846 9        54.137 9  25330297.950 6         0.000 6      1689.231 6        37.977 6
G10  23782207.906 9 124976291.822 9      3523.703 9        54.679 9  23782211.606 6         0.000 6      2745.745 6        37.977 6
G21  21180587.773 9 111304719.287 9     -1265.779 9        55.705 9  21180587.060 6         0.000 6      -986.322 6        37.977 6
G29  24323833.589 9 127822551.439 9     -3123.523 9        54.466 9  24323835.189 6         0.000 6     -2433.917 6        37.977 6
G27  21985463.182 9 115534361.924 9      2489.729 9        55.382 9  21985465.108 6         0.000 6      1940.049 6        37.977 6
G16  20493030.041 9 107691579.412 9       531.892 9        55.978 9  20493029.214 6         0.000 6       414.461 6        37.977 6
G26  20666048.269 9 108600794.300 9     -1506.498 9        55.868 9  20666051.090 6         0.000 6     -1173.895 6        37.977 6
G20  21924167.352 9 115212244.138 9      2547.470 9        55.323 9  21924167.662 6         0.000 6      1985.043 6        37.977 6
> 2019 07 03 12 01 41.0000000  0  8       0.000000000000
G07  25329884.805 9 133109397.114 9      2167.383 9        54.137 9  25329885.466 6         0.000 6      1688.871 6        37.977 6
G10  23781537.381 9 124972768.201 9      3523.561 9        54.680 9  23781541.081 6         0.000 6      2745.635 6        37.977 6
G21  21180828.677 9 111305985.245 9     -1266.138 9        55.705 9  21180827.964 6         0.000 6      -986.601 6        37.977 6
G29  24324427.984 9 127825674.994 9     -3123.608 9        54.466 9  24324429.584 6         0.000 6     -2433.983 6        37.977 6
G27  21984989.425 9 115531872.317 9      2489.491 9        55.382 9  21984991.351 6         0.000 6      1939.864 6        37.977 6
G16  20492928.884 9 107691047.830 9       531.274 9        55.978 9  20492928.058 6         0.000 6       413.980 6        37.977 6
G26  20666335.001 9 108602301.084 9     -1507.072 9        55.868 9  20666337.822 6         0.000 6     -1174.342 6        37.977 6
G20  21923682.627 9 115209696.896 9      2547.023 9        55.324 9  21923682.937 6         0.000 6      1984.694 6        37.977 6
> 2019 07 03 12 01 42.0000000  0  8       0.000000000000
G07  25329472.410 9 133107229.969 9      2166.921 9        54.138 9  25329473.071 6         0.000 6      1688.511 6        37.977 6
G10  23780866.882 9 124969244.717 9      3523.420 9        54.680 9  23780870.581 6         0.000 6      2745.524 6        37.977 6
G21  21181069.648 9 111307251.560 9     -1266.496 9        55.705 9  21181068.936 6         0.000 6      -986.881 6        37.977 6
G29  24325022.395 9 127828798.634 9     -3123.692 9        54.466 9  24325023.996 6         0.000 6     -2434.048 6        37.977 6
G27  21984515.713 9 115529382.946 9      2489.252 9        55.382 9  21984517.639 6         0.000 6      1939.678 6        37.977 6
G16  20492827.844 9 107690516.861 9       530.656 9        55.978 9  20492827.018 6         0.000 6       413.498 6        37.977 6
G26  20666621.841 9 108603808.435 9     -1507.645 9        55.868 9  20666624.662 6         0.000 6     -1174.789 6        37.977 6
G20  21923197.987 9 115207150.097 9      2546.576 9        55.324 9  21923198.296 6         0.000 6      1984.346 6        37.977 6
> 2019 07 03 12 01 43.0000000  0  8       0.000000000000
G07  25329060.103 9 133105063.283 9      2166.458 9        54.138 9  25329060.763 6         0.000 6      1688.150 6        37.977 6
G10  23780196.411 9 124965721.379 9      3523.278 9        54.680 9  23780200.110 6         0.000 6      2745.414 6        37.977 6
G21  21181310.689 9 111308518.235 9     -1266.855 9        55.705 9  21181309.976 6         0.000 6      -987.160 6        37.977 6
G29  24325616.822 9 127831922.358 9     -3123.777 9        54.466 9  24325618.423 6         0.000 6     -2434.114 6        37.977 6
G27  21984042.047 9 115526893.815 9      2489.014 9        55.382 9  21984043.972 6         0.000 6      1939.492 6        37.977 6
G16  20492726.923 9 107689986.514 9       530.039 9        55.978 9  20492726.096 6         0.000 6       413.017 6        37.977 6
G26  20666908.791 9 108605316.365 9     -1508.218 9        55.868 9  20666911.612 6         0.000 6     -1175.236 6        37.977 6
G20  21922713.432 9 115204603.749 9      2546.128 9        55.324 9  21922713.741 6         0.000 6      1983.997 6        37.977 6
> 2019 07 03 12 01 44.0000000  0  8       0.000000000000
G07  25328647.884 9 133102897.062 9      2165.996 9        54.138 9  25328648.544 6         0.000 6      1687.790 6        37.977 6
G10  23779525.966 9 124962198.178 9      3523.136 9        54.680 9  23779529.664 6         0.000 6      2745.304 6        37.977 6
G21  21181551.797 9 111309785.266 9     -1267.213 9        55.705 9  21181551.085 6         0.000 6      -987.439 6        37.977 6
G29  24326211.265 9 127835046.167 9     -3123.861 9        54.465 9  24326212.867 6         0.000 6     -2434.180 6        37.977 6
G27  21983568.425 9 115524404.921 9      2488.776 9        55.383 9  21983570.351 6         0.000 6      1939.306 6        37.977 6
G16  20492626.118 9 107689456.781 9       529.421 9        55.979 9  20492625.291 6         0.000 6       412.536 6        37.977 6
G26  20667195.849 9 108606824.864 9     -1508.792 9        55.868 9  20667198.670 6         0.000 6     -1175.682 6        37.977 6
G20  21922228.962 9 115202057.845 9      2545.681 9        55.324 9  21922229.271 6         0.000 6      1983.649 6        37.977 6
> 2019 07 03 12 01 45.0000000  0  8       0.000000000000
G07  25328235.753 9 133100731.301 9      2165.533 9        54.138 9  25328236.413 6         0.000 6      1687.429 6        37.977 6
G10  23778855.549 9 124958675.123 9      3522.994 9        54.681 9  23778859.246 6         0.000 6      2745.193 6        37.977 6
G21  21181792.974 9 111311052.657 9     -1267.572 9        55.705 9  21181792.261 6         0.000 6      -987.718 6        37.977 6
G29  24326805.724 9 127838170.060 9     -3123.946 9        54.465 9  24326807.327 6         0.000 6     -2434.246 6        37.977 6
G27  21983094.850 9 115521916.268 9      2488.537 9        55.383 9  21983096.775 6         0.000 6      1939.120 6        37.977 6
G16  20492525.431 9 107688927.669 9       528.803 9        55.979 9  20492524.604 6         0.000 6       412.054 6        37.977 6
G26  20667483.017 9 108608333.940 9     -1509.365 9        55.868 9  20667485.838 6         0.000 6     -1176.129 6        37.977 6
G20  21921744.577 9 115199512.392 9      2545.234 9        55.324 9  21921744.886 6         0.000 6      1983.300 6        37.977 6
> 2019 07 03 12 01 46.0000000  0  8       0.000000000000
G07  25327823.711 9 133098566.008 9      2165.070 9        54.138 9  25327824.371 6         0.000 6      1687.069 6        37.977 6
G10  23778185.158 9 124955152.204 9      3522.852 9        54.681 9  23778188.855 6         0.000 6      2745.082 6        37.977 6
G21  21182034.218 9 111312320.403 9     -1267.930 9        55.705 9  21182033.506 6         0.000 6      -987.998 6        37.977 6
G29  24327400.198 9 127841294.033 9     -3124.030 9        54.465 9  24327401.802 6         0.000 6     -2434.312 6        37.977 6
G27  21982621.320 9 115519427.854 9      2488.299 9        55.383 9  21982623.245 6         0.000 6      1938.935 6        37.977 6
G16  20492424.862 9 107688399.173 9       528.185 9        55.979 9  20492424.035 6         0.000 6       411.573 6        37.977 6
G26  20667770.293 9 108609843.585 9     -1509.938 9        55.868 9  20667773.115 6         0.000 6     -1176.576 6        37.977 6
G20  21921260.277 9 115196967.379 9      2544.786 9        55.325 9  21921260.585 6         0.000 6      1982.951 6        37.977 6
> 2019 07 03 12 01 47.0000000  0  8       0.000000000000
G07  25327411.756 9 133096401.173 9      2164.608 9        54.138 9  25327412.415 6         0.000 6      1686.708 6        37.977 6
G10  23777514.795 9 124951629.433 9      3522.710 9        54.681 9  23777518.491 6         0.000 6      2744.972 6        37.977 6
G21  21182275.531 9 111313588.511 9     -1268.288 9        55.705 9  21182274.819 6         0.000 6      -988.277 6        37.977 6
G29  24327994.689 9 127844418.095 9     -3124.115 9        54.465 9  24327996.293 6         0.000 6     -2434.378 6        37.977 6
G27  21982147.835 9 115516939.678 9      2488.060 9        55.383 9  21982149.760 6         0.000 6      1938.749 6        37.977 6
G16  20492324.410 9 107687871.296 9       527.567 9        55.979 9  20492323.583 6         0.000 6       411.091 6        37.977 6
G26  20668057.679 9 108611353.808 9     -1510.511 9        55.867 9  20668060.501 6         0.000 6     -1177.022 6        37.977 6
G20  21920776.062 9 115194422.822 9      2544.338 9        55.325 9  21920776.371 6         0.000 6      1982.602 6        37.977 6
> 2019 07 03 12 01 48.0000000  0  8       0.000000000000
G07  25326999.888 9 133094236.800 9      2164.145 9        54.138 9  25327000.548 6         0.000 6      1686.347 6        37.977 6
G10  23776844.459 9 124948106.805 9      3522.568 9        54.681 9  23776848.154 6         0.000 6      2744.861 6        37.977 6
G21  21182516.912 9 111314856.978 9     -1268.646 9        55.704 9  21182516.200 6         0.000 6      -988.556 6        37.977 6
G29  24328589.196 9 127847542.242 9     -3124.199 9        54.465 9  24328590.801 6         0.000 6     -2434.444 6        37.977 6
G27  21981674.396 9 115514451.740 9      2487.821 9        55.383 9  21981676.321 6         0.000 6      1938.563 6        37.977 6
G16  20492224.076 9 107687344.038 9       526.949 9        55.979 9  20492223.249 6         0.000 6       410.610 6        37.977 6
G26  20668345.175 9 108612864.604 9     -1511.085 9        55.867 9  20668347.996 6         0.000 6     -1177.469 6        37.977 6
G20  21920291.934 9 115191878.712 9      2543.891 9        55.325 9  21920292.242 6         0.000 6      1982.254 6        37.977 6
> 2019 07 03 12 01 49.0000000  0  8       0.000000000000
G07  25326588.110 9 133092072.893 9      2163.682 9        54.139 9  25326588.769 6         0.000 6      1685.987 6        37.977 6
G10  23776174.150 9 124944584.314 9      3522.426 9        54.681 9  23776177.844 6         0.000 6      2744.750 6        37.977 6
G21  21182758.361 9 111316125.800 9     -1269.005 9        55.704 9  21182757.649 6         0.000 6      -988.835 6        37.977 6
G29  24329183.720 9 127850666.473 9     -3124.284 9        54.464 9  24329185.325 6         0.000 6     -2434.509 6        37.977 6
G27  21981201.002 9 115511964.039 9      2487.583 9        55.384 9  21981202.926 6         0.000 6      1938.377 6        37.977 6
G16  20492123.859 9 107686817.394 9       526.331 9        55.979 9  20492123.032 6         0.000 6       410.128 6        37.977 6
G26  20668632.778 9 108614375.969 9     -1511.658 9        55.867 9  20668635.600 6         0.000 6     -1177.916 6        37.977 6
G20  21919807.889 9 115189335.045 9      2543.443 9        55.325 9  21919808.197 6         0.000 6      1981.905 6        37.977 6
> 2019 07 03 12 01 50.0000000  0  8       0.000000000000
G07  25326176.419 9 133089909.447 9      2163.219 9        54.139 9  25326177.078 6         0.000 6      1685.626 6        37.977 6
G10  23775503.868 9 124941061.970 9      3522.283 9        54.682 9  23775507.562 6         0.000 6      2744.639 6        37.977 6
G21  21182999.879 9 111317394.983 9     -1269.363 9        55.704 9  21182999.167 6         0.000 6      -989.114 6        37.977 6
G29  24329778.259 9 127853790.789 9     -3124.368 9        54.464 9  24329779.866 6         0.000 6     -2434.575 6        37.977 6
G27  21980727.653 9 115509476.578 9      2487.344 9        55.384 9  21980729.578 6         0.000 6      1938.191 6        37.977 6
G16  20492023.761 9 107686291.372 9       525.713 9        55.979 9  20492022.934 6         0.000 6       409.647 6        37.977 6
G26  20668920.492 9 108615887.911 9     -1512.231 9        55.867 9  20668923.314 6         0.000 6     -1178.362 6        37.977 6
G20  21919323.931 9 115186791.831 9      2542.995 9        55.325 9  21919324.238 6         0.000 6      1981.556 6        37.977 6
> 2019 07 03 12 01 51.0000000  0  8       0.000000000000
G07  25325764.817 9 133087746.466 9      2162.756 9        54.139 9  25325765.476 6         0.000 6      1685.265 6        37.977 6
G10  23774833.612 9 124937539.764 9      3522.141 9        54.682 9  23774837.305 6         0.000 6      2744.528 6        37.977 6
G21  21183241.464 9 111318664.522 9     -1269.721 9        55.704 9  21183240.752 6         0.000 6      -989.393 6        37.977 6
G29  24330372.815 9 127856915.189 9     -3124.453 9        54.464 9  24330374.422 6         0.000 6     -2434.641 6        37.977 6
G27  21980254.350 9 115506989.354 9      2487.105 9        55.384 9  21980256.274 6         0.000 6      1938.005 6        37.977 6
G16  20491923.779 9 107685765.964 9       525.095 9        55.979 9  20491922.952 6         0.000 6       409.165 6        37.977 6
G26  20669208.313 9 108617400.422 9     -1512.804 9        55.867 9  20669211.135 6         0.000 6     -1178.809 6        37.977 6
G20  21918840.057 9 115184249.060 9      2542.547 9        55.325 9  21918840.364 6         0.000 6      1981.207 6        37.977 6
> 2019 07 03 12 01 52.0000000  0  8       0.000000000000
G07  25325353.302 9 133085583.945 9      2162.292 9        54.139 9  25325353.961 6         0.000 6      1684.904 6        37.977 6
G10  23774163.385 9 124934017.705 9      3521.998 9        54.682 9  23774167.077 6         0.000 6      2744.417 6        37.977 6
G21  21183483.118 9 111319934.421 9     -1270.079 9        55.704 9  21183482.406 6         0.000 6      -989.672 6        37.977 6
G29  24330967.386 9 127860039.673 9     -3124.537 9        54.464 9  24330968.994 6         0.000 6     -2434.707 6        37.977 6
G27  21979781.092 9 115504502.371 9      2486.867 9        55.384 9  21979783.016 6         0.000 6      1937.819 6        37.977 6
G16  20491823.915 9 107685241.178 9       524.477 9        55.979 9  20491823.088 6         0.000 6       408.684 6        37.977 6
G26  20669496.245 9 108618913.511 9     -1513.377 9        55.867 9  20669499.067 6         0.000 6     -1179.255 6        37.977 6
G20  21918356.269 9 115181706.742 9      2542.099 9        55.326 9  21918356.576 6         0.000 6      1980.857 6        37.977 6
> 2019 07 03 12 01 53.0000000  0  8       0.000000000000
G07  25324941.876 9 133083421.891 9      2161.829 9        54.139 9  25324942.535 6         0.000 6      1684.543 6        37.977 6
G10  23773493.183 9 124930495.784 9      3521.856 9        54.682 9  23773496.875 6         0.000 6      2744.306 6        37.977 6
G21  21183724.839 9 111321204.675 9     -1270.436 9        55.704 9  21183724.128 6         0.000 6      -989.951 6        37.977 6
G29  24331561.974 9 127863164.242 9     -3124.621 9        54.464 9  24331563.582 6         0.000 6     -2434.772 6        37.977 6
G27  21979307.879 9 115502015.625 9      2486.628 9        55.384 9  21979309.803 6         0.000 6      1937.633 6        37.977 6
G16  20491724.169 9 107684717.006 9       523.859 9        55.979 9  20491723.342 6         0.000 6       408.202 6        37.977 6
G26  20669784.284 9 108620427.167 9     -1513.950 9        55.867 9  20669787.107 6         0.000 6     -1179.702 6        37.977 6
G20  21917872.565 9 115179164.867 9      2541.651 9        55.326 9  21917872.872 6         0.000 6      1980.508 6        37.977 6
> 2019 07 03 12 01 54.0000000  0  8       0.000000000000
G07  25324530.538 9 133081260.299 9      2161.366 9        54.139 9  25324531.197 6         0.000 6      1684.182 6        37.977 6
G10  23772823.010 9 124926974.008 9      3521.713 9        54.683 9  23772826.701 6         0.000 6      2744.194 6        37.977 6
G21  21183966.629 9 111322475.287 9     -1270.794 9        55.704 9  21183965.917 6         0.000 6      -990.229 6        37.977 6
G29  24332156.577 9 127866288.890 9     -3124.706 9        54.463 9  24332158.186 6         0.000 6     -2434.838 6        37.977 6
G27  21978834.713 9 115499529.123 9      2486.389 9        55.384 9  21978836.637 6         0.000 6      1937.447 6        37.977 6
G16  20491624.541 9 107684193.457 9       523.241 9        55.979 9  20491623.714 6         0.000 6       407.720 6        37.977 6
G26  20670072.434 9 108621941.402 9     -1514.523 9        55.867 9  20670075.256 6         0.000 6     -1180.148 6        37.977 6
G20  21917388.947 9 115176623.442 9      2541.202 9        55.326 9  21917389.254 6         0.000 6      1980.159 6        37.977 6
> 2019 07 03 12 01 55.0000000  0  8       0.000000000000
G07  25324119.289 9 133079099.172 9      2160.903 9        54.139 9  25324119.947 6         0.000 6      1683.821 6        37.977 6
G10  23772152.863 9 124923452.373 9      3521.570 9        54.683 9  23772156.553 6         0.000 6      2744.083 6        37.977 6
G21  21184208.487 9 111323746.257 9     -1271.152 9        55.704 9  21184207.775 6         0.000 6      -990.508 6        37.977 6
G29  24332751.197 9 127869413.627 9     -3124.790 9        54.463 9  24332752.806 6         0.000 6     -2434.904 6        37.977 6
G27  21978361.592 9 115497042.854 9      2486.150 9        55.385 9  21978363.515 6         0.000 6      1937.260 6        37.977 6
G16  20491525.029 9 107683670.522 9       522.623 9        55.979 9  20491524.203 6         0.000 6       407.239 6        37.977 6
G26  20670360.692 9 108623456.204 9     -1515.096 9        55.866 9  20670363.514 6         0.000 6     -1180.594 6        37.977 6
G20  21916905.414 9 115174082.464 9      2540.754 9        55.326 9  21916905.720 6         0.000 6      1979.809 6        37.977 6
> 2019 07 03 12 01 56.0000000  0  8       0.000000000000
G07  25323708.127 9 133076938.504 9      2160.439 9        54.140 9  25323708.785 6         0.000 6      1683.460 6        37.977 6
G10  23771482.744 9 124919930.885 9      3521.427 9        54.683 9  23771486.434 6         0.000 6      2743.972 6        37.977 6
G21  21184450.413 9 111325017.588 9     -1271.510 9        55.704 9  21184449.701 6         0.000 6      -990.787 6        37.977 6
G29  24333345.832 9 127872538.449 9     -3124.874 9        54.463 9  24333347.442 6         0.000 6     -2434.970 6        37.977 6
G27  21977888.516 9 115494556.826 9      2485.911 9        55.385 9  21977890.439 6         0.000 6      1937.074 6        37.977 6
G16  20491425.636 9 107683148.208 9       522.005 9        55.979 9  20491424.810 6         0.000 6       406.757 6        37.977 6
G26  20670649.059 9 108624971.584 9     -1515.669 9        55.866 9  20670651.882 6         0.000 6     -1181.041 6        37.977 6
G20  21916421.968 9 115171541.939 9      2540.305 9        55.326 9  21916422.273 6         0.000 6      1979.460 6        37.977 6
> 2019 07 03 12 01 57.0000000  0  8       0.000000000000
G07  25323297.054 9 133074778.303 9      2159.975 9        54.140 9  25323297.711 6         0.000 6      1683.099 6        37.977 6
G10  23770812.652 9 124916409.536 9      3521.284 9        54.683 9  23770816.341 6         0.000 6      2743.860 6        37.977 6
G21  21184692.407 9 111326289.273 9     -1271.867 9        55.704 9  21184691.695 6         0.000 6      -991.066 6        37.977 6
G29  24333940.484 9 127875663.355 9     -3124.958 9        54.463 9  24333942.095 6         0.000 6     -2435.035 6        37.977 6
G27  21977415.485 9 115492071.035 9      2485.672 9        55.385 9  21977417.408 6         0.000 6      1936.888 6        37.977 6
G16  20491326.360 9 107682626.509 9       521.386 9        55.979 9  20491325.534 6         0.000 6       406.275 6        37.977 6
G26  20670937.535 9 108626487.533 9     -1516.241 9        55.866 9  20670940.358 6         0.000 6     -1181.487 6        37.977 6
G20  21915938.605 9 115169001.858 9      2539.857 9        55.327 9  21915938.911 6         0.000 6      1979.110 6        37.977 6
> 2019 07 03 12 01 58.0000000  0  8       0.000000000000
G07  25322886.068 9 133072618.563 9      2159.512 9        54.140 9  25322886.725 6         0.000 6      1682.737 6        37.977 6
G10  23770142.587 9 124912888.334 9      3521.140 9        54.684 9  23770146.276 6         0.000 6      2743.748 6        37.977 6
G21  21184934.469 9 111327561.319 9     -1272.225 9        55.703 9  21184933.758 6         0.000 6      -991.344 6        37.977 6
G29  24334535.152 9 127878788.345 9     -3125.043 9        54.462 9  24334536.763 6         0.000 6     -2435.101 6        37.977 6
G27  21976942.500 9 115489585.485 9      2485.433 9        55.385 9  21976944.423 6         0.000 6      1936.702 6        37.977 6
G16  20491227.203 9 107682105.432 9       520.768 9        55.979 9  20491226.376 6         0.000 6       405.793 6        37.977 6
G26  20671226.121 9 108628004.059 9     -1516.814 9        55.866 9  20671228.943 6         0.000 6     -1181.934 6        37.977 6
G20  21915455.329 9 115166462.230 9      2539.408 9        55.327 9  21915455.635 6         0.000 6      1978.761 6        37.977 6
> 2019 07 03 12 01 59.0000000  0  8       0.000000000000
G07  25322475.171 9 133070459.287 9      2159.048 9        54.140 9  25322475.828 6         0.000 6      1682.376 6        37.977 6
G10  23769472.550 9 124909367.276 9      3520.997 9        54.684 9  23769476.238 6         0.000 6      2743.637 6        37.977 6
G21  21185176.600 9 111328833.722 9     -1272.583 9        55.703 9  21185175.888 6         0.000 6      -991.623 6        37.977 6
G29  24335129.836 9 127881913.420 9     -3125.127 9        54.462 9  24335131.448 6         0.000 6     -2435.166 6        37.977 6
G27  21976469.560 9 115487100.174 9      2485.194 9        55.385 9  21976471.484 6         0.000 6      1936.516 6        37.977 6
G16  20491128.163 9 107681584.973 9       520.150 9        55.979 9  20491127.336 6         0.000 6       405.311 6        37.977 6
G26  20671514.815 9 108629521.157 9     -1517.387 9        55.866 9  20671517.638 6         0.000 6     -1182.380 6        37.977 6
G20  21914972.139 9 115163923.050 9      2538.959 9        55.327 9  21914972.444 6         0.000 6      1978.411 6        37.977 6
> 2019 07 03 12 02  0.0000000  0  8       0.000000000000
G07  25322064.362 9 133068300.477 9      2158.584 9        54.140 9  25322065.019 6         0.000 6      1682.015 6        37.977 6
G10  23768802.539 9 124905846.357 9      3520.854 9        54.684 9  23768806.227 6         0.000 6      2743.525 6        37.977 6
G21  21185418.798 9 111330106.480 9     -1272.940 9        55.703 9  21185418.086 6         0.000 6      -991.902 6        37.977 6
G29  24335724.536 9 127885038.579 9     -3125.211 9        54.462 9  24335726.148 6         0.000 6     -2435.232 6        37.977 6
G27  21975996.666 9 115484615.101 9      2484.955 9        55.386 9  21975998.589 6         0.000 6      1936.329 6        37.977 6
G16  20491029.240 9 107681065.129 9       519.531 9        55.979 9  20491028.413 6         0.000 6       404.830 6        37.977 6
G26  20671803.618 9 108631038.824 9     -1517.960 9        55.866 9  20671806.441 6         0.000 6     -1182.826 6        37.977 6
G20  21914489.033 9 115161384.315 9      2538.511 9        55.327 9  21914489.338 6         0.000 6      1978.061 6        37.977 6
> 2019 07 03 12 02  1.0000000  0  8       0.000000000000
G07  25321653.641 9 133066142.128 9      2158.120 9        54.140 9  25321654.298 6         0.000 6      1681.653 6        37.977 6
G10  23768132.557 9 124902325.585 9      3520.710 9        54.684 9  23768136.244 6         0.000 6      2743.413 6        37.977 6
G21  21185661.064 9 111331379.598 9     -1273.298 9        55.703 9  21185660.352 6         0.000 6      -992.180 6        37.977 6
G29  24336319.252 9 127888163.821 9     -3125.295 9        54.462 9  24336320.865 6         0.000 6     -2435.298 6        37.977 6
G27  21975523.818 9 115482130.268 9      2484.716 9        55.386 9  21975525.740 6         0.000 6      1936.143 6        37.977 6
G16  20490930.435 9 107680545.907 9       518.913 9        55.979 9  20490929.608 6         0.000 6       404.348 6        37.977 6
G26  20672092.530 9 108632557.068 9     -1518.532 9        55.866 9  20672095.354 6         0.000 6     -1183.272 6        37.977 6
G20  21914006.013 9 115158846.034 9      2538.062 9        55.327 9  21914006.317 6         0.000 6      1977.712 6        37.977 6
> 2019 07 03 12 02  2.0000000  0  8       0.000000000000
G07  25321243.010 9 133063984.249 9      2157.657 9        54.140 9  25321243.666 6         0.000 6      1681.292 6        37.977 6
G10  23767462.600 9 124898804.951 9      3520.567 9        54.685 9  23767466.286 6         0.000 6      2743.301 6        37.977 6
G21  21185903.398 9 111332653.069 9     -1273.655 9        55.703 9  21185902.686 6         0.000 6      -992.459 6        37.977 6
G29  24336913.983 9 127891289.143 9     -3125.379 9        54.462 9  24336915.596 6         0.000 6     -2435.363 6        37.977 6
G27  21975051.015 9 115479645.676 9      2484.477 9        55.386 9  21975052.938 6         0.000 6      1935.957 6        37.977 6
G16  20490831.748 9 107680027.302 9       518.295 9        55.979 9  20490830.921 6         0.000 6       403.866 6        37.977 6
G26  20672381.551 9 108634075.880 9     -1519.105 9        55.866 9  20672384.374 6         0.000 6     -1183.719 6        37.977 6
G20  21913523.077 9 115156308.194 9      2537.613 9        55.328 9  21913523.381 6         0.000 6      1977.362 6        37.977 6
> 2019 07 03 12 02  3.0000000  0  8       0.000000000000
G07  25320832.466 9 133061826.828 9      2157.192 9        54.140 9  25320833.122 6         0.000 6      1680.930 6        37.977 6
G10  23766792.673 9 124895284.467 9      3520.423 9        54.685 9  23766796.358 6         0.000 6      2743.189 6        37.977 6
G21  21186145.800 9 111333926.902 9     -1274.012 9        55.703 9  21186145.089 6         0.000 6      -992.737 6        37.977 6
G29  24337508.730 9 127894414.554 9     -3125.464 9        54.461 9  24337510.345 6         0.000 6     -2435.429 6        37.977 6
G27  21974578.258 9 115477161.321 9      2484.238 9        55.386 9  21974580.180 6         0.000 6      1935.770 6        37.977 6
G16  20490733.178 9 107679509.316 9       517.676 9        55.979 9  20490732.351 6         0.000 6       403.384 6        37.977 6
G26  20672670.682 9 108635595.270 9     -1519.678 9        55.865 9  20672673.505 6         0.000 6     -1184.165 6        37.977 6
G20  21913040.228 9 115153770.810 9      2537.164 9        55.328 9  21913040.532 6         0.000 6      1977.012 6        37.977 6
> 2019 07 03 12 02  4.0000000  0  8       0.000000000000
G07  25320422.010 9 133059669.874 9      2156.728 9        54.141 9  25320422.666 6         0.000 6      1680.568 6        37.977 6
G10  23766122.771 9 124891764.122 9      3520.279 9        54.685 9  23766126.456 6         0.000 6      2743.077 6        37.977 6
G21  21186388.270 9 111335201.090 9     -1274.370 9        55.703 9  21186387.559 6         0.000 6      -993.015 6        37.977 6
G29  24338103.494 9 127897540.050 9     -3125.548 9        54.461 9  24338105.110 6         0.000 6     -2435.494 6        37.977 6
G27  21974105.545 9 115474677.204 9      2483.998 9        55.386 9  21974107.468 6         0.000 6      1935.584 6        37.977 6
G16  20490634.726 9 107678991.946 9       517.057 9        55.979 9  20490633.899 6         0.000 6       402.902 6        37.977 6
G26  20672959.920 9 108637115.227 9     -1520.250 9        55.865 9  20672962.744 6         0.000 6     -1184.611 6        37.977 6
G20  21912557.464 9 115151233.871 9      2536.714 9        55.328 9  21912557.768 6         0.000 6      1976.662 6        37.977 6
> 2019 07 03 12 02  5.0000000  0  8       0.000000000000
G07  25320011.643 9 133057513.381 9      2156.264 9        54.141 9  25320012.298 6         0.000 6      1680.207 6        37.977 6
G10  23765452.898 9 124888243.926 9      3520.135 9        54.685 9  23765456.582 6         0.000 6      2742.965 6        37.977 6
G21  21186630.809 9 111336475.637 9     -1274.727 9        55.703 9  21186630.097 6         0.000 6      -993.294 6        37.977 6
G29  24338698.274 9 127900665.629 9     -3125.632 9        54.461 9  24338699.890 6         0.000 6     -2435.560 6        37.977 6
G27  21973632.879 9 115472193.328 9      2483.759 9        55.387 9  21973634.801 6         0.000 6      1935.397 6        37.977 6
G16  20490536.392 9 107678475.198 9       516.439 9        55.979 9  20490535.565 6         0.000 6       402.420 6        37.977 6
G26  20673249.269 9 108638635.762 9     -1520.823 9        55.865 9  20673252.092 6         0.000 6     -1185.057 6        37.977 6
G20  21912074.786 9 115148697.386 9      2536.265 9        55.328 9  21912075.090 6         0.000 6      1976.311 6        37.977 6
> 2019 07 03 12 02  6.0000000  0  8       0.000000000000
G07  25319601.364 9 133055357.355 9      2155.800 9        54.141 9  25319602.019 6         0.000 6      1679.845 6        37.977 6
G10  23764783.052 9 124884723.869 9      3519.991 9        54.686 9  23764786.735 6         0.000 6      2742.853 6        37.977 6
G21  21186873.415 9 111337750.540 9     -1275.084 9        55.703 9  21186872.703 6         0.000 6      -993.572 6        37.977 6
G29  24339293.070 9 127903791.292 9     -3125.716 9        54.461 9  24339294.687 6         0.000 6     -2435.625 6        37.977 6
G27  21973160.258 9 115469709.689 9      2483.520 9        55.387 9  21973162.180 6         0.000 6      1935.211 6        37.977 6
G16  20490438.175 9 107677959.065 9       515.820 9        55.979 9  20490437.348 6         0.000 6       401.938 6        37.977 6
G26  20673538.725 9 108640156.864 9     -1521.395 9        55.865 9  20673541.549 6         0.000 6     -1185.503 6        37.977 6
G20  21911592.193 9 115146161.346 9      2535.816 9        55.328 9  21911592.496 6         0.000 6      1975.961 6        37.977 6
> 2019 07 03 12 02  7.0000000  0  8       0.000000000000
G07  25319191.173 9 133053201.791 9      2155.336 9        54.141 9  25319191.828 6         0.000 6      1679.483 6        37.977 6
G10  23764113.233 9 124881203.961 9      3519.847 9        54.686 9  23764116.916 6         0.000 6      2742.740 6        37.977 6
G21  21187116.089 9 111339025.801 9     -1275.441 9        55.703 9  21187115.378 6         0.000 6      -993.850 6        37.977 6
G29  24339887.882 9 127906917.040 9     -3125.800 9        54.461 9  24339889.499 6         0.000 6     -2435.691 6        37.977 6
G27  21972687.682 9 115467226.292 9      2483.280 9        55.387 9  21972689.604 6         0.000 6      1935.024 6        37.977 6
G16  20490340.077 9 107677443.554 9       515.202 9        55.979 9  20490339.250 6         0.000 6       401.456 6        37.977 6
G26  20673828.292 9 108641678.544 9     -1521.968 9        55.865 9  20673831.115 6         0.000 6     -1185.949 6        37.977 6
G20  21911109.686 9 115143625.760 9      2535.366 9        55.329 9  21911109.989 6         0.000 6      1975.611 6        37.977 6
> 2019 07 03 12 02  8.0000000  0  8       0.000000000000
G07  25318781.071 9 133051046.691 9      2154.871 9        54.141 9  25318781.726 6         0.000 6      1679.121 6        37.977 6
G10  23763443.443 9 124877684.197 9      3519.702 9        54.686 9  23763447.125 6         0.000 6      2742.628 6        37.977 6
G21  21187358.831 9 111340301.420 9     -1275.798 9        55.702 9  21187358.120 6         0.000 6      -994.129 6        37.977 6
G29  24340482.710 9 127910042.871 9     -3125.884 9        54.460 9  24340484.328 6         0.000 6     -2435.756 6        37.977 6
G27  21972215.153 9 115464743.134 9      2483.041 9        55.387 9  21972217.074 6         0.000 6      1934.838 6        37.977 6
G16  20490242.096 9 107676928.662 9       514.583 9        55.980 9  20490241.269 6         0.000 6       400.974 6        37.977 6
G26  20674117.967 9 108643200.796 9     -1522.540 9        55.865 9  20674120.791 6         0.000 6     -1186.395 6        37.977 6
G20  21910627.265 9 115141090.623 9      2534.916 9        55.329 9  21910627.567 6         0.000 6      1975.261 6        37.977 6
> 2019 07 03 12 02  9.0000000  0  8       0.000000000000
G07  25318371.057 9 133048892.058 9      2154.407 9        54.141 9  25318371.712 6         0.000 6      1678.759 6        37.977 6
G10  23762773.678 9 124874164.572 9      3519.558 9        54.686 9  23762777.360 6         0.000 6      2742.515 6        37.977 6
G21  21187601.641 9 111341577.394 9     -1276.155 9        55.702 9  21187600.930 6         0.000 6      -994.407 6        37.977 6
G29  24341077.554 9 127913168.787 9     -3125.968 9        54.460 9  24341079.172 6         0.000 6     -2435.822 6        37.977 6
G27  21971742.668 9 115462260.213 9      2482.802 9        55.387 9  21971744.589 6         0.000 6      1934.651 6        37.977 6
G16  20490144.233 9 107676414.385 9       513.964 9        55.980 9  20490143.406 6         0.000 6       400.492 6        37.977 6
G26  20674407.750 9 108644723.615 9     -1523.113 9        55.865 9  20674410.574 6         0.000 6     -1186.841 6        37.977 6
G20  21910144.928 9 115138555.931 9      2534.467 9        55.329 9  21910145.230 6         0.000 6      1974.910 6        37.977 6
> 2019 07 03 12 02 10.0000000  0  8       0.000000000000
G07  25317961.132 9 133046737.890 9      2153.942 9        54.141 9  25317961.786 6         0.000 6      1678.397 6        37.977 6
G10  23762103.942 9 124870645.095 9      3519.413 9        54.687 9  23762107.623 6         0.000 6      2742.403 6        37.977 6
G21  21187844.519 9 111342853.725 9     -1276.512 9        55.702 9  21187843.808 6         0.000 6      -994.685 6        37.977 6
G29  24341672.413 9 127916294.781 9     -3126.052 9        54.460 9  24341674.032 6         0.000 6     -2435.887 6        37.977 6
G27  21971270.230 9 115459777.537 9      2482.562 9        55.387 9  21971272.151 6         0.000 6      1934.465 6        37.977 6
G16  20490046.488 9 107675900.732 9       513.345 9        55.980 9  20490045.661 6         0.000 6       400.009 6        37.977 6
G26  20674697.643 9 108646247.012 9     -1523.685 9        55.865 9  20674700.467 6         0.000 6     -1187.287 6        37.977 6
G20  21909662.677 9 115136021.691 9      2534.017 9        55.329 9  21909662.979 6         0.000 6      1974.560 6        37.977 6
> 2019 07 03 12 02 11.0000000  0  8       0.000000000000
G07  25317551.295 9 133044584.186 9      2153.478 9        54.142 9  25317551.949 6         0.000 6      1678.035 6        37.977 6
G10  23761434.233 9 124867125.760 9      3519.269 9        54.687 9  23761437.913 6         0.000 6      2742.290 6        37.977 6
G21  21188087.465 9 111344130.412 9     -1276.869 9        55.702 9  21188086.754 6         0.000 6      -994.963 6        37.977 6
G29  24342267.289 9 127919420.864 9     -3126.136 9        54.460 9  24342268.908 6         0.000 6     -2435.953 6        37.977 6
G27  21970797.836 9 115457295.096 9      2482.323 9        55.388 9  21970799.758 6         0.000 6      1934.278 6        37.977 6
G16  20489948.859 9 107675387.692 9       512.727 9        55.980 9  20489948.032 6         0.000 6       399.527 6        37.977 6
G26  20674987.644 9 108647770.977 9     -1524.257 9        55.864 9  20674990.469 6         0.000 6     -1187.733 6        37.977 6
G20  21909180.512 9 115133487.899 9      2533.567 9        55.329 9  21909180.814 6         0.000 6      1974.209 6        37.977 6
> 2019 07 03 12 02 12.0000000  0  8       0.000000000000
G07  25317141.546 9 133042430.945 9      2153.013 9        54.142 9  25317142.200 6         0.000 6      1677.673 6        37.977 6
G10  23760764.552 9 124863606.574 9      3519.124 9        54.687 9  23760768.231 6         0.000 6      2742.177 6        37.977 6
G21  21188330.479 9 111345407.459 9     -1277.226 9        55.702 9  21188329.768 6         0.000 6      -995.241 6        37.977 6
G29  24342862.181 9 127922547.032 9     -3126.220 9        54.460 9  24342863.801 6         0.000 6     -2436.018 6        37.977 6
G27  21970325.489 9 115454812.895 9      2482.083 9        55.388 9  21970327.410 6         0.000 6      1934.092 6        37.977 6
G16  20489851.350 9 107674875.275 9       512.108 9        55.980 9  20489850.523 6         0.000 6       399.045 6        37.977 6
G26  20675277.755 9 108649295.518 9     -1524.830 9        55.864 9  20675280.580 6         0.000 6     -1188.179 6        37.977 6
G20  21908698.433 9 115130954.561 9      2533.117 9        55.329 9  21908698.735 6         0.000 6      1973.859 6        37.977 6
> 2019 07 03 12 02 13.0000000  0  8       0.000000000000
G07  25316731.886 9 133040278.171 9      2152.548 9        54.142 9  25316732.540 6         0.000 6      1677.311 6        37.977 6
G10  23760094.898 9 124860087.528 9      3518.979 9        54.687 9  23760098.577 6         0.000 6      2742.065 6        37.977 6
G21  21188573.560 9 111346684.860 9     -1277.583 9        55.702 9  21188572.849 6         0.000 6      -995.519 6        37.977 6
G29  24343457.088 9 127925673.283 9     -3126.304 9        54.459 9  24343458.709 6         0.000 6     -2436.083 6        37.977 6
G27  21969853.187 9 115452330.933 9      2481.844 9        55.388 9  21969855.107 6         0.000 6      1933.905 6        37.977 6
G16  20489753.957 9 107674363.473 9       511.489 9        55.980 9  20489753.130 6         0.000 6       398.563 6        37.977 6
G26  20675567.974 9 108650820.627 9     -1525.402 9        55.864 9  20675570.799 6         0.000 6     -1188.625 6        37.977 6
G20  21908216.439 9 115128421.670 9      2532.667 9        55.330 9  21908216.740 6         0.000 6      1973.508 6        37.977 6
> 2019 07 03 12 02 14.0000000  0  8       0.000000000000
G07  25316322.314 9 133038125.858 9      2152.083 9        54.142 9  25316322.968 6         0.000 6      1676.949 6        37.977 6
G10  23759425.272 9 124856568.632 9      3518.834 9        54.688 9  23759428.950 6         0.000 6      2741.952 6        37.977 6
G21  21188816.710 9 111347962.620 9     -1277.939 9        55.702 9  21188815.999 6         0.000 6      -995.797 6        37.977 6
G29  24344052.012 9 127928799.618 9     -3126.387 9        54.459 9  24344053.634 6         0.000 6     -2436.149 6        37.977 6
G27  21969380.930 9 115449849.211 9      2481.604 9        55.388 9  21969382.851 6         0.000 6      1933.718 6        37.977 6
G16  20489656.683 9 107673852.294 9       510.870 9        55.980 9  20489655.856 6         0.000 6       398.081 6        37.977 6
G26  20675858.303 9 108652346.313 9     -1525.974 9        55.864 9  20675861.128 6         0.000 6     -1189.071 6        37.977 6
G20  21907734.531 9 115125889.232 9      2532.217 9        55.330 9  21907734.832 6         0.000 6      1973.157 6        37.977 6
> 2019 07 03 12 02 15.0000000  0  8       0.000000000000
G07  25315912.831 9 133035974.014 9      2151.618 9        54.142 9  25315913.484 6         0.000 6      1676.587 6        37.977 6
G10  23758755.673 9 124853049.876 9      3518.689 9        54.688 9  23758759.351 6         0.000 6      2741.839 6        37.977 6
G21  21189059.927 9 111349240.734 9     -1278.296 9        55.702 9  21189059.216 6         0.000 6      -996.075 6        37.977 6
G29  24344646.952 9 127931926.037 9     -3126.471 9        54.459 9  24344648.574 6         0.000 6     -2436.214 6        37.977 6
G27  21968908.719 9 115447367.728 9      2481.365 9        55.388 9  21968910.640 6         0.000 6      1933.531 6        37.977 6
G16  20489559.526 9 107673341.730 9       510.251 9        55.980 9  20489558.699 6         0.000 6       397.598 6        37.977 6
G26  20676148.740 9 108653872.567 9     -1526.546 9        55.864 9  20676151.565 6         0.000 6     -1189.517 6        37.977 6
G20  21907252.708 9 115123357.241 9      2531.767 9        55.330 9  21907253.009 6         0.000 6      1972.806 6        37.977 6
> 2019 07 03 12 02 16.0000000  0  8       0.000000000000
G07  25315503.436 9 133033822.632 9      2151.153 9        54.142 9  25315504.089 6         0.000 6      1676.224 6        37.977 6
G10  23758086.103 9 124849531.269 9      3518.544 9        54.688 9  23758089.780 6         0.000 6      2741.725 6        37.977 6
G21  21189303.213 9 111350519.208 9     -1278.653 9        55.702 9  21189302.502 6         0.000 6      -996.353 6        37.977 6
G29  24345241.908 9 127935052.540 9     -3126.555 9        54.459 9  24345243.530 6         0.000 6     -2436.279 6        37.977 6
G27  21968436.554 9 115444886.486 9      2481.125 9        55.389 9  21968438.474 6         0.000 6      1933.345 6        37.977 6
G16  20489462.487 9 107672831.788 9       509.632 9        55.980 9  20489461.660 6         0.000 6       397.116 6        37.977 6
G26  20676439.286 9 108655399.397 9     -1527.118 9        55.864 9  20676442.111 6         0.000 6     -1189.963 6        37.977 6
G20  21906770.972 9 115120825.704 9      2531.316 9        55.330 9  21906771.272 6         0.000 6      1972.455 6        37.977 6
> 2019 07 03 12 02 17.0000000  0  8       0.000000000000
G07  25315094.130 9 133031671.720 9      2150.688 9        54.142 9  25315094.783 6         0.000 6      1675.862 6        37.977 6
G10  23757416.558 9 124846012.801 9      3518.399 9        54.688 9  23757420.235 6         0.000 6      2741.612 6        37.977 6
G21  21189546.565 9 111351798.033 9     -1279.009 9        55.702 9  21189545.854 6         0.000 6      -996.631 6        37.977 6
G29  24345836.878 9 127938179.121 9     -3126.639 9        54.458 9  24345838.502 6         0.000 6     -2436.345 6        37.977 6
G27  21967964.435 9 115442405.485 9      2480.885 9        55.389 9  21967966.355 6         0.000 6      1933.158 6        37.977 6
G16  20489365.566 9 107672322.464 9       509.013 9        55.980 9  20489364.739 6         0.000 6       396.634 6        37.977 6
G26  20676729.941 9 108656926.795 9     -1527.691 9        55.864 9  20676732.766 6         0.000 6     -1190.409 6        37.977 6
G20  21906289.320 9 115118294.610 9      2530.866 9        55.330 9  21906289.620 6         0.000 6      1972.104 6        37.977 6
> 2019 07 03 12 02 18.0000000  0  8       0.000000000000
G07  25314684.912 9 133029521.268 9      2150.223 9        54.143 9  25314685.565 6         0.000 6      1675.499 6        37.977 6
G10  23756747.043 9 124842494.485 9      3518.254 9        54.689 9  23756750.719 6         0.000 6      2741.499 6        37.977 6
G21  21189789.987 9 111353077.220 9     -1279.366 9        55.701 9  21189789.276 6         0.000 6      -996.908 6        37.977 6
G29  24346431.866 9 127941305.791 9     -3126.723 9        54.458 9  24346433.490 6         0.000 6     -2436.410 6        37.977 6
G27  21967492.361 9 115439924.723 9      2480.645 9        55.389 9  21967494.281 6         0.000 6      1932.971 6        37.977 6
G16  20489268.763 9 107671813.760 9       508.394 9        55.980 9  20489267.936 6         0.000 6       396.151 6        37.977 6
G26  20677020.705 9 108658454.770 9     -1528.263 9        55.864 9  20677023.530 6         0.000 6     -1190.854 6        37.977 6
G20  21905807.755 9 115115763.973 9      2530.415 9        55.331 9  21905808.055 6         0.000 6      1971.753 6        37.977 6
> 2019 07 03 12 02 19.0000000  0  8       0.000000000000
G07  25314275.782 9 133027371.281 9      2149.758 9        54.143 9  25314276.435 6         0.000 6      1675.137 6        37.977 6
G10  23756077.556 9 124838976.315 9      3518.108 9        54.689 9  23756081.231 6         0.000 6      2741.386 6        37.977 6
G21  21190033.476 9 111354356.763 9     -1279.722 9        55.701 9  21190032.765 6         0.000 6      -997.186 6        37.977 6
G29  24347026.869 9 127944432.545 9     -3126.806 9        54.458 9  24347028.494 6         0.000 6     -2436.475 6        37.977 6
G27  21967020.333 9 115437444.200 9      2480.406 9        55.389 9  21967022.252 6         0.000 6      1932.784 6        37.977 6
G16  20489172.077 9 107671305.676 9       507.775 9        55.980 9  20489171.251 6         0.000 6       395.669 6        37.977 6
G26  20677311.578 9 108659983.317 9     -1528.835 9        55.864 9  20677314.403 6         0.000 6     -1191.300 6        37.977 6
G20  21905326.276 9 115113233.788 9      2529.965 9        55.331 9  21905326.576 6         0.000 6      1971.402 6        37.977 6
> 2019 07 03 12 02 20.0000000  0  8       0.000000000000
G07  25313866.742 9 133025221.762 9      2149.292 9        54.143 9  25313867.394 6         0.000 6      1674.774 6        37.977 6
G10  23755408.095 9 124835458.285 9      3517.963 9        54.689 9  23755411.769 6         0.000 6      2741.272 6        37.977 6
G21  21190277.032 9 111355636.660 9     -1280.078 9        55.701 9  21190276.321 6         0.000 6      -997.464 6        37.977 6
G29  24347621.889 9 127947559.383 9     -3126.890 9        54.458 9  24347623.514 6         0.000 6     -2436.540 6        37.977 6
G27  21966548.349 9 115434963.915 9      2480.166 9        55.389 9  21966550.269 6         0.000 6      1932.597 6        37.977 6
G16  20489075.509 9 107670798.207 9       507.156 9        55.980 9  20489074.683 6         0.000 6       395.186 6        37.977 6
G26  20677602.559 9 108661512.431 9     -1529.407 9        55.863 9  20677605.385 6         0.000 6     -1191.746 6        37.977 6
G20  21904844.882 9 115110704.049 9      2529.514 9        55.331 9  21904845.181 6         0.000 6      1971.051 6        37.977 6
> 2019 07 03 12 02 21.0000000  0  8       0.000000000000
G07  25313457.789 9 133023072.706 9      2148.827 9        54.143 9  25313458.442 6         0.000 6      1674.412 6        37.977 6
G10  23754738.663 9 124831940.406 9      3517.817 9        54.689 9  23754742.336 6         0.000 6      2741.159 6        37.977 6
G21  21190520.657 9 111356916.916 9     -1280.435 9        55.701 9  21190519.946 6         0.000 6      -997.742 6        37.977 6
G29  24348216.924 9 127950686.305 9     -3126.974 9        54.458 9  24348218.550 6         0.000 6     -2436.606 6        37.977 6
G27  21966076.412 9 115432483.872 9      2479.926 9        55.390 9  21966078.332 6         0.000 6      1932.410 6        37.977 6
G16  20488979.060 9 107670291.361 9       506.537 9        55.980 9  20488978.233 6         0.000 6       394.704 6        37.977 6
G26  20677893.650 9 108663042.121 9     -1529.979 9        55.863 9  20677896.476 6         0.000 6     -1192.192 6        37.977 6
G20  21904363.574 9 115108174.765 9      2529.063 9        55.331 9  21904363.873 6         0.000 6      1970.700 6        37.977 6
> 2019 07 03 12 02 22.0000000  0  8       0.000000000000
G07  25313048.926 9 133020924.118 9      2148.362 9        54.143 9  25313049.578 6         0.000 6      1674.049 6        37.977 6
G10  23754069.257 9 124828422.667 9      3517.671 9        54.690 9  23754072.930 6         0.000 6      2741.045 6        37.977 6
G21  21190764.349 9 111358197.525 9     -1280.791 9        55.701 9  21190763.638 6         0.000 6      -998.019 6        37.977 6
G29  24348811.975 9 127953813.310 9     -3127.058 9        54.457 9  24348813.602 6         0.000 6     -2436.671 6        37.977 6
G27  21965604.521 9 115430004.067 9      2479.686 9        55.390 9  21965606.440 6         0.000 6      1932.224 6        37.977 6
G16  20488882.727 9 107669785.131 9       505.917 9        55.980 9  20488881.901 6         0.000 6       394.221 6        37.977 6
G26  20678184.849 9 108664572.379 9     -1530.551 9        55.863 9  20678187.674 6         0.000 6     -1192.637 6        37.977 6
G20  21903882.352 9 115105645.927 9      2528.612 9        55.331 9  21903882.650 6         0.000 6      1970.348 6        37.977 6
> 2019 07 03 12 02 23.0000000  0  8       0.000000000000
G07  25312640.151 9 133018775.993 9      2147.896 9        54.143 9  25312640.803 6         0.000 6      1673.686 6        37.977 6
G10  23753399.881 9 124824905.079 9      3517.525 9        54.690 9  23753403.553 6         0.000 6      2740.932 6        37.977 6
G21  21191008.109 9 111359478.494 9     -1281.147 9        55.701 9  21191007.399 6         0.000 6      -998.297 6        37.977 6
G29  24349407.043 9 127956940.399 9     -3127.141 9        54.457 9  24349408.670 6         0.000 6     -2436.736 6        37.977 6
G27  21965132.675 9 115427524.503 9      2479.446 9        55.390 9  21965134.594 6         0.000 6      1932.037 6        37.977 6
G16  20488786.513 9 107669279.523 9       505.298 9        55.980 9  20488785.687 6         0.000 6       393.739 6        37.977 6
G26  20678476.157 9 108666103.214 9     -1531.122 9        55.863 9  20678478.983 6         0.000 6     -1193.083 6        37.977 6
G20  21903401.216 9 115103117.545 9      2528.161 9        55.332 9  21903401.514 6         0.000 6      1969.997 6        37.977 6
> 2019 07 03 12 02 24.0000000  0  8       0.000000000000
G07  25312231.465 9 133016628.335 9      2147.430 9        54.143 9  25312232.116 6         0.000 6      1673.323 6        37.977 6
G10  23752730.531 9 124821387.633 9      3517.380 9        54.690 9  23752734.203 6         0.000 6      2740.818 6        37.977 6
G21  21191251.937 9 111360759.816 9     -1281.503 9        55.701 9  21191251.226 6         0.000 6      -998.574 6        37.977 6
G29  24350002.126 9 127960067.572 9     -3127.225 9        54.457 9  24350003.754 6         0.000 6     -2436.801 6        37.977 6
G27  21964660.875 9 115425045.178 9      2479.206 9        55.390 9  21964662.793 6         0.000 6      1931.850 6        37.977 6
G16  20488690.417 9 107668774.531 9       504.679 9        55.980 9  20488689.590 6         0.000 6       393.256 6        37.977 6
G26  20678767.574 9 108667634.616 9     -1531.694 9        55.863 9  20678770.400 6         0.000 6     -1193.528 6        37.977 6
G20  21902920.165 9 115100589.610 9      2527.710 9        55.332 9  21902920.463 6         0.000 6      1969.645 6        37.977 6
> 2019 07 03 12 02 25.0000000  0  8       0.000000000000
G07  25311822.867 9 133014481.144 9      2146.965 9        54.144 9  25311823.518 6         0.000 6      1672.960 6        37.977 6
G10  23752061.209 9 124817870.335 9      3517.233 9        54.690 9  23752064.880 6         0.000 6      2740.704 6        37.977 6
G21  21191495.832 9 111362041.494 9     -1281.859 9        55.701 9  21191495.122 6         0.000 6      -998.852 6        37.977 6
G29  24350597.224 9 127963194.823 9     -3127.308 9        54.457 9  24350598.852 6         0.000 6     -2436.866 6        37.977 6
G27  21964189.121 9 115422566.098 9      2478.966 9        55.390 9  21964191.040 6         0.000 6      1931.663 6        37.977 6
G16  20488594.439 9 107668270.164 9       504.059 9        55.980 9  20488593.612 6         0.000 6       392.774 6        37.977 6
G26  20679059.100 9 108669166.594 9     -1532.266 9        55.863 9  20679061.926 6         0.000 6     -1193.974 6        37.977 6
G20  21902439.200 9 115098062.126 9      2527.259 9        55.332 9  21902439.498 6         0.000 6      1969.294 6        37.977 6
> 2019 07 03 12 02 26.0000000  0  8       0.000000000000
G07  25311414.358 9 133012334.419 9      2146.499 9        54.144 9  25311415.009 6         0.000 6      1672.597 6        37.977 6
G10  23751391.915 9 124814353.180 9      3517.087 9        54.691 9  23751395.585 6         0.000 6      2740.590 6        37.977 6
G21  21191739.795 9 111363323.529 9     -1282.215 9        55.701 9  21191739.085 6         0.000 6      -999.129 6        37.977 6
G29  24351192.339 9 127966322.163 9     -3127.392 9        54.457 9  24351193.968 6         0.000 6     -2436.931 6        37.977 6
G27  21963717.412 9 115420087.253 9      2478.726 9        55.390 9  21963719.330 6         0.000 6      1931.476 6        37.977 6
G16  20488498.578 9 107667766.411 9       503.440 9        55.980 9  20488497.751 6         0.000 6       392.291 6        37.977 6
G26  20679350.734 9 108670699.139 9     -1532.838 9        55.863 9  20679353.560 6         0.000 6     -1194.420 6        37.977 6
G20  21901958.321 9 115095535.093 9      2526.808 9        55.332 9  21901958.618 6         0.000 6      1968.942 6        37.977 6
> 2019 07 03 12 02 27.0000000  0  8       0.000000000000
G07  25311005.937 9 133010188.156 9      2146.033 9        54.144 9  25311006.588 6         0.000 6      1672.234 6        37.977 6
G10  23750722.649 9 124810836.176 9      3516.941 9        54.691 9  23750726.319 6         0.000 6      2740.476 6        37.977 6
G21  21191983.827 9 111364605.921 9     -1282.571 9        55.701 9  21191983.116 6         0.000 6      -999.407 6        37.977 6
G29  24351787.470 9 127969449.586 9     -3127.476 9        54.456 9  24351789.100 6         0.000 6     -2436.997 6        37.977 6
G27  21963245.749 9 115417608.649 9      2478.486 9        55.391 9  21963247.667 6         0.000 6      1931.288 6        37.977 6
G16  20488402.835 9 107667263.280 9       502.821 9        55.980 9  20488402.008 6         0.000 6       391.808 6        37.977 6
G26  20679642.478 9 108672232.261 9     -1533.410 9        55.863 9  20679645.304 6         0.000 6     -1194.865 6        37.977 6
G20  21901477.528 9 115093008.516 9      2526.356 9        55.332 9  21901477.826 6         0.000 6      1968.590 6        37.977 6
> 2019 07 03 12 02 28.0000000  0  8       0.000000000000
G07  25310597.605 9 133008042.359 9      2145.567 9        54.144 9  25310598.256 6         0.000 6      1671.871 6        37.977 6
G10  23750053.412 9 124807319.319 9      3516.795 9        54.691 9  23750057.081 6         0.000 6      2740.362 6        37.977 6
G21  21192227.926 9 111365888.670 9     -1282.927 9        55.700 9  21192227.216 6         0.000 6      -999.684 6        37.977 6
G29  24352382.616 9 127972577.093 9     -3127.559 9        54.456 9  24352384.247 6         0.000 6     -2437.062 6        37.977 6
G27  21962774.131 9 115415130.286 9      2478.246 9        55.391 9  21962776.050 6         0.000 6      1931.101 6        37.977 6
G16  20488307.210 9 107666760.769 9       502.201 9        55.980 9  20488306.384 6         0.000 6       391.326 6        37.977 6
G26  20679934.330 9 108673765.955 9     -1533.981 9        55.862 9  20679937.156 6         0.000 6     -1195.311 6        37.977 6
G20  21900996.821 9 115090482.390 9      2525.905 9        55.332 9  21900997.119 6         0.000 6      1968.239 6        37.977 6
> 2019 07 03 12 02 29.0000000  0  8       0.000000000000
G07  25310189.362 9 133005897.031 9      2145.101 9        54.144 9  25310190.012 6         0.000 6      1671.508 6        37.977 6
G10  23749384.201 9 124803802.604 9      3516.648 9        54.691 9  23749387.870 6         0.000 6      2740.248 6        37.977 6
G21  21192472.092 9 111367171.772 9     -1283.283 9        55.700 9  21192471.382 6         0.000 6      -999.961 6        37.977 6
G29  24352977.779 9 127975704.684 9     -3127.643 9        54.456 9  24352979.410 6         0.000 6     -2437.127 6        37.977 6
G27  21962302.559 9 115412652.161 9      2478.006 9        55.391 9  21962304.477 6         0.000 6      1930.914 6        37.977 6
G16  20488211.703 9 107666258.874 9       501.582 9        55.980 9  20488210.876 6         0.000 6       390.843 6        37.977 6
G26  20680226.291 9 108675300.215 9     -1534.553 9        55.862 9  20680229.117 6         0.000 6     -1195.756 6        37.977 6
G20  21900516.200 9 115087956.711 9      2525.453 9        55.333 9  21900516.497 6         0.000 6      1967.887 6        37.977 6
> 2019 07 03 12 02 30.0000000  0  8       0.000000000000
G07  25309781.207 9 133003752.167 9      2144.635 9        54.144 9  25309781.857 6         0.000 6      1671.145 6        37.977 6
G10  23748715.019 9 124800286.039 9      3516.502 9        54.692 9  23748718.687 6         0.000 6      2740.134 6        37.977 6
G21  21192716.327 9 111368455.233 9     -1283.639 9        55.700 9  21192715.617 6         0.000 6     -1000.238 6        37.977 6
G29  24353572.958 9 127978832.358 9     -3127.726 9        54.456 9  24353574.589 6         0.000 6     -2437.192 6        37.977 6
G27  21961831.033 9 115410174.278 9      2477.765 9        55.391 9  21961832.951 6         0.000 6      1930.727 6        37.977 6
G16  20488116.314 9 107665757.602 9       500.962 9        55.980 9  20488115.487 6         0.000 6       390.360 6        37.977 6
G26  20680518.361 9 108676835.053 9     -1535.125 9        55.862 9  20680521.187 6         0.000 6     -1196.202 6        37.977 6
G20  21900035.665 9 115085431.488 9      2525.001 9        55.333 9  21900035.962 6         0.000 6      1967.535 6        37.977 6
> 2019 07 03 12 02 31.0000000  0  8       0.000000000000
G07  25309373.141 9 133001607.771 9      2144.169 9        54.144 9  25309373.792 6         0.000 6      1670.782 6        37.977 6
G10  23748045.864 9 124796769.617 9      3516.355 9        54.692 9  23748049.532 6         0.000 6      2740.019 6        37.977 6
G21  21192960.629 9 111369739.047 9     -1283.995 9        55.700 9  21192959.918 6         0.000 6     -1000.516 6        37.977 6
G29  24354168.152 9 127981960.115 9     -3127.810 9        54.456 9  24354169.785 6         0.000 6     -2437.257 6        37.977 6
G27  21961359.553 9 115407696.634 9      2477.525 9        55.391 9  21961361.471 6         0.000 6      1930.540 6        37.977 6
G16  20488021.043 9 107665256.946 9       500.343 9        55.980 9  20488020.216 6         0.000 6       389.877 6        37.977 6
G26  20680810.539 9 108678370.456 9     -1535.696 9        55.862 9  20680813.365 6         0.000 6     -1196.647 6        37.977 6
G20  21899555.216 9 115082906.713 9      2524.550 9        55.333 9  21899555.512 6         0.000 6      1967.183 6        37.977 6
> 2019 07 03 12 02 32.0000000  0  8       0.000000000000
G07  25308965.164 9 132999463.839 9      2143.703 9        54.145 9  25308965.814 6         0.000 6      1670.419 6        37.977 6
G10  23747376.738 9 124793253.346 9      3516.208 9        54.692 9  23747380.405 6         0.000 6      2739.905 6        37.977 6
G21  21193204.999 9 111371023.219 9     -1284.351 9        55.700 9  21193204.288 6         0.000 6     -1000.793 6        37.977 6
G29  24354763.362 9 127985087.956 9     -3127.893 9        54.455 9  24354764.995 6         0.000 6     -2437.322 6        37.977 6
G27  21960888.118 9 115405219.231 9      2477.285 9        55.392 9  21960890.036 6         0.000 6      1930.353 6        37.977 6
G16  20487925.889 9 107664756.913 9       499.723 9        55.981 9  20487925.063 6         0.000 6       389.395 6        37.977 6
G26  20681102.826 9 108679906.437 9     -1536.268 9        55.862 9  20681105.653 6         0.000 6     -1197.092 6        37.977 6
G20  21899074.853 9 115080382.393 9      2524.098 9        55.333 9  21899075.149 6         0.000 6      1966.831 6        37.977 6
> 2019 07 03 12 02 33.0000000  0  8       0.000000000000
G07  25308557.276 9 132997320.378 9      2143.236 9        54.145 9  25308557.926 6         0.000 6      1670.055 6        37.977 6
G10  23746707.639 9 124789737.215 9      3516.061 9        54.692 9  23746711.305 6         0.000 6      2739.791 6        37.977 6
G21  21193449.435 9 111372307.742 9     -1284.706 9        55.700 9  21193448.725 6         0.000 6     -1001.070 6        37.977 6
G29  24355358.588 9 127988215.875 9     -3127.977 9        54.455 9  24355360.221 6         0.000 6     -2437.387 6        37.977 6
G27  21960416.730 9 115402742.071 9      2477.045 9        55.392 9  21960418.647 6         0.000 6      1930.165 6        37.977 6
G16  20487830.854 9 107664257.498 9       499.104 9        55.981 9  20487830.027 6         0.000 6       388.912 6        37.977 6
G26  20681395.222 9 108681442.983 9     -1536.839 9        55.862 9  20681398.049 6         0.000 6     -1197.538 6        37.977 6
G20  21898594.574 9 115077858.518 9      2523.646 9        55.333 9  21898594.870 6         0.000 6      1966.478 6        37.977 6
> 2019 07 03 12 02 34.0000000  0  8       0.000000000000
G07  25308149.476 9 132995177.378 9      2142.770 9        54.145 9  25308150.126 6         0.000 6      1669.692 6        37.977 6
G10  23746038.568 9 124786221.238 9      3515.914 9        54.693 9  23746042.234 6         0.000 6      2739.676 6        37.977 6
G21  21193693.941 9 111373592.625 9     -1285.062 9        55.700 9  21193693.231 6         0.000 6     -1001.347 6        37.977 6
G29  24355953.830 9 127991343.883 9     -3128.060 9        54.455 9  24355955.464 6         0.000 6     -2437.452 6        37.977 6
G27  21959945.387 9 115400265.149 9      2476.804 9        55.392 9  21959947.304 6         0.000 6      1929.978 6        37.977 6
G16  20487735.937 9 107663758.705 9       498.484 9        55.981 9  20487735.110 6         0.000 6       388.429 6        37.977 6
G26  20681687.727 9 108682980.107 9     -1537.411 9        55.862 9  20681690.554 6         0.000 6     -1197.983 6        37.977 6
G20  21898114.384 9 115075335.103 9      2523.194 9        55.334 9  21898114.679 6         0.000 6      1966.126 6        37.977 6
> 2019 07 03 12 02 35.0000000  0  8       0.000000000000
G07  25307741.766 9 132993034.848 9      2142.304 9        54.145 9  25307742.415 6         0.000 6      1669.328 6        37.977 6
G10  23745369.525 9 124782705.404 9      3515.767 9        54.693 9  23745373.190 6         0.000 6      2739.561 6        37.977 6
G21  21193938.513 9 111374877.861 9     -1285.417 9        55.700 9  21193937.803 6         0.000 6     -1001.624 6        37.977 6
G29  24356549.088 9 127994471.974 9     -3128.143 9        54.455 9  24356550.723 6         0.000 6     -2437.517 6        37.977 6
G27  21959474.089 9 115397788.466 9      2476.564 9        55.392 9  21959476.006 6         0.000 6      1929.791 6        37.977 6
G16  20487641.137 9 107663260.527 9       497.864 9        55.981 9  20487640.310 6         0.000 6       387.946 6        37.977 6
G26  20681980.340 9 108684517.797 9     -1537.982 9        55.862 9  20681983.167 6         0.000 6     -1198.428 6        37.977 6
G20  21897634.278 9 115072812.135 9      2522.742 9        55.334 9  21897634.573 6         0.000 6      1965.774 6        37.977 6
> 2019 07 03 12 02 36.0000000  0  8       0.000000000000
G07  25307334.143 9 132990892.781 9      2141.837 9        54.145 9  25307334.792 6         0.000 6      1668.965 6        37.977 6
G10  23744700.511 9 124779189.721 9      3515.620 9        54.693 9  23744704.175 6         0.000 6      2739.447 6        37.977 6
G21  21194183.154 9 111376163.456 9     -1285.773 9        55.700 9  21194182.444 6         0.000 6     -1001.901 6        37.977 6
G29  24357144.362 9 127997600.149 9     -3128.227 9        54.454 9  24357145.997 6         0.000 6     -2437.582 6        37.977 6
G27  21959002.838 9 115395312.025 9      2476.323 9        55.392 9  21959004.755 6         0.000 6      1929.603 6        37.977 6
G16  20487546.455 9 107662762.973 9       497.244 9        55.981 9  20487545.628 6         0.000 6       387.463 6        37.977 6
G26  20682273.063 9 108686056.063 9     -1538.554 9        55.861 9  20682275.890 6         0.000 6     -1198.874 6        37.977 6
G20  21897154.259 9 115070289.624 9      2522.290 9        55.334 9  21897154.554 6         0.000 6      1965.422 6        37.977 6
> 2019 07 03 12 02 37.0000000  0  8       0.000000000000
G07  25306926.610 9 132988751.181 9      2141.370 9        54.145 9  25306927.259 6         0.000 6      1668.601 6        37.977 6
G10  23744031.525 9 124775674.185 9      3515.472 9        54.693 9  23744035.188 6         0.000 6      2739.332 6        37.977 6
G21  21194427.862 9 111377449.405 9     -1286.128 9        55.700 9  21194427.152 6         0.000 6     -1002.178 6        37.977 6
G29  24357739.651 9 128000728.407 9     -3128.310 9        54.454 9  24357741.287 6         0.000 6     -2437.647 6        37.977 6
G27  21958531.632 9 115392835.824 9      2476.083 9        55.393 9  21958533.549 6         0.000 6      1929.416 6        37.977 6
G16  20487451.892 9 107662266.038 9       496.625 9        55.981 9  20487451.065 6         0.000 6       386.980 6        37.977 6
G26  20682565.894 9 108687594.901 9     -1539.125 9        55.861 9  20682568.721 6         0.000 6     -1199.319 6        37.977 6
G20  21896674.327 9 115067767.565 9      2521.837 9        55.334 9  21896674.621 6         0.000 6      1965.069 6        37.977 6
> 2019 07 03 12 02 38.0000000  0  8       0.000000000000
G07  25306519.165 9 132986610.050 9      2140.904 9        54.145 9  25306519.814 6         0.000 6      1668.238 6        37.977 6
G10  23743362.566 9 124772158.792 9      3515.325 9        54.693 9  23743366.229 6         0.000 6      2739.217 6        37.977 6
G21  21194672.637 9 111378735.708 9     -1286.484 9        55.699 9  21194671.927 6         0.000 6     -1002.455 6        37.977 6
G29  24358334.957 9 128003856.748 9     -3128.393 9        54.454 9  24358336.594 6         0.000 6     -2437.712 6        37.977 6
G27  21958060.471 9 115390359.862 9      2475.843 9        55.393 9  21958062.388 6         0.000 6      1929.229 6        37.977 6
G16  20487357.446 9 107661769.720 9       496.005 9        55.981 9  20487356.619 6         0.000 6       386.497 6        37.977 6
G26  20682858.833 9 108689134.305 9     -1539.697 9        55.861 9  20682861.661 6         0.000 6     -1199.764 6        37.977 6
G20  21896194.479 9 115065245.954 9      2521.385 9        55.334 9  21896194.774 6         0.000 6      1964.717 6        37.977 6
> 2019 07 03 12 02 39.0000000  0  8       0.000000000000
G07  25306111.809 9 132984469.383 9      2140.437 9        54.146 9  25306112.458 6         0.000 6      1667.874 6        37.977 6
G10  23742693.636 9 124768643.551 9      3515.177 9        54.694 9  23742697.298 6         0.000 6      2739.102 6        37.977 6
G21  21194917.481 9 111380022.369 9     -1286.839 9        55.699 9  21194916.771 6         0.000 6     -1002.732 6        37.977 6
G29  24358930.278 9 128006985.173 9     -3128.477 9        54.454 9  24358931.916 6         0.000 6     -2437.777 6        37.977 6
G27  21957589.357 9 115387884.143 9      2475.602 9        55.393 9  21957591.274 6         0.000 6      1929.041 6        37.977 6
G16  20487263.118 9 107661274.026 9       495.385 9        55.981 9  20487262.291 6         0.000 6       386.014 6        37.977 6
G26  20683151.882 9 108690674.285 9     -1540.268 9        55.861 9  20683154.710 6         0.000 6     -1200.209 6        37.977 6
G20  21895714.719 9 115062724.800 9      2520.932 9        55.335 9  21895715.013 6         0.000 6      1964.364 6        37.977 6
> 2019 07 03 12 02 40.0000000  0  8       0.000000000000
G07  25305704.543 9 132982329.186 9      2139.970 9        54.146 9  25305705.191 6         0.000 6      1667.510 6        37.977 6
G10  23742024.733 9 124765128.454 9      3515.030 9        54.694 9  23742028.395 6         0.000 6      2738.987 6        37.977 6
G21  21195162.392 9 111381309.382 9     -1287.194 9        55.699 9  21195161.682 6         0.000 6     -1003.009 6        37.977 6
G29  24359525.615 9 128010113.681 9     -3128.560 9        54.454 9  24359527.254 6         0.000 6     -2437.842 6        37.977 6
G27  21957118.288 9 115385408.662 9      2475.361 9        55.393 9  21957120.205 6         0.000 6      1928.854 6        37.977 6
G16  20487168.908 9 107660778.947 9       494.765 9        55.981 9  20487168.081 6         0.000 6       385.531 6        37.977 6
G26  20683445.039 9 108692214.832 9     -1540.839 9        55.861 9  20683447.867 6         0.000 6     -1200.654 6        37.977 6
G20  21895235.043 9 115060204.094 9      2520.480 9        55.335 9  21895235.337 6         0.000 6      1964.011 6        37.977 6
> 2019 07 03 12 02 41.0000000  0  8       0.000000000000
G07  25305297.365 9 132980189.455 9      2139.503 9        54.146 9  25305298.013 6         0.000 6      1667.146 6        37.977 6
G10  23741355.859 9 124761613.506 9      3514.882 9        54.694 9  23741359.520 6         0.000 6      2738.872 6        37.977 6
G21  21195407.370 9 111382596.751 9     -1287.549 9        55.699 9  21195406.660 6         0.000 6     -1003.285 6        37.977 6
G29  24360120.967 9 128013242.267 9     -3128.643 9        54.453 9  24360122.606 6         0.000 6     -2437.906 6        37.977 6
G27  21956647.266 9 115382933.427 9      2475.121 9        55.393 9  21956649.182 6         0.000 6      1928.666 6        37.977 6
G16  20487074.816 9 107660284.494 9       494.145 9        55.981 9  20487073.989 6         0.000 6       385.048 6        37.977 6
G26  20683738.305 9 108693755.955 9     -1541.410 9        55.861 9  20683741.133 6         0.000 6     -1201.099 6        37.977 6
G20  21894755.454 9 115057683.842 9      2520.027 9        55.335 9  21894755.748 6         0.000 6      1963.659 6        37.977 6
> 2019 07 03 12 02 42.0000000  0  8       0.000000000000
G07  25304890.276 9 132978050.192 9      2139.036 9        54.146 9  25304890.924 6         0.000 6      1666.782 6        37.977 6
G10  23740687.012 9 124758098.704 9      3514.734 9        54.694 9  23740690.673 6         0.000 6      2738.757 6        37.977 6
G21  21195652.416 9 111383884.475 9     -1287.904 9        55.699 9  21195651.706 6         0.000 6     -1003.562 6        37.977 6
G29  24360716.336 9 128016370.941 9     -3128.726 9        54.453 9  24360717.976 6         0.000 6     -2437.971 6        37.977 6
G27  21956176.289 9 115380458.427 9      2474.880 9        55.393 9  21956178.205 6         0.000 6      1928.479 6        37.977 6
G16  20486980.842 9 107659790.655 9       493.525 9        55.981 9  20486980.015 6         0.000 6       384.565 6        37.977 6
G26  20684031.679 9 108695297.644 9     -1541.982 9        55.861 9  20684034.507 6         0.000 6     -1201.545 6        37.977 6
G20  21894275.952 9 115055164.041 9      2519.574 9        55.335 9  21894276.245 6         0.000 6      1963.306 6        37.977 6
> 2019 07 03 12 02 43.0000000  0  8       0.000000000000
G07  25304483.275 9 132975911.393 9      2138.569 9        54.146 9  25304483.923 6         0.000 6      1666.418 6        37.977 6
G10  23740018.195 9 124754584.054 9      3514.586 9        54.695 9  23740021.854 6         0.000 6      2738.641 6        37.977 6
G21  21195897.529 9 111385172.556 9     -1288.260 9        55.699 9  21195896.820 6         0.000 6     -1003.839 6        37.977 6
G29  24361311.721 9 128019499.699 9     -3128.810 9        54.453 9  24361313.361 6         0.000 6     -2438.036 6        37.977 6
G27  21955705.358 9 115377983.670 9      2474.639 9        55.394 9  21955707.274 6         0.000 6      1928.291 6        37.977 6
G16  20486886.986 9 107659297.440 9       492.905 9        55.981 9  20486886.159 6         0.000 6       384.082 6        37.977 6
G26  20684325.163 9 108696839.909 9     -1542.553 9        55.861 9  20684327.991 6         0.000 6     -1201.990 6        37.977 6
G20  21893796.536 9 115052644.698 9      2519.121 9        55.335 9  21893796.829 6         0.000 6      1962.953 6        37.977 6
> 2019 07 03 12 02 44.0000000  0  8       0.000000000000
G07  25304076.364 9 132973773.063 9      2138.102 9        54.146 9  25304077.011 6         0.000 6      1666.054 6        37.977 6
G10  23739349.404 9 124751069.548 9      3514.438 9        54.695 9  23739353.063 6         0.000 6      2738.526 6        37.977 6
G21  21196142.710 9 111386460.990 9     -1288.615 9        55.699 9  21196142.001 6         0.000 6     -1004.115 6        37.977 6
G29  24361907.122 9 128022628.540 9     -3128.893 9        54.453 9  24361908.763 6         0.000 6     -2438.101 6        37.977 6
G27  21955234.472 9 115375509.152 9      2474.399 9        55.394 9  21955236.388 6         0.000 6      1928.104 6        37.977 6
G16  20486793.248 9 107658804.841 9       492.285 9        55.981 9  20486792.421 6         0.000 6       383.599 6        37.977 6
G26  20684618.754 9 108698382.741 9     -1543.124 9        55.860 9  20684621.582 6         0.000 6     -1202.435 6        37.977 6
G20  21893317.205 9 115050125.803 9      2518.668 9        55.336 9  21893317.498 6         0.000 6      1962.600 6        37.977 6
> 2019 07 03 12 02 45.0000000  0  8       0.000000000000
G07  25303669.541 9 132971635.198 9      2137.635 9        54.146 9  25303670.188 6         0.000 6      1665.690 6        37.977 6
G10  23738680.643 9 124747555.194 9      3514.290 9        54.695 9  23738684.301 6         0.000 6      2738.410 6        37.977 6
G21  21196387.959 9 111387749.781 9     -1288.970 9        55.699 9  21196387.250 6         0.000 6     -1004.392 6        37.977 6
G29  24362502.538 9 128025757.464 9     -3128.976 9        54.453 9  24362504.180 6         0.000 6     -2438.166 6        37.977 6
G27  21954763.633 9 115373034.876 9      2474.158 9        55.394 9  21954765.548 6         0.000 6      1927.916 6        37.977 6
G16  20486699.628 9 107658312.866 9       491.665 9        55.981 9  20486698.801 6         0.000 6       383.116 6        37.977 6
G26  20684912.456 9 108699926.149 9     -1543.695 9        55.860 9  20684915.284 6         0.000 6     -1202.880 6        37.977 6
G20  21892837.962 9 115047607.366 9      2518.215 9        55.336 9  21892838.254 6         0.000 6      1962.247 6        37.977 6
> 2019 07 03 12 02 46.0000000  0  8       0.000000000000
G07  25303262.808 9 132969497.803 9      2137.168 9        54.147 9  25303263.455 6         0.000 6      1665.326 6        37.977 6
G10  23738011.909 9 124744040.984 9      3514.142 9        54.695 9  23738015.567 6         0.000 6      2738.295 6        37.977 6
G21  21196633.276 9 111389038.925 9     -1289.324 9        55.699 9  21196632.566 6         0.000 6     -1004.669 6        37.977 6
G29  24363097.970 9 128028886.471 9     -3129.059 9        54.452 9  24363099.612 6         0.000 6     -2438.231 6        37.977 6
G27  21954292.839 9 115370560.839 9      2473.917 9        55.394 9  21954294.754 6         0.000 6      1927.728 6        37.977 6
G16  20486606.126 9 107657821.508 9       491.045 9        55.981 9  20486605.299 6         0.000 6       382.632 6        37.977 6
G26  20685206.264 9 108701470.123 9     -1544.266 9        55.860 9  20685209.093 6         0.000 6     -1203.325 6        37.977 6
G20  21892358.803 9 115045089.377 9      2517.762 9        55.336 9  21892359.096 6         0.000 6      1961.894 6        37.977 6
> 2019 07 03 12 02 47.0000000  0  8       0.000000000000
G07  25302856.163 9 132967360.873 9      2136.700 9        54.147 9  25302856.810 6         0.000 6      1664.962 6        37.977 6
G10  23737343.204 9 124740526.927 9      3513.993 9        54.696 9  23737346.862 6         0.000 6      2738.179 6        37.977 6
G21  21196878.660 9 111390328.426 9     -1289.679 9        55.699 9  21196877.950 6         0.000 6     -1004.945 6        37.977 6
G29  24363693.419 9 128032015.561 9     -3129.142 9        54.452 9  24363695.061 6         0.000 6     -2438.295 6        37.977 6
G27  21953822.091 9 115368087.045 9      2473.676 9        55.394 9  21953824.006 6         0.000 6      1927.541 6        37.977 6
G16  20486512.742 9 107657330.773 9       490.425 9        55.981 9  20486511.915 6         0.000 6       382.149 6        37.977 6
G26  20685500.183 9 108703014.672 9     -1544.837 9        55.860 9  20685503.011 6         0.000 6     -1203.770 6        37.977 6
G20  21891879.732 9 115042571.846 9      2517.309 9        55.336 9  21891880.024 6         0.000 6      1961.541 6        37.977 6
> 2019 07 03 12 02 48.0000000  0  8       0.000000000000
G07  25302449.607 9 132965224.413 9      2136.233 9        54.147 9  25302450.254 6         0.000 6      1664.598 6        37.977 6
G10  23736674.527 9 124737013.016 9      3513.845 9        54.696 9  23736678.184 6         0.000 6      2738.063 6        37.977 6
G21  21197124.111 9 111391618.280 9     -1290.034 9        55.698 9  21197123.401 6         0.000 6     -1005.222 6        37.977 6
G29  24364288.881 9 128035144.729 9     -3129.225 9        54.452 9  24364290.525 6         0.000 6     -2438.360 6        37.977 6
G27  21953351.389 9 115365613.496 9      2473.435 9        55.395 9  21953353.304 6         0.000 6      1927.353 6        37.977 6
G16  20486419.477 9 107656840.660 9       489.805 9        55.981 9  20486418.650 6         0.000 6       381.666 6        37.977 6
G26  20685794.210 9 108704559.793 9     -1545.408 9        55.860 9  20685797.038 6         0.000 6     -1204.215 6        37.977 6
G20  21891400.747 9 115040054.765 9      2516.856 9        55.336 9  21891401.039 6         0.000 6      1961.187 6        37.977 6
> 2019 07 03 12 02 49.0000000  0  8       0.000000000000
G07  25302043.141 9 132963088.420 9      2135.765 9        54.147 9  25302043.787 6         0.000 6      1664.234 6        37.977 6
G10  23736005.878 9 124733499.252 9      3513.696 9        54.696 9  23736009.534 6         0.000 6      2737.948 6        37.977 6
G21  21197369.629 9 111392908.489 9     -1290.389 9        55.698 9  21197368.920 6         0.000 6     -1005.498 6        37.977 6
G29  24364884.361 9 128038273.986 9     -3129.308 9        54.452 9  24364886.005 6         0.000 6     -2438.425 6        37.977 6
G27  21952880.733 9 115363140.182 9      2473.194 9        55.395 9  21952882.648 6         0.000 6      1927.165 6        37.977 6
G16  20486326.328 9 107656351.162 9       489.184 9        55.981 9  20486325.501 6         0.000 6       381.183 6        37.977 6
G26  20686088.345 9 108706105.480 9     -1545.979 9        55.860 9  20686091.173 6         0.000 6     -1204.659 6        37.977 6
G20  21890921.848 9 115037538.136 9      2516.402 9        55.336 9  21890922.139 6         0.000 6      1960.834 6        37.977 6
> 2019 07 03 12 02 50.0000000  0  8       0.000000000000
G07  25301636.763 9 132960952.892 9      2135.298 9        54.147 9  25301637.409 6         0.000 6      1663.869 6        37.977 6
G10  23735337.258 9 124729985.640 9      3513.547 9        54.696 9  23735340.913 6         0.000 6      2737.832 6        37.977 6
G21  21197615.216 9 111394199.054 9     -1290.744 9        55.698 9  21197614.507 6         0.000 6     -1005.774 6        37.977 6
G29  24365479.857 9 128041403.325 9     -3129.392 9        54.451 9  24365481.501 6         0.000 6     -2438.490 6        37.977 6
G27  21952410.122 9 115360667.110 9      2472.954 9        55.395 9  21952412.037 6         0.000 6      1926.977 6        37.977 6
G16  20486233.299 9 107655862.288 9       488.564 9        55.981 9  20486232.472 6         0.000 6       380.699 6        37.977 6
G26  20686382.589 9 108707651.742 9     -1546.550 9        55.860 9  20686385.418 6         0.000 6     -1205.104 6        37.977 6
G20  21890443.035 9 115035021.965 9      2515.949 9        55.337 9  21890443.326 6         0.000 6      1960.481 6        37.977 6
> 2019 07 03 12 02 51.0000000  0  8       0.000000000000
G07  25301230.474 9 132958817.835 9      2134.830 9        54.147 9  25301231.120 6         0.000 6      1663.505 6        37.977 6
G10  23734668.666 9 124726472.173 9      3513.399 9        54.697 9  23734672.320 6         0.000 6      2737.716 6        37.977 6
G21  21197860.870 9 111395489.972 9     -1291.098 9        55.698 9  21197860.160 6         0.000 6     -1006.051 6        37.977 6
G29  24366075.368 9 128044532.748 9     -3129.474 9        54.451 9  24366077.013 6         0.000 6     -2438.554 6        37.977 6
G27  21951939.558 9 115358194.278 9      2472.713 9        55.395 9  21951941.472 6         0.000 6      1926.790 6        37.977 6
G16  20486140.386 9 107655374.031 9       487.944 9        55.981 9  20486139.559 6         0.000 6       380.216 6        37.977 6
G26  20686676.941 9 108709198.571 9     -1547.121 9        55.860 9  20686679.770 6         0.000 6     -1205.549 6        37.977 6
G20  21889964.309 9 115032506.244 9      2515.495 9        55.337 9  21889964.599 6         0.000 6      1960.127 6        37.977 6
> 2019 07 03 12 02 52.0000000  0  8       0.000000000000
G07  25300824.274 9 132956683.242 9      2134.362 9        54.147 9  25300824.920 6         0.000 6      1663.140 6        37.977 6
G10  23734000.102 9 124722958.859 9      3513.250 9        54.697 9  23734003.756 6         0.000 6      2737.600 6        37.977 6
G21  21198106.591 9 111396781.247 9     -1291.453 9        55.698 9  21198105.882 6         0.000 6     -1006.327 6        37.977 6
G29  24366670.895 9 128047662.253 9     -3129.558 9        54.451 9  24366672.541 6         0.000 6     -2438.619 6        37.977 6
G27  21951469.039 9 115355721.689 9      2472.471 9        55.395 9  21951470.953 6         0.000 6      1926.602 6        37.977 6
G16  20486047.593 9 107654886.397 9       487.323 9        55.981 9  20486046.766 6         0.000 6       379.733 6        37.977 6
G26  20686971.403 9 108710745.975 9     -1547.692 9        55.859 9  20686974.231 6         0.000 6     -1205.994 6        37.977 6
G20  21889485.669 9 115029990.980 9      2515.041 9        55.337 9  21889485.960 6         0.000 6      1959.774 6        37.977 6
> 2019 07 03 12 02 53.0000000  0  8       0.000000000000
G07  25300418.163 9 132954549.120 9      2133.894 9        54.148 9  25300418.809 6         0.000 6      1662.776 6        37.977 6
G10  23733331.567 9 124719445.690 9      3513.101 9        54.697 9  23733335.220 6         0.000 6      2737.484 6        37.977 6
G21  21198352.380 9 111398072.874 9     -1291.807 9        55.698 9  21198351.671 6         0.000 6     -1006.603 6        37.977 6
G29  24367266.438 9 128050791.842 9     -3129.640 9        54.451 9  24367268.084 6         0.000 6     -2438.684 6        37.977 6
G27  21950998.566 9 115353249.338 9      2472.230 9        55.396 9  21951000.480 6         0.000 6      1926.414 6        37.977 6
G16  20485954.916 9 107654399.380 9       486.703 9        55.981 9  20485954.090 6         0.000 6       379.249 6        37.977 6
G26  20687265.972 9 108712293.946 9     -1548.262 9        55.859 9  20687268.801 6         0.000 6     -1206.439 6        37.977 6
G20  21889007.115 9 115027476.166 9      2514.588 9        55.337 9  21889007.405 6         0.000 6      1959.420 6        37.977 6
> 2019 07 03 12 02 54.0000000  0  8       0.000000000000
G07  25300012.141 9 132952415.463 9      2133.426 9        54.148 9  25300012.787 6         0.000 6      1662.411 6        37.977 6
G10  23732663.060 9 124715932.674 9      3512.952 9        54.697 9  23732666.712 6         0.000 6      2737.368 6        37.977 6
G21  21198598.236 9 111399364.857 9     -1292.162 9        55.698 9  21198597.527 6         0.000 6     -1006.880 6        37.977 6
G29  24367861.997 9 128053921.513 9     -3129.723 9        54.451 9  24367863.644 6         0.000 6     -2438.748 6        37.977 6
G27  21950528.139 9 115350777.231 9      2471.989 9        55.396 9  21950530.053 6         0.000 6      1926.226 6        37.977 6
G16  20485862.359 9 107653912.988 9       486.083 9        55.981 9  20485861.532 6         0.000 6       378.766 6        37.977 6
G26  20687560.651 9 108713842.492 9     -1548.833 9        55.859 9  20687563.480 6         0.000 6     -1206.883 6        37.977 6
G20  21888528.648 9 115024961.809 9      2514.134 9        55.337 9  21888528.938 6         0.000 6      1959.066 6        37.977 6
> 2019 07 03 12 02 55.0000000  0  8       0.000000000000
G07  25299606.209 9 132950282.277 9      2132.958 9        54.148 9  25299606.854 6         0.000 6      1662.046 6        37.977 6
G10  23731994.581 9 124712419.803 9      3512.802 9        54.698 9  23731998.233 6         0.000 6      2737.251 6        37.977 6
G21  21198844.160 9 111400657.193 9     -1292.516 9        55.698 9  21198843.451 6         0.000 6     -1007.156 6        37.977 6
G29  24368457.571 9 128057051.268 9     -3129.806 9        54.450 9  24368459.219 6         0.000 6     -2438.813 6        37.977 6
G27  21950057.758 9 115348305.363 9      2471.748 9        55.396 9  21950059.672 6         0.000 6      1926.038 6        37.977 6
G16  20485769.919 9 107653427.212 9       485.462 9        55.981 9  20485769.092 6         0.000 6       378.282 6        37.977 6
G26  20687855.437 9 108715391.603 9     -1549.404 9        55.859 9  20687858.267 6         0.000 6     -1207.328 6        37.977 6
G20  21888050.267 9 115022447.903 9      2513.680 9        55.338 9  21888050.556 6         0.000 6      1958.712 6        37.977 6
> 2019 07 03 12 02 56.0000000  0  8       0.000000000000
G07  25299200.365 9 132948149.559 9      2132.490 9        54.148 9  25299201.010 6         0.000 6      1661.682 6        37.977 6
G10  23731326.130 9 124708907.083 9      3512.653 9        54.698 9  23731329.782 6         0.000 6      2737.135 6        37.977 6
G21  21199090.151 9 111401949.884 9     -1292.871 9        55.698 9  21199089.442 6         0.000 6     -1007.432 6        37.977 6
G29  24369053.160 9 128060181.100 9     -3129.889 9        54.450 9  24369054.809 6         0.000 6     -2438.877 6        37.977 6
G27  21949587.423 9 115345833.742 9      2471.507 9        55.396 9  21949589.337 6         0.000 6      1925.850 6        37.977 6
G16  20485677.598 9 107652942.061 9       484.842 9        55.981 9  20485676.771 6         0.000 6       377.799 6        37.977 6
G26  20688150.333 9 108716941.291 9     -1549.975 9        55.859 9  20688153.163 6         0.000 6     -1207.773 6        37.977 6
G20  21887571.972 9 115019934.452 9      2513.226 9        55.338 9  21887572.261 6         0.000 6      1958.359 6        37.977 6
> 2019 07 03 12 02 57.0000000  0  8       0.000000000000
G07  25298794.611 9 132946017.306 9      2132.022 9        54.148 9  25298795.255 6         0.000 6      1661.317 6        37.977 6
G10  23730657.709 9 124705394.515 9      3512.504 9        54.698 9  23730661.360 6         0.000 6      2737.018 6        37.977 6
G21  21199336.209 9 111403242.931 9     -1293.225 9        55.698 9  21199335.500 6         0.000 6     -1007.708 6        37.977 6
G29  24369648.766 9 128063311.020 9     -3129.972 9        54.450 9  24369650.415 6         0.000 6     -2438.942 6        37.977 6
G27  21949117.134 9 115343362.358 9      2471.266 9        55.396 9  21949119.048 6         0.000 6      1925.662 6        37.977 6
G16  20485585.395 9 107652457.530 9       484.221 9        55.982 9  20485584.568 6         0.000 6       377.315 6        37.977 6
G26  20688445.338 9 108718491.549 9     -1550.545 9        55.859 9  20688448.167 6         0.000 6     -1208.218 6        37.977 6
G20  21887093.764 9 115017421.457 9      2512.771 9        55.338 9  21887094.053 6         0.000 6      1958.005 6        37.977 6
> 2019 07 03 12 02 58.0000000  0  8       0.000000000000
G07  25298388.945 9 132943885.524 9      2131.554 9        54.148 9  25298389.590 6         0.000 6      1660.952 6        37.977 6
G10  23729989.315 9 124701882.093 9      3512.354 9        54.698 9  23729992.965 6         0.000 6      2736.902 6        37.977 6
G21  21199582.335 9 111404536.330 9     -1293.579 9        55.697 9  21199581.626 6         0.000 6     -1007.984 6        37.977 6
G29  24370244.388 9 128066441.023 9     -3130.055 9        54.450 9  24370246.038 6         0.000 6     -2439.007 6        37.977 6
G27  21948646.890 9 115340891.214 9      2471.025 9        55.396 9  21948648.804 6         0.000 6      1925.474 6        37.977 6
G16  20485493.309 9 107651973.615 9       483.601 9        55.982 9  20485492.482 6         0.000 6       376.832 6        37.977 6
G26  20688740.450 9 108720042.373 9     -1551.116 9        55.859 9  20688743.280 6         0.000 6     -1208.662 6        37.977 6
G20  21886615.642 9 115014908.913 9      2512.317 9        55.338 9  21886615.931 6         0.000 6      1957.651 6        37.977 6
> 2019 07 03 12 02 59.0000000  0  8       0.000000000000
G07  25297983.369 9 132941754.208 9      2131.086 9        54.148 9  25297984.013 6         0.000 6      1660.587 6        37.977 6
G10  23729320.951 9 124698369.824 9      3512.204 9        54.699 9  23729324.600 6         0.000 6      2736.785 6        37.977 6
G21  21199828.529 9 111405830.085 9     -1293.933 9        55.697 9  21199827.820 6         0.000 6     -1008.260 6        37.977 6
G29  24370840.026 9 128069571.109 9     -3130.138 9        54.450 9  24370841.676 6         0.000 6     -2439.071 6        37.977 6
G27  21948176.693 9 115338420.313 9      2470.783 9        55.397 9  21948178.606 6         0.000 6      1925.286 6        37.977 6
G16  20485401.342 9 107651490.325 9       482.980 9        55.982 9  20485400.515 6         0.000 6       376.348 6        37.977 6
G26  20689035.672 9 108721593.772 9     -1551.686 9        55.859 9  20689038.502 6         0.000 6     -1209.107 6        37.977 6
G20  21886137.607 9 115012396.828 9      2511.863 9        55.338 9  21886137.896 6         0.000 6      1957.297 6        37.977 6
> 2019 07 03 12 03  0.0000000  0  8       0.000000000000
G07  25297577.881 9 132939623.362 9      2130.617 9        54.148 9  25297578.525 6         0.000 6      1660.222 6        37.977 6
G10  23728652.614 9 124694857.700 9      3512.055 9        54.699 9  23728656.263 6         0.000 6      2736.669 6        37.977 6
G21  21200074.789 9 111407124.192 9     -1294.287 9        55.697 9  21200074.081 6         0.000 6     -1008.536 6        37.977 6
G29  24371435.679 9 128072701.278 9     -3130.221 9        54.449 9  24371437.330 6         0.000 6     -2439.136 6        37.977 6
G27  21947706.541 9 115335949.651 9      2470.542 9        55.397 9  21947708.454 6         0.000 6      1925.098 6        37.977 6
G16  20485309.492 9 107651007.652 9       482.359 9        55.982 9  20485308.665 6         0.000 6       375.864 6        37.977 6
G26  20689331.002 9 108723145.737 9     -1552.257 9        55.858 9  20689333.831 6         0.000 6     -1209.551 6        37.977 6
G20  21885659.658 9 115009885.193 9      2511.408 9        55.339 9  21885659.947 6         0.000 6      1956.943 6        37.977 6
> 2019 07 03 12 03  1.0000000  0  8       0.000000000000
G07  25297172.483 9 132937492.982 9      2130.149 9        54.149 9  25297173.127 6         0.000 6      1659.857 6        37.977 6
G10  23727984.306 9 124691345.731 9      3511.905 9        54.699 9  23727987.954 6         0.000 6      2736.552 6        37.977 6
G21  21200321.118 9 111408418.656 9     -1294.641 9        55.697 9  21200320.409 6         0.000 6     -1008.812 6        37.977 6
G29  24372031.348 9 128075831.530 9     -3130.304 9        54.449 9  24372033.000 6         0.000 6     -2439.200 6        37.977 6
G27  21947236.436 9 115333479.232 9      2470.300 9        55.397 9  21947238.349 6         0.000 6      1924.910 6        37.977 6
G16  20485217.761 9 107650525.603 9       481.739 9        55.982 9  20485216.934 6         0.000 6       375.381 6        37.977 6
G26  20689626.441 9 108724698.277 9     -1552.828 9        55.858 9  20689629.270 6         0.000 6     -1209.996 6        37.977 6
G20  21885181.796 9 115007374.016 9      2510.954 9        55.339 9  21885182.085 6         0.000 6      1956.588 6        37.977 6
> 2019 07 03 12 03  2.0000000  0  8       0.000000000000
G07  25296767.174 9 132935363.074 9      2129.681 9        54.149 9  25296767.818 6         0.000 6      1659.492 6        37.977 6
G10  23727316.026 9 124687833.907 9      3511.755 9        54.699 9  23727319.674 6         0.000 6      2736.435 6        37.977 6
G21  21200567.513 9 111409713.471 9     -1294.995 9        55.697 9  21200566.804 6         0.000 6     -1009.088 6        37.977 6
G29  24372627.033 9 128078961.864 9     -3130.386 9        54.449 9  24372628.685 6         0.000 6     -2439.265 6        37.977 6
G27  21946766.376 9 115331009.053 9      2470.059 9        55.397 9  21946768.289 6         0.000 6      1924.722 6        37.977 6
G16  20485126.148 9 107650044.171 9       481.118 9        55.982 9  20485125.321 6         0.000 6       374.897 6        37.977 6
G26  20689921.987 9 108726251.383 9     -1553.398 9        55.858 9  20689924.817 6         0.000 6     -1210.440 6        37.977 6
G20  21884704.020 9 115004863.290 9      2510.499 9        55.339 9  21884704.308 6         0.000 6      1956.234 6        37.977 6
> 2019 07 03 12 03  3.0000000  0  8       0.000000000000
G07  25296361.954 9 132933233.631 9      2129.212 9        54.149 9  25296362.597 6         0.000 6      1659.127 6        37.977 6
G10  23726647.776 9 124684322.237 9      3511.605 9        54.700 9  23726651.423 6         0.000 6      2736.318 6        37.977 6
G21  21200813.976 9 111411008.643 9     -1295.349 9        55.697 9  21200813.268 6         0.000 6     -1009.363 6        37.977 6
G29  24373222.733 9 128082092.281 9     -3130.469 9        54.449 9  24373224.386 6         0.000 6     -2439.329 6        37.977 6
G27  21946296.362 9 115328539.118 9      2469.818 9        55.397 9  21946298.275 6         0.000 6      1924.534 6        37.977 6
G16  20485034.653 9 107649563.363 9       480.497 9        55.982 9  20485033.826 6         0.000 6       374.413 6        37.977 6
G26  20690217.643 9 108727805.065 9     -1553.968 9        55.858 9  20690220.473 6         0.000 6     -1210.885 6        37.977 6
G20  21884226.331 9 115002353.023 9      2510.044 9        55.339 9  21884226.619 6         0.000 6      1955.880 6        37.977 6
> 2019 07 03 12 03  4.0000000  0  8       0.000000000000
G07  25295956.824 9 132931104.663 9      2128.743 9        54.149 9  25295957.467 6         0.000 6      1658.762 6        37.977 6
G10  23725979.553 9 124680810.711 9      3511.455 9        54.700 9  23725983.199 6         0.000 6      2736.201 6        37.977 6
G21  21201060.506 9 111412304.164 9     -1295.703 9        55.697 9  21201059.797 6         0.000 6     -1009.639 6        37.977 6
G29  24373818.449 9 128085222.776 9     -3130.552 9        54.449 9  24373820.102 6         0.000 6     -2439.394 6        37.977 6
G27  21945826.395 9 115326069.425 9      2469.576 9        55.398 9  21945828.307 6         0.000 6      1924.346 6        37.977 6
G16  20484943.276 9 107649083.174 9       479.877 9        55.982 9  20484942.449 6         0.000 6       373.930 6        37.977 6
G26  20690513.407 9 108729359.311 9     -1554.539 9        55.858 9  20690516.237 6         0.000 6     -1211.329 6        37.977 6
G20  21883748.728 9 114999843.203 9      2509.589 9        55.339 9  21883749.015 6         0.000 6      1955.525 6        37.977 6
> 2019 07 03 12 03  5.0000000  0  8       0.000000000000
G07  25295551.782 9 132928976.157 9      2128.274 9        54.149 9  25295552.425 6         0.000 6      1658.397 6        37.977 6
G10  23725311.360 9 124677299.342 9      3511.304 9        54.700 9  23725315.005 6         0.000 6      2736.084 6        37.977 6
G21  21201307.104 9 111413600.044 9     -1296.057 9        55.697 9  21201306.395 6         0.000 6     -1009.915 6        37.977 6
G29  24374414.181 9 128088353.359 9     -3130.634 9        54.448 9  24374415.835 6         0.000 6     -2439.458 6        37.977 6
G27  21945356.473 9 115323599.972 9      2469.335 9        55.398 9  21945358.385 6         0.000 6      1924.157 6        37.977 6
G16  20484852.018 9 107648603.608 9       479.256 9        55.982 9  20484851.191 6         0.000 6       373.446 6        37.977 6
G26  20690809.280 9 108730914.133 9     -1555.109 9        55.858 9  20690812.110 6         0.000 6     -1211.774 6        37.977 6
G20  21883271.212 9 114997333.845 9      2509.135 9        55.339 9  21883271.499 6         0.000 6      1955.171 6        37.977 6
> 2019 07 03 12 03  6.0000000  0  8       0.000000000000
G07  25295146.830 9 132926848.120 9      2127.806 9        54.149 9  25295147.472 6         0.000 6      1658.031 6        37.977 6
G10  23724643.195 9 124673788.123 9      3511.154 9        54.700 9  23724646.840 6         0.000 6      2735.967 6        37.977 6
G21  21201553.769 9 111414896.277 9     -1296.411 9        55.697 9  21201553.060 6         0.000 6     -1010.191 6        37.977 6
G29  24375009.929 9 128091484.024 9     -3130.717 9        54.448 9  24375011.584 6         0.000 6     -2439.523 6        37.977 6
G27  21944886.597 9 115321130.761 9      2469.093 9        55.398 9  21944888.509 6         0.000 6      1923.969 6        37.977 6
G16  20484760.878 9 107648124.663 9       478.635 9        55.982 9  20484760.051 6         0.000 6       372.962 6        37.977 6
G26  20691105.262 9 108732469.526 9     -1555.679 9        55.858 9  20691108.092 6         0.000 6     -1212.218 6        37.977 6
G20  21882793.783 9 114994824.942 9      2508.680 9        55.340 9  21882794.070 6         0.000 6      1954.816 6        37.977 6
> 2019 07 03 12 03  7.0000000  0  8       0.000000000000
G07  25294741.967 9 132924720.555 9      2127.337 9        54.149 9  25294742.609 6         0.000 6      1657.666 6        37.977 6
G10  23723975.058 9 124670277.050 9      3511.003 9        54.701 9  23723978.702 6         0.000 6      2735.849 6        37.977 6
G21  21201800.501 9 111416192.862 9     -1296.765 9        55.697 9  21201799.792 6         0.000 6     -1010.466 6        37.977 6
G29  24375605.692 9 128094614.772 9     -3130.800 9        54.448 9  24375607.348 6         0.000 6     -2439.587 6        37.977 6
G27  21944416.767 9 115318661.790 9      2468.851 9        55.398 9  21944418.679 6         0.000 6      1923.781 6        37.977 6
G16  20484669.855 9 107647646.335 9       478.014 9        55.982 9  20484669.028 6         0.000 6       372.478 6        37.977 6
G26  20691401.351 9 108734025.484 9     -1556.250 9        55.858 9  20691404.182 6         0.000 6     -1212.663 6        37.977 6
G20  21882316.440 9 114992316.491 9      2508.224 9        55.340 9  21882316.726 6         0.000 6      1954.462 6        37.977 6
> 2019 07 03 12 03  8.0000000  0  8       0.000000000000
G07  25294337.193 9 132922593.456 9      2126.868 9        54.150 9  25294337.835 6         0.000 6      1657.300 6        37.977 6
G10  23723306.951 9 124666766.133 9      3510.853 9        54.701 9  23723310.594 6         0.000 6      2735.732 6        37.977 6
G21  21202047.301 9 111417489.803 9     -1297.118 9        55.696 9  21202046.592 6         0.000 6     -1010.742 6        37.977 6
G29  24376201.471 9 128097745.602 9     -3130.882 9        54.448 9  24376203.128 6         0.000 6     -2439.651 6        37.977 6
G27  21943946.983 9 115316193.062 9      2468.610 9        55.398 9  21943948.895 6         0.000 6      1923.593 6        37.977 6
G16  20484578.951 9 107647168.632 9       477.393 9        55.982 9  20484578.124 6         0.000 6       371.995 6        37.977 6
G26  20691697.550 9 108735582.017 9     -1556.820 9        55.857 9  20691700.381 6         0.000 6     -1213.107 6        37.977 6
G20  21881839.184 9 114989808.498 9      2507.769 9        55.340 9  21881839.470 6         0.000 6      1954.107 6        37.977 6
> 2019 07 03 12 03  9.0000000  0  8       0.000000000000
G07  25293932.509 9 132920466.829 9      2126.399 9        54.150 9  25293933.150 6         0.000 6      1656.935 6        37.977 6
G10  23722638.871 9 124663255.361 9      3510.702 9        54.701 9  23722642.514 6         0.000 6      2735.615 6        37.977 6
G21  21202294.167 9 111418787.095 9     -1297.472 9        55.696 9  21202293.459 6         0.000 6     -1011.017 6        37.977 6
G29  24376797.266 9 128100876.516 9     -3130.965 9        54.447 9  24376798.923 6         0.000 6     -2439.716 6        37.977 6
G27  21943477.245 9 115313724.573 9      2468.368 9        55.398 9  21943479.157 6         0.000 6      1923.404 6        37.977 6
G16  20484488.164 9 107646691.546 9       476.772 9        55.982 9  20484487.338 6         0.000 6       371.511 6        37.977 6
G26  20691993.856 9 108737139.115 9     -1557.390 9        55.857 9  20691996.687 6         0.000 6     -1213.551 6        37.977 6
G20  21881362.014 9 114987300.957 9      2507.314 9        55.340 9  21881362.300 6         0.000 6      1953.752 6        37.977 6
> 2019 07 03 12 03 10.0000000  0  8       0.000000000000
G07  25293527.913 9 132918340.668 9      2125.930 9        54.150 9  25293528.555 6         0.000 6      1656.569 6        37.977 6
G10  23721970.821 9 124659744.745 9      3510.551 9        54.701 9  23721974.463 6         0.000 6      2735.497 6        37.977 6
G21  21202541.102 9 111420084.743 9     -1297.826 9        55.696 9  21202540.393 6         0.000 6     -1011.293 6        37.977 6
G29  24377393.077 9 128104007.512 9     -3131.048 9        54.447 9  24377394.735 6         0.000 6     -2439.780 6        37.977 6
G27  21943007.553 9 115311256.329 9      2468.126 9        55.399 9  21943009.465 6         0.000 6      1923.216 6        37.977 6
G16  20484397.497 9 107646215.084 9       476.151 9        55.982 9  20484396.670 6         0.000 6       371.027 6        37.977 6
G26  20692290.272 9 108738696.789 9     -1557.960 9        55.857 9  20692293.103 6         0.000 6     -1213.996 6        37.977 6
G20  21880884.931 9 114984793.875 9      2506.858 9        55.340 9  21880885.217 6         0.000 6      1953.397 6        37.977 6
> 2019 07 03 12 03 11.0000000  0  8       0.000000000000
G07  25293123.407 9 132916214.979 9      2125.461 9        54.150 9  25293124.049 6         0.000 6      1656.204 6        37.977 6
G10  23721302.799 9 124656234.275 9      3510.400 9        54.702 9  23721306.440 6         0.000 6      2735.380 6        37.977 6
G21  21202788.103 9 111421382.742 9     -1298.179 9        55.696 9  21202787.394 6         0.000 6     -1011.568 6        37.977 6
G29  24377988.903 9 128107138.590 9     -3131.130 9        54.447 9  24377990.562 6         0.000 6     -2439.844 6        37.977 6
G27  21942537.907 9 115308788.324 9      2467.885 9        55.399 9  21942539.818 6         0.000 6      1923.028 6        37.977 6
G16  20484306.947 9 107645739.240 9       475.530 9        55.982 9  20484306.120 6         0.000 6       370.543 6        37.977 6
G26  20692586.795 9 108740255.027 9     -1558.530 9        55.857 9  20692589.626 6         0.000 6     -1214.440 6        37.977 6
G20  21880407.934 9 114982287.244 9      2506.403 9        55.341 9  21880408.220 6         0.000 6      1953.042 6        37.977 6
> 2019 07 03 12 03 12.0000000  0  8       0.000000000000
G07  25292718.991 9 132914089.760 9      2124.991 9        54.150 9  25292719.632 6         0.000 6      1655.838 6        37.977 6
G10  23720634.806 9 124652723.958 9      3510.249 9        54.702 9  23720638.447 6         0.000 6      2735.262 6        37.977 6
G21  21203035.171 9 111422681.095 9     -1298.533 9        55.696 9  21203034.463 6         0.000 6     -1011.844 6        37.977 6
G29  24378584.745 9 128110269.746 9     -3131.213 9        54.447 9  24378586.403 6         0.000 6     -2439.909 6        37.977 6
G27  21942068.308 9 115306320.567 9      2467.643 9        55.399 9  21942070.219 6         0.000 6      1922.839 6        37.977 6
G16  20484216.516 9 107645264.022 9       474.909 9        55.982 9  20484215.689 6         0.000 6       370.059 6        37.977 6
G26  20692883.428 9 108741813.841 9     -1559.101 9        55.857 9  20692886.259 6         0.000 6     -1214.884 6        37.977 6
G20  21879931.024 9 114979781.070 9      2505.947 9        55.341 9  21879931.310 6         0.000 6      1952.687 6        37.977 6
> 2019 07 03 12 03 13.0000000  0  8       0.000000000000
G07  25292314.663 9 132911965.009 9      2124.522 9        54.150 9  25292315.304 6         0.000 6      1655.473 6        37.977 6
G10  23719966.841 9 124649213.790 9      3510.098 9        54.702 9  23719970.481 6         0.000 6      2735.144 6        37.977 6
G21  21203282.307 9 111423979.801 9     -1298.886 9        55.696 9  21203281.599 6         0.000 6     -1012.119 6        37.977 6
G29  24379180.602 9 128113400.989 9     -3131.295 9        54.447 9  24379182.262 6         0.000 6     -2439.973 6        37.977 6
G27  21941598.754 9 115303853.045 9      2467.401 9        55.399 9  21941600.665 6         0.000 6      1922.651 6        37.977 6
G16  20484126.202 9 107644789.420 9       474.288 9        55.982 9  20484125.375 6         0.000 6       369.575 6        37.977 6
G26  20693180.168 9 108743373.220 9     -1559.671 9        55.857 9  20693182.999 6         0.000 6     -1215.328 6        37.977 6
G20  21879454.201 9 114977275.351 9      2505.492 9        55.341 9  21879454.486 6         0.000 6      1952.332 6        37.977 6
> 2019 07 03 12 03 14.0000000  0  8       0.000000000000
G07  25291910.425 9 132909840.726 9      2124.052 9        54.150 9  25291911.066 6         0.000 6      1655.107 6        37.977 6
G10  23719298.906 9 124645703.777 9      3509.947 9        54.702 9  23719302.546 6         0.000 6      2735.026 6        37.977 6
G21  21203529.510 9 111425278.863 9     -1299.239 9        55.696 9  21203528.802 6         0.000 6     -1012.394 6        37.977 6
G29  24379776.476 9 128116532.315 9     -3131.378 9        54.446 9  24379778.136 6         0.000 6     -2440.037 6        37.977 6
G27  21941129.246 9 115301385.768 9      2467.159 9        55.399 9  21941131.157 6         0.000 6      1922.462 6        37.977 6
G16  20484036.007 9 107644315.443 9       473.667 9        55.982 9  20484035.180 6         0.000 6       369.091 6        37.977 6
G26  20693477.018 9 108744933.173 9     -1560.241 9        55.857 9  20693479.849 6         0.000 6     -1215.772 6        37.977 6
G20  21878977.465 9 114974770.091 9      2505.036 9        55.341 9  21878977.750 6         0.000 6      1951.977 6        37.977 6
> 2019 07 03 12 03 15.0000000  0  8       0.000000000000
G07  25291506.276 9 132907716.914 9      2123.583 9        54.151 9  25291506.917 6         0.000 6      1654.741 6        37.977 6
G10  23718630.999 9 124642193.912 9      3509.796 9        54.703 9  23718634.638 6         0.000 6      2734.908 6        37.977 6
G21  21203776.781 9 111426578.276 9     -1299.593 9        55.696 9  21203776.072 6         0.000 6     -1012.670 6        37.977 6
G29  24380372.365 9 128119663.724 9     -3131.460 9        54.446 9  24380374.026 6         0.000 6     -2440.102 6        37.977 6
G27  21940659.784 9 115298918.730 9      2466.917 9        55.400 9  21940661.694 6         0.000 6      1922.274 6        37.977 6
G16  20483945.930 9 107643842.084 9       473.046 9        55.982 9  20483945.103 6         0.000 6       368.607 6        37.977 6
G26  20693773.975 9 108746493.692 9     -1560.811 9        55.857 9  20693776.807 6         0.000 6     -1216.217 6        37.977 6
G20  21878500.815 9 114972265.283 9      2504.580 9        55.341 9  21878501.100 6         0.000 6      1951.622 6        37.977 6
> 2019 07 03 12 03 16.0000000  0  8       0.000000000000
G07  25291102.217 9 132905593.569 9      2123.113 9        54.151 9  25291102.857 6         0.000 6      1654.375 6        37.977 6
G10  23717963.121 9 124638684.202 9      3509.644 9        54.703 9  23717966.760 6         0.000 6      2734.790 6        37.977 6
G21  21204024.118 9 111427878.044 9     -1299.946 9        55.696 9  21204023.410 6         0.000 6     -1012.945 6        37.977 6
G29  24380968.270 9 128122795.215 9     -3131.543 9        54.446 9  24380969.932 6         0.000 6     -2440.166 6        37.977 6
G27  21940190.368 9 115296451.937 9      2466.675 9        55.400 9  21940192.279 6         0.000 6      1922.085 6        37.977 6
G16  20483855.971 9 107643369.349 9       472.424 9        55.982 9  20483855.145 6         0.000 6       368.123 6        37.977 6
G26  20694071.042 9 108748054.786 9     -1561.381 9        55.856 9  20694073.873 6         0.000 6     -1216.661 6        37.977 6
G20  21878024.253 9 114969760.935 9      2504.124 9        55.342 9  21878024.537 6         0.000 6      1951.267 6        37.977 6
> 2019 07 03 12 03 17.0000000  0  8       0.000000000000
G07  25290698.246 9 132903470.694 9      2122.644 9        54.151 9  25290698.887 6         0.000 6      1654.009 6        37.977 6
G10  23717295.272 9 124635174.644 9      3509.493 9        54.703 9  23717298.910 6         0.000 6      2734.672 6        37.977 6
G21  21204271.524 9 111429178.166 9     -1300.299 9        55.696 9  21204270.815 6         0.000 6     -1013.220 6        37.977 6
G29  24381564.191 9 128125926.788 9     -3131.625 9        54.446 9  24381565.853 6         0.000 6     -2440.230 6        37.977 6
G27  21939720.998 9 115293985.385 9      2466.433 9        55.400 9  21939722.909 6         0.000 6      1921.897 6        37.977 6
G16  20483766.131 9 107642897.235 9       471.803 9        55.982 9  20483765.304 6         0.000 6       367.639 6        37.977 6
G26  20694368.217 9 108749616.450 9     -1561.951 9        55.856 9  20694371.049 6         0.000 6     -1217.105 6        37.977 6
G20  21877547.777 9 114967257.044 9      2503.668 9        55.342 9  21877548.061 6         0.000 6      1950.911 6        37.977 6
> 2019 07 03 12 03 18.0000000  0  8       0.000000000000
G07  25290294.366 9 132901348.291 9      2122.174 9        54.151 9  25290295.006 6         0.000 6      1653.643 6        37.977 6
G10  23716627.452 9 124631665.233 9      3509.341 9        54.703 9  23716631.089 6         0.000 6      2734.554 6        37.977 6
G21  21204518.995 9 111430478.639 9     -1300.652 9        55.695 9  21204518.287 6         0.000 6     -1013.495 6        37.977 6
G29  24382160.127 9 128129058.444 9     -3131.708 9        54.446 9  24382161.790 6         0.000 6     -2440.294 6        37.977 6
G27  21939251.674 9 115291519.073 9      2466.191 9        55.400 9  21939253.585 6         0.000 6      1921.708 6        37.977 6
G16  20483676.408 9 107642425.739 9       471.182 9        55.982 9  20483675.582 6         0.000 6       367.155 6        37.977 6
G26  20694665.499 9 108751178.679 9     -1562.520 9        55.856 9  20694668.331 6         0.000 6     -1217.549 6        37.977 6
G20  21877071.388 9 114964753.604 9      2503.212 9        55.342 9  21877071.671 6         0.000 6      1950.556 6        37.977 6
> 2019 07 03 12 03 19.0000000  0  8       0.000000000000
G07  25289890.574 9 132899226.355 9      2121.704 9        54.151 9  25289891.214 6         0.000 6      1653.277 6        37.977 6
G10  23715959.661 9 124628155.978 9      3509.189 9        54.704 9  23715963.297 6         0.000 6      2734.436 6        37.977 6
G21  21204766.535 9 111431779.466 9     -1301.005 9        55.695 9  21204765.827 6         0.000 6     -1013.770 6        37.977 6
G29  24382756.079 9 128132190.182 9     -3131.790 9        54.445 9  24382757.742 6         0.000 6     -2440.358 6        37.977 6
G27  21938782.397 9 115289053.006 9      2465.949 9        55.400 9  21938784.307 6         0.000 6      1921.520 6        37.977 6
G16  20483586.805 9 107641954.868 9       470.560 9        55.982 9  20483585.978 6         0.000 6       366.670 6        37.977 6
G26  20694962.891 9 108752741.482 9     -1563.090 9        55.856 9  20694965.723 6         0.000 6     -1217.993 6        37.977 6
G20  21876595.086 9 114962250.624 9      2502.756 9        55.342 9  21876595.369 6         0.000 6      1950.200 6        37.977 6
> 2019 07 03 12 03 20.0000000  0  8       0.000000000000
G07  25289486.872 9 132897104.892 9      2121.234 9        54.151 9  25289487.512 6         0.000 6      1652.911 6        37.977 6
G10  23715291.898 9 124624646.872 9      3509.037 9        54.704 9  23715295.534 6         0.000 6      2734.318 6        37.977 6
G21  21205014.141 9 111433080.645 9     -1301.358 9        55.695 9  21205013.433 6         0.000 6     -1014.046 6        37.977 6
G29  24383352.046 9 128135322.000 9     -3131.872 9        54.445 9  24383353.710 6         0.000 6     -2440.423 6        37.977 6
G27  21938313.166 9 115286587.182 9      2465.707 9        55.401 9  21938315.075 6         0.000 6      1921.331 6        37.977 6
G16  20483497.319 9 107641484.618 9       469.939 9        55.982 9  20483496.492 6         0.000 6       366.186 6        37.977 6
G26  20695260.391 9 108754304.853 9     -1563.660 9        55.856 9  20695263.223 6         0.000 6     -1218.437 6        37.977 6
G20  21876118.870 9 114959748.097 9      2502.299 9        55.342 9  21876119.153 6         0.000 6      1949.845 6        37.977 6
