     3.00           Observation Data    M (Mixed)           RINEX VERSION / TYPE
SimGEN V6.06.00     Spirent             03-Jul-19 12:00     PGM / RUN BY / DATE 
                                                            MARKER NAME         
1                                                           MARKER NUMBER       
GROUND_CRAFT                                                MARKER TYPE         
liy4hi              Spirent                                 OBSERVER / AGENCY   
rec_num             rec_type            rec_vers            REC # / TYPE / VERS 
1                   ant_type                                ANT # / TYPE        
  1000.000                                                  INTERVAL            
  2019     7     3    12     0    0.0000000     GPS         TIME OF FIRST OBS   
  4162683.1460   664344.7750  4770531.3520                  APPROX POSITION XYZ 
        0.0000        0.0000        0.0000                  ANTENNA: DELTA H/E/N
G    8 C1C L1C D1C S1C C2C L2C D2C S2C                      SYS / # / OBS TYPES 
        0.0000        0.0000        0.0000                  ANTENNA: DELTA X/Y/Z
DBHZ                                                        SIGNAL STRENGTH UNIT
                                                            END OF HEADER       
> 2019 07 03 12 00  0.0000000  0 16       0.000000000000
G07  25371996.753 9 133330696.530 9      2203.516 9        54.123 9  25371997.436 6         0.000 6      1717.025 6        37.977 6
G07  25371996.753 1 133330696.636 1      2203.516 1       -55.923 1  25371997.436 1         0.000 1      1717.025 1       -61.923 1
G10  23849387.172 9 125329320.180 9      3544.123 9        54.655 9  23849390.938 6         0.000 6      2761.654 6        37.977 6
G10  23849407.329 1 125329426.216 1      3544.123 1       -55.923 1  23849411.095 1         0.000 1      2761.654 1       -61.923 1
G21  21156835.381 9 111179899.695 9     -1222.056 9        55.715 9  21156834.664 6         0.000 6      -952.251 6        37.977 6
G21  21156835.381 1 111179899.802 1     -1222.056 1       -55.923 1  21156834.664 1         0.000 1      -952.251 1       -61.923 1
G29  24264451.692 9 127510498.480 9     -3092.218 9        54.487 9  24264453.229 6         0.000 6     -2409.520 6        37.977 6
G29  24264451.692 1 127510498.586 1     -3092.218 1       -55.923 1  24264453.229 1         0.000 1     -2409.520 1       -61.923 1
G27  22033085.418 9 115784618.191 9      2495.741 9        55.363 9  22033087.361 6         0.000 6      1944.733 6        37.977 6
G27  22033085.418 1 115784618.298 1      2495.741 1       -55.923 1  22033087.361 1         0.000 1      1944.733 1       -61.923 1
G16  20503746.988 9 107747897.344 9       585.069 9        55.974 9  20503746.161 6         0.000 6       455.898 6        37.977 6
G16  20503746.988 1 107747897.451 1       585.069 1       -55.923 1  20503746.161 1         0.000 1       455.898 1       -61.923 1
G26  20637930.596 9 108453035.103 9     -1451.370 9        55.880 9  20637933.406 6         0.000 6     -1130.938 6        37.977 6
G26  20637940.662 1 108453088.108 1     -1451.370 1       -55.923 1  20637943.472 1         0.000 1     -1130.938 1       -61.923 1
G20  21973055.555 9 115469152.925 9      2602.788 9        55.304 9  21973055.893 6         0.000 6      2028.147 6        37.977 6
G20  21973068.308 1 115469220.050 1      2602.788 1       -55.923 1  21973068.646 1         0.000 1      2028.147 1       -61.923 1
> 2019 07 03 12 00  1.0000000  0 16       0.000000000000
G07  25371577.471 9 133328493.192 9      2203.113 9        54.123 9  25371578.154 6         0.000 6      1716.712 6        37.977 6
G07  25371577.471 1 133328493.540 1      2203.113 1       -55.923 1  25371578.154 1         0.000 1      1716.712 1       -61.923 1
G10  23848712.757 9 125325776.114 9      3544.012 9        54.655 9  23848716.522 6         0.000 6      2761.570 6        37.977 6
G10  23848732.913 1 125325882.385 1      3544.018 1       -55.923 1  23848736.678 1         0.000 1      2761.575 1       -61.923 1
G21  21157067.965 9 111181121.932 9     -1222.417 9        55.715 9  21157067.248 6         0.000 6      -952.533 6        37.977 6
G21  21157067.965 1 111181122.280 1     -1222.417 1       -55.923 1  21157067.248 1         0.000 1      -952.533 1       -61.923 1
G29  24265040.134 9 127513590.757 9     -3092.330 9        54.487 9  24265041.672 6         0.000 6     -2409.610 6        37.977 6
G29  24265040.134 1 127513591.105 1     -3092.330 1       -55.923 1  24265041.672 1         0.000 1     -2409.610 1       -61.923 1
G27  22032610.516 9 115782122.564 9      2495.515 9        55.363 9  22032612.458 6         0.000 6      1944.557 6        37.977 6
G27  22032610.516 1 115782122.912 1      2495.515 1       -55.923 1  22032612.458 1         0.000 1      1944.557 1       -61.923 1
G16  20503635.711 9 107747312.580 9       584.459 9        55.974 9  20503634.884 6         0.000 6       455.422 6        37.977 6
G16  20503635.711 1 107747312.928 1       584.459 1       -55.923 1  20503634.884 1         0.000 1       455.422 1       -61.923 1
G26  20638206.837 9 108454486.761 9     -1451.947 9        55.880 9  20638209.648 6         0.000 6     -1131.388 6        37.977 6
G26  20638216.907 1 108454540.022 1     -1451.962 1       -55.923 1  20638219.717 1         0.000 1     -1131.400 1       -61.923 1
G20  21972560.302 9 115466550.355 9      2602.357 9        55.304 9  21972560.639 6         0.000 6      2027.811 6        37.977 6
G20  21972573.052 1 115466617.708 1      2602.370 1       -55.923 1  21972573.390 1         0.000 1      2027.822 1       -61.923 1
> 2019 07 03 12 00  2.0000000  0 16       0.000000000000
G07  25371158.276 9 133326290.311 9      2202.655 9        54.123 9  25371158.959 6         0.000 6      1716.355 6        37.977 6
G07  25371158.276 1 133326290.439 1      2202.655 1       -55.923 1  25371158.959 1         0.000 1      1716.355 1       -61.923 1
G10  23848038.366 9 125322232.178 9      3543.882 9        54.655 9  23848042.131 6         0.000 6      2761.469 6        37.977 6
G10  23848058.521 1 125322338.222 1      3543.888 1       -55.923 1  23848062.286 1         0.000 1      2761.474 1       -61.923 1
G21  21157300.617 9 111182344.529 9     -1222.778 9        55.715 9  21157299.901 6         0.000 6      -952.814 6        37.977 6
G21  21157300.617 1 111182344.657 1     -1222.778 1       -55.923 1  21157299.901 1         0.000 1      -952.814 1       -61.923 1
G29  24265628.593 9 127516683.120 9     -3092.416 9        54.487 9  24265630.132 6         0.000 6     -2409.677 6        37.977 6
G29  24265628.593 1 127516683.440 1     -3092.416 1       -55.923 1  24265630.132 1         0.000 1     -2409.677 1       -61.923 1
G27  22032135.657 9 115779627.167 9      2495.284 9        55.363 9  22032137.599 6         0.000 6      1944.378 6        37.977 6
G27  22032135.657 1 115779627.487 1      2495.284 1       -55.923 1  22032137.599 1         0.000 1      1944.378 1       -61.923 1
G16  20503524.550 9 107746728.427 9       583.848 9        55.974 9  20503523.724 6         0.000 6       454.946 6        37.977 6
G16  20503524.550 1 107746728.746 1       583.848 1       -55.923 1  20503523.724 1         0.000 1       454.946 1       -61.923 1
G26  20638483.189 9 108455938.994 9     -1452.522 9        55.880 9  20638485.999 6         0.000 6     -1131.836 6        37.977 6
G26  20638493.260 1 108455992.242 1     -1452.537 1       -55.923 1  20638496.071 1         0.000 1     -1131.848 1       -61.923 1
G20  21972065.131 9 115463948.222 9      2601.920 9        55.305 9  21972065.469 6         0.000 6      2027.471 6        37.977 6
G20  21972077.879 1 115464015.533 1      2601.933 1       -55.923 1  21972078.217 1         0.000 1      2027.481 1       -61.923 1
> 2019 07 03 12 00  3.0000000  0 16       0.000000000000
G07  25370739.168 9 133324087.889 9      2202.197 9        54.123 9  25370739.851 6         0.000 6      1715.998 6        37.977 6
G07  25370739.168 1 133324088.811 1      2202.197 1       -55.923 1  25370739.851 1         0.000 1      1715.998 1       -61.923 1
G10  23847364.000 9 125318688.373 9      3543.752 9        54.656 9  23847367.764 6         0.000 6      2761.368 6        37.977 6
G10  23847384.154 1 125318795.203 1      3543.758 1       -55.923 1  23847387.918 1         0.000 1      2761.373 1       -61.923 1
G21  21157533.339 9 111183567.486 9     -1223.138 9        55.715 9  21157532.622 6         0.000 6      -953.095 6        37.977 6
G21  21157533.339 1 111183568.408 1     -1223.138 1       -55.923 1  21157532.622 1         0.000 1      -953.095 1       -61.923 1
G29  24266217.069 9 127519775.569 9     -3092.502 9        54.487 9  24266218.608 6         0.000 6     -2409.744 6        37.977 6
G29  24266217.069 1 127519776.491 1     -3092.502 1       -55.923 1  24266218.608 1         0.000 1     -2409.744 1       -61.923 1
G27  22031660.842 9 115777132.001 9      2495.053 9        55.364 9  22031662.785 6         0.000 6      1944.198 6        37.977 6
G27  22031660.842 1 115777132.923 1      2495.053 1       -55.923 1  22031662.785 1         0.000 1      1944.198 1       -61.923 1
G16  20503413.506 9 107746144.885 9       583.236 9        55.974 9  20503412.679 6         0.000 6       454.470 6        37.977 6
G16  20503413.506 1 107746145.807 1       583.236 1       -55.923 1  20503412.679 1         0.000 1       454.470 1       -61.923 1
G26  20638759.649 9 108457391.802 9     -1453.097 9        55.880 9  20638762.459 6         0.000 6     -1132.284 6        37.977 6
G26  20638769.724 1 108457445.667 1     -1453.112 1       -55.923 1  20638772.534 1         0.000 1     -1132.296 1       -61.923 1
G20  21971570.044 9 115461346.525 9      2601.483 9        55.305 9  21971570.381 6         0.000 6      2027.131 6        37.977 6
G20  21971582.789 1 115461413.871 1      2601.496 1       -55.923 1  21971583.127 1         0.000 1      2027.141 1       -61.923 1
> 2019 07 03 12 00  4.0000000  0 16       0.000000000000
G07  25370320.148 9 133321885.926 9      2201.738 9        54.124 9  25370320.830 6         0.000 6      1715.641 6        37.977 6
G07  25370320.148 1 133321886.212 1      2201.738 1       -55.923 1  25370320.830 1         0.000 1      1715.641 1       -61.923 1
G10  23846689.659 9 125315144.697 9      3543.622 9        54.656 9  23846693.422 6         0.000 6      2761.266 6        37.977 6
G10  23846709.811 1 125315250.885 1      3543.628 1       -55.923 1  23846713.575 1         0.000 1      2761.272 1       -61.923 1
G21  21157766.128 9 111184790.804 9     -1223.498 9        55.715 9  21157765.412 6         0.000 6      -953.375 6        37.977 6
G21  21157766.128 1 111184791.090 1     -1223.498 1       -55.923 1  21157765.412 1         0.000 1      -953.375 1       -61.923 1
G29  24266805.561 9 127522868.104 9     -3092.588 9        54.487 9  24266807.100 6         0.000 6     -2409.811 6        37.977 6
G29  24266805.561 1 127522868.390 1     -3092.588 1       -55.923 1  24266807.100 1         0.000 1     -2409.811 1       -61.923 1
G27  22031186.071 9 115774637.066 9      2494.823 9        55.364 9  22031188.013 6         0.000 6      1944.018 6        37.977 6
G27  22031186.071 1 115774637.353 1      2494.823 1       -55.923 1  22031188.013 1         0.000 1      1944.018 1       -61.923 1
G16  20503302.578 9 107745561.954 9       582.625 9        55.974 9  20503301.751 6         0.000 6       453.994 6        37.977 6
G16  20503302.578 1 107745562.241 1       582.625 1       -55.923 1  20503301.751 1         0.000 1       453.994 1       -61.923 1
G26  20639036.219 9 108458845.185 9     -1453.672 9        55.880 9  20639039.029 6         0.000 6     -1132.732 6        37.977 6
G26  20639046.297 1 108458898.158 1     -1453.687 1       -55.923 1  20639049.107 1         0.000 1     -1132.744 1       -61.923 1
G20  21971075.040 9 115458745.265 9      2601.046 9        55.305 9  21971075.377 6         0.000 6      2026.790 6        37.977 6
G20  21971087.783 1 115458812.245 1      2601.059 1       -55.923 1  21971088.120 1         0.000 1      2026.800 1       -61.923 1
> 2019 07 03 12 00  5.0000000  0 16       0.000000000000
G07  25369901.215 9 133319684.420 9      2201.280 9        54.124 9  25369901.897 6         0.000 6      1715.284 6        37.977 6
G07  25369901.215 1 133319684.524 1      2201.280 1       -55.923 1  25369901.897 1         0.000 1      1715.284 1       -61.923 1
G10  23846015.342 9 125311601.151 9      3543.491 9        54.656 9  23846019.105 6         0.000 6      2761.165 6        37.977 6
G10  23846035.494 1 125311707.151 1      3543.498 1       -55.923 1  23846039.256 1         0.000 1      2761.170 1       -61.923 1
G21  21157998.986 9 111186014.481 9     -1223.858 9        55.715 9  21157998.270 6         0.000 6      -953.656 6        37.977 6
G21  21157998.986 1 111186014.586 1     -1223.858 1       -55.923 1  21157998.270 1         0.000 1      -953.656 1       -61.923 1
G29  24267394.069 9 127525960.724 9     -3092.673 9        54.486 9  24267395.609 6         0.000 6     -2409.878 6        37.977 6
G29  24267394.069 1 127525960.829 1     -3092.673 1       -55.923 1  24267395.609 1         0.000 1     -2409.878 1       -61.923 1
G27  22030711.344 9 115772142.362 9      2494.592 9        55.364 9  22030713.286 6         0.000 6      1943.839 6        37.977 6
G27  22030711.344 1 115772142.466 1      2494.592 1       -55.923 1  22030713.286 1         0.000 1      1943.839 1       -61.923 1
G16  20503191.766 9 107744979.635 9       582.014 9        55.974 9  20503190.940 6         0.000 6       453.517 6        37.977 6
G16  20503191.766 1 107744979.739 1       582.014 1       -55.923 1  20503190.940 1         0.000 1       453.517 1       -61.923 1
G26  20639312.898 9 108460299.143 9     -1454.247 9        55.879 9  20639315.709 6         0.000 6     -1133.180 6        37.977 6
G26  20639322.979 1 108460352.221 1     -1454.262 1       -55.923 1  20639325.789 1         0.000 1     -1133.192 1       -61.923 1
G20  21970580.119 9 115456144.443 9      2600.608 9        55.305 9  21970580.455 6         0.000 6      2026.449 6        37.977 6
G20  21970592.859 1 115456211.500 1      2600.622 1       -55.923 1  21970593.196 1         0.000 1      2026.460 1       -61.923 1
> 2019 07 03 12 00  6.0000000  0 16       0.000000000000
G07  25369482.369 9 133317483.373 9      2200.822 9        54.124 9  25369483.051 6         0.000 6      1714.927 6        37.977 6
G07  25369482.369 1 133317483.845 1      2200.822 1       -55.923 1  25369483.051 1         0.000 1      1714.927 1       -61.923 1
G10  23845341.051 9 125308057.736 9      3543.361 9        54.656 9  23845344.813 6         0.000 6      2761.063 6        37.977 6
G10  23845361.201 1 125308164.096 1      3543.368 1       -55.923 1  23845364.963 1         0.000 1      2761.069 1       -61.923 1
G21  21158231.913 9 111187238.519 9     -1224.219 9        55.714 9  21158231.197 6         0.000 6      -953.937 6        37.977 6
G21  21158231.913 1 111187238.991 1     -1224.219 1       -55.923 1  21158231.197 1         0.000 1      -953.937 1       -61.923 1
G29  24267982.593 9 127529053.431 9     -3092.759 9        54.486 9  24267984.134 6         0.000 6     -2409.945 6        37.977 6
G29  24267982.593 1 127529053.902 1     -3092.759 1       -55.923 1  24267984.134 1         0.000 1     -2409.945 1       -61.923 1
G27  22030236.661 9 115769647.888 9      2494.361 9        55.364 9  22030238.603 6         0.000 6      1943.659 6        37.977 6
G27  22030236.661 1 115769648.359 1      2494.361 1       -55.923 1  22030238.603 1         0.000 1      1943.659 1       -61.923 1
G16  20503081.071 9 107744397.927 9       581.403 9        55.974 9  20503080.244 6         0.000 6       453.041 6        37.977 6
G16  20503081.071 1 107744398.399 1       581.403 1       -55.923 1  20503080.244 1         0.000 1       453.041 1       -61.923 1
G26  20639589.687 9 108461753.675 9     -1454.822 9        55.879 9  20639592.498 6         0.000 6     -1133.628 6        37.977 6
G26  20639599.770 1 108461807.137 1     -1454.837 1       -55.923 1  20639602.581 1         0.000 1     -1133.640 1       -61.923 1
G20  21970085.281 9 115453544.058 9      2600.171 9        55.305 9  21970085.617 6         0.000 6      2026.109 6        37.977 6
G20  21970098.019 1 115453611.469 1      2600.184 1       -55.923 1  21970098.356 1         0.000 1      2026.119 1       -61.923 1
> 2019 07 03 12 00  7.0000000  0 16       0.000000000000
G07  25369063.610 9 133315282.784 9      2200.363 9        54.124 9  25369064.292 6         0.000 6      1714.570 6        37.977 6
G07  25369063.610 1 133315283.345 1      2200.363 1       -55.923 1  25369064.292 1         0.000 1      1714.570 1       -61.923 1
G10  23844666.784 9 125304514.451 9      3543.231 9        54.657 9  23844670.545 6         0.000 6      2760.962 6        37.977 6
G10  23844686.933 1 125304620.893 1      3543.237 1       -55.923 1  23844690.694 1         0.000 1      2760.967 1       -61.923 1
G21  21158464.909 9 111188462.917 9     -1224.579 9        55.714 9  21158464.192 6         0.000 6      -954.217 6        37.977 6
G21  21158464.909 1 111188463.478 1     -1224.579 1       -55.923 1  21158464.192 1         0.000 1      -954.217 1       -61.923 1
G29  24268571.134 9 127532146.223 9     -3092.845 9        54.486 9  24268572.675 6         0.000 6     -2410.012 6        37.977 6
G29  24268571.134 1 127532146.783 1     -3092.845 1       -55.923 1  24268572.675 1         0.000 1     -2410.012 1       -61.923 1
G27  22029762.022 9 115767153.644 9      2494.131 9        55.364 9  22029763.964 6         0.000 6      1943.479 6        37.977 6
G27  22029762.022 1 115767154.205 1      2494.131 1       -55.923 1  22029763.964 1         0.000 1      1943.479 1       -61.923 1
G16  20502970.492 9 107743816.830 9       580.791 9        55.974 9  20502969.665 6         0.000 6       452.565 6        37.977 6
G16  20502970.492 1 107743817.391 1       580.791 1       -55.923 1  20502969.665 1         0.000 1       452.565 1       -61.923 1
G26  20639866.585 9 108463208.783 9     -1455.397 9        55.879 9  20639869.396 6         0.000 6     -1134.076 6        37.977 6
G26  20639876.671 1 108463262.349 1     -1455.412 1       -55.923 1  20639879.482 1         0.000 1     -1134.088 1       -61.923 1
G20  21969590.527 9 115450944.110 9      2599.734 9        55.306 9  21969590.863 6         0.000 6      2025.768 6        37.977 6
G20  21969603.262 1 115451011.597 1      2599.747 1       -55.923 1  21969603.598 1         0.000 1      2025.778 1       -61.923 1
> 2019 07 03 12 00  8.0000000  0 16       0.000000000000
G07  25368644.938 9 133313082.654 9      2199.904 9        54.124 9  25368645.620 6         0.000 6      1714.212 6        37.977 6
G07  25368644.938 1 133313083.187 1      2199.904 1       -55.923 1  25368645.620 1         0.000 1      1714.212 1       -61.923 1
G10  23843992.542 9 125300971.296 9      3543.100 9        54.657 9  23843996.303 6         0.000 6      2760.860 6        37.977 6
G10  23844012.689 1 125301077.703 1      3543.107 1       -55.923 1  23844016.450 1         0.000 1      2760.865 1       -61.923 1
G21  21158697.972 9 111189687.675 9     -1224.939 9        55.714 9  21158697.256 6         0.000 6      -954.498 6        37.977 6
G21  21158697.972 1 111189688.207 1     -1224.939 1       -55.923 1  21158697.256 1         0.000 1      -954.498 1       -61.923 1
G29  24269159.691 9 127535239.100 9     -3092.931 9        54.486 9  24269161.233 6         0.000 6     -2410.078 6        37.977 6
G29  24269159.691 1 127535239.633 1     -3092.931 1       -55.923 1  24269161.233 1         0.000 1     -2410.078 1       -61.923 1
G27  22029287.426 9 115764659.632 9      2493.900 9        55.365 9  22029289.368 6         0.000 6      1943.299 6        37.977 6
G27  22029287.426 1 115764660.164 1      2493.900 1       -55.923 1  22029289.368 1         0.000 1      1943.299 1       -61.923 1
G16  20502860.029 9 107743236.345 9       580.180 9        55.974 9  20502859.203 6         0.000 6       452.088 6        37.977 6
G16  20502860.029 1 107743236.877 1       580.180 1       -55.923 1  20502859.203 1         0.000 1       452.088 1       -61.923 1
G26  20640143.592 9 108464664.465 9     -1455.972 9        55.879 9  20640146.403 6         0.000 6     -1134.524 6        37.977 6
G26  20640153.682 1 108464718.018 1     -1455.987 1       -55.923 1  20640156.493 1         0.000 1     -1134.536 1       -61.923 1
G20  21969095.855 9 115448344.600 9      2599.296 9        55.306 9  21969096.191 6         0.000 6      2025.427 6        37.977 6
G20  21969108.588 1 115448412.045 1      2599.309 1       -55.923 1  21969108.924 1         0.000 1      2025.437 1       -61.923 1
> 2019 07 03 12 00  9.0000000  0 16       0.000000000000
G07  25368226.354 9 133310882.983 9      2199.446 9        54.124 9  25368227.035 6         0.000 6      1713.855 6        37.977 6
G07  25368226.354 1 133310883.559 1      2199.446 1       -55.923 1  25368227.035 1         0.000 1      1713.855 1       -61.923 1
G10  23843318.325 9 125297428.272 9      3542.969 9        54.657 9  23843322.085 6         0.000 6      2760.758 6        37.977 6
G10  23843338.471 1 125297534.716 1      3542.976 1       -55.923 1  23843342.231 1         0.000 1      2760.763 1       -61.923 1
G21  21158931.105 9 111190912.793 9     -1225.299 9        55.714 9  21158930.388 6         0.000 6      -954.778 6        37.977 6
G21  21158931.105 1 111190913.369 1     -1225.299 1       -55.923 1  21158930.388 1         0.000 1      -954.778 1       -61.923 1
G29  24269748.264 9 127538332.064 9     -3093.016 9        54.486 9  24269749.807 6         0.000 6     -2410.145 6        37.977 6
G29  24269748.264 1 127538332.640 1     -3093.016 1       -55.923 1  24269749.807 1         0.000 1     -2410.145 1       -61.923 1
G27  22028812.875 9 115762165.851 9      2493.669 9        55.365 9  22028814.817 6         0.000 6      1943.119 6        37.977 6
G27  22028812.875 1 115762166.426 1      2493.669 1       -55.923 1  22028814.817 1         0.000 1      1943.119 1       -61.923 1
G16  20502749.683 9 107742656.471 9       579.568 9        55.974 9  20502748.856 6         0.000 6       451.612 6        37.977 6
G16  20502749.683 1 107742657.047 1       579.568 1       -55.923 1  20502748.856 1         0.000 1       451.612 1       -61.923 1
G26  20640420.709 9 108466120.722 9     -1456.546 9        55.879 9  20640423.520 6         0.000 6     -1134.972 6        37.977 6
G26  20640430.802 1 108466174.681 1     -1456.562 1       -55.923 1  20640433.613 1         0.000 1     -1134.983 1       -61.923 1
G20  21968601.267 9 115445745.527 9      2598.859 9        55.306 9  21968601.603 6         0.000 6      2025.086 6        37.977 6
G20  21968613.998 1 115445813.350 1      2598.872 1       -55.923 1  21968614.333 1         0.000 1      2025.096 1       -61.923 1
> 2019 07 03 12 00 10.0000000  0 16       0.000000000000
G07  25367807.857 9 133308683.770 9      2198.987 9        54.124 9  25367808.538 6         0.000 6      1713.497 6        37.977 6
G07  25367807.857 1 133308684.567 1      2198.987 1       -55.923 1  25367808.538 1         0.000 1      1713.497 1       -61.923 1
G10  23842644.133 9 125293885.379 9      3542.839 9        54.657 9  23842647.892 6         0.000 6      2760.656 6        37.977 6
G10  23842664.278 1 125293992.037 1      3542.845 1       -55.923 1  23842668.037 1         0.000 1      2760.662 1       -61.923 1
G21  21159164.306 9 111192138.271 9     -1225.658 9        55.714 9  21159163.589 6         0.000 6      -955.059 6        37.977 6
G21  21159164.306 1 111192139.068 1     -1225.658 1       -55.923 1  21159163.589 1         0.000 1      -955.059 1       -61.923 1
G29  24270336.853 9 127541425.113 9     -3093.102 9        54.485 9  24270338.397 6         0.000 6     -2410.212 6        37.977 6
G29  24270336.853 1 127541425.910 1     -3093.102 1       -55.923 1  24270338.397 1         0.000 1     -2410.212 1       -61.923 1
G27  22028338.368 9 115759672.300 9      2493.438 9        55.365 9  22028340.309 6         0.000 6      1942.939 6        37.977 6
G27  22028338.368 1 115759673.274 1      2493.438 1       -55.923 1  22028340.309 1         0.000 1      1942.939 1       -61.923 1
G16  20502639.453 9 107742077.208 9       578.957 9        55.974 9  20502638.626 6         0.000 6       451.135 6        37.977 6
G16  20502639.453 1 107742078.183 1       578.957 1       -55.923 1  20502638.626 1         0.000 1       451.135 1       -61.923 1
G26  20640697.936 9 108467577.554 9     -1457.121 9        55.879 9  20640700.747 6         0.000 6     -1135.419 6        37.977 6
G26  20640708.031 1 108467631.580 1     -1457.136 1       -55.923 1  20640710.842 1         0.000 1     -1135.431 1       -61.923 1
G20  21968106.763 9 115443146.891 9      2598.421 9        55.306 9  21968107.098 6         0.000 6      2024.745 6        37.977 6
G20  21968119.491 1 115443214.752 1      2598.434 1       -55.923 1  21968119.826 1         0.000 1      2024.755 1       -61.923 1
> 2019 07 03 12 00 11.0000000  0 16       0.000000000000
G07  25367389.448 9 133306485.016 9      2198.528 9        54.125 9  25367390.128 6         0.000 6      1713.140 6        37.977 6
G07  25367389.448 1 133306485.054 1      2198.528 1       -55.923 1  25367390.128 1         0.000 1      1713.140 1       -61.923 1
G10  23841969.965 9 125290342.616 9      3542.708 9        54.657 9  23841973.724 6         0.000 6      2760.554 6        37.977 6
G10  23841990.109 1 125290448.508 1      3542.715 1       -55.923 1  23841993.868 1         0.000 1      2760.560 1       -61.923 1
G21  21159397.575 9 111193364.108 9     -1226.018 9        55.714 9  21159396.858 6         0.000 6      -955.339 6        37.977 6
G21  21159397.575 1 111193364.146 1     -1226.018 1       -55.923 1  21159396.858 1         0.000 1      -955.339 1       -61.923 1
G29  24270925.459 9 127544518.247 9     -3093.188 9        54.485 9  24270927.003 6         0.000 6     -2410.279 6        37.977 6
G29  24270925.459 1 127544518.285 1     -3093.188 1       -55.923 1  24270927.003 1         0.000 1     -2410.279 1       -61.923 1
G27  22027863.904 9 115757178.980 9      2493.207 9        55.365 9  22027865.845 6         0.000 6      1942.759 6        37.977 6
G27  22027863.904 1 115757179.017 1      2493.207 1       -55.923 1  22027865.845 1         0.000 1      1942.759 1       -61.923 1
G16  20502529.339 9 107741498.557 9       578.345 9        55.974 9  20502528.513 6         0.000 6       450.659 6        37.977 6
G16  20502529.339 1 107741498.595 1       578.345 1       -55.923 1  20502528.513 1         0.000 1       450.659 1       -61.923 1
G26  20640975.271 9 108469034.961 9     -1457.696 9        55.879 9  20640978.082 6         0.000 6     -1135.867 6        37.977 6
G26  20640985.369 1 108469088.064 1     -1457.711 1       -55.923 1  20640988.181 1         0.000 1     -1135.879 1       -61.923 1
G20  21967612.341 9 115440548.694 9      2597.983 9        55.306 9  21967612.676 6         0.000 6      2024.404 6        37.977 6
G20  21967625.067 1 115440615.605 1      2597.996 1       -55.923 1  21967625.402 1         0.000 1      2024.414 1       -61.923 1
> 2019 07 03 12 00 12.0000000  0 16       0.000000000000
G07  25366971.125 9 133304286.721 9      2198.069 9        54.125 9  25366971.806 6         0.000 6      1712.782 6        37.977 6
G07  25366971.125 1 133304287.508 1      2198.069 1       -55.923 1  25366971.806 1         0.000 1      1712.782 1       -61.923 1
G10  23841295.823 9 125286799.985 9      3542.577 9        54.658 9  23841299.581 6         0.000 6      2760.452 6        37.977 6
G10  23841315.965 1 125286906.619 1      3542.584 1       -55.923 1  23841319.723 1         0.000 1      2760.457 1       -61.923 1
G21  21159630.913 9 111194590.306 9     -1226.378 9        55.714 9  21159630.196 6         0.000 6      -955.619 6        37.977 6
G21  21159630.913 1 111194591.093 1     -1226.378 1       -55.923 1  21159630.196 1         0.000 1      -955.619 1       -61.923 1
G29  24271514.081 9 127547611.468 9     -3093.273 9        54.485 9  24271515.626 6         0.000 6     -2410.345 6        37.977 6
G29  24271514.081 1 127547612.255 1     -3093.273 1       -55.923 1  24271515.626 1         0.000 1     -2410.345 1       -61.923 1
G27  22027389.485 9 115754685.891 9      2492.976 9        55.365 9  22027391.426 6         0.000 6      1942.579 6        37.977 6
G27  22027389.485 1 115754686.678 1      2492.976 1       -55.923 1  22027391.426 1         0.000 1      1942.579 1       -61.923 1
G16  20502419.342 9 107740920.518 9       577.734 9        55.974 9  20502418.515 6         0.000 6       450.182 6        37.977 6
G16  20502419.342 1 107740921.305 1       577.734 1       -55.923 1  20502418.515 1         0.000 1       450.182 1       -61.923 1
G26  20641252.716 9 108470492.942 9     -1458.270 9        55.879 9  20641255.527 6         0.000 6     -1136.315 6        37.977 6
G26  20641262.817 1 108470546.811 1     -1458.286 1       -55.923 1  20641265.628 1         0.000 1     -1136.327 1       -61.923 1
G20  21967118.003 9 115437950.934 9      2597.545 9        55.306 9  21967118.338 6         0.000 6      2024.063 6        37.977 6
G20  21967130.726 1 115438018.581 1      2597.559 1       -55.923 1  21967131.061 1         0.000 1      2024.073 1       -61.923 1
> 2019 07 03 12 00 13.0000000  0 16       0.000000000000
G07  25366552.890 9 133302088.885 9      2197.610 9        54.125 9  25366553.571 6         0.000 6      1712.425 6        37.977 6
G07  25366552.890 1 133302089.351 1      2197.610 1       -55.923 1  25366553.571 1         0.000 1      1712.425 1       -61.923 1
G10  23840621.706 9 125283257.484 9      3542.446 9        54.658 9  23840625.463 6         0.000 6      2760.350 6        37.977 6
G10  23840641.846 1 125283363.791 1      3542.453 1       -55.923 1  23840645.604 1         0.000 1      2760.355 1       -61.923 1
G21  21159864.319 9 111195816.863 9     -1226.738 9        55.714 9  21159863.602 6         0.000 6      -955.900 6        37.977 6
G21  21159864.319 1 111195817.329 1     -1226.738 1       -55.923 1  21159863.602 1         0.000 1      -955.900 1       -61.923 1
G29  24272102.720 9 127550704.774 9     -3093.359 9        54.485 9  24272104.265 6         0.000 6     -2410.412 6        37.977 6
G29  24272102.720 1 127550705.649 1     -3093.359 1       -55.923 1  24272104.265 1         0.000 1     -2410.412 1       -61.923 1
G27  22026915.109 9 115752193.033 9      2492.745 9        55.365 9  22026917.050 6         0.000 6      1942.399 6        37.977 6
G27  22026915.109 1 115752193.908 1      2492.745 1       -55.923 1  22026917.050 1         0.000 1      1942.399 1       -61.923 1
G16  20502309.461 9 107740343.090 9       577.122 9        55.974 9  20502308.634 6         0.000 6       449.705 6        37.977 6
G16  20502309.461 1 107740343.965 1       577.122 1       -55.923 1  20502308.634 1         0.000 1       449.705 1       -61.923 1
G26  20641530.270 9 108471951.498 9     -1458.845 9        55.879 9  20641533.082 6         0.000 6     -1136.763 6        37.977 6
G26  20641540.374 1 108472005.470 1     -1458.860 1       -55.923 1  20641543.186 1         0.000 1     -1136.775 1       -61.923 1
G20  21966623.748 9 115435353.612 9      2597.107 9        55.307 9  21966624.083 6         0.000 6      2023.721 6        37.977 6
G20  21966636.469 1 115435421.334 1      2597.121 1       -55.923 1  21966636.803 1         0.000 1      2023.732 1       -61.923 1
> 2019 07 03 12 00 14.0000000  0 16       0.000000000000
G07  25366134.743 9 133299891.508 9      2197.151 9        54.125 9  25366135.423 6         0.000 6      1712.067 6        37.977 6
G07  25366134.743 1 133299892.173 1      2197.151 1       -55.923 1  25366135.423 1         0.000 1      1712.067 1       -61.923 1
G10  23839947.613 9 125279715.115 9      3542.315 9        54.658 9  23839951.370 6         0.000 6      2760.248 6        37.977 6
G10  23839967.753 1 125279821.614 1      3542.321 1       -55.923 1  23839971.509 1         0.000 1      2760.253 1       -61.923 1
G21  21160097.793 9 111197043.780 9     -1227.097 9        55.714 9  21160097.077 6         0.000 6      -956.180 6        37.977 6
G21  21160097.793 1 111197044.445 1     -1227.097 1       -55.923 1  21160097.077 1         0.000 1      -956.180 1       -61.923 1
G29  24272691.375 9 127553798.165 9     -3093.444 9        54.485 9  24272692.921 6         0.000 6     -2410.479 6        37.977 6
G29  24272691.375 1 127553798.830 1     -3093.444 1       -55.923 1  24272692.921 1         0.000 1     -2410.479 1       -61.923 1
G27  22026440.777 9 115749700.406 9      2492.514 9        55.366 9  22026442.718 6         0.000 6      1942.219 6        37.977 6
G27  22026440.777 1 115749701.071 1      2492.514 1       -55.923 1  22026442.718 1         0.000 1      1942.219 1       -61.923 1
G16  20502199.697 9 107739766.274 9       576.510 9        55.974 9  20502198.870 6         0.000 6       449.229 6        37.977 6
G16  20502199.697 1 107739766.939 1       576.510 1       -55.923 1  20502198.870 1         0.000 1       449.229 1       -61.923 1
G26  20641807.934 9 108473410.629 9     -1459.420 9        55.878 9  20641810.746 6         0.000 6     -1137.211 6        37.977 6
G26  20641818.041 1 108473464.406 1     -1459.435 1       -55.923 1  20641820.852 1         0.000 1     -1137.222 1       -61.923 1
G20  21966129.577 9 115432756.728 9      2596.669 9        55.307 9  21966129.911 6         0.000 6      2023.380 6        37.977 6
G20  21966142.295 1 115432824.227 1      2596.683 1       -55.923 1  21966142.629 1         0.000 1      2023.390 1       -61.923 1
> 2019 07 03 12 00 15.0000000  0 16       0.000000000000
G07  25365716.682 9 133297694.590 9      2196.692 9        54.125 9  25365717.362 6         0.000 6      1711.709 6        37.977 6
G07  25365716.682 1 133297694.921 1      2196.692 1       -55.923 1  25365717.362 1         0.000 1      1711.709 1       -61.923 1
G10  23839273.545 9 125276172.876 9      3542.183 9        54.658 9  23839277.301 6         0.000 6      2760.146 6        37.977 6
G10  23839293.684 1 125276279.034 1      3542.190 1       -55.923 1  23839297.440 1         0.000 1      2760.151 1       -61.923 1
G21  21160331.337 9 111198271.056 9     -1227.457 9        55.714 9  21160330.620 6         0.000 6      -956.460 6        37.977 6
G21  21160331.337 1 111198271.387 1     -1227.457 1       -55.923 1  21160330.620 1         0.000 1      -956.460 1       -61.923 1
G29  24273280.046 9 127556891.642 9     -3093.530 9        54.484 9  24273281.592 6         0.000 6     -2410.545 6        37.977 6
G29  24273280.046 1 127556891.973 1     -3093.530 1       -55.923 1  24273281.592 1         0.000 1     -2410.545 1       -61.923 1
G27  22025966.490 9 115747208.010 9      2492.283 9        55.366 9  22025968.430 6         0.000 6      1942.039 6        37.977 6
G27  22025966.490 1 115747208.341 1      2492.283 1       -55.923 1  22025968.430 1         0.000 1      1942.039 1       -61.923 1
G16  20502090.049 9 107739190.069 9       575.899 9        55.975 9  20502089.222 6         0.000 6       448.752 6        37.977 6
G16  20502090.049 1 107739190.400 1       575.899 1       -55.923 1  20502089.222 1         0.000 1       448.752 1       -61.923 1
G26  20642085.707 9 108474870.334 9     -1459.994 9        55.878 9  20642088.519 6         0.000 6     -1137.658 6        37.977 6
G26  20642095.817 1 108474923.792 1     -1460.010 1       -55.923 1  20642098.628 1         0.000 1     -1137.670 1       -61.923 1
G20  21965635.489 9 115430160.282 9      2596.231 9        55.307 9  21965635.823 6         0.000 6      2023.039 6        37.977 6
G20  21965648.204 1 115430227.434 1      2596.244 1       -55.923 1  21965648.538 1         0.000 1      2023.049 1       -61.923 1
> 2019 07 03 12 00 16.0000000  0 16       0.000000000000
G07  25365298.709 9 133295498.132 9      2196.233 9        54.125 9  25365299.389 6         0.000 6      1711.351 6        37.977 6
G07  25365298.709 1 133295498.515 1      2196.233 1       -55.923 1  25365299.389 1         0.000 1      1711.351 1       -61.923 1
G10  23838599.503 9 125272630.770 9      3542.052 9        54.659 9  23838603.258 6         0.000 6      2760.043 6        37.977 6
G10  23838619.640 1 125272736.974 1      3542.059 1       -55.923 1  23838623.395 1         0.000 1      2760.048 1       -61.923 1
G21  21160564.948 9 111199498.693 9     -1227.817 9        55.713 9  21160564.232 6         0.000 6      -956.740 6        37.977 6
G21  21160564.948 1 111199499.076 1     -1227.817 1       -55.923 1  21160564.232 1         0.000 1      -956.740 1       -61.923 1
G29  24273868.733 9 127559985.205 9     -3093.615 9        54.484 9  24273870.280 6         0.000 6     -2410.612 6        37.977 6
G29  24273868.733 1 127559985.588 1     -3093.615 1       -55.923 1  24273870.280 1         0.000 1     -2410.612 1       -61.923 1
G27  22025492.246 9 115744715.846 9      2492.052 9        55.366 9  22025494.186 6         0.000 6      1941.859 6        37.977 6
G27  22025492.246 1 115744716.229 1      2492.052 1       -55.923 1  22025494.186 1         0.000 1      1941.859 1       -61.923 1
G16  20501980.517 9 107738614.476 9       575.287 9        55.975 9  20501979.690 6         0.000 6       448.276 6        37.977 6
G16  20501980.517 1 107738614.860 1       575.287 1       -55.923 1  20501979.690 1         0.000 1       448.276 1       -61.923 1
G26  20642363.589 9 108476330.614 9     -1460.569 9        55.878 9  20642366.401 6         0.000 6     -1138.106 6        37.977 6
G26  20642373.702 1 108476384.140 1     -1460.584 1       -55.923 1  20642376.514 1         0.000 1     -1138.118 1       -61.923 1
G20  21965141.484 9 115427564.275 9      2595.793 9        55.307 9  21965141.818 6         0.000 6      2022.697 6        37.977 6
G20  21965154.197 1 115427631.466 1      2595.806 1       -55.923 1  21965154.531 1         0.000 1      2022.707 1       -61.923 1
> 2019 07 03 12 00 17.0000000  0 16       0.000000000000
G07  25364880.824 9 133293302.132 9      2195.773 9        54.125 9  25364881.503 6         0.000 6      1710.993 6        37.977 6
G07  25364880.824 1 133293302.723 1      2195.773 1       -55.923 1  25364881.503 1         0.000 1      1710.993 1       -61.923 1
G10  23837925.485 9 125269088.794 9      3541.920 9        54.659 9  23837929.240 6         0.000 6      2759.941 6        37.977 6
G10  23837945.621 1 125269195.199 1      3541.927 1       -55.923 1  23837949.376 1         0.000 1      2759.946 1       -61.923 1
G21  21160798.628 9 111200726.688 9     -1228.176 9        55.713 9  21160797.912 6         0.000 6      -957.021 6        37.977 6
G21  21160798.628 1 111200727.279 1     -1228.176 1       -55.923 1  21160797.912 1         0.000 1      -957.021 1       -61.923 1
G29  24274457.437 9 127563078.853 9     -3093.701 9        54.484 9  24274458.984 6         0.000 6     -2410.679 6        37.977 6
G29  24274457.437 1 127563079.444 1     -3093.701 1       -55.923 1  24274458.984 1         0.000 1     -2410.679 1       -61.923 1
G27  22025018.046 9 115742223.912 9      2491.821 9        55.366 9  22025019.986 6         0.000 6      1941.679 6        37.977 6
G27  22025018.046 1 115742224.526 1      2491.821 1       -55.923 1  22025019.986 1         0.000 1      1941.679 1       -61.923 1
G16  20501871.102 9 107738039.495 9       574.675 9        55.975 9  20501870.275 6         0.000 6       447.799 6        37.977 6
G16  20501871.102 1 107738040.110 1       574.675 1       -55.923 1  20501870.275 1         0.000 1       447.799 1       -61.923 1
G26  20642641.581 9 108477791.468 9     -1461.143 9        55.878 9  20642644.393 6         0.000 6     -1138.554 6        37.977 6
G26  20642651.697 1 108477845.240 1     -1461.159 1       -55.923 1  20642654.509 1         0.000 1     -1138.566 1       -61.923 1
G20  21964647.563 9 115424968.706 9      2595.355 9        55.307 9  21964647.896 6         0.000 6      2022.355 6        37.977 6
G20  21964660.273 1 115425036.114 1      2595.368 1       -55.923 1  21964660.607 1         0.000 1      2022.366 1       -61.923 1
> 2019 07 03 12 00 18.0000000  0 16       0.000000000000
G07  25364463.026 9 133291106.592 9      2195.314 9        54.126 9  25364463.705 6         0.000 6      1710.635 6        37.977 6
G07  25364463.026 1 133291107.478 1      2195.314 1       -55.923 1  25364463.705 1         0.000 1      1710.635 1       -61.923 1
G10  23837251.493 9 125265546.950 9      3541.789 9        54.659 9  23837255.247 6         0.000 6      2759.838 6        37.977 6
G10  23837271.627 1 125265653.643 1      3541.796 1       -55.923 1  23837275.381 1         0.000 1      2759.843 1       -61.923 1
G21  21161032.376 9 111201955.043 9     -1228.536 9        55.713 9  21161031.660 6         0.000 6      -957.301 6        37.977 6
G21  21161032.376 1 111201955.929 1     -1228.536 1       -55.923 1  21161031.660 1         0.000 1      -957.301 1       -61.923 1
G29  24275046.156 9 127566172.587 9     -3093.786 9        54.484 9  24275047.705 6         0.000 6     -2410.745 6        37.977 6
G29  24275046.156 1 127566173.472 1     -3093.786 1       -55.923 1  24275047.705 1         0.000 1     -2410.745 1       -61.923 1
G27  22024543.891 9 115739732.209 9      2491.590 9        55.366 9  22024545.830 6         0.000 6      1941.499 6        37.977 6
G27  22024543.891 1 115739732.475 1      2491.590 1       -55.923 1  22024545.830 1         0.000 1      1941.499 1       -61.923 1
G16  20501761.803 9 107737465.126 9       574.063 9        55.975 9  20501760.976 6         0.000 6       447.322 6        37.977 6
G16  20501761.803 1 107737465.392 1       574.063 1       -55.923 1  20501760.976 1         0.000 1       447.322 1       -61.923 1
G26  20642919.682 9 108479252.897 9     -1461.718 9        55.878 9  20642922.494 6         0.000 6     -1139.001 6        37.977 6
G26  20642929.801 1 108479306.336 1     -1461.733 1       -55.923 1  20642932.613 1         0.000 1     -1139.013 1       -61.923 1
G20  21964153.725 9 115422373.575 9      2594.916 9        55.308 9  21964154.058 6         0.000 6      2022.014 6        37.977 6
G20  21964166.433 1 115422440.622 1      2594.929 1       -55.923 1  21964166.766 1         0.000 1      2022.024 1       -61.923 1
> 2019 07 03 12 00 19.0000000  0 16       0.000000000000
G07  25364045.315 9 133288911.511 9      2194.855 9        54.126 9  25364045.994 6         0.000 6      1710.277 6        37.977 6
G07  25364045.315 1 133288911.520 1      2194.855 1       -55.923 1  25364045.994 1         0.000 1      1710.277 1       -61.923 1
G10  23836577.525 9 125262005.238 9      3541.657 9        54.659 9  23836581.279 6         0.000 6      2759.736 6        37.977 6
G10  23836597.658 1 125262111.047 1      3541.664 1       -55.923 1  23836601.412 1         0.000 1      2759.741 1       -61.923 1
G21  21161266.193 9 111203183.758 9     -1228.895 9        55.713 9  21161265.477 6         0.000 6      -957.581 6        37.977 6
G21  21161266.193 1 111203183.767 1     -1228.895 1       -55.923 1  21161265.477 1         0.000 1      -957.581 1       -61.923 1
G29  24275634.893 9 127569266.406 9     -3093.872 9        54.484 9  24275636.442 6         0.000 6     -2410.812 6        37.977 6
G29  24275634.893 1 127569266.414 1     -3093.872 1       -55.923 1  24275636.442 1         0.000 1     -2410.812 1       -61.923 1
G27  22024069.779 9 115737240.738 9      2491.358 9        55.367 9  22024071.719 6         0.000 6      1941.319 6        37.977 6
G27  22024069.779 1 115737240.747 1      2491.358 1       -55.923 1  22024071.719 1         0.000 1      1941.319 1       -61.923 1
G16  20501652.620 9 107736891.369 9       573.451 9        55.975 9  20501651.794 6         0.000 6       446.845 6        37.977 6
G16  20501652.620 1 107736891.378 1       573.451 1       -55.923 1  20501651.794 1         0.000 1       446.845 1       -61.923 1
G26  20643197.892 9 108480714.901 9     -1462.292 9        55.878 9  20643200.704 6         0.000 6     -1139.449 6        37.977 6
G26  20643208.014 1 108480768.098 1     -1462.308 1       -55.923 1  20643210.826 1         0.000 1     -1139.461 1       -61.923 1
G20  21963659.970 9 115419778.882 9      2594.478 9        55.308 9  21963660.303 6         0.000 6      2021.672 6        37.977 6
G20  21963672.676 1 115419845.659 1      2594.491 1       -55.923 1  21963673.009 1         0.000 1      2021.682 1       -61.923 1
> 2019 07 03 12 00 20.0000000  0 16       0.000000000000
G07  25363627.692 9 133286716.890 9      2194.395 9        54.126 9  25363628.371 6         0.000 6      1709.919 6        37.977 6
G07  25363627.692 1 133286717.762 1      2194.395 1       -55.923 1  25363628.371 1         0.000 1      1709.919 1       -61.923 1
G10  23835903.583 9 125258463.657 9      3541.525 9        54.660 9  23835907.336 6         0.000 6      2759.633 6        37.977 6
G10  23835923.715 1 125258570.323 1      3541.532 1       -55.923 1  23835927.467 1         0.000 1      2759.638 1       -61.923 1
G21  21161500.078 9 111204412.832 9     -1229.254 9        55.713 9  21161499.362 6         0.000 6      -957.861 6        37.977 6
G21  21161500.078 1 111204413.704 1     -1229.254 1       -55.923 1  21161499.362 1         0.000 1      -957.861 1       -61.923 1
G29  24276223.645 9 127572360.310 9     -3093.957 9        54.483 9  24276225.195 6         0.000 6     -2410.878 6        37.977 6
G29  24276223.645 1 127572361.085 1     -3093.957 1       -55.923 1  24276225.195 1         0.000 1     -2410.878 1       -61.923 1
G27  22023595.711 9 115734749.498 9      2491.127 9        55.367 9  22023597.651 6         0.000 6      1941.139 6        37.977 6
G27  22023595.711 1 115734750.273 1      2491.127 1       -55.923 1  22023597.651 1         0.000 1      1941.139 1       -61.923 1
G16  20501543.554 9 107736318.223 9       572.840 9        55.975 9  20501542.728 6         0.000 6       446.368 6        37.977 6
G16  20501543.554 1 107736318.998 1       572.840 1       -55.923 1  20501542.728 1         0.000 1       446.368 1       -61.923 1
G26  20643476.212 9 108482177.478 9     -1462.867 9        55.878 9  20643479.024 6         0.000 6     -1139.897 6        37.977 6
G26  20643486.336 1 108482231.457 1     -1462.882 1       -55.923 1  20643489.149 1         0.000 1     -1139.908 1       -61.923 1
G20  21963166.299 9 115417184.628 9      2594.039 9        55.308 9  21963166.632 6         0.000 6      2021.330 6        37.977 6
G20  21963179.002 1 115417252.158 1      2594.052 1       -55.923 1  21963179.335 1         0.000 1      2021.341 1       -61.923 1
> 2019 07 03 12 00 21.0000000  0 16       0.000000000000
G07  25363210.156 9 133284522.728 9      2193.935 9        54.126 9  25363210.835 6         0.000 6      1709.561 6        37.977 6
G07  25363210.156 1 133284523.475 1      2193.935 1       -55.923 1  25363210.835 1         0.000 1      1709.561 1       -61.923 1
G10  23835229.666 9 125254922.209 9      3541.393 9        54.660 9  23835233.418 6         0.000 6      2759.530 6        37.977 6
G10  23835249.796 1 125255028.743 1      3541.400 1       -55.923 1  23835253.548 1         0.000 1      2759.535 1       -61.923 1
G21  21161734.032 9 111205642.265 9     -1229.614 9        55.713 9  21161733.316 6         0.000 6      -958.141 6        37.977 6
G21  21161734.032 1 111205643.012 1     -1229.614 1       -55.923 1  21161733.316 1         0.000 1      -958.141 1       -61.923 1
G29  24276812.414 9 127575454.300 9     -3094.043 9        54.483 9  24276813.964 6         0.000 6     -2410.945 6        37.977 6
G29  24276812.414 1 127575455.047 1     -3094.043 1       -55.923 1  24276813.964 1         0.000 1     -2410.945 1       -61.923 1
G27  22023121.687 9 115732258.489 9      2490.896 9        55.367 9  22023123.627 6         0.000 6      1940.959 6        37.977 6
G27  22023121.687 1 115732259.236 1      2490.896 1       -55.923 1  22023123.627 1         0.000 1      1940.959 1       -61.923 1
G16  20501434.605 9 107735745.690 9       572.228 9        55.975 9  20501433.778 6         0.000 6       445.892 6        37.977 6
G16  20501434.605 1 107735746.437 1       572.228 1       -55.923 1  20501433.778 1         0.000 1       445.892 1       -61.923 1
G26  20643754.641 9 108483640.631 9     -1463.441 9        55.878 9  20643757.453 6         0.000 6     -1140.344 6        37.977 6
G26  20643764.768 1 108483694.596 1     -1463.456 1       -55.923 1  20643767.580 1         0.000 1     -1140.356 1       -61.923 1
G20  21962672.712 9 115414590.813 9      2593.600 9        55.308 9  21962673.044 6         0.000 6      2020.989 6        37.977 6
G20  21962685.412 1 115414658.302 1      2593.614 1       -55.923 1  21962685.745 1         0.000 1      2020.999 1       -61.923 1
> 2019 07 03 12 00 22.0000000  0 16       0.000000000000
G07  25362792.708 9 133282329.026 9      2193.476 9        54.126 9  25362793.386 6         0.000 6      1709.203 6        37.977 6
G07  25362792.708 1 133282329.417 1      2193.476 1       -55.923 1  25362793.386 1         0.000 1      1709.203 1       -61.923 1
G10  23834555.773 9 125251380.892 9      3541.261 9        54.660 9  23834559.525 6         0.000 6      2759.427 6        37.977 6
G10  23834575.903 1 125251487.063 1      3541.268 1       -55.923 1  23834579.654 1         0.000 1      2759.433 1       -61.923 1
G21  21161968.054 9 111206872.058 9     -1229.973 9        55.713 9  21161967.338 6         0.000 6      -958.421 6        37.977 6
G21  21161968.054 1 111206872.449 1     -1229.973 1       -55.923 1  21161967.338 1         0.000 1      -958.421 1       -61.923 1
G29  24277401.198 9 127578548.376 9     -3094.128 9        54.483 9  24277402.749 6         0.000 6     -2411.012 6        37.977 6
G29  24277401.198 1 127578548.766 1     -3094.128 1       -55.923 1  24277402.749 1         0.000 1     -2411.012 1       -61.923 1
G27  22022647.708 9 115729767.711 9      2490.665 9        55.367 9  22022649.647 6         0.000 6      1940.778 6        37.977 6
G27  22022647.708 1 115729768.102 1      2490.665 1       -55.923 1  22022649.647 1         0.000 1      1940.778 1       -61.923 1
G16  20501325.772 9 107735173.768 9       571.616 9        55.975 9  20501324.945 6         0.000 6       445.415 6        37.977 6
G16  20501325.772 1 107735174.159 1       571.616 1       -55.923 1  20501324.945 1         0.000 1       445.415 1       -61.923 1
G26  20644033.179 9 108485104.357 9     -1464.015 9        55.877 9  20644035.992 6         0.000 6     -1140.792 6        37.977 6
G26  20644043.309 1 108485157.982 1     -1464.031 1       -55.923 1  20644046.122 1         0.000 1     -1140.804 1       -61.923 1
G20  21962179.208 9 115411997.436 9      2593.162 9        55.308 9  21962179.540 6         0.000 6      2020.647 6        37.977 6
G20  21962191.906 1 115412064.556 1      2593.175 1       -55.923 1  21962192.238 1         0.000 1      2020.657 1       -61.923 1
> 2019 07 03 12 00 23.0000000  0 16       0.000000000000
G07  25362375.347 9 133280135.784 9      2193.016 9        54.126 9  25362376.025 6         0.000 6      1708.845 6        37.977 6
G07  25362375.347 1 133280136.720 1      2193.016 1       -55.923 1  25362376.025 1         0.000 1      1708.845 1       -61.923 1
G10  23833881.906 9 125247839.707 9      3541.129 9        54.660 9  23833885.657 6         0.000 6      2759.324 6        37.977 6
G10  23833902.034 1 125247946.416 1      3541.136 1       -55.923 1  23833905.785 1         0.000 1      2759.330 1       -61.923 1
G21  21162202.144 9 111208102.209 9     -1230.332 9        55.713 9  21162201.428 6         0.000 6      -958.700 6        37.977 6
G21  21162202.144 1 111208103.145 1     -1230.332 1       -55.923 1  21162201.428 1         0.000 1      -958.700 1       -61.923 1
G29  24277990.000 9 127581642.536 9     -3094.214 9        54.483 9  24277991.551 6         0.000 6     -2411.078 6        37.977 6
G29  24277990.000 1 127581643.472 1     -3094.214 1       -55.923 1  24277991.551 1         0.000 1     -2411.078 1       -61.923 1
G27  22022173.772 9 115727277.165 9      2490.433 9        55.367 9  22022175.711 6         0.000 6      1940.598 6        37.977 6
G27  22022173.772 1 115727277.248 1      2490.433 1       -55.923 1  22022175.711 1         0.000 1      1940.598 1       -61.923 1
G16  20501217.055 9 107734602.459 9       571.004 9        55.975 9  20501216.229 6         0.000 6       444.938 6        37.977 6
G16  20501217.055 1 107734602.541 1       571.004 1       -55.923 1  20501216.229 1         0.000 1       444.938 1       -61.923 1
G26  20644311.827 9 108486568.658 9     -1464.590 9        55.877 9  20644314.639 6         0.000 6     -1141.239 6        37.977 6
G26  20644321.960 1 108486621.990 1     -1464.605 1       -55.923 1  20644324.772 1         0.000 1     -1141.251 1       -61.923 1
G20  21961685.787 9 115409404.499 9      2592.723 9        55.309 9  21961686.119 6         0.000 6      2020.305 6        37.977 6
G20  21961698.483 1 115409471.297 1      2592.736 1       -55.923 1  21961698.815 1         0.000 1      2020.315 1       -61.923 1
> 2019 07 03 12 00 24.0000000  0 16       0.000000000000
G07  25361958.074 9 133277943.001 9      2192.556 9        54.126 9  25361958.752 6         0.000 6      1708.486 6        37.977 6
G07  25361958.074 1 133277943.470 1      2192.556 1       -55.923 1  25361958.752 1         0.000 1      1708.486 1       -61.923 1
G10  23833208.064 9 125244298.655 9      3540.997 9        54.661 9  23833211.814 6         0.000 6      2759.221 6        37.977 6
G10  23833228.191 1 125244404.890 1      3541.004 1       -55.923 1  23833231.941 1         0.000 1      2759.227 1       -61.923 1
G21  21162436.302 9 111209332.720 9     -1230.691 9        55.713 9  21162435.586 6         0.000 6      -958.980 6        37.977 6
G21  21162436.302 1 111209333.189 1     -1230.691 1       -55.923 1  21162435.586 1         0.000 1      -958.980 1       -61.923 1
G29  24278578.817 9 127584736.782 9     -3094.299 9        54.482 9  24278580.369 6         0.000 6     -2411.145 6        37.977 6
G29  24278578.817 1 127584737.252 1     -3094.299 1       -55.923 1  24278580.369 1         0.000 1     -2411.145 1       -61.923 1
G27  22021699.880 9 115724786.850 9      2490.202 9        55.368 9  22021701.819 6         0.000 6      1940.418 6        37.977 6
G27  22021699.880 1 115724787.319 1      2490.202 1       -55.923 1  22021701.819 1         0.000 1      1940.418 1       -61.923 1
G16  20501108.455 9 107734031.761 9       570.392 9        55.975 9  20501107.628 6         0.000 6       444.461 6        37.977 6
G16  20501108.455 1 107734032.230 1       570.392 1       -55.923 1  20501107.628 1         0.000 1       444.461 1       -61.923 1
G26  20644590.584 9 108488033.533 9     -1465.164 9        55.877 9  20644593.396 6         0.000 6     -1141.687 6        37.977 6
G26  20644600.719 1 108488087.267 1     -1465.179 1       -55.923 1  20644603.532 1         0.000 1     -1141.699 1       -61.923 1
G20  21961192.450 9 115406812.000 9      2592.284 9        55.309 9  21961192.782 6         0.000 6      2019.963 6        37.977 6
G20  21961205.143 1 115406879.171 1      2592.297 1       -55.923 1  21961205.475 1         0.000 1      2019.973 1       -61.923 1
> 2019 07 03 12 00 25.0000000  0 16       0.000000000000
G07  25361540.888 9 133275750.681 9      2192.096 9        54.127 9  25361541.566 6         0.000 6      1708.128 6        37.977 6
G07  25361540.888 1 133275750.746 1      2192.096 1       -55.923 1  25361541.566 1         0.000 1      1708.128 1       -61.923 1
G10  23832534.247 9 125240757.732 9      3540.865 9        54.661 9  23832537.996 6         0.000 6      2759.118 6        37.977 6
G10  23832554.373 1 125240863.557 1      3540.872 1       -55.923 1  23832558.122 1         0.000 1      2759.123 1       -61.923 1
G21  21162670.529 9 111210563.588 9     -1231.050 9        55.713 9  21162669.813 6         0.000 6      -959.260 6        37.977 6
G21  21162670.529 1 111210563.653 1     -1231.050 1       -55.923 1  21162669.813 1         0.000 1      -959.260 1       -61.923 1
G29  24279167.650 9 127587831.109 9     -3094.384 9        54.482 9  24279169.202 6         0.000 6     -2411.211 6        37.977 6
G29  24279167.650 1 127587831.174 1     -3094.384 1       -55.923 1  24279169.202 1         0.000 1     -2411.211 1       -61.923 1
G27  22021226.033 9 115722296.771 9      2489.970 9        55.368 9  22021227.972 6         0.000 6      1940.237 6        37.977 6
G27  22021226.033 1 115722296.836 1      2489.970 1       -55.923 1  22021227.972 1         0.000 1      1940.237 1       -61.923 1
G16  20500999.972 9 107733461.677 9       569.779 9        55.975 9  20500999.145 6         0.000 6       443.984 6        37.977 6
G16  20500999.972 1 107733461.742 1       569.779 1       -55.923 1  20500999.145 1         0.000 1       443.984 1       -61.923 1
G26  20644869.450 9 108489498.982 9     -1465.738 9        55.877 9  20644872.262 6         0.000 6     -1142.134 6        37.977 6
G26  20644879.588 1 108489552.327 1     -1465.754 1       -55.923 1  20644882.401 1         0.000 1     -1142.146 1       -61.923 1
G20  21960699.196 9 115404219.937 9      2591.845 9        55.309 9  21960699.527 6         0.000 6      2019.620 6        37.977 6
G20  21960711.887 1 115404286.691 1      2591.858 1       -55.923 1  21960712.218 1         0.000 1      2019.631 1       -61.923 1
> 2019 07 03 12 00 26.0000000  0 16       0.000000000000
G07  25361123.790 9 133273558.819 9      2191.636 9        54.127 9  25361124.468 6         0.000 6      1707.769 6        37.977 6
G07  25361123.790 1 133273559.214 1      2191.636 1       -55.923 1  25361124.468 1         0.000 1      1707.769 1       -61.923 1
G10  23831860.456 9 125237216.944 9      3540.732 9        54.661 9  23831864.204 6         0.000 6      2759.015 6        37.977 6
G10  23831880.580 1 125237323.092 1      3540.739 1       -55.923 1  23831884.328 1         0.000 1      2759.020 1       -61.923 1
G21  21162904.824 9 111211794.817 9     -1231.409 9        55.713 9  21162904.108 6         0.000 6      -959.540 6        37.977 6
G21  21162904.824 1 111211795.211 1     -1231.409 1       -55.923 1  21162904.108 1         0.000 1      -959.540 1       -61.923 1
G29  24279756.499 9 127590925.526 9     -3094.470 9        54.482 9  24279758.053 6         0.000 6     -2411.278 6        37.977 6
G29  24279756.499 1 127590925.920 1     -3094.470 1       -55.923 1  24279758.053 1         0.000 1     -2411.278 1       -61.923 1
G27  22020752.230 9 115719806.918 9      2489.739 9        55.368 9  22020754.168 6         0.000 6      1940.057 6        37.977 6
G27  22020752.230 1 115719807.313 1      2489.739 1       -55.923 1  22020754.168 1         0.000 1      1940.057 1       -61.923 1
G16  20500891.605 9 107732892.204 9       569.167 9        55.975 9  20500890.778 6         0.000 6       443.507 6        37.977 6
G16  20500891.605 1 107732892.599 1       569.167 1       -55.923 1  20500890.778 1         0.000 1       443.507 1       -61.923 1
G26  20645148.425 9 108490965.006 9     -1466.313 9        55.877 9  20645151.238 6         0.000 6     -1142.582 6        37.977 6
G26  20645158.567 1 108491018.696 1     -1466.328 1       -55.923 1  20645161.379 1         0.000 1     -1142.594 1       -61.923 1
G20  21960206.027 9 115401628.317 9      2591.405 9        55.309 9  21960206.357 6         0.000 6      2019.278 6        37.977 6
G20  21960218.715 1 115401695.387 1      2591.419 1       -55.923 1  21960219.045 1         0.000 1      2019.288 1       -61.923 1
> 2019 07 03 12 00 27.0000000  0 16       0.000000000000
G07  25360706.779 9 133271367.416 9      2191.176 9        54.127 9  25360707.457 6         0.000 6      1707.411 6        37.977 6
G07  25360706.779 1 133271367.821 1      2191.176 1       -55.923 1  25360707.457 1         0.000 1      1707.411 1       -61.923 1
G10  23831186.689 9 125233676.289 9      3540.600 9        54.661 9  23831190.437 6         0.000 6      2758.912 6        37.977 6
G10  23831206.812 1 125233782.440 1      3540.607 1       -55.923 1  23831210.560 1         0.000 1      2758.917 1       -61.923 1
G21  21163139.187 9 111213026.404 9     -1231.768 9        55.712 9  21163138.472 6         0.000 6      -959.819 6        37.977 6
G21  21163139.187 1 111213026.809 1     -1231.768 1       -55.923 1  21163138.472 1         0.000 1      -959.819 1       -61.923 1
G29  24280345.366 9 127594020.028 9     -3094.555 9        54.482 9  24280346.919 6         0.000 6     -2411.344 6        37.977 6
G29  24280345.366 1 127594020.432 1     -3094.555 1       -55.923 1  24280346.919 1         0.000 1     -2411.344 1       -61.923 1
G27  22020278.470 9 115717317.298 9      2489.508 9        55.368 9  22020280.409 6         0.000 6      1939.877 6        37.977 6
G27  22020278.470 1 115717317.703 1      2489.508 1       -55.923 1  22020280.409 1         0.000 1      1939.877 1       -61.923 1
G16  20500783.354 9 107732323.343 9       568.555 9        55.975 9  20500782.527 6         0.000 6       443.030 6        37.977 6
G16  20500783.354 1 107732323.844 1       568.555 1       -55.923 1  20500782.527 1         0.000 1       443.030 1       -61.923 1
G26  20645427.510 9 108492431.604 9     -1466.887 9        55.877 9  20645430.322 6         0.000 6     -1143.029 6        37.977 6
G26  20645437.654 1 108492485.415 1     -1466.902 1       -55.923 1  20645440.467 1         0.000 1     -1143.041 1       -61.923 1
G20  21959712.940 9 115399037.136 9      2590.966 9        55.309 9  21959713.271 6         0.000 6      2018.936 6        37.977 6
G20  21959725.626 1 115399104.299 1      2590.979 1       -55.923 1  21959725.956 1         0.000 1      2018.946 1       -61.923 1
> 2019 07 03 12 00 28.0000000  0 16       0.000000000000
G07  25360289.856 9 133269176.474 9      2190.716 9        54.127 9  25360290.533 6         0.000 6      1707.052 6        37.977 6
G07  25360289.856 1 133269177.292 1      2190.716 1       -55.923 1  25360290.533 1         0.000 1      1707.052 1       -61.923 1
G10  23830512.948 9 125230135.766 9      3540.467 9        54.662 9  23830516.695 6         0.000 6      2758.808 6        37.977 6
G10  23830533.070 1 125230242.324 1      3540.474 1       -55.923 1  23830536.817 1         0.000 1      2758.814 1       -61.923 1
G21  21163373.619 9 111214258.351 9     -1232.127 9        55.712 9  21163372.904 6         0.000 6      -960.099 6        37.977 6
G21  21163373.619 1 111214259.169 1     -1232.127 1       -55.923 1  21163372.904 1         0.000 1      -960.099 1       -61.923 1
G29  24280934.248 9 127597114.615 9     -3094.640 9        54.482 9  24280935.802 6         0.000 6     -2411.410 6        37.977 6
G29  24280934.248 1 127597115.433 1     -3094.640 1       -55.923 1  24280935.802 1         0.000 1     -2411.410 1       -61.923 1
G27  22019804.755 9 115714827.909 9      2489.276 9        55.368 9  22019806.693 6         0.000 6      1939.696 6        37.977 6
G27  22019804.755 1 115714828.727 1      2489.276 1       -55.923 1  22019806.693 1         0.000 1      1939.696 1       -61.923 1
G16  20500675.220 9 107731755.094 9       567.943 9        55.975 9  20500674.393 6         0.000 6       442.553 6        37.977 6
G16  20500675.220 1 107731755.912 1       567.943 1       -55.923 1  20500674.393 1         0.000 1       442.553 1       -61.923 1
G26  20645706.703 9 108493898.776 9     -1467.461 9        55.877 9  20645709.516 6         0.000 6     -1143.476 6        37.977 6
G26  20645716.851 1 108493952.920 1     -1467.476 1       -55.923 1  20645719.664 1         0.000 1     -1143.488 1       -61.923 1
G20  21959219.938 9 115396446.394 9      2590.527 9        55.310 9  21959220.268 6         0.000 6      2018.593 6        37.977 6
G20  21959232.621 1 115396513.861 1      2590.540 1       -55.923 1  21959232.951 1         0.000 1      2018.604 1       -61.923 1
> 2019 07 03 12 00 29.0000000  0 16       0.000000000000
G07  25359873.021 9 133266985.991 9      2190.256 9        54.127 9  25359873.697 6         0.000 6      1706.694 6        37.977 6
G07  25359873.021 1 133266986.582 1      2190.256 1       -55.923 1  25359873.697 1         0.000 1      1706.694 1       -61.923 1
G10  23829839.232 9 125226595.376 9      3540.334 9        54.662 9  23829842.979 6         0.000 6      2758.705 6        37.977 6
G10  23829859.352 1 125226701.699 1      3540.341 1       -55.923 1  23829863.099 1         0.000 1      2758.710 1       -61.923 1
G21  21163608.119 9 111215490.657 9     -1232.486 9        55.712 9  21163607.404 6         0.000 6      -960.379 6        37.977 6
G21  21163608.119 1 111215491.248 1     -1232.486 1       -55.923 1  21163607.404 1         0.000 1      -960.379 1       -61.923 1
G29  24281523.146 9 127600209.288 9     -3094.725 9        54.481 9  24281524.702 6         0.000 6     -2411.477 6        37.977 6
G29  24281523.146 1 127600209.878 1     -3094.725 1       -55.923 1  24281524.702 1         0.000 1     -2411.477 1       -61.923 1
G27  22019331.083 9 115712338.751 9      2489.044 9        55.368 9  22019333.021 6         0.000 6      1939.516 6        37.977 6
G27  22019331.083 1 115712339.342 1      2489.044 1       -55.923 1  22019333.021 1         0.000 1      1939.516 1       -61.923 1
G16  20500567.202 9 107731187.457 9       567.331 9        55.975 9  20500566.375 6         0.000 6       442.076 6        37.977 6
G16  20500567.202 1 107731188.048 1       567.331 1       -55.923 1  20500566.375 1         0.000 1       442.076 1       -61.923 1
G26  20645986.007 9 108495366.522 9     -1468.035 9        55.877 9  20645988.820 6         0.000 6     -1143.924 6        37.977 6
G26  20645996.157 1 108495420.454 1     -1468.050 1       -55.923 1  20645998.970 1         0.000 1     -1143.936 1       -61.923 1
G20  21958727.019 9 115393856.091 9      2590.087 9        55.310 9  21958727.349 6         0.000 6      2018.251 6        37.977 6
G20  21958739.699 1 115393923.318 1      2590.101 1       -55.923 1  21958740.029 1         0.000 1      2018.261 1       -61.923 1
> 2019 07 03 12 00 30.0000000  0 16       0.000000000000
G07  25359456.273 9 133264795.969 9      2189.795 9        54.127 9  25359456.949 6         0.000 6      1706.335 6        37.977 6
G07  25359456.273 1 133264796.479 1      2189.795 1       -55.923 1  25359456.949 1         0.000 1      1706.335 1       -61.923 1
G10  23829165.542 9 125223055.119 9      3540.202 9        54.662 9  23829169.288 6         0.000 6      2758.601 6        37.977 6
G10  23829185.661 1 125223161.354 1      3540.208 1       -55.923 1  23829189.407 1         0.000 1      2758.607 1       -61.923 1
G21  21163842.688 9 111216723.321 9     -1232.844 9        55.712 9  21163841.972 6         0.000 6      -960.658 6        37.977 6
G21  21163842.688 1 111216723.831 1     -1232.844 1       -55.923 1  21163841.972 1         0.000 1      -960.658 1       -61.923 1
G29  24282112.061 9 127603304.045 9     -3094.811 9        54.481 9  24282113.617 6         0.000 6     -2411.543 6        37.977 6
G29  24282112.061 1 127603304.555 1     -3094.811 1       -55.923 1  24282113.617 1         0.000 1     -2411.543 1       -61.923 1
G27  22018857.456 9 115709849.825 9      2488.813 9        55.369 9  22018859.394 6         0.000 6      1939.335 6        37.977 6
G27  22018857.456 1 115709850.335 1      2488.813 1       -55.923 1  22018859.394 1         0.000 1      1939.335 1       -61.923 1
G16  20500459.301 9 107730620.433 9       566.718 9        55.975 9  20500458.474 6         0.000 6       441.599 6        37.977 6
G16  20500459.301 1 107730620.943 1       566.718 1       -55.923 1  20500458.474 1         0.000 1       441.599 1       -61.923 1
G26  20646265.419 9 108496834.842 9     -1468.609 9        55.877 9  20646268.232 6         0.000 6     -1144.371 6        37.977 6
G26  20646275.572 1 108496888.708 1     -1468.624 1       -55.923 1  20646278.386 1         0.000 1     -1144.383 1       -61.923 1
G20  21958234.183 9 115391266.228 9      2589.648 9        55.310 9  21958234.513 6         0.000 6      2017.908 6        37.977 6
G20  21958246.861 1 115391333.658 1      2589.661 1       -55.923 1  21958247.191 1         0.000 1      2017.919 1       -61.923 1
> 2019 07 03 12 00 31.0000000  0 16       0.000000000000
G07  25359039.612 9 133262606.408 9      2189.335 9        54.127 9  25359040.289 6         0.000 6      1705.976 6        37.977 6
G07  25359039.612 1 133262606.514 1      2189.335 1       -55.923 1  25359040.289 1         0.000 1      1705.976 1       -61.923 1
G10  23828491.876 9 125219514.994 9      3540.069 9        54.662 9  23828495.622 6         0.000 6      2758.498 6        37.977 6
G10  23828511.994 1 125219620.819 1      3540.075 1       -55.923 1  23828515.739 1         0.000 1      2758.503 1       -61.923 1
G21  21164077.324 9 111217956.344 9     -1233.203 9        55.712 9  21164076.609 6         0.000 6      -960.938 6        37.977 6
G21  21164077.324 1 111217956.450 1     -1233.203 1       -55.923 1  21164076.609 1         0.000 1      -960.938 1       -61.923 1
G29  24282700.992 9 127606398.888 9     -3094.896 9        54.481 9  24282702.549 6         0.000 6     -2411.610 6        37.977 6
G29  24282700.992 1 127606398.994 1     -3094.896 1       -55.923 1  24282702.549 1         0.000 1     -2411.610 1       -61.923 1
G27  22018383.872 9 115707361.131 9      2488.581 9        55.369 9  22018385.810 6         0.000 6      1939.155 6        37.977 6
G27  22018383.872 1 115707361.237 1      2488.581 1       -55.923 1  22018385.810 1         0.000 1      1939.155 1       -61.923 1
G16  20500351.516 9 107730054.021 9       566.106 9        55.975 9  20500350.690 6         0.000 6       441.121 6        37.977 6
G16  20500351.516 1 107730054.127 1       566.106 1       -55.923 1  20500350.690 1         0.000 1       441.121 1       -61.923 1
G26  20646544.941 9 108498303.737 9     -1469.183 9        55.876 9  20646547.754 6         0.000 6     -1144.818 6        37.977 6
G26  20646555.097 1 108498357.214 1     -1469.198 1       -55.923 1  20646557.910 1         0.000 1     -1144.830 1       -61.923 1
G20  21957741.431 9 115388676.805 9      2589.208 9        55.310 9  21957741.761 6         0.000 6      2017.566 6        37.977 6
G20  21957754.107 1 115388743.520 1      2589.221 1       -55.923 1  21957754.436 1         0.000 1      2017.576 1       -61.923 1
> 2019 07 03 12 00 32.0000000  0 16       0.000000000000
G07  25358623.039 9 133260417.306 9      2188.875 9        54.128 9  25358623.716 6         0.000 6      1705.617 6        37.977 6
G07  25358623.039 1 133260417.489 1      2188.875 1       -55.923 1  25358623.716 1         0.000 1      1705.617 1       -61.923 1
G10  23827818.236 9 125215975.003 9      3539.936 9        54.663 9  23827821.981 6         0.000 6      2758.394 6        37.977 6
G10  23827838.353 1 125216080.898 1      3539.942 1       -55.923 1  23827842.097 1         0.000 1      2758.399 1       -61.923 1
G21  21164312.029 9 111219189.726 9     -1233.562 9        55.712 9  21164311.314 6         0.000 6      -961.217 6        37.977 6
G21  21164312.029 1 111219189.908 1     -1233.562 1       -55.923 1  21164311.314 1         0.000 1      -961.217 1       -61.923 1
G29  24283289.939 9 127609493.817 9     -3094.981 9        54.481 9  24283291.496 6         0.000 6     -2411.676 6        37.977 6
G29  24283289.939 1 127609493.999 1     -3094.981 1       -55.923 1  24283291.496 1         0.000 1     -2411.676 1       -61.923 1
G27  22017910.333 9 115704872.668 9      2488.350 9        55.369 9  22017912.271 6         0.000 6      1938.974 6        37.977 6
G27  22017910.333 1 115704872.851 1      2488.350 1       -55.923 1  22017912.271 1         0.000 1      1938.974 1       -61.923 1
G16  20500243.848 9 107729488.221 9       565.493 9        55.975 9  20500243.021 6         0.000 6       440.644 6        37.977 6
G16  20500243.848 1 107729488.403 1       565.493 1       -55.923 1  20500243.021 1         0.000 1       440.644 1       -61.923 1
G26  20646824.571 9 108499773.205 9     -1469.757 9        55.876 9  20646827.385 6         0.000 6     -1145.266 6        37.977 6
G26  20646834.731 1 108499826.774 1     -1469.772 1       -55.923 1  20646837.544 1         0.000 1     -1145.278 1       -61.923 1
G20  21957248.763 9 115386087.821 9      2588.768 9        55.310 9  21957249.092 6         0.000 6      2017.223 6        37.977 6
G20  21957261.436 1 115386154.600 1      2588.782 1       -55.923 1  21957261.765 1         0.000 1      2017.234 1       -61.923 1
> 2019 07 03 12 00 33.0000000  0 16       0.000000000000
G07  25358206.554 9 133258228.666 9      2188.414 9        54.128 9  25358207.230 6         0.000 6      1705.259 6        37.977 6
G07  25358206.554 1 133258229.083 1      2188.414 1       -55.923 1  25358207.230 1         0.000 1      1705.259 1       -61.923 1
G10  23827144.622 9 125212435.145 9      3539.802 9        54.663 9  23827148.366 6         0.000 6      2758.290 6        37.977 6
G10  23827164.737 1 125212541.267 1      3539.809 1       -55.923 1  23827168.481 1         0.000 1      2758.296 1       -61.923 1
G21  21164546.802 9 111220423.466 9     -1233.920 9        55.712 9  21164546.087 6         0.000 6      -961.497 6        37.977 6
G21  21164546.802 1 111220423.884 1     -1233.920 1       -55.923 1  21164546.087 1         0.000 1      -961.497 1       -61.923 1
G29  24283878.903 9 127612588.830 9     -3095.066 9        54.481 9  24283880.460 6         0.000 6     -2411.742 6        37.977 6
G29  24283878.903 1 127612589.247 1     -3095.066 1       -55.923 1  24283880.460 1         0.000 1     -2411.742 1       -61.923 1
G27  22017436.838 9 115702384.437 9      2488.118 9        55.369 9  22017438.776 6         0.000 6      1938.794 6        37.977 6
G27  22017436.838 1 115702384.855 1      2488.118 1       -55.923 1  22017438.776 1         0.000 1      1938.794 1       -61.923 1
G16  20500136.297 9 107728923.034 9       564.881 9        55.975 9  20500135.470 6         0.000 6       440.167 6        37.977 6
G16  20500136.297 1 107728923.451 1       564.881 1       -55.923 1  20500135.470 1         0.000 1       440.167 1       -61.923 1
G26  20647104.312 9 108501243.247 9     -1470.331 9        55.876 9  20647107.125 6         0.000 6     -1145.713 6        37.977 6
G26  20647114.474 1 108501297.067 1     -1470.346 1       -55.923 1  20647117.287 1         0.000 1     -1145.725 1       -61.923 1
G20  21956756.179 9 115383499.277 9      2588.328 9        55.311 9  21956756.508 6         0.000 6      2016.880 6        37.977 6
G20  21956768.849 1 115383566.278 1      2588.342 1       -55.923 1  21956769.178 1         0.000 1      2016.891 1       -61.923 1
> 2019 07 03 12 00 34.0000000  0 16       0.000000000000
G07  25357790.157 9 133256040.486 9      2187.953 9        54.128 9  25357790.832 6         0.000 6      1704.900 6        37.977 6
G07  25357790.157 1 133256040.809 1      2187.953 1       -55.923 1  25357790.832 1         0.000 1      1704.900 1       -61.923 1
G10  23826471.032 9 125208895.419 9      3539.669 9        54.663 9  23826474.776 6         0.000 6      2758.186 6        37.977 6
G10  23826491.146 1 125209001.441 1      3539.676 1       -55.923 1  23826494.889 1         0.000 1      2758.192 1       -61.923 1
G21  21164781.644 9 111221657.565 9     -1234.279 9        55.712 9  21164780.928 6         0.000 6      -961.776 6        37.977 6
G21  21164781.644 1 111221657.888 1     -1234.279 1       -55.923 1  21164780.928 1         0.000 1      -961.776 1       -61.923 1
G29  24284467.882 9 127615683.929 9     -3095.151 9        54.480 9  24284469.441 6         0.000 6     -2411.809 6        37.977 6
G29  24284467.882 1 127615684.252 1     -3095.151 1       -55.923 1  24284469.441 1         0.000 1     -2411.809 1       -61.923 1
G27  22016963.387 9 115699896.438 9      2487.886 9        55.369 9  22016965.324 6         0.000 6      1938.613 6        37.977 6
G27  22016963.387 1 115699896.761 1      2487.886 1       -55.923 1  22016965.324 1         0.000 1      1938.613 1       -61.923 1
G16  20500028.862 9 107728358.459 9       564.269 9        55.975 9  20500028.035 6         0.000 6       439.690 6        37.977 6
G16  20500028.862 1 107728358.782 1       564.269 1       -55.923 1  20500028.035 1         0.000 1       439.690 1       -61.923 1
G26  20647384.161 9 108502713.864 9     -1470.905 9        55.876 9  20647386.975 6         0.000 6     -1146.160 6        37.977 6
G26  20647394.326 1 108502767.604 1     -1470.920 1       -55.923 1  20647397.140 1         0.000 1     -1146.172 1       -61.923 1
G20  21956263.678 9 115380911.173 9      2587.889 9        55.311 9  21956264.007 6         0.000 6      2016.538 6        37.977 6
G20  21956276.346 1 115380978.066 1      2587.902 1       -55.923 1  21956276.675 1         0.000 1      2016.548 1       -61.923 1
> 2019 07 03 12 00 35.0000000  0 16       0.000000000000
G07  25357373.847 9 133253852.766 9      2187.493 9        54.128 9  25357374.522 6         0.000 6      1704.541 6        37.977 6
G07  25357373.847 1 133253852.806 1      2187.493 1       -55.923 1  25357374.522 1         0.000 1      1704.541 1       -61.923 1
G10  23825797.468 9 125205355.828 9      3539.536 9        54.663 9  23825801.211 6         0.000 6      2758.082 6        37.977 6
G10  23825817.581 1 125205461.559 1      3539.543 1       -55.923 1  23825821.324 1         0.000 1      2758.088 1       -61.923 1
G21  21165016.553 9 111222892.023 9     -1234.637 9        55.712 9  21165015.838 6         0.000 6      -962.055 6        37.977 6
G21  21165016.553 1 111222892.063 1     -1234.637 1       -55.923 1  21165015.838 1         0.000 1      -962.055 1       -61.923 1
G29  24285056.878 9 127618779.112 9     -3095.236 9        54.480 9  24285058.437 6         0.000 6     -2411.875 6        37.977 6
G29  24285056.878 1 127618779.152 1     -3095.236 1       -55.923 1  24285058.437 1         0.000 1     -2411.875 1       -61.923 1
G27  22016489.980 9 115697408.671 9      2487.654 9        55.370 9  22016491.917 6         0.000 6      1938.433 6        37.977 6
G27  22016489.980 1 115697408.710 1      2487.654 1       -55.923 1  22016491.917 1         0.000 1      1938.433 1       -61.923 1
G16  20499921.543 9 107727794.497 9       563.656 9        55.975 9  20499920.716 6         0.000 6       439.213 6        37.977 6
G16  20499921.543 1 107727794.536 1       563.656 1       -55.923 1  20499920.716 1         0.000 1       439.213 1       -61.923 1
G26  20647664.119 9 108504185.054 9     -1471.479 9        55.876 9  20647666.933 6         0.000 6     -1146.607 6        37.977 6
G26  20647674.287 1 108504238.526 1     -1471.494 1       -55.923 1  20647677.101 1         0.000 1     -1146.619 1       -61.923 1
G20  21955771.261 9 115378323.509 9      2587.448 9        55.311 9  21955771.590 6         0.000 6      2016.195 6        37.977 6
G20  21955783.927 1 115378390.106 1      2587.462 1       -55.923 1  21955784.255 1         0.000 1      2016.205 1       -61.923 1
> 2019 07 03 12 00 36.0000000  0 16       0.000000000000
G07  25356957.625 9 133251665.508 9      2187.032 9        54.128 9  25356958.300 6         0.000 6      1704.182 6        37.977 6
G07  25356957.625 1 133251666.254 1      2187.032 1       -55.923 1  25356958.300 1         0.000 1      1704.182 1       -61.923 1
G10  23825123.930 9 125201816.369 9      3539.402 9        54.664 9  23825127.672 6         0.000 6      2757.978 6        37.977 6
G10  23825144.041 1 125201922.801 1      3539.409 1       -55.923 1  23825147.783 1         0.000 1      2757.984 1       -61.923 1
G21  21165251.531 9 111224126.839 9     -1234.996 9        55.712 9  21165250.816 6         0.000 6      -962.335 6        37.977 6
G21  21165251.531 1 111224127.585 1     -1234.996 1       -55.923 1  21165250.816 1         0.000 1      -962.335 1       -61.923 1
G29  24285645.890 9 127621874.381 9     -3095.321 9        54.480 9  24285647.450 6         0.000 6     -2411.941 6        37.977 6
G29  24285645.890 1 127621875.127 1     -3095.321 1       -55.923 1  24285647.450 1         0.000 1     -2411.941 1       -61.923 1
G27  22016016.617 9 115694921.135 9      2487.422 9        55.370 9  22016018.554 6         0.000 6      1938.252 6        37.977 6
G27  22016016.617 1 115694921.881 1      2487.422 1       -55.923 1  22016018.554 1         0.000 1      1938.252 1       -61.923 1
G16  20499814.341 9 107727231.147 9       563.043 9        55.975 9  20499813.515 6         0.000 6       438.735 6        37.977 6
G16  20499814.341 1 107727231.893 1       563.043 1       -55.923 1  20499813.515 1         0.000 1       438.735 1       -61.923 1
G26  20647944.187 9 108505656.818 9     -1472.053 9        55.876 9  20647947.001 6         0.000 6     -1147.055 6        37.977 6
G26  20647954.358 1 108505711.012 1     -1472.068 1       -55.923 1  20647957.172 1         0.000 1     -1147.067 1       -61.923 1
G20  21955278.928 9 115375736.285 9      2587.008 9        55.311 9  21955279.256 6         0.000 6      2015.852 6        37.977 6
G20  21955291.591 1 115375803.575 1      2587.022 1       -55.923 1  21955291.919 1         0.000 1      2015.862 1       -61.923 1
> 2019 07 03 12 00 37.0000000  0 16       0.000000000000
G07  25356541.490 9 133249478.710 9      2186.571 9        54.128 9  25356542.165 6         0.000 6      1703.822 6        37.977 6
G07  25356541.490 1 133249479.552 1      2186.571 1       -55.923 1  25356542.165 1         0.000 1      1703.822 1       -61.923 1
G10  23824450.417 9 125198277.045 9      3539.269 9        54.664 9  23824454.158 6         0.000 6      2757.874 6        37.977 6
G10  23824470.527 1 125198383.566 1      3539.275 1       -55.923 1  23824474.268 1         0.000 1      2757.880 1       -61.923 1
G21  21165486.577 9 111225362.013 9     -1235.354 9        55.711 9  21165485.862 6         0.000 6      -962.614 6        37.977 6
G21  21165486.577 1 111225362.856 1     -1235.354 1       -55.923 1  21165485.862 1         0.000 1      -962.614 1       -61.923 1
G29  24286234.918 9 127624969.735 9     -3095.407 9        54.480 9  24286236.478 6         0.000 6     -2412.008 6        37.977 6
G29  24286234.918 1 127624970.578 1     -3095.407 1       -55.923 1  24286236.478 1         0.000 1     -2412.008 1       -61.923 1
G27  22015543.299 9 115692433.831 9      2487.191 9        55.370 9  22015545.235 6         0.000 6      1938.071 6        37.977 6
G27  22015543.299 1 115692434.674 1      2487.191 1       -55.923 1  22015545.235 1         0.000 1      1938.071 1       -61.923 1
G16  20499707.256 9 107726668.410 9       562.431 9        55.976 9  20499706.429 6         0.000 6       438.258 6        37.977 6
G16  20499707.256 1 107726669.253 1       562.431 1       -55.923 1  20499706.429 1         0.000 1       438.258 1       -61.923 1
G26  20648224.364 9 108507129.156 9     -1472.627 9        55.876 9  20648227.178 6         0.000 6     -1147.502 6        37.977 6
G26  20648234.538 1 108507183.462 1     -1472.642 1       -55.923 1  20648237.352 1         0.000 1     -1147.514 1       -61.923 1
G20  21954786.679 9 115373149.502 9      2586.568 9        55.311 9  21954787.006 6         0.000 6      2015.509 6        37.977 6
G20  21954799.339 1 115373216.875 1      2586.581 1       -55.923 1  21954799.667 1         0.000 1      2015.519 1       -61.923 1
> 2019 07 03 12 00 38.0000000  0 16       0.000000000000
G07  25356125.443 9 133247292.373 9      2186.110 9        54.128 9  25356126.118 6         0.000 6      1703.463 6        37.977 6
G07  25356125.443 1 133247292.627 1      2186.110 1       -55.923 1  25356126.118 1         0.000 1      1703.463 1       -61.923 1
G10  23823776.929 9 125194737.854 9      3539.135 9        54.664 9  23823780.670 6         0.000 6      2757.770 6        37.977 6
G10  23823797.038 1 125194843.780 1      3539.142 1       -55.923 1  23823800.778 1         0.000 1      2757.775 1       -61.923 1
G21  21165721.691 9 111226597.546 9     -1235.713 9        55.711 9  21165720.976 6         0.000 6      -962.893 6        37.977 6
G21  21165721.691 1 111226597.801 1     -1235.713 1       -55.923 1  21165720.976 1         0.000 1      -962.893 1       -61.923 1
G29  24286823.963 9 127628065.174 9     -3095.492 9        54.480 9  24286825.523 6         0.000 6     -2412.074 6        37.977 6
G29  24286823.963 1 127628065.428 1     -3095.492 1       -55.923 1  24286825.523 1         0.000 1     -2412.074 1       -61.923 1
G27  22015070.024 9 115689946.759 9      2486.959 9        55.370 9  22015071.961 6         0.000 6      1937.891 6        37.977 6
G27  22015070.024 1 115689947.014 1      2486.959 1       -55.923 1  22015071.961 1         0.000 1      1937.891 1       -61.923 1
G16  20499600.287 9 107726106.285 9       561.818 9        55.976 9  20499599.460 6         0.000 6       437.780 6        37.977 6
G16  20499600.287 1 107726106.540 1       561.818 1       -55.923 1  20499599.460 1         0.000 1       437.780 1       -61.923 1
G26  20648504.650 9 108508602.068 9     -1473.201 9        55.876 9  20648507.464 6         0.000 6     -1147.949 6        37.977 6
G26  20648514.827 1 108508655.801 1     -1473.216 1       -55.923 1  20648517.641 1         0.000 1     -1147.961 1       -61.923 1
G20  21954294.513 9 115370563.158 9      2586.128 9        55.312 9  21954294.840 6         0.000 6      2015.166 6        37.977 6
G20  21954307.171 1 115370629.930 1      2586.141 1       -55.923 1  21954307.498 1         0.000 1      2015.176 1       -61.923 1
> 2019 07 03 12 00 39.0000000  0 16       0.000000000000
G07  25355709.484 9 133245106.497 9      2185.649 9        54.129 9  25355710.159 6         0.000 6      1703.104 6        37.977 6
G07  25355709.484 1 133245106.824 1      2185.649 1       -55.923 1  25355710.159 1         0.000 1      1703.104 1       -61.923 1
G10  23823103.467 9 125191198.796 9      3539.001 9        54.664 9  23823107.207 6         0.000 6      2757.666 6        37.977 6
G10  23823123.574 1 125191304.788 1      3539.008 1       -55.923 1  23823127.314 1         0.000 1      2757.671 1       -61.923 1
G21  21165956.874 9 111227833.437 9     -1236.071 9        55.711 9  21165956.159 6         0.000 6      -963.172 6        37.977 6
G21  21165956.874 1 111227833.764 1     -1236.071 1       -55.923 1  21165956.159 1         0.000 1      -963.172 1       -61.923 1
G29  24287413.023 9 127631160.698 9     -3095.577 9        54.479 9  24287414.585 6         0.000 6     -2412.140 6        37.977 6
G29  24287413.023 1 127631161.025 1     -3095.577 1       -55.923 1  24287414.585 1         0.000 1     -2412.140 1       -61.923 1
G27  22014596.794 9 115687459.919 9      2486.727 9        55.370 9  22014598.730 6         0.000 6      1937.710 6        37.977 6
G27  22014596.794 1 115687460.246 1      2486.727 1       -55.923 1  22014598.730 1         0.000 1      1937.710 1       -61.923 1
G16  20499493.435 9 107725544.773 9       561.206 9        55.976 9  20499492.608 6         0.000 6       437.303 6        37.977 6
G16  20499493.435 1 107725545.100 1       561.206 1       -55.923 1  20499492.608 1         0.000 1       437.303 1       -61.923 1
G26  20648785.046 9 108510075.554 9     -1473.774 9        55.875 9  20648787.860 6         0.000 6     -1148.396 6        37.977 6
G26  20648795.225 1 108510129.847 1     -1473.790 1       -55.923 1  20648798.039 1         0.000 1     -1148.408 1       -61.923 1
G20  21953802.431 9 115367977.255 9      2585.687 9        55.312 9  21953802.758 6         0.000 6      2014.822 6        37.977 6
G20  21953815.087 1 115368044.559 1      2585.701 1       -55.923 1  21953815.414 1         0.000 1      2014.833 1       -61.923 1
> 2019 07 03 12 00 40.0000000  0 16       0.000000000000
G07  25355293.613 9 133242921.082 9      2185.188 9        54.129 9  25355294.287 6         0.000 6      1702.745 6        37.977 6
G07  25355293.613 1 133242921.123 1      2185.188 1       -55.923 1  25355294.287 1         0.000 1      1702.745 1       -61.923 1
G10  23822430.030 9 125187659.873 9      3538.867 9        54.665 9  23822433.769 6         0.000 6      2757.562 6        37.977 6
G10  23822450.136 1 125187765.572 1      3538.874 1       -55.923 1  23822453.875 1         0.000 1      2757.567 1       -61.923 1
G21  21166192.124 9 111229069.686 9     -1236.429 9        55.711 9  21166191.409 6         0.000 6      -963.451 6        37.977 6
G21  21166192.124 1 111229069.727 1     -1236.429 1       -55.923 1  21166191.409 1         0.000 1      -963.451 1       -61.923 1
G29  24288002.100 9 127634256.307 9     -3095.662 9        54.479 9  24288003.662 6         0.000 6     -2412.206 6        37.977 6
G29  24288002.100 1 127634256.946 1     -3095.662 1       -55.923 1  24288003.662 1         0.000 1     -2412.206 1       -61.923 1
G27  22014123.607 9 115684973.311 9      2486.495 9        55.371 9  22014125.544 6         0.000 6      1937.529 6        37.977 6
G27  22014123.607 1 115684973.951 1      2486.495 1       -55.923 1  22014125.544 1         0.000 1      1937.529 1       -61.923 1
G16  20499386.699 9 107724983.874 9       560.593 9        55.976 9  20499385.873 6         0.000 6       436.826 6        37.977 6
G16  20499386.699 1 107724984.514 1       560.593 1       -55.923 1  20499385.873 1         0.000 1       436.826 1       -61.923 1
G26  20649065.550 9 108511549.613 9     -1474.348 9        55.875 9  20649068.364 6         0.000 6     -1148.843 6        37.977 6
G26  20649075.733 1 108511603.762 1     -1474.363 1       -55.923 1  20649078.547 1         0.000 1     -1148.855 1       -61.923 1
G20  21953310.433 9 115365391.793 9      2585.247 9        55.312 9  21953310.760 6         0.000 6      2014.479 6        37.977 6
G20  21953323.086 1 115365458.923 1      2585.260 1       -55.923 1  21953323.413 1         0.000 1      2014.489 1       -61.923 1
> 2019 07 03 12 00 41.0000000  0 16       0.000000000000
G07  25354877.829 9 133240736.128 9      2184.727 9        54.129 9  25354878.504 6         0.000 6      1702.385 6        37.977 6
G07  25354877.829 1 133240736.668 1      2184.727 1       -55.923 1  25354878.504 1         0.000 1      1702.385 1       -61.923 1
G10  23821756.619 9 125184121.083 9      3538.733 9        54.665 9  23821760.357 6         0.000 6      2757.457 6        37.977 6
G10  23821776.723 1 125184227.274 1      3538.740 1       -55.923 1  23821780.462 1         0.000 1      2757.462 1       -61.923 1
G21  21166427.443 9 111230306.294 9     -1236.787 9        55.711 9  21166426.728 6         0.000 6      -963.730 6        37.977 6
G21  21166427.443 1 111230306.834 1     -1236.787 1       -55.923 1  21166426.728 1         0.000 1      -963.730 1       -61.923 1
G29  24288591.193 9 127637352.001 9     -3095.747 9        54.479 9  24288592.755 6         0.000 6     -2412.273 6        37.977 6
G29  24288591.193 1 127637352.541 1     -3095.747 1       -55.923 1  24288592.755 1         0.000 1     -2412.273 1       -61.923 1
G27  22013650.465 9 115682486.935 9      2486.263 9        55.371 9  22013652.401 6         0.000 6      1937.348 6        37.977 6
G27  22013650.465 1 115682487.475 1      2486.263 1       -55.923 1  22013652.401 1         0.000 1      1937.348 1       -61.923 1
G16  20499280.080 9 107724423.588 9       559.980 9        55.976 9  20499279.254 6         0.000 6       436.348 6        37.977 6
G16  20499280.080 1 107724424.128 1       559.980 1       -55.923 1  20499279.254 1         0.000 1       436.348 1       -61.923 1
G26  20649346.164 9 108513024.247 9     -1474.922 9        55.875 9  20649348.978 6         0.000 6     -1149.290 6        37.977 6
G26  20649356.349 1 108513078.311 1     -1474.937 1       -55.923 1  20649359.164 1         0.000 1     -1149.302 1       -61.923 1
G20  21952818.519 9 115362806.771 9      2584.806 9        55.312 9  21952818.846 6         0.000 6      2014.136 6        37.977 6
G20  21952831.169 1 115362873.788 1      2584.819 1       -55.923 1  21952831.496 1         0.000 1      2014.146 1       -61.923 1
> 2019 07 03 12 00 42.0000000  0 16       0.000000000000
G07  25354462.134 9 133238551.635 9      2184.265 9        54.129 9  25354462.808 6         0.000 6      1702.026 6        37.977 6
G07  25354462.134 1 133238552.555 1      2184.265 1       -55.923 1  25354462.808 1         0.000 1      1702.026 1       -61.923 1
G10  23821083.233 9 125180582.428 9      3538.599 9        54.665 9  23821086.971 6         0.000 6      2757.353 6        37.977 6
G10  23821103.336 1 125180688.992 1      3538.606 1       -55.923 1  23821107.074 1         0.000 1      2757.358 1       -61.923 1
G21  21166662.830 9 111231543.259 9     -1237.145 9        55.711 9  21166662.115 6         0.000 6      -964.009 6        37.977 6
G21  21166662.830 1 111231544.179 1     -1237.145 1       -55.923 1  21166662.115 1         0.000 1      -964.009 1       -61.923 1
G29  24289180.302 9 127640447.780 9     -3095.832 9        54.479 9  24289181.865 6         0.000 6     -2412.339 6        37.977 6
G29  24289180.302 1 127640448.699 1     -3095.832 1       -55.923 1  24289181.865 1         0.000 1     -2412.339 1       -61.923 1
G27  22013177.367 9 115680000.791 9      2486.031 9        55.371 9  22013179.303 6         0.000 6      1937.168 6        37.977 6
G27  22013177.367 1 115680001.711 1      2486.031 1       -55.923 1  22013179.303 1         0.000 1      1937.168 1       -61.923 1
G16  20499173.578 9 107723863.914 9       559.367 9        55.976 9  20499172.751 6         0.000 6       435.871 6        37.977 6
G16  20499173.578 1 107723864.834 1       559.367 1       -55.923 1  20499172.751 1         0.000 1       435.871 1       -61.923 1
G26  20649626.887 9 108514499.454 9     -1475.496 9        55.875 9  20649629.701 6         0.000 6     -1149.737 6        37.977 6
G26  20649637.075 1 108514553.913 1     -1475.511 1       -55.923 1  20649639.890 1         0.000 1     -1149.749 1       -61.923 1
G20  21952326.689 9 115360222.189 9      2584.366 9        55.312 9  21952327.015 6         0.000 6      2013.792 6        37.977 6
G20  21952339.336 1 115360289.573 1      2584.379 1       -55.923 1  21952339.663 1         0.000 1      2013.803 1       -61.923 1
> 2019 07 03 12 00 43.0000000  0 16       0.000000000000
G07  25354046.526 9 133236367.604 9      2183.804 9        54.129 9  25354047.199 6         0.000 6      1701.666 6        37.977 6
G07  25354046.526 1 133236367.793 1      2183.804 1       -55.923 1  25354047.199 1         0.000 1      1701.666 1       -61.923 1
G10  23820409.873 9 125177043.906 9      3538.465 9        54.665 9  23820413.610 6         0.000 6      2757.248 6        37.977 6
G10  23820429.975 1 125177149.733 1      3538.472 1       -55.923 1  23820433.712 1         0.000 1      2757.253 1       -61.923 1
G21  21166898.285 9 111232780.583 9     -1237.503 9        55.711 9  21166897.570 6         0.000 6      -964.288 6        37.977 6
G21  21166898.285 1 111232780.771 1     -1237.503 1       -55.923 1  21166897.570 1         0.000 1      -964.288 1       -61.923 1
G29  24289769.427 9 127643543.643 9     -3095.916 9        54.478 9  24289770.991 6         0.000 6     -2412.405 6        37.977 6
G29  24289769.427 1 127643543.832 1     -3095.916 1       -55.923 1  24289770.991 1         0.000 1     -2412.405 1       -61.923 1
G27  22012704.313 9 115677514.879 9      2485.799 9        55.371 9  22012706.249 6         0.000 6      1936.987 6        37.977 6
G27  22012704.313 1 115677515.068 1      2485.799 1       -55.923 1  22012706.249 1         0.000 1      1936.987 1       -61.923 1
G16  20499067.192 9 107723304.853 9       558.754 9        55.976 9  20499066.366 6         0.000 6       435.393 6        37.977 6
G16  20499067.192 1 107723305.119 1       558.754 1       -55.923 1  20499066.366 1         0.000 1       435.393 1       -61.923 1
G26  20649907.719 9 108515975.234 9     -1476.069 9        55.875 9  20649910.533 6         0.000 6     -1150.184 6        37.977 6
G26  20649917.910 1 108516029.055 1     -1476.084 1       -55.923 1  20649920.725 1         0.000 1     -1150.196 1       -61.923 1
G20  21951834.942 9 115357638.049 9      2583.925 9        55.312 9  21951835.268 6         0.000 6      2013.449 6        37.977 6
G20  21951847.587 1 115357704.766 1      2583.938 1       -55.923 1  21951847.913 1         0.000 1      2013.459 1       -61.923 1
> 2019 07 03 12 00 44.0000000  0 16       0.000000000000
G07  25353631.005 9 133234184.034 9      2183.343 9        54.129 9  25353631.679 6         0.000 6      1701.307 6        37.977 6
G07  25353631.005 1 133234184.247 1      2183.343 1       -55.923 1  25353631.679 1         0.000 1      1701.307 1       -61.923 1
G10  23819736.538 9 125173505.519 9      3538.331 9        54.666 9  23819740.275 6         0.000 6      2757.143 6        37.977 6
G10  23819756.639 1 125173611.363 1      3538.337 1       -55.923 1  23819760.376 1         0.000 1      2757.149 1       -61.923 1
G21  21167133.808 9 111234018.264 9     -1237.861 9        55.711 9  21167133.093 6         0.000 6      -964.567 6        37.977 6
G21  21167133.808 1 111234018.477 1     -1237.861 1       -55.923 1  21167133.093 1         0.000 1      -964.567 1       -61.923 1
G29  24290358.568 9 127646639.592 9     -3096.001 9        54.478 9  24290360.133 6         0.000 6     -2412.471 6        37.977 6
G29  24290358.568 1 127646639.805 1     -3096.001 1       -55.923 1  24290360.133 1         0.000 1     -2412.471 1       -61.923 1
G27  22012231.304 9 115675029.199 9      2485.567 9        55.371 9  22012233.239 6         0.000 6      1936.806 6        37.977 6
G27  22012231.304 1 115675029.412 1      2485.567 1       -55.923 1  22012233.239 1         0.000 1      1936.806 1       -61.923 1
G16  20498960.923 9 107722746.405 9       558.142 9        55.976 9  20498960.097 6         0.000 6       434.916 6        37.977 6
G16  20498960.923 1 107722747.080 1       558.142 1       -55.923 1  20498960.097 1         0.000 1       434.916 1       -61.923 1
G26  20650188.660 9 108517451.589 9     -1476.643 9        55.875 9  20650191.475 6         0.000 6     -1150.631 6        37.977 6
G26  20650198.854 1 108517505.833 1     -1476.658 1       -55.923 1  20650201.669 1         0.000 1     -1150.643 1       -61.923 1
G20  21951343.280 9 115355054.349 9      2583.484 9        55.313 9  21951343.605 6         0.000 6      2013.105 6        37.977 6
G20  21951355.922 1 115355121.461 1      2583.497 1       -55.923 1  21951356.248 1         0.000 1      2013.116 1       -61.923 1
> 2019 07 03 12 00 45.0000000  0 16       0.000000000000
G07  25353215.573 9 133232000.926 9      2182.881 9        54.129 9  25353216.246 6         0.000 6      1700.947 6        37.977 6
G07  25353215.573 1 133232001.395 1      2182.881 1       -55.923 1  25353216.246 1         0.000 1      1700.947 1       -61.923 1
G10  23819063.229 9 125169967.267 9      3538.196 9        54.666 9  23819066.965 6         0.000 6      2757.039 6        37.977 6
G10  23819083.328 1 125170073.360 1      3538.203 1       -55.923 1  23819087.064 1         0.000 1      2757.044 1       -61.923 1
G21  21167369.399 9 111235256.304 9     -1238.219 9        55.711 9  21167368.684 6         0.000 6      -964.846 6        37.977 6
G21  21167369.399 1 111235256.773 1     -1238.219 1       -55.923 1  21167368.684 1         0.000 1      -964.846 1       -61.923 1
G29  24290947.726 9 127649735.626 9     -3096.086 9        54.478 9  24290949.291 6         0.000 6     -2412.537 6        37.977 6
G29  24290947.726 1 127649736.095 1     -3096.086 1       -55.923 1  24290949.291 1         0.000 1     -2412.537 1       -61.923 1
G27  22011758.338 9 115672543.751 9      2485.334 9        55.371 9  22011760.274 6         0.000 6      1936.625 6        37.977 6
G27  22011758.338 1 115672544.220 1      2485.334 1       -55.923 1  22011760.274 1         0.000 1      1936.625 1       -61.923 1
G16  20498854.771 9 107722188.570 9       557.529 9        55.976 9  20498853.944 6         0.000 6       434.438 6        37.977 6
G16  20498854.771 1 107722189.040 1       557.529 1       -55.923 1  20498853.944 1         0.000 1       434.438 1       -61.923 1
G26  20650469.710 9 108518928.516 9     -1477.216 9        55.875 9  20650472.525 6         0.000 6     -1151.078 6        37.977 6
G26  20650479.907 1 108518982.571 1     -1477.232 1       -55.923 1  20650482.722 1         0.000 1     -1151.090 1       -61.923 1
G20  21950851.701 9 115352471.090 9      2583.043 9        55.313 9  21950852.026 6         0.000 6      2012.762 6        37.977 6
G20  21950864.341 1 115352537.849 1      2583.056 1       -55.923 1  21950864.667 1         0.000 1      2012.772 1       -61.923 1
> 2019 07 03 12 00 46.0000000  0 16       0.000000000000
G07  25352800.228 9 133229818.279 9      2182.420 9        54.130 9  25352800.902 6         0.000 6      1700.588 6        37.977 6
G07  25352800.228 1 133229818.384 1      2182.420 1       -55.923 1  25352800.902 1         0.000 1      1700.588 1       -61.923 1
G10  23818389.945 9 125166429.149 9      3538.062 9        54.666 9  23818393.681 6         0.000 6      2756.934 6        37.977 6
G10  23818410.043 1 125166534.871 1      3538.068 1       -55.923 1  23818413.779 1         0.000 1      2756.939 1       -61.923 1
G21  21167605.058 9 111236494.701 9     -1238.577 9        55.711 9  21167604.344 6         0.000 6      -965.125 6        37.977 6
G21  21167605.058 1 111236494.806 1     -1238.577 1       -55.923 1  21167604.344 1         0.000 1      -965.125 1       -61.923 1
G29  24291536.900 9 127652831.745 9     -3096.171 9        54.478 9  24291538.466 6         0.000 6     -2412.603 6        37.977 6
G29  24291536.900 1 127652831.850 1     -3096.171 1       -55.923 1  24291538.466 1         0.000 1     -2412.603 1       -61.923 1
G27  22011285.417 9 115670058.535 9      2485.102 9        55.372 9  22011287.352 6         0.000 6      1936.444 6        37.977 6
G27  22011285.417 1 115670058.641 1      2485.102 1       -55.923 1  22011287.352 1         0.000 1      1936.444 1       -61.923 1
G16  20498748.735 9 107721631.348 9       556.916 9        55.976 9  20498747.908 6         0.000 6       433.960 6        37.977 6
G16  20498748.735 1 107721631.453 1       556.916 1       -55.923 1  20498747.908 1         0.000 1       433.960 1       -61.923 1
G26  20650750.870 9 108520406.018 9     -1477.790 9        55.875 9  20650753.685 6         0.000 6     -1151.525 6        37.977 6
G26  20650761.070 1 108520459.724 1     -1477.805 1       -55.923 1  20650763.885 1         0.000 1     -1151.537 1       -61.923 1
G20  21950360.206 9 115349888.273 9      2582.602 9        55.313 9  21950360.531 6         0.000 6      2012.418 6        37.977 6
G20  21950372.844 1 115349954.789 1      2582.615 1       -55.923 1  21950373.169 1         0.000 1      2012.428 1       -61.923 1
> 2019 07 03 12 00 47.0000000  0 16       0.000000000000
G07  25352384.972 9 133227636.094 9      2181.958 9        54.130 9  25352385.645 6         0.000 6      1700.228 6        37.977 6
G07  25352384.972 1 133227636.850 1      2181.958 1       -55.923 1  25352385.645 1         0.000 1      1700.228 1       -61.923 1
G10  23817716.687 9 125162891.165 9      3537.927 9        54.666 9  23817720.422 6         0.000 6      2756.829 6        37.977 6
G10  23817736.784 1 125162997.532 1      3537.934 1       -55.923 1  23817740.519 1         0.000 1      2756.834 1       -61.923 1
G21  21167840.786 9 111237733.456 9     -1238.935 9        55.710 9  21167840.071 6         0.000 6      -965.404 6        37.977 6
G21  21167840.786 1 111237734.213 1     -1238.935 1       -55.923 1  21167840.071 1         0.000 1      -965.404 1       -61.923 1
G29  24292126.090 9 127655927.948 9     -3096.256 9        54.478 9  24292127.656 6         0.000 6     -2412.670 6        37.977 6
G29  24292126.090 1 127655928.724 1     -3096.256 1       -55.923 1  24292127.656 1         0.000 1     -2412.670 1       -61.923 1
G27  22010812.540 9 115667573.552 9      2484.870 9        55.372 9  22010814.475 6         0.000 6      1936.263 6        37.977 6
G27  22010812.540 1 115667574.328 1      2484.870 1       -55.923 1  22010814.475 1         0.000 1      1936.263 1       -61.923 1
G16  20498642.816 9 107721074.739 9       556.303 9        55.976 9  20498641.989 6         0.000 6       433.483 6        37.977 6
G16  20498642.816 1 107721075.515 1       556.303 1       -55.923 1  20498641.989 1         0.000 1       433.483 1       -61.923 1
G26  20651032.139 9 108521884.093 9     -1478.363 9        55.875 9  20651034.954 6         0.000 6     -1151.972 6        37.977 6
G26  20651042.341 1 108521938.485 1     -1478.379 1       -55.923 1  20651045.156 1         0.000 1     -1151.984 1       -61.923 1
G20  21949868.795 9 115347305.896 9      2582.161 9        55.313 9  21949869.120 6         0.000 6      2012.074 6        37.977 6
G20  21949881.431 1 115347373.070 1      2582.174 1       -55.923 1  21949881.755 1         0.000 1      2012.085 1       -61.923 1
> 2019 07 03 12 00 48.0000000  0 16       0.000000000000
G07  25351969.803 9 133225454.370 9      2181.496 9        54.130 9  25351970.475 6         0.000 6      1699.868 6        37.977 6
G07  25351969.803 1 133225454.641 1      2181.496 1       -55.923 1  25351970.475 1         0.000 1      1699.868 1       -61.923 1
G10  23817043.455 9 125159353.316 9      3537.792 9        54.667 9  23817047.189 6         0.000 6      2756.724 6        37.977 6
G10  23817063.551 1 125159459.191 1      3537.799 1       -55.923 1  23817067.285 1         0.000 1      2756.729 1       -61.923 1
G21  21168076.581 9 111238972.570 9     -1239.293 9        55.710 9  21168075.867 6         0.000 6      -965.683 6        37.977 6
G21  21168076.581 1 111238972.841 1     -1239.293 1       -55.923 1  21168075.867 1         0.000 1      -965.683 1       -61.923 1
G29  24292715.296 9 127659024.236 9     -3096.341 9        54.477 9  24292716.863 6         0.000 6     -2412.736 6        37.977 6
G29  24292715.296 1 127659024.507 1     -3096.341 1       -55.923 1  24292716.863 1         0.000 1     -2412.736 1       -61.923 1
G27  22010339.707 9 115665088.801 9      2484.638 9        55.372 9  22010341.642 6         0.000 6      1936.082 6        37.977 6
G27  22010339.707 1 115665089.072 1      2484.638 1       -55.923 1  22010341.642 1         0.000 1      1936.082 1       -61.923 1
G16  20498537.013 9 107720518.743 9       555.690 9        55.976 9  20498536.186 6         0.000 6       433.005 6        37.977 6
G16  20498537.013 1 107720519.014 1       555.690 1       -55.923 1  20498536.186 1         0.000 1       433.005 1       -61.923 1
G26  20651313.516 9 108523362.741 9     -1478.937 9        55.874 9  20651316.332 6         0.000 6     -1152.419 6        37.977 6
G26  20651323.722 1 108523416.643 1     -1478.952 1       -55.923 1  20651326.537 1         0.000 1     -1152.431 1       -61.923 1
G20  21949377.469 9 115344723.961 9      2581.719 9        55.313 9  21949377.793 6         0.000 6      2011.730 6        37.977 6
G20  21949390.101 1 115344790.617 1      2581.732 1       -55.923 1  21949390.426 1         0.000 1      2011.741 1       -61.923 1
> 2019 07 03 12 00 49.0000000  0 16       0.000000000000
G07  25351554.722 9 133223273.108 9      2181.035 9        54.130 9  25351555.394 6         0.000 6      1699.508 6        37.977 6
G07  25351554.722 1 133223273.501 1      2181.035 1       -55.923 1  25351555.394 1         0.000 1      1699.508 1       -61.923 1
G10  23816370.248 9 125155815.602 9      3537.657 9        54.667 9  23816373.982 6         0.000 6      2756.619 6        37.977 6
G10  23816390.343 1 125155921.591 1      3537.664 1       -55.923 1  23816394.076 1         0.000 1      2756.624 1       -61.923 1
G21  21168312.445 9 111240212.040 9     -1239.650 9        55.710 9  21168311.730 6         0.000 6      -965.961 6        37.977 6
G21  21168312.445 1 111240212.433 1     -1239.650 1       -55.923 1  21168311.730 1         0.000 1      -965.961 1       -61.923 1
G29  24293304.518 9 127662120.609 9     -3096.426 9        54.477 9  24293306.085 6         0.000 6     -2412.802 6        37.977 6
G29  24293304.518 1 127662120.930 1     -3096.426 1       -55.923 1  24293306.085 1         0.000 1     -2412.802 1       -61.923 1
G27  22009866.918 9 115662604.282 9      2484.405 9        55.372 9  22009868.853 6         0.000 6      1935.901 6        37.977 6
G27  22009866.918 1 115662604.602 1      2484.405 1       -55.923 1  22009868.853 1         0.000 1      1935.901 1       -61.923 1
G16  20498431.327 9 107719963.360 9       555.077 9        55.976 9  20498430.501 6         0.000 6       432.527 6        37.977 6
G16  20498431.327 1 107719963.680 1       555.077 1       -55.923 1  20498430.501 1         0.000 1       432.527 1       -61.923 1
G26  20651595.003 9 108524841.963 9     -1479.510 9        55.874 9  20651597.819 6         0.000 6     -1152.866 6        37.977 6
G26  20651605.212 1 108524895.930 1     -1479.526 1       -55.923 1  20651608.027 1         0.000 1     -1152.878 1       -61.923 1
G20  21948886.226 9 115342142.467 9      2581.278 9        55.314 9  21948886.550 6         0.000 6      2011.386 6        37.977 6
G20  21948898.856 1 115342209.158 1      2581.291 1       -55.923 1  21948899.180 1         0.000 1      2011.397 1       -61.923 1
> 2019 07 03 12 00 50.0000000  0 16       0.000000000000
G07  25351139.729 9 133221092.308 9      2180.573 9        54.130 9  25351140.401 6         0.000 6      1699.148 6        37.977 6
G07  25351139.729 1 133221093.274 1      2180.573 1       -55.923 1  25351140.401 1         0.000 1      1699.148 1       -61.923 1
G10  23815697.067 9 125152278.023 9      3537.522 9        54.667 9  23815700.800 6         0.000 6      2756.514 6        37.977 6
G10  23815717.160 1 125152384.579 1      3537.529 1       -55.923 1  23815720.893 1         0.000 1      2756.519 1       -61.923 1
G21  21168548.377 9 111241451.869 9     -1240.008 9        55.710 9  21168547.662 6         0.000 6      -966.240 6        37.977 6
G21  21168548.377 1 111241452.835 1     -1240.008 1       -55.923 1  21168547.662 1         0.000 1      -966.240 1       -61.923 1
G29  24293893.756 9 127665217.067 9     -3096.510 9        54.477 9  24293895.324 6         0.000 6     -2412.868 6        37.977 6
G29  24293893.756 1 127665218.033 1     -3096.510 1       -55.923 1  24293895.324 1         0.000 1     -2412.868 1       -61.923 1
G27  22009394.173 9 115660119.995 9      2484.173 9        55.372 9  22009396.108 6         0.000 6      1935.720 6        37.977 6
G27  22009394.173 1 115660120.961 1      2484.173 1       -55.923 1  22009396.108 1         0.000 1      1935.720 1       -61.923 1
G16  20498325.758 9 107719408.590 9       554.463 9        55.976 9  20498324.931 6         0.000 6       432.049 6        37.977 6
G16  20498325.758 1 107719409.556 1       554.463 1       -55.923 1  20498324.931 1         0.000 1       432.049 1       -61.923 1
G26  20651876.599 9 108526321.759 9     -1480.084 9        55.874 9  20651879.415 6         0.000 6     -1153.313 6        37.977 6
G26  20651886.811 1 108526376.386 1     -1480.099 1       -55.923 1  20651889.626 1         0.000 1     -1153.324 1       -61.923 1
G20  21948395.067 9 115339561.414 9      2580.836 9        55.314 9  21948395.391 6         0.000 6      2011.042 6        37.977 6
G20  21948407.695 1 115339628.738 1      2580.850 1       -55.923 1  21948408.019 1         0.000 1      2011.053 1       -61.923 1
> 2019 07 03 12 00 51.0000000  0 16       0.000000000000
G07  25350724.823 9 133218911.970 9      2180.111 9        54.130 9  25350725.495 6         0.000 6      1698.788 6        37.977 6
G07  25350724.823 1 133218912.182 1      2180.111 1       -55.923 1  25350725.495 1         0.000 1      1698.788 1       -61.923 1
G10  23815023.912 9 125148740.579 9      3537.387 9        54.667 9  23815027.644 6         0.000 6      2756.408 6        37.977 6
G10  23815044.004 1 125148846.373 1      3537.394 1       -55.923 1  23815047.736 1         0.000 1      2756.414 1       -61.923 1
G21  21168784.376 9 111242692.055 9     -1240.366 9        55.710 9  21168783.662 6         0.000 6      -966.519 6        37.977 6
G21  21168784.376 1 111242692.267 1     -1240.366 1       -55.923 1  21168783.662 1         0.000 1      -966.519 1       -61.923 1
G29  24294483.010 9 127668313.610 9     -3096.595 9        54.477 9  24294484.579 6         0.000 6     -2412.934 6        37.977 6
G29  24294483.010 1 127668313.822 1     -3096.595 1       -55.923 1  24294484.579 1         0.000 1     -2412.934 1       -61.923 1
G27  22008921.473 9 115657635.941 9      2483.941 9        55.373 9  22008923.408 6         0.000 6      1935.539 6        37.977 6
G27  22008921.473 1 115657636.153 1      2483.941 1       -55.923 1  22008923.408 1         0.000 1      1935.539 1       -61.923 1
G16  20498220.306 9 107718854.433 9       553.850 9        55.976 9  20498219.479 6         0.000 6       431.572 6        37.977 6
G16  20498220.306 1 107718854.645 1       553.850 1       -55.923 1  20498219.479 1         0.000 1       431.572 1       -61.923 1
G26  20652158.304 9 108527802.127 9     -1480.657 9        55.874 9  20652161.120 6         0.000 6     -1153.759 6        37.977 6
G26  20652168.519 1 108527856.016 1     -1480.673 1       -55.923 1  20652171.334 1         0.000 1     -1153.771 1       -61.923 1
G20  21947903.992 9 115336980.803 9      2580.395 9        55.314 9  21947904.316 6         0.000 6      2010.698 6        37.977 6
G20  21947916.617 1 115337047.360 1      2580.408 1       -55.923 1  21947916.941 1         0.000 1      2010.709 1       -61.923 1
> 2019 07 03 12 00 52.0000000  0 16       0.000000000000
G07  25350310.006 9 133216732.094 9      2179.649 9        54.130 9  25350310.678 6         0.000 6      1698.428 6        37.977 6
G07  25350310.006 1 133216732.757 1      2179.649 1       -55.923 1  25350310.678 1         0.000 1      1698.428 1       -61.923 1
G10  23814350.783 9 125145203.270 9      3537.252 9        54.668 9  23814354.514 6         0.000 6      2756.303 6        37.977 6
G10  23814370.873 1 125145309.509 1      3537.259 1       -55.923 1  23814374.605 1         0.000 1      2756.308 1       -61.923 1
G21  21169020.444 9 111243932.598 9     -1240.723 9        55.710 9  21169019.729 6         0.000 6      -966.797 6        37.977 6
G21  21169020.444 1 111243933.262 1     -1240.723 1       -55.923 1  21169019.729 1         0.000 1      -966.797 1       -61.923 1
G29  24295072.281 9 127671410.237 9     -3096.680 9        54.477 9  24295073.851 6         0.000 6     -2413.000 6        37.977 6
G29  24295072.281 1 127671410.901 1     -3096.680 1       -55.923 1  24295073.851 1         0.000 1     -2413.000 1       -61.923 1
G27  22008448.817 9 115655152.119 9      2483.708 9        55.373 9  22008450.751 6         0.000 6      1935.358 6        37.977 6
G27  22008448.817 1 115655152.782 1      2483.708 1       -55.923 1  22008450.751 1         0.000 1      1935.358 1       -61.923 1
G16  20498114.970 9 107718300.889 9       553.237 9        55.976 9  20498114.143 6         0.000 6       431.094 6        37.977 6
G16  20498114.970 1 107718301.552 1       553.237 1       -55.923 1  20498114.143 1         0.000 1       431.094 1       -61.923 1
G26  20652440.119 9 108529283.070 9     -1481.231 9        55.874 9  20652442.934 6         0.000 6     -1154.206 6        37.977 6
G26  20652450.336 1 108529337.425 1     -1481.246 1       -55.923 1  20652453.152 1         0.000 1     -1154.218 1       -61.923 1
G20  21947413.001 9 115334400.633 9      2579.953 9        55.314 9  21947413.325 6         0.000 6      2010.354 6        37.977 6
G20  21947425.624 1 115334467.628 1      2579.966 1       -55.923 1  21947425.947 1         0.000 1      2010.365 1       -61.923 1
> 2019 07 03 12 00 53.0000000  0 16       0.000000000000
G07  25349895.277 9 133214552.680 9      2179.187 9        54.131 9  25349895.948 6         0.000 6      1698.068 6        37.977 6
G07  25349895.277 1 133214552.979 1      2179.187 1       -55.923 1  25349895.948 1         0.000 1      1698.068 1       -61.923 1
G10  23813677.679 9 125141666.096 9      3537.117 9        54.668 9  23813681.410 6         0.000 6      2756.198 6        37.977 6
G10  23813697.768 1 125141771.964 1      3537.124 1       -55.923 1  23813701.499 1         0.000 1      2756.203 1       -61.923 1
G21  21169256.580 9 111245173.499 9     -1241.081 9        55.710 9  21169255.865 6         0.000 6      -967.076 6        37.977 6
G21  21169256.580 1 111245173.799 1     -1241.081 1       -55.923 1  21169255.865 1         0.000 1      -967.076 1       -61.923 1
G29  24295661.568 9 127674506.949 9     -3096.765 9        54.476 9  24295663.138 6         0.000 6     -2413.066 6        37.977 6
G29  24295661.568 1 127674507.249 1     -3096.765 1       -55.923 1  24295663.138 1         0.000 1     -2413.066 1       -61.923 1
G27  22007976.205 9 115652668.530 9      2483.476 9        55.373 9  22007978.139 6         0.000 6      1935.177 6        37.977 6
G27  22007976.205 1 115652668.829 1      2483.476 1       -55.923 1  22007978.139 1         0.000 1      1935.177 1       -61.923 1
G16  20498009.750 9 107717747.959 9       552.624 9        55.976 9  20498008.924 6         0.000 6       430.616 6        37.977 6
G16  20498009.750 1 107717748.258 1       552.624 1       -55.923 1  20498008.924 1         0.000 1       430.616 1       -61.923 1
G26  20652722.042 9 108530764.585 9     -1481.804 9        55.874 9  20652724.858 6         0.000 6     -1154.653 6        37.977 6
G26  20652732.262 1 108530818.591 1     -1481.819 1       -55.923 1  20652735.078 1         0.000 1     -1154.665 1       -61.923 1
G20  21946922.095 9 115331820.906 9      2579.511 9        55.314 9  21946922.418 6         0.000 6      2010.010 6        37.977 6
G20  21946934.715 1 115331887.523 1      2579.525 1       -55.923 1  21946935.038 1         0.000 1      2010.020 1       -61.923 1
> 2019 07 03 12 00 54.0000000  0 16       0.000000000000
G07  25349480.635 9 133212373.728 9      2178.724 9        54.131 9  25349481.307 6         0.000 6      1697.708 6        37.977 6
G07  25349480.635 1 133212373.798 1      2178.724 1       -55.923 1  25349481.307 1         0.000 1      1697.708 1       -61.923 1
G10  23813004.601 9 125138129.058 9      3536.981 9        54.668 9  23813008.331 6         0.000 6      2756.092 6        37.977 6
G10  23813024.688 1 125138234.690 1      3536.988 1       -55.923 1  23813028.419 1         0.000 1      2756.097 1       -61.923 1
G21  21169492.784 9 111246414.758 9     -1241.438 9        55.710 9  21169492.069 6         0.000 6      -967.354 6        37.977 6
G21  21169492.784 1 111246414.828 1     -1241.438 1       -55.923 1  21169492.069 1         0.000 1      -967.354 1       -61.923 1
G29  24296250.870 9 127677603.746 9     -3096.849 9        54.476 9  24296252.441 6         0.000 6     -2413.132 6        37.977 6
G29  24296250.870 1 127677604.148 1     -3096.849 1       -55.923 1  24296252.441 1         0.000 1     -2413.132 1       -61.923 1
G27  22007503.638 9 115650185.173 9      2483.243 9        55.373 9  22007505.571 6         0.000 6      1934.996 6        37.977 6
G27  22007503.638 1 115650185.574 1      2483.243 1       -55.923 1  22007505.571 1         0.000 1      1934.996 1       -61.923 1
G16  20497904.648 9 107717195.642 9       552.011 9        55.976 9  20497903.821 6         0.000 6       430.138 6        37.977 6
G16  20497904.648 1 107717196.043 1       552.011 1       -55.923 1  20497903.821 1         0.000 1       430.138 1       -61.923 1
G26  20653004.074 9 108532246.674 9     -1482.377 9        55.874 9  20653006.890 6         0.000 6     -1155.100 6        37.977 6
G26  20653014.298 1 108532300.798 1     -1482.392 1       -55.923 1  20653017.113 1         0.000 1     -1155.111 1       -61.923 1
G20  21946431.272 9 115329241.620 9      2579.070 9        55.315 9  21946431.595 6         0.000 6      2009.666 6        37.977 6
G20  21946443.889 1 115329308.327 1      2579.083 1       -55.923 1  21946444.212 1         0.000 1      2009.676 1       -61.923 1
> 2019 07 03 12 00 55.0000000  0 16       0.000000000000
G07  25349066.082 9 133210195.238 9      2178.262 9        54.131 9  25349066.753 6         0.000 6      1697.348 6        37.977 6
G07  25349066.082 1 133210196.075 1      2178.262 1       -55.923 1  25349066.753 1         0.000 1      1697.348 1       -61.923 1
G10  23812331.548 9 125134592.155 9      3536.846 9        54.668 9  23812335.278 6         0.000 6      2755.987 6        37.977 6
G10  23812351.635 1 125134698.547 1      3536.853 1       -55.923 1  23812355.364 1         0.000 1      2755.992 1       -61.923 1
G21  21169729.055 9 111247656.374 9     -1241.795 9        55.710 9  21169728.341 6         0.000 6      -967.633 6        37.977 6
G21  21169729.055 1 111247657.211 1     -1241.795 1       -55.923 1  21169728.341 1         0.000 1      -967.633 1       -61.923 1
G29  24296840.189 9 127680700.628 9     -3096.934 9        54.476 9  24296841.761 6         0.000 6     -2413.198 6        37.977 6
G29  24296840.189 1 127680700.741 1     -3096.934 1       -55.923 1  24296841.761 1         0.000 1     -2413.198 1       -61.923 1
G27  22007031.114 9 115647702.048 9      2483.011 9        55.373 9  22007033.048 6         0.000 6      1934.814 6        37.977 6
G27  22007031.114 1 115647702.162 1      2483.011 1       -55.923 1  22007033.048 1         0.000 1      1934.814 1       -61.923 1
G16  20497799.662 9 107716643.938 9       551.397 9        55.976 9  20497798.836 6         0.000 6       429.660 6        37.977 6
G16  20497799.662 1 107716644.051 1       551.397 1       -55.923 1  20497798.836 1         0.000 1       429.660 1       -61.923 1
G26  20653286.216 9 108533729.336 9     -1482.950 9        55.874 9  20653289.032 6         0.000 6     -1155.546 6        37.977 6
G26  20653296.442 1 108533783.187 1     -1482.966 1       -55.923 1  20653299.258 1         0.000 1     -1155.558 1       -61.923 1
G20  21945940.533 9 115326662.776 9      2578.628 9        55.315 9  21945940.856 6         0.000 6      2009.321 6        37.977 6
G20  21945953.148 1 115326729.181 1      2578.641 1       -55.923 1  21945953.471 1         0.000 1      2009.332 1       -61.923 1
> 2019 07 03 12 00 56.0000000  0 16       0.000000000000
G07  25348651.617 9 133208017.214 9      2177.800 9        54.131 9  25348652.288 6         0.000 6      1696.988 6        37.977 6
G07  25348651.617 1 133208017.722 1      2177.800 1       -55.923 1  25348652.288 1         0.000 1      1696.988 1       -61.923 1
G10  23811658.521 9 125131055.385 9      3536.710 9        54.669 9  23811662.250 6         0.000 6      2755.881 6        37.977 6
G10  23811678.607 1 125131161.442 1      3536.717 1       -55.923 1  23811682.336 1         0.000 1      2755.886 1       -61.923 1
G21  21169965.395 9 111248898.345 9     -1242.153 9        55.710 9  21169964.680 6         0.000 6      -967.911 6        37.977 6
G21  21169965.395 1 111248898.853 1     -1242.153 1       -55.923 1  21169964.680 1         0.000 1      -967.911 1       -61.923 1
G29  24297429.523 9 127683797.589 9     -3097.019 9        54.476 9  24297431.095 6         0.000 6     -2413.264 6        37.977 6
G29  24297429.523 1 127683798.097 1     -3097.019 1       -55.923 1  24297431.095 1         0.000 1     -2413.264 1       -61.923 1
G27  22006558.636 9 115645219.160 9      2482.778 9        55.373 9  22006560.569 6         0.000 6      1934.633 6        37.977 6
G27  22006558.636 1 115645219.668 1      2482.778 1       -55.923 1  22006560.569 1         0.000 1      1934.633 1       -61.923 1
G16  20497694.793 9 107716092.849 9       550.784 9        55.976 9  20497693.967 6         0.000 6       429.182 6        37.977 6
G16  20497694.793 1 107716093.357 1       550.784 1       -55.923 1  20497693.967 1         0.000 1       429.182 1       -61.923 1
G26  20653568.467 9 108535212.571 9     -1483.524 9        55.873 9  20653571.283 6         0.000 6     -1155.993 6        37.977 6
G26  20653578.695 1 108535266.832 1     -1483.539 1       -55.923 1  20653581.512 1         0.000 1     -1156.005 1       -61.923 1
G20  21945449.878 9 115324084.370 9      2578.186 9        55.315 9  21945450.201 6         0.000 6      2008.977 6        37.977 6
G20  21945462.491 1 115324151.157 1      2578.199 1       -55.923 1  21945462.813 1         0.000 1      2008.987 1       -61.923 1
> 2019 07 03 12 00 57.0000000  0 16       0.000000000000
G07  25348237.239 9 133205839.649 9      2177.337 9        54.131 9  25348237.910 6         0.000 6      1696.627 6        37.977 6
G07  25348237.239 1 133205839.957 1      2177.337 1       -55.923 1  25348237.910 1         0.000 1      1696.627 1       -61.923 1
G10  23810985.521 9 125127518.753 9      3536.575 9        54.669 9  23810989.249 6         0.000 6      2755.775 6        37.977 6
G10  23811005.605 1 125127624.603 1      3536.581 1       -55.923 1  23811009.333 1         0.000 1      2755.780 1       -61.923 1
G21  21170201.802 9 111250140.676 9     -1242.510 9        55.710 9  21170201.088 6         0.000 6      -968.190 6        37.977 6
G21  21170201.802 1 111250140.984 1     -1242.510 1       -55.923 1  21170201.088 1         0.000 1      -968.190 1       -61.923 1
G29  24298018.874 9 127686894.640 9     -3097.103 9        54.476 9  24298020.447 6         0.000 6     -2413.330 6        37.977 6
G29  24298018.874 1 127686894.948 1     -3097.103 1       -55.923 1  24298020.447 1         0.000 1     -2413.330 1       -61.923 1
G27  22006086.201 9 115642736.500 9      2482.546 9        55.374 9  22006088.134 6         0.000 6      1934.452 6        37.977 6
G27  22006086.201 1 115642736.809 1      2482.546 1       -55.923 1  22006088.134 1         0.000 1      1934.452 1       -61.923 1
G16  20497590.041 9 107715542.372 9       550.170 9        55.976 9  20497589.214 6         0.000 6       428.704 6        37.977 6
G16  20497590.041 1 107715542.680 1       550.170 1       -55.923 1  20497589.214 1         0.000 1       428.704 1       -61.923 1
G26  20653850.826 9 108536696.379 9     -1484.097 9        55.873 9  20653853.643 6         0.000 6     -1156.440 6        37.977 6
G26  20653861.058 1 108536750.456 1     -1484.112 1       -55.923 1  20653863.874 1         0.000 1     -1156.451 1       -61.923 1
G20  21944959.308 9 115321506.410 9      2577.743 9        55.315 9  21944959.630 6         0.000 6      2008.632 6        37.977 6
G20  21944971.918 1 115321572.984 1      2577.757 1       -55.923 1  21944972.240 1         0.000 1      2008.643 1       -61.923 1
> 2019 07 03 12 00 58.0000000  0 16       0.000000000000
G07  25347822.950 9 133203662.546 9      2176.875 9        54.131 9  25347823.620 6         0.000 6      1696.267 6        37.977 6
G07  25347822.950 1 133203662.908 1      2176.875 1       -55.923 1  25347823.620 1         0.000 1      1696.267 1       -61.923 1
G10  23810312.546 9 125123982.257 9      3536.439 9        54.669 9  23810316.274 6         0.000 6      2755.669 6        37.977 6
G10  23810332.628 1 125124088.154 1      3536.446 1       -55.923 1  23810336.356 1         0.000 1      2755.675 1       -61.923 1
G21  21170438.278 9 111251383.363 9     -1242.867 9        55.709 9  21170437.564 6         0.000 6      -968.468 6        37.977 6
G21  21170438.278 1 111251383.726 1     -1242.867 1       -55.923 1  21170437.564 1         0.000 1      -968.468 1       -61.923 1
G29  24298608.242 9 127689991.775 9     -3097.188 9        54.475 9  24298609.815 6         0.000 6     -2413.396 6        37.977 6
G29  24298608.242 1 127689992.138 1     -3097.188 1       -55.923 1  24298609.815 1         0.000 1     -2413.396 1       -61.923 1
G27  22005613.810 9 115640254.074 9      2482.313 9        55.374 9  22005615.743 6         0.000 6      1934.271 6        37.977 6
G27  22005613.810 1 115640254.436 1      2482.313 1       -55.923 1  22005615.743 1         0.000 1      1934.271 1       -61.923 1
G16  20497485.406 9 107714992.508 9       549.557 9        55.976 9  20497484.579 6         0.000 6       428.226 6        37.977 6
G16  20497485.406 1 107714992.870 1       549.557 1       -55.923 1  20497484.579 1         0.000 1       428.226 1       -61.923 1
G26  20654133.295 9 108538180.761 9     -1484.670 9        55.873 9  20654136.111 6         0.000 6     -1156.886 6        37.977 6
G26  20654143.530 1 108538235.489 1     -1484.685 1       -55.923 1  20654146.346 1         0.000 1     -1156.898 1       -61.923 1
G20  21944468.822 9 115318928.892 9      2577.301 9        55.315 9  21944469.144 6         0.000 6      2008.288 6        37.977 6
G20  21944481.429 1 115318996.089 1      2577.314 1       -55.923 1  21944481.751 1         0.000 1      2008.298 1       -61.923 1
> 2019 07 03 12 00 59.0000000  0 16       0.000000000000
G07  25347408.748 9 133201485.906 9      2176.412 9        54.131 9  25347409.419 6         0.000 6      1695.907 6        37.977 6
G07  25347408.748 1 133201486.173 1      2176.412 1       -55.923 1  25347409.419 1         0.000 1      1695.907 1       -61.923 1
G10  23809639.597 9 125120445.897 9      3536.303 9        54.669 9  23809643.324 6         0.000 6      2755.563 6        37.977 6
G10  23809659.678 1 125120551.691 1      3536.310 1       -55.923 1  23809663.405 1         0.000 1      2755.569 1       -61.923 1
G21  21170674.822 9 111252626.408 9     -1243.224 9        55.709 9  21170674.108 6         0.000 6      -968.746 6        37.977 6
G21  21170674.822 1 111252626.675 1     -1243.224 1       -55.923 1  21170674.108 1         0.000 1      -968.746 1       -61.923 1
G29  24299197.625 9 127693088.995 9     -3097.273 9        54.475 9  24299199.199 6         0.000 6     -2413.462 6        37.977 6
G29  24299197.625 1 127693089.262 1     -3097.273 1       -55.923 1  24299199.199 1         0.000 1     -2413.462 1       -61.923 1
G27  22005141.464 9 115637771.879 9      2482.081 9        55.374 9  22005143.397 6         0.000 6      1934.089 6        37.977 6
G27  22005141.464 1 115637772.146 1      2482.081 1       -55.923 1  22005143.397 1         0.000 1      1934.089 1       -61.923 1
G16  20497380.887 9 107714443.258 9       548.943 9        55.977 9  20497380.060 6         0.000 6       427.748 6        37.977 6
G16  20497380.887 1 107714443.524 1       548.943 1       -55.923 1  20497380.060 1         0.000 1       427.748 1       -61.923 1
G26  20654415.873 9 108539665.716 9     -1485.243 9        55.873 9  20654418.689 6         0.000 6     -1157.333 6        37.977 6
G26  20654426.111 1 108539719.781 1     -1485.258 1       -55.923 1  20654428.927 1         0.000 1     -1157.345 1       -61.923 1
G20  21943978.420 9 115316351.817 9      2576.859 9        55.316 9  21943978.741 6         0.000 6      2007.943 6        37.977 6
G20  21943991.025 1 115316418.322 1      2576.872 1       -55.923 1  21943991.346 1         0.000 1      2007.953 1       -61.923 1
> 2019 07 03 12 01  0.0000000  0 16       0.000000000000
G07  25346994.635 1 133199309.729 1      2175.950 1       -55.923 1  25346995.305 1         0.000 1      1695.546 1       -61.923 1
G07  25346994.635 1 133199310.621 1      2175.950 1       -55.923 1  25346995.305 1         0.000 1      1695.546 1       -61.923 1
G10  23808966.674 9 125116909.672 9      3536.167 9        54.670 9  23808970.400 6         0.000 6      2755.457 6        37.977 6
G10  23808986.754 1 125117016.086 1      3536.174 1       -55.923 1  23808990.480 1         0.000 1      2755.463 1       -61.923 1
G21  21170911.434 9 111253869.810 9     -1243.581 9        55.709 9  21170910.719 6         0.000 6      -969.025 6        37.977 6
G21  21170911.434 1 111253870.703 1     -1243.581 1       -55.923 1  21170910.719 1         0.000 1      -969.025 1       -61.923 1
G29  24299787.024 9 127696186.300 9     -3097.357 9        54.475 9  24299788.599 6         0.000 6     -2413.528 6        37.977 6
G29  24299787.024 1 127696187.192 1     -3097.357 1       -55.923 1  24299788.599 1         0.000 1     -2413.528 1       -61.923 1
G27  22004669.162 9 115635289.918 9      2481.848 9        55.374 9  22004671.095 6         0.000 6      1933.908 6        37.977 6
G27  22004669.162 1 115635290.811 1      2481.848 1       -55.923 1  22004671.095 1         0.000 1      1933.908 1       -61.923 1
G16  20497276.485 9 107713894.621 9       548.330 9        55.977 9  20497275.658 6         0.000 6       427.270 6        37.977 6
G16  20497276.485 1 107713895.514 1       548.330 1       -55.923 1  20497275.658 1         0.000 1       427.270 1       -61.923 1
G26  20654698.560 9 108541151.244 9     -1485.816 9        55.873 9  20654701.376 6         0.000 6     -1157.779 6        37.977 6
G26  20654708.800 1 108541205.951 1     -1485.831 1       -55.923 1  20654711.617 1         0.000 1     -1157.791 1       -61.923 1
G20  21943488.102 9 115313775.184 9      2576.416 9        55.316 9  21943488.423 6         0.000 6      2007.598 6        37.977 6
G20  21943500.704 1 115313842.302 1      2576.430 1       -55.923 1  21943501.025 1         0.000 1      2007.609 1       -61.923 1
> 2019 07 03 12 01  1.0000000  0 16       0.000000000000
G07  25346580.609 1 133197134.014 1      2175.487 1       -55.923 1  25346581.279 1         0.000 1      1695.185 1       -61.923 1
G07  25346580.609 1 133197134.243 1      2175.487 1       -55.923 1  25346581.279 1         0.000 1      1695.185 1       -61.923 1
G10  23808293.776 9 125113373.584 9      3536.031 9        54.670 9  23808297.502 6         0.000 6      2755.351 6        37.977 6
G10  23808313.855 1 125113479.327 1      3536.038 1       -55.923 1  23808317.581 1         0.000 1      2755.357 1       -61.923 1
G21  21171148.113 9 111255113.569 9     -1243.938 9        55.709 9  21171147.399 6         0.000 6      -969.303 6        37.977 6
G21  21171148.113 1 111255113.798 1     -1243.938 1       -55.923 1  21171147.399 1         0.000 1      -969.303 1       -61.923 1
G29  24300376.440 9 127699283.689 9     -3097.442 9        54.475 9  24300378.015 6         0.000 6     -2413.593 6        37.977 6
G29  24300376.440 1 127699283.918 1     -3097.442 1       -55.923 1  24300378.015 1         0.000 1     -2413.593 1       -61.923 1
G27  22004196.904 9 115632808.189 9      2481.615 9        55.374 9  22004198.837 6         0.000 6      1933.727 6        37.977 6
G27  22004196.904 1 115632808.781 1      2481.615 1       -55.923 1  22004198.837 1         0.000 1      1933.727 1       -61.923 1
G16  20497172.199 9 107713346.598 9       547.716 9        55.977 9  20497171.373 6         0.000 6       426.792 6        37.977 6
G16  20497172.199 1 107713347.189 1       547.716 1       -55.923 1  20497171.373 1         0.000 1       426.792 1       -61.923 1
G26  20654981.356 9 108542637.345 9     -1486.389 9        55.873 9  20654984.172 6         0.000 6     -1158.226 6        37.977 6
G26  20654991.599 1 108542691.766 1     -1486.405 1       -55.923 1  20654994.416 1         0.000 1     -1158.238 1       -61.923 1
G20  21942997.868 9 115311198.993 9      2575.974 9        55.316 9  21942998.189 6         0.000 6      2007.254 6        37.977 6
G20  21943010.468 1 115311265.797 1      2575.987 1       -55.923 1  21943010.789 1         0.000 1      2007.264 1       -61.923 1
> 2019 07 03 12 01  2.0000000  0 16       0.000000000000
G07  25346166.672 1 133194958.762 1      2175.024 1       -55.923 1  25346167.342 1         0.000 1      1694.825 1       -61.923 1
G07  25346166.672 1 133194959.687 1      2175.024 1       -55.923 1  25346167.342 1         0.000 1      1694.825 1       -61.923 1
G10  23807620.905 9 125109837.632 9      3535.895 9        54.670 9  23807624.630 6         0.000 6      2755.245 6        37.977 6
G10  23807640.983 1 125109944.064 1      3535.901 1       -55.923 1  23807644.708 1         0.000 1      2755.251 1       -61.923 1
G21  21171384.861 9 111256357.685 9     -1244.295 9        55.709 9  21171384.147 6         0.000 6      -969.581 6        37.977 6
G21  21171384.861 1 111256358.610 1     -1244.295 1       -55.923 1  21171384.147 1         0.000 1      -969.581 1       -61.923 1
G29  24300965.871 9 127702381.163 9     -3097.526 9        54.474 9  24300967.447 6         0.000 6     -2413.659 6        37.977 6
G29  24300965.871 1 127702382.087 1     -3097.526 1       -55.923 1  24300967.447 1         0.000 1     -2413.659 1       -61.923 1
G27  22003724.690 9 115630326.693 9      2481.382 9        55.375 9  22003726.623 6         0.000 6      1933.545 6        37.977 6
G27  22003724.690 1 115630327.617 1      2481.382 1       -55.923 1  22003726.623 1         0.000 1      1933.545 1       -61.923 1
G16  20497068.031 9 107712799.188 9       547.103 9        55.977 9  20497067.204 6         0.000 6       426.314 6        37.977 6
G16  20497068.031 1 107712800.113 1       547.103 1       -55.923 1  20497067.204 1         0.000 1       426.314 1       -61.923 1
G26  20655264.261 9 108544124.019 9     -1486.962 9        55.873 9  20655267.078 6         0.000 6     -1158.672 6        37.977 6
G26  20655274.507 1 108544178.788 1     -1486.978 1       -55.923 1  20655277.324 1         0.000 1     -1158.684 1       -61.923 1
G20  21942507.719 9 115308623.245 9      2575.531 9        55.316 9  21942508.039 6         0.000 6      2006.909 6        37.977 6
G20  21942520.316 1 115308690.369 1      2575.545 1       -55.923 1  21942520.637 1         0.000 1      2006.919 1       -61.923 1
> 2019 07 03 12 01  3.0000000  0 16       0.000000000000
G07  25345752.823 1 133192783.973 1      2174.561 1       -55.923 1  25345753.492 1         0.000 1      1694.464 1       -61.923 1
G07  25345752.823 1 133192784.197 1      2174.561 1       -55.923 1  25345753.492 1         0.000 1      1694.464 1       -61.923 1
G10  23806948.060 9 125106301.816 9      3535.758 9        54.670 9  23806951.784 6         0.000 6      2755.139 6        37.977 6
G10  23806968.136 1 125106407.541 1      3535.765 1       -55.923 1  23806971.860 1         0.000 1      2755.144 1       -61.923 1
G21  21171621.676 9 111257602.158 9     -1244.652 9        55.709 9  21171620.962 6         0.000 6      -969.859 6        37.977 6
G21  21171621.676 1 111257602.382 1     -1244.652 1       -55.923 1  21171620.962 1         0.000 1      -969.859 1       -61.923 1
G29  24301555.319 9 127705478.721 9     -3097.611 9        54.474 9  24301556.896 6         0.000 6     -2413.725 6        37.977 6
G29  24301555.319 1 127705478.945 1     -3097.611 1       -55.923 1  24301556.896 1         0.000 1     -2413.725 1       -61.923 1
G27  22003252.521 9 115627845.430 9      2481.150 9        55.375 9  22003254.454 6         0.000 6      1933.364 6        37.977 6
G27  22003252.521 1 115627845.654 1      2481.150 1       -55.923 1  22003254.454 1         0.000 1      1933.364 1       -61.923 1
G16  20496963.979 9 107712252.392 9       546.489 9        55.977 9  20496963.152 6         0.000 6       425.836 6        37.977 6
G16  20496963.979 1 107712252.616 1       546.489 1       -55.923 1  20496963.152 1         0.000 1       425.836 1       -61.923 1
G26  20655547.275 9 108545611.266 9     -1487.535 9        55.873 9  20655550.092 6         0.000 6     -1159.119 6        37.977 6
G26  20655557.524 1 108545665.350 1     -1487.551 1       -55.923 1  20655560.341 1         0.000 1     -1159.131 1       -61.923 1
G20  21942017.654 9 115306047.939 9      2575.089 9        55.316 9  21942017.974 6         0.000 6      2006.564 6        37.977 6
G20  21942030.248 1 115306114.350 1      2575.102 1       -55.923 1  21942030.569 1         0.000 1      2006.574 1       -61.923 1
> 2019 07 03 12 01  4.0000000  0 16       0.000000000000
G07  25345339.062 1 133190609.647 1      2174.098 1       -55.923 1  25345339.731 1         0.000 1      1694.103 1       -61.923 1
G07  25345339.062 1 133190609.733 1      2174.098 1       -55.923 1  25345339.731 1         0.000 1      1694.103 1       -61.923 1
G10  23806275.240 9 125102766.137 9      3535.622 9        54.671 9  23806278.964 6         0.000 6      2755.033 6        37.977 6
G10  23806295.315 1 125102871.717 1      3535.629 1       -55.923 1  23806299.039 1         0.000 1      2755.038 1       -61.923 1
G21  21171858.560 9 111258846.988 9     -1245.009 9        55.709 9  21171857.846 6         0.000 6      -970.137 6        37.977 6
G21  21171858.560 1 111258847.074 1     -1245.009 1       -55.923 1  21171857.846 1         0.000 1      -970.137 1       -61.923 1
G29  24302144.783 9 127708576.364 9     -3097.695 9        54.474 9  24302146.360 6         0.000 6     -2413.791 6        37.977 6
G29  24302144.783 1 127708576.450 1     -3097.695 1       -55.923 1  24302146.360 1         0.000 1     -2413.791 1       -61.923 1
G27  22002780.396 9 115625364.400 9      2480.917 9        55.375 9  22002782.329 6         0.000 6      1933.182 6        37.977 6
G27  22002780.396 1 115625364.485 1      2480.917 1       -55.923 1  22002782.329 1         0.000 1      1933.182 1       -61.923 1
G16  20496860.044 9 107711706.210 9       545.875 9        55.977 9  20496859.217 6         0.000 6       425.358 6        37.977 6
G16  20496860.044 1 107711706.296 1       545.875 1       -55.923 1  20496859.217 1         0.000 1       425.358 1       -61.923 1
G26  20655830.398 9 108547099.086 9     -1488.108 9        55.873 9  20655833.215 6         0.000 6     -1159.565 6        37.977 6
G26  20655840.650 1 108547153.047 1     -1488.123 1       -55.923 1  20655843.467 1         0.000 1     -1159.577 1       -61.923 1
G20  21941527.673 9 115303473.077 9      2574.646 9        55.317 9  21941527.993 6         0.000 6      2006.219 6        37.977 6
G20  21941540.265 1 115303539.335 1      2574.659 1       -55.923 1  21941540.585 1         0.000 1      2006.229 1       -61.923 1
> 2019 07 03 12 01  5.0000000  0 16       0.000000000000
G07  25344925.389 1 133188435.784 1      2173.635 1       -55.923 1  25344926.057 1         0.000 1      1693.743 1       -61.923 1
G07  25344925.389 1 133188436.716 1      2173.635 1       -55.923 1  25344926.057 1         0.000 1      1693.743 1       -61.923 1
G10  23805602.447 9 125099230.594 9      3535.485 9        54.671 9  23805606.170 6         0.000 6      2754.926 6        37.977 6
G10  23805622.520 1 125099337.013 1      3535.492 1       -55.923 1  23805626.243 1         0.000 1      2754.932 1       -61.923 1
G21  21172095.511 9 111260092.175 9     -1245.366 9        55.709 9  21172094.797 6         0.000 6      -970.415 6        37.977 6
G21  21172095.511 1 111260093.107 1     -1245.366 1       -55.923 1  21172094.797 1         0.000 1      -970.415 1       -61.923 1
G29  24302734.263 9 127711674.091 9     -3097.780 9        54.474 9  24302735.840 6         0.000 6     -2413.857 6        37.977 6
G29  24302734.263 1 127711675.023 1     -3097.780 1       -55.923 1  24302735.840 1         0.000 1     -2413.857 1       -61.923 1
G27  22002308.316 9 115622883.602 9      2480.684 9        55.375 9  22002310.248 6         0.000 6      1933.001 6        37.977 6
G27  22002308.316 1 115622884.534 1      2480.684 1       -55.923 1  22002310.248 1         0.000 1      1933.001 1       -61.923 1
G16  20496756.226 9 107711160.641 9       545.262 9        55.977 9  20496755.399 6         0.000 6       424.879 6        37.977 6
G16  20496756.226 1 107711161.573 1       545.262 1       -55.923 1  20496755.399 1         0.000 1       424.879 1       -61.923 1
G26  20656113.630 9 108548587.479 9     -1488.681 9        55.872 9  20656116.447 6         0.000 6     -1160.012 6        37.977 6
G26  20656123.885 1 108548642.301 1     -1488.696 1       -55.923 1  20656126.702 1         0.000 1     -1160.024 1       -61.923 1
G20  21941037.776 9 115300898.657 9      2574.203 9        55.317 9  21941038.096 6         0.000 6      2005.874 6        37.977 6
G20  21941050.366 1 115300965.748 1      2574.216 1       -55.923 1  21941050.686 1         0.000 1      2005.884 1       -61.923 1
> 2019 07 03 12 01  6.0000000  0 16       0.000000000000
G07  25344511.804 1 133186262.384 1      2173.172 1       -55.923 1  25344512.472 1         0.000 1      1693.382 1       -61.923 1
G07  25344511.804 1 133186262.537 1      2173.172 1       -55.923 1  25344512.472 1         0.000 1      1693.382 1       -61.923 1
G10  23804929.679 9 125095695.188 9      3535.349 9        54.671 9  23804933.402 6         0.000 6      2754.820 6        37.977 6
G10  23804949.752 1 125095800.821 1      3535.355 1       -55.923 1  23804953.474 1         0.000 1      2754.825 1       -61.923 1
G21  21172332.530 9 111261337.718 9     -1245.723 9        55.709 9  21172331.816 6         0.000 6      -970.693 6        37.977 6
G21  21172332.530 1 111261337.871 1     -1245.723 1       -55.923 1  21172331.816 1         0.000 1      -970.693 1       -61.923 1
G29  24303323.759 9 127714771.903 9     -3097.864 9        54.474 9  24303325.337 6         0.000 6     -2413.923 6        37.977 6
G29  24303323.759 1 127714772.056 1     -3097.864 1       -55.923 1  24303325.337 1         0.000 1     -2413.923 1       -61.923 1
G27  22001836.279 9 115620403.037 9      2480.451 9        55.375 9  22001838.211 6         0.000 6      1932.820 6        37.977 6
G27  22001836.279 1 115620403.190 1      2480.451 1       -55.923 1  22001838.211 1         0.000 1      1932.820 1       -61.923 1
G16  20496652.524 9 107710615.687 9       544.648 9        55.977 9  20496651.697 6         0.000 6       424.401 6        37.977 6
G16  20496652.524 1 107710615.840 1       544.648 1       -55.923 1  20496651.697 1         0.000 1       424.401 1       -61.923 1
G26  20656396.971 9 108550076.445 9     -1489.254 9        55.872 9  20656399.788 6         0.000 6     -1160.458 6        37.977 6
G26  20656407.229 1 108550130.503 1     -1489.269 1       -55.923 1  20656410.046 1         0.000 1     -1160.470 1       -61.923 1
G20  21940547.964 9 115298324.680 9      2573.760 9        55.317 9  21940548.283 6         0.000 6      2005.528 6        37.977 6
G20  21940560.551 1 115298390.979 1      2573.773 1       -55.923 1  21940560.870 1         0.000 1      2005.539 1       -61.923 1
> 2019 07 03 12 01  7.0000000  0 16       0.000000000000
G07  25344098.307 1 133184089.447 1      2172.709 1       -55.923 1  25344098.975 1         0.000 1      1693.021 1       -61.923 1
G07  25344098.307 1 133184090.153 1      2172.709 1       -55.923 1  25344098.975 1         0.000 1      1693.021 1       -61.923 1
G10  23804256.938 9 125092159.918 9      3535.212 9        54.671 9  23804260.660 6         0.000 6      2754.713 6        37.977 6
G10  23804277.009 1 125092266.097 1      3535.219 1       -55.923 1  23804280.731 1         0.000 1      2754.719 1       -61.923 1
G21  21172569.617 9 111262583.618 9     -1246.079 9        55.709 9  21172568.903 6         0.000 6      -970.971 6        37.977 6
G21  21172569.617 1 111262584.324 1     -1246.079 1       -55.923 1  21172568.903 1         0.000 1      -970.971 1       -61.923 1
G29  24303913.271 9 127717869.799 9     -3097.948 9        54.473 9  24303914.850 6         0.000 6     -2413.988 6        37.977 6
G29  24303913.271 1 127717870.504 1     -3097.948 1       -55.923 1  24303914.850 1         0.000 1     -2413.988 1       -61.923 1
G27  22001364.288 9 115617922.706 9      2480.218 9        55.376 9  22001366.219 6         0.000 6      1932.638 6        37.977 6
G27  22001364.288 1 115617923.411 1      2480.218 1       -55.923 1  22001366.219 1         0.000 1      1932.638 1       -61.923 1
G16  20496548.939 9 107710071.345 9       544.034 9        55.977 9  20496548.113 6         0.000 6       423.923 6        37.977 6
G16  20496548.939 1 107710072.051 1       544.034 1       -55.923 1  20496548.113 1         0.000 1       423.923 1       -61.923 1
G26  20656680.421 9 108551565.983 9     -1489.827 9        55.872 9  20656683.239 6         0.000 6     -1160.905 6        37.977 6
G26  20656690.682 1 108551620.610 1     -1489.842 1       -55.923 1  20656693.499 1         0.000 1     -1160.916 1       -61.923 1
G20  21940058.235 9 115295751.146 9      2573.317 9        55.317 9  21940058.555 6         0.000 6      2005.183 6        37.977 6
G20  21940070.820 1 115295817.984 1      2573.330 1       -55.923 1  21940071.139 1         0.000 1      2005.193 1       -61.923 1
> 2019 07 03 12 01  8.0000000  0 16       0.000000000000
G07  25343684.898 1 133181916.974 1      2172.245 1       -55.923 1  25343685.566 1         0.000 1      1692.660 1       -61.923 1
G07  25343684.898 1 133181917.622 1      2172.245 1       -55.923 1  25343685.566 1         0.000 1      1692.660 1       -61.923 1
G10  23803584.223 9 125088624.786 9      3535.075 9        54.671 9  23803587.944 6         0.000 6      2754.607 6        37.977 6
G10  23803604.292 1 125088730.900 1      3535.082 1       -55.923 1  23803608.013 1         0.000 1      2754.612 1       -61.923 1
G21  21172806.772 9 111263829.875 9     -1246.436 9        55.708 9  21172806.058 6         0.000 6      -971.249 6        37.977 6
G21  21172806.772 1 111263830.523 1     -1246.436 1       -55.923 1  21172806.058 1         0.000 1      -971.249 1       -61.923 1
G29  24304502.799 9 127720967.779 9     -3098.033 9        54.473 9  24304504.378 6         0.000 6     -2414.054 6        37.977 6
G29  24304502.799 1 127720968.427 1     -3098.033 1       -55.923 1  24304504.378 1         0.000 1     -2414.054 1       -61.923 1
G27  22000892.340 9 115615442.607 9      2479.985 9        55.376 9  22000894.272 6         0.000 6      1932.456 6        37.977 6
G27  22000892.340 1 115615443.255 1      2479.985 1       -55.923 1  22000894.272 1         0.000 1      1932.456 1       -61.923 1
G16  20496445.472 9 107709527.618 9       543.420 9        55.977 9  20496444.645 6         0.000 6       423.444 6        37.977 6
G16  20496445.472 1 107709528.266 1       543.420 1       -55.923 1  20496444.645 1         0.000 1       423.444 1       -61.923 1
G26  20656963.980 9 108553056.095 9     -1490.400 9        55.872 9  20656966.798 6         0.000 6     -1161.351 6        37.977 6
G26  20656974.244 1 108553110.679 1     -1490.415 1       -55.923 1  20656977.061 1         0.000 1     -1161.363 1       -61.923 1
G20  21939568.592 9 115293178.055 9      2572.874 9        55.317 9  21939568.911 6         0.000 6      2004.838 6        37.977 6
G20  21939581.174 1 115293245.053 1      2572.887 1       -55.923 1  21939581.493 1         0.000 1      2004.848 1       -61.923 1
> 2019 07 03 12 01  9.0000000  0 16       0.000000000000
G07  25343271.578 1 133179744.963 1      2171.782 1       -55.923 1  25343272.246 1         0.000 1      1692.299 1       -61.923 1
G07  25343271.578 1 133179745.019 1      2171.782 1       -55.923 1  25343272.246 1         0.000 1      1692.299 1       -61.923 1
G10  23802911.533 9 125085089.790 9      3534.938 9        54.672 9  23802915.254 6         0.000 6      2754.500 6        37.977 6
G10  23802931.601 1 125085195.305 1      3534.945 1       -55.923 1  23802935.322 1         0.000 1      2754.505 1       -61.923 1
G21  21173043.995 9 111265076.489 9     -1246.792 9        55.708 9  21173043.281 6         0.000 6      -971.527 6        37.977 6
G21  21173043.995 1 111265076.544 1     -1246.792 1       -55.923 1  21173043.281 1         0.000 1      -971.527 1       -61.923 1
G29  24305092.343 9 127724065.844 9     -3098.117 9        54.473 9  24305093.923 6         0.000 6     -2414.120 6        37.977 6
G29  24305092.343 1 127724065.900 1     -3098.117 1       -55.923 1  24305093.923 1         0.000 1     -2414.120 1       -61.923 1
G27  22000420.437 9 115612962.741 9      2479.752 9        55.376 9  22000422.368 6         0.000 6      1932.275 6        37.977 6
G27  22000420.437 1 115612962.797 1      2479.752 1       -55.923 1  22000422.368 1         0.000 1      1932.275 1       -61.923 1
G16  20496342.121 9 107708984.505 9       542.806 9        55.977 9  20496341.294 6         0.000 6       422.966 6        37.977 6
G16  20496342.121 1 107708984.561 1       542.806 1       -55.923 1  20496341.294 1         0.000 1       422.966 1       -61.923 1
G26  20657247.648 9 108554546.779 9     -1490.972 9        55.872 9  20657250.466 6         0.000 6     -1161.797 6        37.977 6
G26  20657257.915 1 108554600.786 1     -1490.988 1       -55.923 1  20657260.733 1         0.000 1     -1161.809 1       -61.923 1
G20  21939079.032 9 115290605.407 9      2572.430 9        55.318 9  21939079.351 6         0.000 6      2004.492 6        37.977 6
G20  21939091.612 1 115290671.570 1      2572.444 1       -55.923 1  21939091.931 1         0.000 1      2004.503 1       -61.923 1
> 2019 07 03 12 01 10.0000000  0 16       0.000000000000
G07  25342858.345 1 133177573.416 1      2171.319 1       -55.923 1  25342859.013 1         0.000 1      1691.938 1       -61.923 1
G07  25342858.345 1 133177573.969 1      2171.319 1       -55.923 1  25342859.013 1         0.000 1      1691.938 1       -61.923 1
G10  23802238.870 9 125081554.931 9      3534.801 9        54.672 9  23802242.590 6         0.000 6      2754.393 6        37.977 6
G10  23802258.937 1 125081660.936 1      3534.808 1       -55.923 1  23802262.657 1         0.000 1      2754.398 1       -61.923 1
G21  21173281.285 9 111266323.459 9     -1247.149 9        55.708 9  21173280.572 6         0.000 6      -971.805 6        37.977 6
G21  21173281.285 1 111266324.011 1     -1247.149 1       -55.923 1  21173280.572 1         0.000 1      -971.805 1       -61.923 1
G29  24305681.903 9 127727163.993 9     -3098.202 9        54.473 9  24305683.484 6         0.000 6     -2414.186 6        37.977 6
G29  24305681.903 1 127727164.546 1     -3098.202 1       -55.923 1  24305683.484 1         0.000 1     -2414.186 1       -61.923 1
G27  21999948.578 9 115610483.108 9      2479.519 9        55.376 9  21999950.509 6         0.000 6      1932.093 6        37.977 6
G27  21999948.578 1 115610483.661 1      2479.519 1       -55.923 1  21999950.509 1         0.000 1      1932.093 1       -61.923 1
G16  20496238.886 9 107708442.005 9       542.193 9        55.977 9  20496238.060 6         0.000 6       422.488 6        37.977 6
G16  20496238.886 1 107708442.558 1       542.193 1       -55.923 1  20496238.060 1         0.000 1       422.488 1       -61.923 1
G26  20657531.426 9 108556038.036 9     -1491.545 9        55.872 9  20657534.243 6         0.000 6     -1162.243 6        37.977 6
G26  20657541.695 1 108556092.555 1     -1491.560 1       -55.923 1  20657544.513 1         0.000 1     -1162.255 1       -61.923 1
G20  21938589.557 9 115288033.203 9      2571.987 9        55.318 9  21938589.876 6         0.000 6      2004.147 6        37.977 6
G20  21938602.134 1 115288099.849 1      2572.000 1       -55.923 1  21938602.453 1         0.000 1      2004.157 1       -61.923 1
> 2019 07 03 12 01 11.0000000  0 16       0.000000000000
G07  25342445.201 1 133175402.333 1      2170.855 1       -55.923 1  25342445.869 1         0.000 1      1691.576 1       -61.923 1
G07  25342445.201 1 133175403.156 1      2170.855 1       -55.923 1  25342445.869 1         0.000 1      1691.576 1       -61.923 1
G10  23801566.233 9 125078020.209 9      3534.664 9        54.672 9  23801569.952 6         0.000 6      2754.286 6        37.977 6
G10  23801586.298 1 125078126.478 1      3534.671 1       -55.923 1  23801590.017 1         0.000 1      2754.291 1       -61.923 1
G21  21173518.644 9 111267570.785 9     -1247.505 9        55.708 9  21173517.930 6         0.000 6      -972.082 6        37.977 6
G21  21173518.644 1 111267571.608 1     -1247.505 1       -55.923 1  21173517.930 1         0.000 1      -972.082 1       -61.923 1
G29  24306271.479 9 127730262.227 9     -3098.286 9        54.473 9  24306273.060 6         0.000 6     -2414.251 6        37.977 6
G29  24306271.479 1 127730263.050 1     -3098.286 1       -55.923 1  24306273.060 1         0.000 1     -2414.251 1       -61.923 1
G27  21999476.763 9 115608003.709 9      2479.286 9        55.376 9  21999478.694 6         0.000 6      1931.912 6        37.977 6
G27  21999476.763 1 115608004.532 1      2479.286 1       -55.923 1  21999478.694 1         0.000 1      1931.912 1       -61.923 1
G16  20496135.769 9 107707900.120 9       541.579 9        55.977 9  20496134.942 6         0.000 6       422.009 6        37.977 6
G16  20496135.769 1 107707900.493 1       541.579 1       -55.923 1  20496134.942 1         0.000 1       422.009 1       -61.923 1
G26  20657815.312 9 108557529.866 9     -1492.118 9        55.872 9  20657818.129 6         0.000 6     -1162.690 6        37.977 6
G26  20657825.584 1 108557584.221 1     -1492.133 1       -55.923 1  20657828.402 1         0.000 1     -1162.702 1       -61.923 1
G20  21938100.167 9 115285461.442 9      2571.544 9        55.318 9  21938100.485 6         0.000 6      2003.801 6        37.977 6
G20  21938112.741 1 115285527.896 1      2571.557 1       -55.923 1  21938113.059 1         0.000 1      2003.812 1       -61.923 1
> 2019 07 03 12 01 12.0000000  0 16       0.000000000000
G07  25342032.145 1 133173231.713 1      2170.392 1       -55.923 1  25342032.813 1         0.000 1      1691.215 1       -61.923 1
G07  25342032.145 1 133173232.426 1      2170.392 1       -55.923 1  25342032.813 1         0.000 1      1691.215 1       -61.923 1
G10  23800893.622 9 125074485.625 9      3534.526 9        54.672 9  23800897.340 6         0.000 6      2754.179 6        37.977 6
G10  23800913.686 1 125074591.776 1      3534.533 1       -55.923 1  23800917.404 1         0.000 1      2754.184 1       -61.923 1
G21  21173756.070 9 111268818.468 9     -1247.862 9        55.708 9  21173755.356 6         0.000 6      -972.360 6        37.977 6
G21  21173756.070 1 111268819.180 1     -1247.862 1       -55.923 1  21173755.356 1         0.000 1      -972.360 1       -61.923 1
G29  24306861.071 9 127733360.545 9     -3098.370 9        54.472 9  24306862.653 6         0.000 6     -2414.317 6        37.977 6
G29  24306861.071 1 127733361.257 1     -3098.370 1       -55.923 1  24306862.653 1         0.000 1     -2414.317 1       -61.923 1
G27  21999004.993 9 115605524.542 9      2479.053 9        55.376 9  21999006.924 6         0.000 6      1931.730 6        37.977 6
G27  21999004.993 1 115605525.255 1      2479.053 1       -55.923 1  21999006.924 1         0.000 1      1931.730 1       -61.923 1
G16  20496032.768 9 107707358.848 9       540.965 9        55.977 9  20496031.942 6         0.000 6       421.531 6        37.977 6
G16  20496032.768 1 107707359.561 1       540.965 1       -55.923 1  20496031.942 1         0.000 1       421.531 1       -61.923 1
G26  20658099.307 9 108559022.269 9     -1492.691 9        55.872 9  20658102.125 6         0.000 6     -1163.136 6        37.977 6
G26  20658109.582 1 108559076.978 1     -1492.706 1       -55.923 1  20658112.400 1         0.000 1     -1163.148 1       -61.923 1
G20  21937610.860 9 115282890.125 9      2571.100 9        55.318 9  21937611.178 6         0.000 6      2003.456 6        37.977 6
G20  21937623.432 1 115282956.904 1      2571.113 1       -55.923 1  21937623.750 1         0.000 1      2003.466 1       -61.923 1
> 2019 07 03 12 01 13.0000000  0 16       0.000000000000
G07  25341619.178 1 133171061.557 1      2169.928 1       -55.923 1  25341619.845 1         0.000 1      1690.854 1       -61.923 1
G07  25341619.178 1 133171061.653 1      2169.928 1       -55.923 1  25341619.845 1         0.000 1      1690.854 1       -61.923 1
G10  23800221.037 9 125070951.178 9      3534.389 9        54.673 9  23800224.754 6         0.000 6      2754.072 6        37.977 6
G10  23800241.100 1 125071056.706 1      3534.396 1       -55.923 1  23800244.818 1         0.000 1      2754.077 1       -61.923 1
G21  21173993.564 9 111270066.507 9     -1248.218 9        55.708 9  21173992.851 6         0.000 6      -972.638 6        37.977 6
G21  21173993.564 1 111270066.603 1     -1248.218 1       -55.923 1  21173992.851 1         0.000 1      -972.638 1       -61.923 1
G29  24307450.679 9 127736458.947 9     -3098.455 9        54.472 9  24307452.262 6         0.000 6     -2414.383 6        37.977 6
G29  24307450.679 1 127736459.043 1     -3098.455 1       -55.923 1  24307452.262 1         0.000 1     -2414.383 1       -61.923 1
G27  21998533.267 9 115603045.609 9      2478.819 9        55.377 9  21998535.198 6         0.000 6      1931.548 6        37.977 6
G27  21998533.267 1 115603045.705 1      2478.819 1       -55.923 1  21998535.198 1         0.000 1      1931.548 1       -61.923 1
G16  20495929.885 9 107706818.191 9       540.350 9        55.977 9  20495929.058 6         0.000 6       421.052 6        37.977 6
G16  20495929.885 1 107706818.287 1       540.350 1       -55.923 1  20495929.058 1         0.000 1       421.052 1       -61.923 1
G26  20658383.411 9 108560515.244 9     -1493.263 9        55.871 9  20658386.229 6         0.000 6     -1163.582 6        37.977 6
G26  20658393.689 1 108560569.352 1     -1493.279 1       -55.923 1  20658396.507 1         0.000 1     -1163.594 1       -61.923 1
G20  21937121.638 9 115280319.251 9      2570.656 9        55.318 9  21937121.956 6         0.000 6      2003.110 6        37.977 6
G20  21937134.208 1 115280385.366 1      2570.670 1       -55.923 1  21937134.526 1         0.000 1      2003.120 1       -61.923 1
> 2019 07 03 12 01 14.0000000  0 16       0.000000000000
G07  25341206.298 1 133168891.864 1      2169.464 1       -55.923 1  25341206.965 1         0.000 1      1690.492 1       -61.923 1
G07  25341206.298 1 133168892.730 1      2169.464 1       -55.923 1  25341206.965 1         0.000 1      1690.492 1       -61.923 1
G10  23799548.478 9 125067416.868 9      3534.252 9        54.673 9  23799552.195 6         0.000 6      2753.965 6        37.977 6
G10  23799568.540 1 125067523.158 1      3534.258 1       -55.923 1  23799572.257 1         0.000 1      2753.970 1       -61.923 1
G21  21174231.126 9 111271314.903 9     -1248.574 9        55.708 9  21174230.413 6         0.000 6      -972.915 6        37.977 6
G21  21174231.126 1 111271315.768 1     -1248.574 1       -55.923 1  21174230.413 1         0.000 1      -972.915 1       -61.923 1
G29  24308040.304 9 127739557.433 9     -3098.539 9        54.472 9  24308041.887 6         0.000 6     -2414.448 6        37.977 6
G29  24308040.304 1 127739558.298 1     -3098.539 1       -55.923 1  24308041.887 1         0.000 1     -2414.448 1       -61.923 1
G27  21998061.586 9 115600566.909 9      2478.586 9        55.377 9  21998063.516 6         0.000 6      1931.367 6        37.977 6
G27  21998061.586 1 115600567.890 1      2478.586 1       -55.923 1  21998063.516 1         0.000 1      1931.367 1       -61.923 1
G16  20495827.118 9 107706278.147 9       539.736 9        55.977 9  20495826.291 6         0.000 6       420.574 6        37.977 6
G16  20495827.118 1 107706279.129 1       539.736 1       -55.923 1  20495826.291 1         0.000 1       420.574 1       -61.923 1
G26  20658667.624 9 108562008.791 9     -1493.836 9        55.871 9  20658670.442 6         0.000 6     -1164.028 6        37.977 6
G26  20658677.905 1 108562063.800 1     -1493.851 1       -55.923 1  20658680.723 1         0.000 1     -1164.040 1       -61.923 1
G20  21936632.501 9 115277748.821 9      2570.213 9        55.318 9  21936632.818 6         0.000 6      2002.764 6        37.977 6
G20  21936645.068 1 115277815.843 1      2570.226 1       -55.923 1  21936645.385 1         0.000 1      2002.775 1       -61.923 1
> 2019 07 03 12 01 15.0000000  0 16       0.000000000000
G07  25340793.507 1 133166722.636 1      2169.000 1       -55.923 1  25340794.174 1         0.000 1      1690.131 1       -61.923 1
G07  25340793.507 1 133166723.485 1      2169.000 1       -55.923 1  25340794.174 1         0.000 1      1690.131 1       -61.923 1
G10  23798875.945 9 125063882.696 9      3534.114 9        54.673 9  23798879.662 6         0.000 6      2753.858 6        37.977 6
G10  23798896.006 1 125063988.963 1      3534.121 1       -55.923 1  23798899.722 1         0.000 1      2753.863 1       -61.923 1
G21  21174468.756 9 111272563.654 9     -1248.931 9        55.708 9  21174468.042 6         0.000 6      -973.193 6        37.977 6
G21  21174468.756 1 111272564.504 1     -1248.931 1       -55.923 1  21174468.042 1         0.000 1      -973.193 1       -61.923 1
G29  24308629.944 9 127742656.004 9     -3098.623 9        54.472 9  24308631.528 6         0.000 6     -2414.514 6        37.977 6
G29  24308629.944 1 127742656.853 1     -3098.623 1       -55.923 1  24308631.528 1         0.000 1     -2414.514 1       -61.923 1
G27  21997589.949 9 115598088.442 9      2478.353 9        55.377 9  21997591.879 6         0.000 6      1931.185 6        37.977 6
G27  21997589.949 1 115598089.291 1      2478.353 1       -55.923 1  21997591.879 1         0.000 1      1931.185 1       -61.923 1
G16  20495724.468 9 107705738.718 9       539.122 9        55.977 9  20495723.641 6         0.000 6       420.095 6        37.977 6
G16  20495724.468 1 107705739.567 1       539.122 1       -55.923 1  20495723.641 1         0.000 1       420.095 1       -61.923 1
G26  20658951.946 9 108563502.912 9     -1494.408 9        55.871 9  20658954.764 6         0.000 6     -1164.475 6        37.977 6
G26  20658962.230 1 108563557.804 1     -1494.424 1       -55.923 1  20658965.048 1         0.000 1     -1164.486 1       -61.923 1
G20  21936143.448 9 115275178.835 9      2569.769 9        55.319 9  21936143.765 6         0.000 6      2002.418 6        37.977 6
G20  21936156.013 1 115275245.711 1      2569.782 1       -55.923 1  21936156.330 1         0.000 1      2002.429 1       -61.923 1
> 2019 07 03 12 01 16.0000000  0 16       0.000000000000
G07  25340380.804 1 133164553.871 1      2168.536 1       -55.923 1  25340381.471 1         0.000 1      1689.770 1       -61.923 1
G07  25340380.804 1 133164554.098 1      2168.536 1       -55.923 1  25340381.471 1         0.000 1      1689.770 1       -61.923 1
G10  23798203.439 9 125060348.661 9      3533.976 9        54.673 9  23798207.155 6         0.000 6      2753.750 6        37.977 6
G10  23798223.498 1 125060454.300 1      3533.983 1       -55.923 1  23798227.214 1         0.000 1      2753.756 1       -61.923 1
G21  21174706.453 9 111273812.762 9     -1249.287 9        55.708 9  21174705.740 6         0.000 6      -973.470 6        37.977 6
G21  21174706.453 1 111273812.990 1     -1249.287 1       -55.923 1  21174705.740 1         0.000 1      -973.470 1       -61.923 1
G29  24309219.601 9 127745754.659 9     -3098.707 9        54.472 9  24309221.185 6         0.000 6     -2414.580 6        37.977 6
G29  24309219.601 1 127745754.886 1     -3098.707 1       -55.923 1  24309221.185 1         0.000 1     -2414.580 1       -61.923 1
G27  21997118.356 9 115595610.208 9      2478.120 9        55.377 9  21997120.286 6         0.000 6      1931.003 6        37.977 6
G27  21997118.356 1 115595610.435 1      2478.120 1       -55.923 1  21997120.286 1         0.000 1      1931.003 1       -61.923 1
G16  20495621.935 9 107705199.903 9       538.508 9        55.977 9  20495621.108 6         0.000 6       419.617 6        37.977 6
G16  20495621.935 1 107705200.130 1       538.508 1       -55.923 1  20495621.108 1         0.000 1       419.617 1       -61.923 1
G26  20659236.377 9 108564997.605 9     -1494.981 9        55.871 9  20659239.195 6         0.000 6     -1164.921 6        37.977 6
G26  20659246.664 1 108565051.890 1     -1494.996 1       -55.923 1  20659249.482 1         0.000 1     -1164.933 1       -61.923 1
G20  21935654.480 9 115272609.293 9      2569.325 9        55.319 9  21935654.796 6         0.000 6      2002.072 6        37.977 6
G20  21935667.041 1 115272675.534 1      2569.338 1       -55.923 1  21935667.358 1         0.000 1      2002.083 1       -61.923 1
> 2019 07 03 12 01 17.0000000  0 16       0.000000000000
G07  25339968.189 1 133162385.570 1      2168.072 1       -55.923 1  25339968.856 1         0.000 1      1689.408 1       -61.923 1
G07  25339968.189 1 133162386.104 1      2168.072 1       -55.923 1  25339968.856 1         0.000 1      1689.408 1       -61.923 1
G10  23797530.959 9 125056814.765 9      3533.838 9        54.674 9  23797534.674 6         0.000 6      2753.643 6        37.977 6
G10  23797551.016 1 125056920.703 1      3533.845 1       -55.923 1  23797554.732 1         0.000 1      2753.648 1       -61.923 1
G21  21174944.219 9 111275062.227 9     -1249.643 9        55.708 9  21174943.505 6         0.000 6      -973.748 6        37.977 6
G21  21174944.219 1 111275062.760 1     -1249.643 1       -55.923 1  21174943.505 1         0.000 1      -973.748 1       -61.923 1
G29  24309809.273 9 127748853.398 9     -3098.791 9        54.471 9  24309810.858 6         0.000 6     -2414.645 6        37.977 6
G29  24309809.273 1 127748853.932 1     -3098.791 1       -55.923 1  24309810.858 1         0.000 1     -2414.645 1       -61.923 1
G27  21996646.808 9 115593132.208 9      2477.886 9        55.377 9  21996648.738 6         0.000 6      1930.821 6        37.977 6
G27  21996646.808 1 115593132.741 1      2477.886 1       -55.923 1  21996648.738 1         0.000 1      1930.821 1       -61.923 1
G16  20495519.519 9 107704661.702 9       537.894 9        55.977 9  20495518.692 6         0.000 6       419.138 6        37.977 6
G16  20495519.519 1 107704662.235 1       537.894 1       -55.923 1  20495518.692 1         0.000 1       419.138 1       -61.923 1
G26  20659520.917 9 108566492.870 9     -1495.554 9        55.871 9  20659523.735 6         0.000 6     -1165.367 6        37.977 6
G26  20659531.207 1 108566547.477 1     -1495.569 1       -55.923 1  20659534.025 1         0.000 1     -1165.379 1       -61.923 1
G20  21935165.596 9 115270040.194 9      2568.881 9        55.319 9  21935165.912 6         0.000 6      2001.726 6        37.977 6
G20  21935178.155 1 115270106.728 1      2568.894 1       -55.923 1  21935178.471 1         0.000 1      2001.737 1       -61.923 1
> 2019 07 03 12 01 18.0000000  0 16       0.000000000000
G07  25339555.663 1 133160217.733 1      2167.608 1       -55.923 1  25339556.329 1         0.000 1      1689.046 1       -61.923 1
G07  25339555.663 1 133160217.743 1      2167.608 1       -55.923 1  25339556.329 1         0.000 1      1689.046 1       -61.923 1
G10  23796858.505 9 125053281.006 9      3533.700 9        54.674 9  23796862.219 6         0.000 6      2753.536 6        37.977 6
G10  23796878.561 1 125053386.413 1      3533.707 1       -55.923 1  23796882.276 1         0.000 1      2753.541 1       -61.923 1
G21  21175182.052 9 111276312.047 9     -1249.999 9        55.707 9  21175181.338 6         0.000 6      -974.025 6        37.977 6
G21  21175182.052 1 111276312.057 1     -1249.999 1       -55.923 1  21175181.338 1         0.000 1      -974.025 1       -61.923 1
G29  24310398.961 9 127751952.221 9     -3098.876 9        54.471 9  24310400.547 6         0.000 6     -2414.711 6        37.977 6
G29  24310398.961 1 127751952.231 1     -3098.876 1       -55.923 1  24310400.547 1         0.000 1     -2414.711 1       -61.923 1
G27  21996175.304 9 115590654.441 9      2477.653 9        55.378 9  21996177.234 6         0.000 6      1930.639 6        37.977 6
G27  21996175.304 1 115590654.451 1      2477.653 1       -55.923 1  21996177.234 1         0.000 1      1930.639 1       -61.923 1
G16  20495417.219 9 107704124.115 9       537.280 9        55.977 9  20495416.392 6         0.000 6       418.659 6        37.977 6
G16  20495417.219 1 107704124.125 1       537.280 1       -55.923 1  20495416.392 1         0.000 1       418.659 1       -61.923 1
G26  20659805.566 9 108567988.708 9     -1496.126 9        55.871 9  20659808.384 6         0.000 6     -1165.813 6        37.977 6
G26  20659815.858 1 108568042.807 1     -1496.141 1       -55.923 1  20659818.677 1         0.000 1     -1165.825 1       -61.923 1
G20  21934676.796 9 115267471.540 9      2568.437 9        55.319 9  21934677.112 6         0.000 6      2001.380 6        37.977 6
G20  21934689.353 1 115267537.537 1      2568.450 1       -55.923 1  21934689.669 1         0.000 1      2001.391 1       -61.923 1
> 2019 07 03 12 01 19.0000000  0 16       0.000000000000
G07  25339143.225 1 133158050.360 1      2167.144 1       -55.923 1  25339143.891 1         0.000 1      1688.685 1       -61.923 1
G07  25339143.225 1 133158050.545 1      2167.144 1       -55.923 1  25339143.891 1         0.000 1      1688.685 1       -61.923 1
G10  23796186.077 9 125049747.385 9      3533.562 9        54.674 9  23796189.791 6         0.000 6      2753.428 6        37.977 6
G10  23796206.132 1 125049852.960 1      3533.569 1       -55.923 1  23796209.846 1         0.000 1      2753.433 1       -61.923 1
G21  21175419.952 9 111277562.223 9     -1250.355 9        55.707 9  21175419.239 6         0.000 6      -974.303 6        37.977 6
G21  21175419.952 1 111277562.408 1     -1250.355 1       -55.923 1  21175419.239 1         0.000 1      -974.303 1       -61.923 1
G29  24310988.666 9 127755051.129 9     -3098.960 9        54.471 9  24310990.252 6         0.000 6     -2414.776 6        37.977 6
G29  24310988.666 1 127755051.314 1     -3098.960 1       -55.923 1  24310990.252 1         0.000 1     -2414.776 1       -61.923 1
G27  21995703.844 9 115588176.907 9      2477.420 9        55.378 9  21995705.774 6         0.000 6      1930.458 6        37.977 6
G27  21995703.844 1 115588177.092 1      2477.420 1       -55.923 1  21995705.774 1         0.000 1      1930.458 1       -61.923 1
G16  20495315.037 9 107703587.143 9       536.665 9        55.977 9  20495314.210 6         0.000 6       418.181 6        37.977 6
G16  20495315.037 1 107703587.327 1       536.665 1       -55.923 1  20495314.210 1         0.000 1       418.181 1       -61.923 1
G26  20660090.323 9 108569485.119 9     -1496.698 9        55.871 9  20660093.142 6         0.000 6     -1166.259 6        37.977 6
G26  20660100.619 1 108569539.407 1     -1496.714 1       -55.923 1  20660103.438 1         0.000 1     -1166.271 1       -61.923 1
G20  21934188.081 9 115264903.330 9      2567.992 9        55.319 9  21934188.397 6         0.000 6      2001.034 6        37.977 6
G20  21934200.635 1 115264969.488 1      2568.006 1       -55.923 1  21934200.951 1         0.000 1      2001.045 1       -61.923 1
> 2019 07 03 12 01 20.0000000  0 16       0.000000000000
G07  25338730.875 1 133155883.452 1      2166.680 1       -55.923 1  25338731.541 1         0.000 1      1688.323 1       -61.923 1
G07  25338730.875 1 133155884.340 1      2166.680 1       -55.923 1  25338731.541 1         0.000 1      1688.323 1       -61.923 1
G10  23795513.675 9 125046213.902 9      3533.424 9        54.674 9  23795517.389 6         0.000 6      2753.320 6        37.977 6
G10  23795533.729 1 125046320.174 1      3533.431 1       -55.923 1  23795537.443 1         0.000 1      2753.326 1       -61.923 1
G21  21175657.921 9 111278812.755 9     -1250.711 9        55.707 9  21175657.208 6         0.000 6      -974.580 6        37.977 6
G21  21175657.921 1 111278813.644 1     -1250.711 1       -55.923 1  21175657.208 1         0.000 1      -974.580 1       -61.923 1
G29  24311578.386 9 127758150.121 9     -3099.044 9        54.471 9  24311579.973 6         0.000 6     -2414.842 6        37.977 6
G29  24311578.386 1 127758151.009 1     -3099.044 1       -55.923 1  24311579.973 1         0.000 1     -2414.842 1       -61.923 1
G27  21995232.429 9 115585699.607 9      2477.186 9        55.378 9  21995234.359 6         0.000 6      1930.276 6        37.977 6
G27  21995232.429 1 115585700.495 1      2477.186 1       -55.923 1  21995234.359 1         0.000 1      1930.276 1       -61.923 1
G16  20495212.971 9 107703050.784 9       536.051 9        55.977 9  20495212.144 6         0.000 6       417.702 6        37.977 6
G16  20495212.971 1 107703051.673 1       536.051 1       -55.923 1  20495212.144 1         0.000 1       417.702 1       -61.923 1
G26  20660375.190 9 108570982.101 9     -1497.271 9        55.871 9  20660378.009 6         0.000 6     -1166.705 6        37.977 6
G26  20660385.489 1 108571037.204 1     -1497.286 1       -55.923 1  20660388.307 1         0.000 1     -1166.717 1       -61.923 1
G20  21933699.451 9 115262335.564 9      2567.548 9        55.320 9  21933699.766 6         0.000 6      2000.688 6        37.977 6
G20  21933712.002 1 115262402.508 1      2567.561 1       -55.923 1  21933712.318 1         0.000 1      2000.698 1       -61.923 1
> 2019 07 03 12 01 21.0000000  0 16       0.000000000000
G07  25338318.614 1 133153717.007 1      2166.216 1       -55.923 1  25338319.280 1         0.000 1      1687.961 1       -61.923 1
G07  25338318.614 1 133153717.590 1      2166.216 1       -55.923 1  25338319.280 1         0.000 1      1687.961 1       -61.923 1
G10  23794841.300 9 125042680.557 9      3533.286 9        54.675 9  23794845.013 6         0.000 6      2753.213 6        37.977 6
G10  23794861.353 1 125042786.518 1      3533.293 1       -55.923 1  23794865.065 1         0.000 1      2753.218 1       -61.923 1
G21  21175895.957 9 111280063.643 9     -1251.067 9        55.707 9  21175895.244 6         0.000 6      -974.857 6        37.977 6
G21  21175895.957 1 111280064.227 1     -1251.067 1       -55.923 1  21175895.244 1         0.000 1      -974.857 1       -61.923 1
G29  24312168.123 9 127761249.196 9     -3099.128 9        54.470 9  24312169.710 6         0.000 6     -2414.908 6        37.977 6
G29  24312168.123 1 127761249.780 1     -3099.128 1       -55.923 1  24312169.710 1         0.000 1     -2414.908 1       -61.923 1
G27  21994761.058 9 115583222.540 9      2476.953 9        55.378 9  21994762.988 6         0.000 6      1930.094 6        37.977 6
G27  21994761.058 1 115583223.123 1      2476.953 1       -55.923 1  21994762.988 1         0.000 1      1930.094 1       -61.923 1
G16  20495111.022 9 107702515.040 9       535.437 9        55.977 9  20495110.196 6         0.000 6       417.223 6        37.977 6
G16  20495111.022 1 107702515.624 1       535.437 1       -55.923 1  20495110.196 1         0.000 1       417.223 1       -61.923 1
G26  20660660.166 9 108572479.657 9     -1497.843 9        55.870 9  20660662.985 6         0.000 6     -1167.151 6        37.977 6
G26  20660670.467 1 108572534.374 1     -1497.858 1       -55.923 1  20660673.286 1         0.000 1     -1167.163 1       -61.923 1
G20  21933210.905 9 115259768.243 9      2567.104 9        55.320 9  21933211.220 6         0.000 6      2000.342 6        37.977 6
G20  21933223.454 1 115259834.773 1      2567.117 1       -55.923 1  21933223.769 1         0.000 1      2000.352 1       -61.923 1
> 2019 07 03 12 01 22.0000000  0 16       0.000000000000
G07  25337906.441 1 133151551.027 1      2165.751 1       -55.923 1  25337907.106 1         0.000 1      1687.599 1       -61.923 1
G07  25337906.441 1 133151551.693 1      2165.751 1       -55.923 1  25337907.106 1         0.000 1      1687.599 1       -61.923 1
G10  23794168.952 9 125039147.351 9      3533.148 9        54.675 9  23794172.663 6         0.000 6      2753.105 6        37.977 6
G10  23794189.003 1 125039253.387 1      3533.155 1       -55.923 1  23794192.715 1         0.000 1      2753.110 1       -61.923 1
G21  21176134.061 9 111281314.888 9     -1251.423 9        55.707 9  21176133.348 6         0.000 6      -975.135 6        37.977 6
G21  21176134.061 1 111281315.554 1     -1251.423 1       -55.923 1  21176133.348 1         0.000 1      -975.135 1       -61.923 1
G29  24312757.875 9 127764348.356 9     -3099.212 9        54.470 9  24312759.463 6         0.000 6     -2414.973 6        37.977 6
G29  24312757.875 1 127764349.022 1     -3099.212 1       -55.923 1  24312759.463 1         0.000 1     -2414.973 1       -61.923 1
G27  21994289.732 9 115580745.706 9      2476.719 9        55.378 9  21994291.662 6         0.000 6      1929.912 6        37.977 6
G27  21994289.732 1 115580746.373 1      2476.719 1       -55.923 1  21994291.662 1         0.000 1      1929.912 1       -61.923 1
G16  20495009.191 9 107701979.911 9       534.822 9        55.978 9  20495008.364 6         0.000 6       416.745 6        37.977 6
G16  20495009.191 1 107701980.577 1       534.822 1       -55.923 1  20495008.364 1         0.000 1       416.745 1       -61.923 1
G26  20660945.250 9 108573977.784 9     -1498.416 9        55.870 9  20660948.069 6         0.000 6     -1167.597 6        37.977 6
G26  20660955.555 1 108574032.600 1     -1498.431 1       -55.923 1  20660958.373 1         0.000 1     -1167.609 1       -61.923 1
G20  21932722.443 9 115257201.365 9      2566.659 9        55.320 9  21932722.758 6         0.000 6      1999.995 6        37.977 6
G20  21932734.990 1 115257267.998 1      2566.673 1       -55.923 1  21932735.305 1         0.000 1      2000.006 1       -61.923 1
> 2019 07 03 12 01 23.0000000  0 16       0.000000000000
G07  25337494.357 1 133149385.511 1      2165.287 1       -55.923 1  25337495.022 1         0.000 1      1687.237 1       -61.923 1
G07  25337494.357 1 133149386.250 1      2165.287 1       -55.923 1  25337495.022 1         0.000 1      1687.237 1       -61.923 1
G10  23793496.629 9 125035614.283 9      3533.009 9        54.675 9  23793500.340 6         0.000 6      2752.997 6        37.977 6
G10  23793516.679 1 125035720.384 1      3533.016 1       -55.923 1  23793520.390 1         0.000 1      2753.002 1       -61.923 1
G21  21176372.233 9 111282566.487 9     -1251.778 9        55.707 9  21176371.520 6         0.000 6      -975.412 6        37.977 6
G21  21176372.233 1 111282567.226 1     -1251.778 1       -55.923 1  21176371.520 1         0.000 1      -975.412 1       -61.923 1
G29  24313347.644 9 127767447.600 9     -3099.296 9        54.470 9  24313349.233 6         0.000 6     -2415.039 6        37.977 6
G29  24313347.644 1 127767448.338 1     -3099.296 1       -55.923 1  24313349.233 1         0.000 1     -2415.039 1       -61.923 1
G27  21993818.450 9 115578269.107 9      2476.486 9        55.379 9  21993820.380 6         0.000 6      1929.730 6        37.977 6
G27  21993818.450 1 115578269.845 1      2476.486 1       -55.923 1  21993820.380 1         0.000 1      1929.730 1       -61.923 1
G16  20494907.476 9 107701445.396 9       534.208 9        55.978 9  20494906.649 6         0.000 6       416.266 6        37.977 6
G16  20494907.476 1 107701446.134 1       534.208 1       -55.923 1  20494906.649 1         0.000 1       416.266 1       -61.923 1
G26  20661230.444 9 108575476.484 9     -1498.988 9        55.870 9  20661233.263 6         0.000 6     -1168.043 6        37.977 6
G26  20661240.751 1 108575531.387 1     -1499.003 1       -55.923 1  20661243.570 1         0.000 1     -1168.055 1       -61.923 1
G20  21932234.067 9 115254634.933 9      2566.215 9        55.320 9  21932234.381 6         0.000 6      1999.649 6        37.977 6
G20  21932246.611 1 115254701.592 1      2566.228 1       -55.923 1  21932246.926 1         0.000 1      1999.659 1       -61.923 1
> 2019 07 03 12 01 24.0000000  0 16       0.000000000000
G07  25337082.360 1 133147220.460 1      2164.822 1       -55.923 1  25337083.025 1         0.000 1      1686.876 1       -61.923 1
G07  25337082.360 1 133147221.198 1      2164.822 1       -55.923 1  25337083.025 1         0.000 1      1686.876 1       -61.923 1
G10  23792824.333 9 125032081.354 9      3532.871 9        54.675 9  23792828.044 6         0.000 6      2752.889 6        37.977 6
G10  23792844.381 1 125032187.448 1      3532.878 1       -55.923 1  23792848.092 1         0.000 1      2752.894 1       -61.923 1
G21  21176610.472 9 111283818.443 9     -1252.134 9        55.707 9  21176609.759 6         0.000 6      -975.689 6        37.977 6
G21  21176610.472 1 111283819.181 1     -1252.134 1       -55.923 1  21176609.759 1         0.000 1      -975.689 1       -61.923 1
G29  24313937.428 9 127770546.928 9     -3099.380 9        54.470 9  24313939.018 6         0.000 6     -2415.104 6        37.977 6
G29  24313937.428 1 127770547.666 1     -3099.380 1       -55.923 1  24313939.018 1         0.000 1     -2415.104 1       -61.923 1
G27  21993347.213 9 115575792.740 9      2476.252 9        55.379 9  21993349.142 6         0.000 6      1929.548 6        37.977 6
G27  21993347.213 1 115575793.479 1      2476.252 1       -55.923 1  21993349.142 1         0.000 1      1929.548 1       -61.923 1
G16  20494805.878 9 107700911.495 9       533.593 9        55.978 9  20494805.051 6         0.000 6       415.787 6        37.977 6
G16  20494805.878 1 107700912.327 1       533.593 1       -55.923 1  20494805.051 1         0.000 1       415.787 1       -61.923 1
G26  20661515.746 9 108576975.756 9     -1499.560 9        55.870 9  20661518.565 6         0.000 6     -1168.489 6        37.977 6
G26  20661526.056 1 108577030.769 1     -1499.575 1       -55.923 1  20661528.875 1         0.000 1     -1168.501 1       -61.923 1
G20  21931745.775 9 115252068.945 9      2565.770 9        55.320 9  21931746.089 6         0.000 6      1999.302 6        37.977 6
G20  21931758.316 1 115252135.684 1      2565.783 1       -55.923 1  21931758.631 1         0.000 1      1999.313 1       -61.923 1
> 2019 07 03 12 01 25.0000000  0 16       0.000000000000
G07  25336670.452 1 133145055.874 1      2164.358 1       -55.923 1  25336671.117 1         0.000 1      1686.513 1       -61.923 1
G07  25336670.452 1 133145056.487 1      2164.358 1       -55.923 1  25336671.117 1         0.000 1      1686.513 1       -61.923 1
G10  23792152.063 9 125028548.563 9      3532.732 9        54.676 9  23792155.773 6         0.000 6      2752.781 6        37.977 6
G10  23792172.110 1 125028654.526 1      3532.739 1       -55.923 1  23792175.820 1         0.000 1      2752.786 1       -61.923 1
G21  21176848.779 9 111285070.754 9     -1252.490 9        55.707 9  21176848.066 6         0.000 6      -975.966 6        37.977 6
G21  21176848.779 1 111285071.368 1     -1252.490 1       -55.923 1  21176848.066 1         0.000 1      -975.966 1       -61.923 1
G29  24314527.228 9 127773646.340 9     -3099.464 9        54.470 9  24314528.819 6         0.000 6     -2415.170 6        37.977 6
G29  24314527.228 1 127773646.954 1     -3099.464 1       -55.923 1  24314528.819 1         0.000 1     -2415.170 1       -61.923 1
G27  21992876.020 9 115573316.608 9      2476.019 9        55.379 9  21992877.949 6         0.000 6      1929.366 6        37.977 6
G27  21992876.020 1 115573317.221 1      2476.019 1       -55.923 1  21992877.949 1         0.000 1      1929.366 1       -61.923 1
G16  20494704.397 9 107700378.209 9       532.979 9        55.978 9  20494703.570 6         0.000 6       415.308 6        37.977 6
G16  20494704.397 1 107700378.823 1       532.979 1       -55.923 1  20494703.570 1         0.000 1       415.308 1       -61.923 1
G26  20661801.157 9 108578475.601 9     -1500.132 9        55.870 9  20661803.977 6         0.000 6     -1168.935 6        37.977 6
G26  20661811.470 1 108578530.410 1     -1500.148 1       -55.923 1  20661814.290 1         0.000 1     -1168.947 1       -61.923 1
G20  21931257.567 9 115249503.402 9      2565.325 9        55.321 9  21931257.881 6         0.000 6      1998.956 6        37.977 6
G20  21931270.106 1 115249569.910 1      2565.339 1       -55.923 1  21931270.421 1         0.000 1      1998.966 1       -61.923 1
> 2019 07 03 12 01 26.0000000  0 16       0.000000000000
G07  25336258.633 1 133142891.752 1      2163.893 1       -55.923 1  25336259.297 1         0.000 1      1686.151 1       -61.923 1
G07  25336258.633 1 133142892.525 1      2163.893 1       -55.923 1  25336259.297 1         0.000 1      1686.151 1       -61.923 1
G10  23791479.820 9 125025015.910 9      3532.593 9        54.676 9  23791483.529 6         0.000 6      2752.673 6        37.977 6
G10  23791499.866 1 125025122.026 1      3532.600 1       -55.923 1  23791503.575 1         0.000 1      2752.678 1       -61.923 1
G21  21177087.154 9 111286323.421 9     -1252.845 9        55.707 9  21177086.441 6         0.000 6      -976.243 6        37.977 6
G21  21177087.154 1 111286324.194 1     -1252.845 1       -55.923 1  21177086.441 1         0.000 1      -976.243 1       -61.923 1
G29  24315117.045 9 127776745.836 9     -3099.548 9        54.469 9  24315118.636 6         0.000 6     -2415.235 6        37.977 6
G29  24315117.045 1 127776746.609 1     -3099.548 1       -55.923 1  24315118.636 1         0.000 1     -2415.235 1       -61.923 1
G27  21992404.872 9 115570840.709 9      2475.785 9        55.379 9  21992406.800 6         0.000 6      1929.184 6        37.977 6
G27  21992404.872 1 115570841.482 1      2475.785 1       -55.923 1  21992406.800 1         0.000 1      1929.184 1       -61.923 1
G16  20494603.033 9 107699845.538 9       532.364 9        55.978 9  20494602.206 6         0.000 6       414.829 6        37.977 6
G16  20494603.033 1 107699846.311 1       532.364 1       -55.923 1  20494602.206 1         0.000 1       414.829 1       -61.923 1
G26  20662086.677 9 108579976.017 9     -1500.705 9        55.870 9  20662089.497 6         0.000 6     -1169.381 6        37.977 6
G26  20662096.993 1 108580031.001 1     -1500.720 1       -55.923 1  20662099.813 1         0.000 1     -1169.392 1       -61.923 1
G20  21930769.444 9 115246938.304 9      2564.880 9        55.321 9  21930769.758 6         0.000 6      1998.609 6        37.977 6
G20  21930781.981 1 115247004.957 1      2564.894 1       -55.923 1  21930782.295 1         0.000 1      1998.620 1       -61.923 1
> 2019 07 03 12 01 27.0000000  0 16       0.000000000000
G07  25335846.902 1 133140728.094 1      2163.428 1       -55.923 1  25335847.566 1         0.000 1      1685.789 1       -61.923 1
G07  25335846.902 1 133140728.641 1      2163.428 1       -55.923 1  25335847.566 1         0.000 1      1685.789 1       -61.923 1
G10  23790807.603 9 125021483.397 9      3532.454 9        54.676 9  23790811.311 6         0.000 6      2752.565 6        37.977 6
G10  23790827.647 1 125021589.150 1      3532.461 1       -55.923 1  23790831.356 1         0.000 1      2752.570 1       -61.923 1
G21  21177325.596 9 111287576.444 9     -1253.201 9        55.707 9  21177324.883 6         0.000 6      -976.520 6        37.977 6
G21  21177325.596 1 111287576.861 1     -1253.201 1       -55.923 1  21177324.883 1         0.000 1      -976.520 1       -61.923 1
G29  24315706.877 9 127779845.416 9     -3099.632 9        54.469 9  24315708.469 6         0.000 6     -2415.300 6        37.977 6
G29  24315706.877 1 127779845.833 1     -3099.632 1       -55.923 1  24315708.469 1         0.000 1     -2415.300 1       -61.923 1
G27  21991933.768 9 115568365.043 9      2475.551 9        55.379 9  21991935.696 6         0.000 6      1929.002 6        37.977 6
G27  21991933.768 1 115568365.460 1      2475.551 1       -55.923 1  21991935.696 1         0.000 1      1929.002 1       -61.923 1
G16  20494501.786 9 107699313.481 9       531.750 9        55.978 9  20494500.959 6         0.000 6       414.350 6        37.977 6
G16  20494501.786 1 107699313.898 1       531.750 1       -55.923 1  20494500.959 1         0.000 1       414.350 1       -61.923 1
G26  20662372.306 9 108581477.006 9     -1501.277 9        55.870 9  20662375.126 6         0.000 6     -1169.826 6        37.977 6
G26  20662382.625 1 108581531.649 1     -1501.292 1       -55.923 1  20662385.445 1         0.000 1     -1169.838 1       -61.923 1
G20  21930281.406 9 115244373.650 9      2564.435 9        55.321 9  21930281.720 6         0.000 6      1998.262 6        37.977 6
G20  21930293.940 1 115244439.935 1      2564.449 1       -55.923 1  21930294.254 1         0.000 1      1998.273 1       -61.923 1
> 2019 07 03 12 01 28.0000000  0 16       0.000000000000
G07  25335435.260 1 133138564.905 1      2162.964 1       -55.923 1  25335435.924 1         0.000 1      1685.427 1       -61.923 1
G07  25335435.260 1 133138564.983 1      2162.964 1       -55.923 1  25335435.924 1         0.000 1      1685.427 1       -61.923 1
G10  23790135.412 9 125017951.020 9      3532.316 9        54.676 9  23790139.120 6         0.000 6      2752.456 6        37.977 6
G10  23790155.455 1 125018056.428 1      3532.322 1       -55.923 1  23790159.163 1         0.000 1      2752.462 1       -61.923 1
G21  21177564.106 9 111288829.820 9     -1253.557 9        55.706 9  21177563.393 6         0.000 6      -976.797 6        37.977 6
G21  21177564.106 1 111288829.898 1     -1253.557 1       -55.923 1  21177563.393 1         0.000 1      -976.797 1       -61.923 1
G29  24316296.725 9 127782945.075 9     -3099.716 9        54.469 9  24316298.317 6         0.000 6     -2415.366 6        37.977 6
G29  24316296.725 1 127782945.153 1     -3099.716 1       -55.923 1  24316298.317 1         0.000 1     -2415.366 1       -61.923 1
G27  21991462.709 9 115565889.615 9      2475.317 9        55.379 9  21991464.637 6         0.000 6      1928.819 6        37.977 6
G27  21991462.709 1 115565889.694 1      2475.317 1       -55.923 1  21991464.637 1         0.000 1      1928.819 1       -61.923 1
G16  20494400.656 9 107698782.040 9       531.135 9        55.978 9  20494399.829 6         0.000 6       413.871 6        37.977 6
G16  20494400.656 1 107698782.118 1       531.135 1       -55.923 1  20494399.829 1         0.000 1       413.871 1       -61.923 1
G26  20662658.044 9 108582978.567 9     -1501.849 9        55.870 9  20662660.864 6         0.000 6     -1170.272 6        37.977 6
G26  20662668.366 1 108583032.887 1     -1501.864 1       -55.923 1  20662671.186 1         0.000 1     -1170.284 1       -61.923 1
G20  21929793.452 9 115241809.439 9      2563.990 9        55.321 9  21929793.765 6         0.000 6      1997.916 6        37.977 6
G20  21929805.984 1 115241875.371 1      2564.004 1       -55.923 1  21929806.297 1         0.000 1      1997.926 1       -61.923 1
> 2019 07 03 12 01 29.0000000  0 16       0.000000000000
G07  25335023.706 1 133136402.177 1      2162.499 1       -55.923 1  25335024.370 1         0.000 1      1685.065 1       -61.923 1
G07  25335023.706 1 133136402.856 1      2162.499 1       -55.923 1  25335024.370 1         0.000 1      1685.065 1       -61.923 1
G10  23789463.248 9 125014418.785 9      3532.176 9        54.677 9  23789466.955 6         0.000 6      2752.348 6        37.977 6
G10  23789483.290 1 125014524.786 1      3532.183 1       -55.923 1  23789486.997 1         0.000 1      2752.353 1       -61.923 1
G21  21177802.684 9 111290083.553 9     -1253.912 9        55.706 9  21177801.971 6         0.000 6      -977.074 6        37.977 6
G21  21177802.684 1 111290084.232 1     -1253.912 1       -55.923 1  21177801.971 1         0.000 1      -977.074 1       -61.923 1
G29  24316886.589 9 127786044.823 9     -3099.800 9        54.469 9  24316888.182 6         0.000 6     -2415.431 6        37.977 6
G29  24316886.589 1 127786045.502 1     -3099.800 1       -55.923 1  24316888.182 1         0.000 1     -2415.431 1       -61.923 1
G27  21990991.694 9 115563414.417 9      2475.084 9        55.380 9  21990993.622 6         0.000 6      1928.637 6        37.977 6
G27  21990991.694 1 115563415.096 1      2475.084 1       -55.923 1  21990993.622 1         0.000 1      1928.637 1       -61.923 1
G16  20494299.643 9 107698251.212 9       530.520 9        55.978 9  20494298.816 6         0.000 6       413.392 6        37.977 6
G16  20494299.643 1 107698251.891 1       530.520 1       -55.923 1  20494298.816 1         0.000 1       413.392 1       -61.923 1
G26  20662943.891 9 108584480.700 9     -1502.421 9        55.870 9  20662946.711 6         0.000 6     -1170.718 6        37.977 6
G26  20662954.216 1 108584535.635 1     -1502.436 1       -55.923 1  20662957.035 1         0.000 1     -1170.730 1       -61.923 1
G20  21929305.583 9 115239245.676 9      2563.545 9        55.321 9  21929305.896 6         0.000 6      1997.569 6        37.977 6
G20  21929318.112 1 115239312.195 1      2563.558 1       -55.923 1  21929318.425 1         0.000 1      1997.579 1       -61.923 1
> 2019 07 03 12 01 30.0000000  0 16       0.000000000000
G07  25334612.241 1 133134239.917 1      2162.034 1       -55.923 1  25334612.904 1         0.000 1      1684.703 1       -61.923 1
G07  25334612.241 1 133134240.192 1      2162.034 1       -55.923 1  25334612.904 1         0.000 1      1684.703 1       -61.923 1
G10  23788791.109 9 125010886.684 9      3532.037 9        54.677 9  23788794.816 6         0.000 6      2752.240 6        37.977 6
G10  23788811.150 1 125010992.274 1      3532.044 1       -55.923 1  23788814.857 1         0.000 1      2752.245 1       -61.923 1
G21  21178041.329 9 111291337.640 9     -1254.267 9        55.706 9  21178040.616 6         0.000 6      -977.351 6        37.977 6
G21  21178041.329 1 111291337.914 1     -1254.267 1       -55.923 1  21178040.616 1         0.000 1      -977.351 1       -61.923 1
G29  24317476.469 9 127789144.654 9     -3099.884 9        54.469 9  24317478.063 6         0.000 6     -2415.497 6        37.977 6
G29  24317476.469 1 127789144.929 1     -3099.884 1       -55.923 1  24317478.063 1         0.000 1     -2415.497 1       -61.923 1
G27  21990520.723 9 115560939.451 9      2474.850 9        55.380 9  21990522.651 6         0.000 6      1928.455 6        37.977 6
G27  21990520.723 1 115560939.726 1      2474.850 1       -55.923 1  21990522.651 1         0.000 1      1928.455 1       -61.923 1
G16  20494198.746 9 107697720.996 9       529.906 9        55.978 9  20494197.919 6         0.000 6       412.914 6        37.977 6
G16  20494198.746 1 107697721.270 1       529.906 1       -55.923 1  20494197.919 1         0.000 1       412.914 1       -61.923 1
G26  20663229.846 9 108585983.400 9     -1502.993 9        55.869 9  20663232.666 6         0.000 6     -1171.164 6        37.977 6
G26  20663240.173 1 108586037.947 1     -1503.008 1       -55.923 1  20663242.993 1         0.000 1     -1171.176 1       -61.923 1
G20  21928817.798 9 115236682.353 9      2563.100 9        55.322 9  21928818.111 6         0.000 6      1997.222 6        37.977 6
G20  21928830.325 1 115236748.455 1      2563.113 1       -55.923 1  21928830.638 1         0.000 1      1997.232 1       -61.923 1
> 2019 07 03 12 01 31.0000000  0 16       0.000000000000
G07  25334200.864 1 133132078.119 1      2161.569 1       -55.923 1  25334201.527 1         0.000 1      1684.340 1       -61.923 1
G07  25334200.864 1 133132078.551 1      2161.569 1       -55.923 1  25334201.527 1         0.000 1      1684.340 1       -61.923 1
G10  23788118.998 9 125007354.727 9      3531.898 9        54.677 9  23788122.704 6         0.000 6      2752.131 6        37.977 6
G10  23788139.038 1 125007460.467 1      3531.905 1       -55.923 1  23788142.744 1         0.000 1      2752.136 1       -61.923 1
G21  21178280.042 9 111292592.084 9     -1254.623 9        55.706 9  21178279.329 6         0.000 6      -977.628 6        37.977 6
G21  21178280.042 1 111292592.515 1     -1254.623 1       -55.923 1  21178279.329 1         0.000 1      -977.628 1       -61.923 1
G29  24318066.366 9 127792244.570 9     -3099.968 9        54.468 9  24318067.960 6         0.000 6     -2415.562 6        37.977 6
G29  24318066.366 1 127792245.002 1     -3099.968 1       -55.923 1  24318067.960 1         0.000 1     -2415.562 1       -61.923 1
G27  21990049.797 9 115558464.721 9      2474.616 9        55.380 9  21990051.725 6         0.000 6      1928.273 6        37.977 6
G27  21990049.797 1 115558465.152 1      2474.616 1       -55.923 1  21990051.725 1         0.000 1      1928.273 1       -61.923 1
G16  20494097.967 9 107697191.397 9       529.291 9        55.978 9  20494097.140 6         0.000 6       412.434 6        37.977 6
G16  20494097.967 1 107697191.829 1       529.291 1       -55.923 1  20494097.140 1         0.000 1       412.434 1       -61.923 1
G26  20663515.910 9 108587486.678 9     -1503.565 9        55.869 9  20663518.730 6         0.000 6     -1171.610 6        37.977 6
G26  20663526.241 1 108587541.396 1     -1503.580 1       -55.923 1  20663529.061 1         0.000 1     -1171.621 1       -61.923 1
G20  21928330.099 9 115234119.481 9      2562.655 9        55.322 9  21928330.412 6         0.000 6      1996.875 6        37.977 6
G20  21928342.623 1 115234185.726 1      2562.668 1       -55.923 1  21928342.936 1         0.000 1      1996.885 1       -61.923 1
> 2019 07 03 12 01 32.0000000  0 16       0.000000000000
G07  25333789.575 1 133129916.787 1      2161.104 1       -55.923 1  25333790.238 1         0.000 1      1683.978 1       -61.923 1
G07  25333789.575 1 133129916.849 1      2161.104 1       -55.923 1  25333790.238 1         0.000 1      1683.978 1       -61.923 1
G10  23787446.914 9 125003822.910 9      3531.759 9        54.677 9  23787450.619 6         0.000 6      2752.022 6        37.977 6
G10  23787466.952 1 125003928.272 1      3531.766 1       -55.923 1  23787470.657 1         0.000 1      2752.028 1       -61.923 1
G21  21178518.822 9 111293846.883 9     -1254.978 9        55.706 9  21178518.109 6         0.000 6      -977.905 6        37.977 6
G21  21178518.822 1 111293846.945 1     -1254.978 1       -55.923 1  21178518.109 1         0.000 1      -977.905 1       -61.923 1
G29  24318656.278 9 127795344.570 9     -3100.052 9        54.468 9  24318657.873 6         0.000 6     -2415.627 6        37.977 6
G29  24318656.278 1 127795344.632 1     -3100.052 1       -55.923 1  24318657.873 1         0.000 1     -2415.627 1       -61.923 1
G27  21989578.915 9 115555990.224 9      2474.382 9        55.380 9  21989580.843 6         0.000 6      1928.091 6        37.977 6
G27  21989578.915 1 115555990.286 1      2474.382 1       -55.923 1  21989580.843 1         0.000 1      1928.091 1       -61.923 1
G16  20493997.305 9 107696662.414 9       528.676 9        55.978 9  20493996.478 6         0.000 6       411.955 6        37.977 6
G16  20493997.305 1 107696662.476 1       528.676 1       -55.923 1  20493996.478 1         0.000 1       411.955 1       -61.923 1
G26  20663802.084 9 108588990.527 9     -1504.137 9        55.869 9  20663804.904 6         0.000 6     -1172.055 6        37.977 6
G26  20663812.417 1 108589044.891 1     -1504.152 1       -55.923 1  20663815.237 1         0.000 1     -1172.067 1       -61.923 1
G20  21927842.484 9 115231557.053 9      2562.209 9        55.322 9  21927842.797 6         0.000 6      1996.528 6        37.977 6
G20  21927855.006 1 115231622.916 1      2562.222 1       -55.923 1  21927855.318 1         0.000 1      1996.538 1       -61.923 1
> 2019 07 03 12 01 33.0000000  0 16       0.000000000000
G07  25333378.375 1 133127755.920 1      2160.638 1       -55.923 1  25333379.038 1         0.000 1      1683.615 1       -61.923 1
G07  25333378.375 1 133127756.051 1      2160.638 1       -55.923 1  25333379.038 1         0.000 1      1683.615 1       -61.923 1
G10  23786774.856 9 125000291.231 9      3531.619 9        54.678 9  23786778.560 6         0.000 6      2751.914 6        37.977 6
G10  23786794.892 1 125000396.657 1      3531.626 1       -55.923 1  23786798.597 1         0.000 1      2751.919 1       -61.923 1
G21  21178757.670 9 111295102.038 9     -1255.333 9        55.706 9  21178756.957 6         0.000 6      -978.182 6        37.977 6
G21  21178757.670 1 111295102.170 1     -1255.333 1       -55.923 1  21178756.957 1         0.000 1      -978.182 1       -61.923 1
G29  24319246.206 9 127798444.653 9     -3100.136 9        54.468 9  24319247.801 6         0.000 6     -2415.693 6        37.977 6
G29  24319246.206 1 127798445.040 1     -3100.136 1       -55.923 1  24319247.801 1         0.000 1     -2415.693 1       -61.923 1
G27  21989108.078 9 115553515.962 9      2474.148 9        55.380 9  21989110.006 6         0.000 6      1927.908 6        37.977 6
G27  21989108.078 1 115553516.349 1      2474.148 1       -55.923 1  21989110.006 1         0.000 1      1927.908 1       -61.923 1
G16  20493896.759 9 107696134.045 9       528.061 9        55.978 9  20493895.933 6         0.000 6       411.476 6        37.977 6
G16  20493896.759 1 107696134.432 1       528.061 1       -55.923 1  20493895.933 1         0.000 1       411.476 1       -61.923 1
G26  20664088.366 9 108590494.948 9     -1504.709 9        55.869 9  20664091.186 6         0.000 6     -1172.501 6        37.977 6
G26  20664098.702 1 108590549.652 1     -1504.724 1       -55.923 1  20664101.522 1         0.000 1     -1172.513 1       -61.923 1
G20  21927354.955 9 115228995.072 9      2561.764 9        55.322 9  21927355.267 6         0.000 6      1996.181 6        37.977 6
G20  21927367.474 1 115229061.246 1      2561.777 1       -55.923 1  21927367.786 1         0.000 1      1996.191 1       -61.923 1
> 2019 07 03 12 01 34.0000000  0 16       0.000000000000
G07  25332967.264 1 133125595.517 1      2160.173 1       -55.923 1  25332967.926 1         0.000 1      1683.253 1       -61.923 1
G07  25332967.264 1 133125596.116 1      2160.173 1       -55.923 1  25332967.926 1         0.000 1      1683.253 1       -61.923 1
G10  23786102.824 9 124996759.693 9      3531.479 9        54.678 9  23786106.528 6         0.000 6      2751.805 6        37.977 6
G10  23786122.860 1 124996865.301 1      3531.486 1       -55.923 1  23786126.564 1         0.000 1      2751.810 1       -61.923 1
G21  21178996.586 9 111296357.548 9     -1255.688 9        55.706 9  21178995.873 6         0.000 6      -978.459 6        37.977 6
G21  21178996.586 1 111296357.870 1     -1255.688 1       -55.923 1  21178995.873 1         0.000 1      -978.459 1       -61.923 1
G29  24319836.150 9 127801544.821 9     -3100.219 9        54.468 9  24319837.746 6         0.000 6     -2415.758 6        37.977 6
G29  24319836.150 1 127801545.142 1     -3100.219 1       -55.923 1  24319837.746 1         0.000 1     -2415.758 1       -61.923 1
G27  21988637.286 9 115551041.933 9      2473.914 9        55.381 9  21988639.213 6         0.000 6      1927.726 6        37.977 6
G27  21988637.286 1 115551042.254 1      2473.914 1       -55.923 1  21988639.213 1         0.000 1      1927.726 1       -61.923 1
G16  20493796.331 9 107695606.291 9       527.446 9        55.978 9  20493795.504 6         0.000 6       410.997 6        37.977 6
G16  20493796.331 1 107695606.613 1       527.446 1       -55.923 1  20493795.504 1         0.000 1       410.997 1       -61.923 1
G26  20664374.757 9 108591999.941 9     -1505.281 9        55.869 9  20664377.577 6         0.000 6     -1172.947 6        37.977 6
G26  20664385.096 1 108592054.595 1     -1505.296 1       -55.923 1  20664387.916 1         0.000 1     -1172.958 1       -61.923 1
G20  21926867.510 9 115226433.535 9      2561.318 9        55.322 9  21926867.822 6         0.000 6      1995.833 6        37.977 6
G20  21926880.026 1 115226499.631 1      2561.331 1       -55.923 1  21926880.338 1         0.000 1      1995.844 1       -61.923 1
> 2019 07 03 12 01 35.0000000  0 16       0.000000000000
G07  25332556.241 1 133123435.581 1      2159.708 1       -55.923 1  25332556.903 1         0.000 1      1682.890 1       -61.923 1
G07  25332556.241 1 133123436.044 1      2159.708 1       -55.923 1  25332556.903 1         0.000 1      1682.890 1       -61.923 1
G10  23785430.819 9 124993228.294 9      3531.340 9        54.678 9  23785434.523 6         0.000 6      2751.696 6        37.977 6
G10  23785450.853 1 124993334.037 1      3531.347 1       -55.923 1  23785454.557 1         0.000 1      2751.701 1       -61.923 1
G21  21179235.569 9 111297613.413 9     -1256.043 9        55.706 9  21179234.857 6         0.000 6      -978.735 6        37.977 6
G21  21179235.569 1 111297613.877 1     -1256.043 1       -55.923 1  21179234.857 1         0.000 1      -978.735 1       -61.923 1
G29  24320426.110 9 127804645.072 9     -3100.303 9        54.468 9  24320427.707 6         0.000 6     -2415.823 6        37.977 6
G29  24320426.110 1 127804645.425 1     -3100.303 1       -55.923 1  24320427.707 1         0.000 1     -2415.823 1       -61.923 1
G27  21988166.538 9 115548568.138 9      2473.680 9        55.381 9  21988168.465 6         0.000 6      1927.544 6        37.977 6
G27  21988166.538 1 115548568.492 1      2473.680 1       -55.923 1  21988168.465 1         0.000 1      1927.544 1       -61.923 1
G16  20493696.020 9 107695079.152 9       526.831 9        55.978 9  20493695.193 6         0.000 6       410.518 6        37.977 6
G16  20493696.020 1 107695079.506 1       526.831 1       -55.923 1  20493695.193 1         0.000 1       410.518 1       -61.923 1
G26  20664661.257 9 108593505.506 9     -1505.853 9        55.869 9  20664664.077 6         0.000 6     -1173.392 6        37.977 6
G26  20664671.599 1 108593560.208 1     -1505.868 1       -55.923 1  20664674.419 1         0.000 1     -1173.404 1       -61.923 1
G20  21926380.150 9 115223872.445 9      2560.872 9        55.322 9  21926380.461 6         0.000 6      1995.486 6        37.977 6
G20  21926392.663 1 115223938.559 1      2560.885 1       -55.923 1  21926392.975 1         0.000 1      1995.496 1       -61.923 1
> 2019 07 03 12 01 36.0000000  0 16       0.000000000000
G07  25332145.306 1 133121276.109 1      2159.242 1       -55.923 1  25332145.969 1         0.000 1      1682.527 1       -61.923 1
G07  25332145.306 1 133121276.706 1      2159.242 1       -55.923 1  25332145.969 1         0.000 1      1682.527 1       -61.923 1
G10  23784758.841 9 124989697.034 9      3531.200 9        54.678 9  23784762.544 6         0.000 6      2751.587 6        37.977 6
G10  23784778.874 1 124989802.904 1      3531.207 1       -55.923 1  23784782.577 1         0.000 1      2751.592 1       -61.923 1
G21  21179474.620 9 111298869.634 9     -1256.398 9        55.706 9  21179473.908 6         0.000 6      -979.012 6        37.977 6
G21  21179474.620 1 111298870.230 1     -1256.398 1       -55.923 1  21179473.908 1         0.000 1      -979.012 1       -61.923 1
G29  24321016.087 9 127807745.407 9     -3100.387 9        54.467 9  24321017.684 6         0.000 6     -2415.889 6        37.977 6
G29  24321016.087 1 127807746.003 1     -3100.387 1       -55.923 1  24321017.684 1         0.000 1     -2415.889 1       -61.923 1
G27  21987695.834 9 115546094.577 9      2473.446 9        55.381 9  21987697.762 6         0.000 6      1927.362 6        37.977 6
G27  21987695.834 1 115546095.174 1      2473.446 1       -55.923 1  21987697.762 1         0.000 1      1927.362 1       -61.923 1
G16  20493595.826 9 107694552.628 9       526.217 9        55.978 9  20493594.999 6         0.000 6       410.039 6        37.977 6
G16  20493595.826 1 107694552.886 1       526.217 1       -55.923 1  20493594.999 1         0.000 1       410.039 1       -61.923 1
G26  20664947.865 9 108595011.643 9     -1506.425 9        55.869 9  20664950.686 6         0.000 6     -1173.838 6        37.977 6
G26  20664958.210 1 108595066.264 1     -1506.440 1       -55.923 1  20664961.031 1         0.000 1     -1173.850 1       -61.923 1
G20  21925892.874 9 115221311.800 9      2560.426 9        55.323 9  21925893.185 6         0.000 6      1995.139 6        37.977 6
G20  21925905.385 1 115221377.805 1      2560.440 1       -55.923 1  21925905.697 1         0.000 1      1995.149 1       -61.923 1
> 2019 07 03 12 01 37.0000000  0 16       0.000000000000
G07  25331734.461 1 133119117.103 1      2158.777 1       -55.923 1  25331735.122 1         0.000 1      1682.165 1       -61.923 1
G07  25331734.461 1 133119117.804 1      2158.777 1       -55.923 1  25331735.122 1         0.000 1      1682.165 1       -61.923 1
G10  23784086.889 9 124986165.915 9      3531.060 9        54.679 9  23784090.591 6         0.000 6      2751.478 6        37.977 6
G10  23784106.921 1 124986271.881 1      3531.067 1       -55.923 1  23784110.623 1         0.000 1      2751.483 1       -61.923 1
G21  21179713.739 9 111300126.209 9     -1256.753 9        55.706 9  21179713.026 6         0.000 6      -979.289 6        37.977 6
G21  21179713.739 1 111300126.705 1     -1256.753 1       -55.923 1  21179713.026 1         0.000 1      -979.289 1       -61.923 1
G29  24321606.079 9 127810845.825 9     -3100.471 9        54.467 9  24321607.676 6         0.000 6     -2415.954 6        37.977 6
G29  24321606.079 1 127810846.322 1     -3100.471 1       -55.923 1  24321607.676 1         0.000 1     -2415.954 1       -61.923 1
G27  21987225.176 9 115543621.251 9      2473.212 9        55.381 9  21987227.102 6         0.000 6      1927.179 6        37.977 6
G27  21987225.176 1 115543621.747 1      2473.212 1       -55.923 1  21987227.102 1         0.000 1      1927.179 1       -61.923 1
G16  20493495.749 9 107694026.719 9       525.602 9        55.978 9  20493494.922 6         0.000 6       409.560 6        37.977 6
G16  20493495.749 1 107694027.216 1       525.602 1       -55.923 1  20493494.922 1         0.000 1       409.560 1       -61.923 1
G26  20665234.583 9 108596518.352 9     -1506.996 9        55.869 9  20665237.403 6         0.000 6     -1174.283 6        37.977 6
G26  20665244.931 1 108596573.226 1     -1507.012 1       -55.923 1  20665247.751 1         0.000 1     -1174.295 1       -61.923 1
G20  21925405.684 9 115218751.601 9      2559.980 9        55.323 9  21925405.995 6         0.000 6      1994.791 6        37.977 6
G20  21925418.192 1 115218817.831 1      2559.994 1       -55.923 1  21925418.503 1         0.000 1      1994.801 1       -61.923 1
> 2019 07 03 12 01 38.0000000  0 16       0.000000000000
G07  25331323.703 1 133116958.563 1      2158.311 1       -55.923 1  25331324.365 1         0.000 1      1681.802 1       -61.923 1
G07  25331323.703 1 133116958.600 1      2158.311 1       -55.923 1  25331324.365 1         0.000 1      1681.802 1       -61.923 1
G10  23783414.964 9 124982634.935 9      3530.920 9        54.679 9  23783418.666 6         0.000 6      2751.369 6        37.977 6
G10  23783434.994 1 124982740.231 1      3530.927 1       -55.923 1  23783438.696 1         0.000 1      2751.374 1       -61.923 1
G21  21179952.925 9 111301383.139 9     -1257.108 9        55.706 9  21179952.212 6         0.000 6      -979.565 6        37.977 6
G21  21179952.925 1 111301383.176 1     -1257.108 1       -55.923 1  21179952.212 1         0.000 1      -979.565 1       -61.923 1
G29  24322196.086 9 127813946.328 9     -3100.555 9        54.467 9  24322197.685 6         0.000 6     -2416.019 6        37.977 6
G29  24322196.086 1 127813947.085 1     -3100.555 1       -55.923 1  24322197.685 1         0.000 1     -2416.019 1       -61.923 1
G27  21986754.561 9 115541148.158 9      2472.978 9        55.381 9  21986756.488 6         0.000 6      1926.997 6        37.977 6
G27  21986754.561 1 115541148.915 1      2472.978 1       -55.923 1  21986756.488 1         0.000 1      1926.997 1       -61.923 1
G16  20493395.789 9 107693501.425 9       524.987 9        55.978 9  20493394.962 6         0.000 6       409.080 6        37.977 6
G16  20493395.789 1 107693502.183 1       524.987 1       -55.923 1  20493394.962 1         0.000 1       409.080 1       -61.923 1
G26  20665521.409 9 108598025.633 9     -1507.568 9        55.868 9  20665524.230 6         0.000 6     -1174.729 6        37.977 6
G26  20665531.760 1 108598080.783 1     -1507.583 1       -55.923 1  20665534.581 1         0.000 1     -1174.741 1       -61.923 1
G20  21924918.578 9 115216191.848 9      2559.534 9        55.323 9  21924918.889 6         0.000 6      1994.444 6        37.977 6
G20  21924931.084 1 115216258.326 1      2559.548 1       -55.923 1  21924931.395 1         0.000 1      1994.454 1       -61.923 1
> 2019 07 03 12 01 39.0000000  0 16       0.000000000000
G07  25330913.035 1 133114800.489 1      2157.845 1       -55.923 1  25330913.696 1         0.000 1      1681.439 1       -61.923 1
G07  25330913.035 1 133114800.920 1      2157.845 1       -55.923 1  25330913.696 1         0.000 1      1681.439 1       -61.923 1
G10  23782743.066 9 124979104.096 9      3530.780 9        54.679 9  23782746.767 6         0.000 6      2751.260 6        37.977 6
G10  23782763.095 1 124979209.780 1      3530.787 1       -55.923 1  23782766.796 1         0.000 1      2751.265 1       -61.923 1
G21  21180192.178 9 111302640.424 9     -1257.463 9        55.705 9  21180191.466 6         0.000 6      -979.842 6        37.977 6
G21  21180192.178 1 111302640.856 1     -1257.463 1       -55.923 1  21180191.466 1         0.000 1      -979.842 1       -61.923 1
G29  24322786.110 9 127817046.914 9     -3100.638 9        54.467 9  24322787.709 6         0.000 6     -2416.084 6        37.977 6
G29  24322786.110 1 127817047.346 1     -3100.638 1       -55.923 1  24322787.709 1         0.000 1     -2416.084 1       -61.923 1
G27  21986283.991 9 115538675.299 9      2472.744 9        55.382 9  21986285.918 6         0.000 6      1926.814 6        37.977 6
G27  21986283.991 1 115538675.731 1      2472.744 1       -55.923 1  21986285.918 1         0.000 1      1926.814 1       -61.923 1
G16  20493295.945 9 107692976.746 9       524.371 9        55.978 9  20493295.119 6         0.000 6       408.601 6        37.977 6
G16  20493295.945 1 107692977.178 1       524.371 1       -55.923 1  20493295.119 1         0.000 1       408.601 1       -61.923 1
G26  20665808.344 9 108599533.485 9     -1508.140 9        55.868 9  20665811.165 6         0.000 6     -1175.174 6        37.977 6
G26  20665818.698 1 108599588.325 1     -1508.155 1       -55.923 1  20665821.519 1         0.000 1     -1175.186 1       -61.923 1
G20  21924431.557 9 115213632.541 9      2559.088 9        55.323 9  21924431.868 6         0.000 6      1994.096 6        37.977 6
G20  21924444.061 1 115213698.680 1      2559.102 1       -55.923 1  21924444.371 1         0.000 1      1994.106 1       -61.923 1
> 2019 07 03 12 01 40.0000000  0 16       0.000000000000
G07  25330502.455 1 133112642.880 1      2157.380 1       -55.923 1  25330503.116 1         0.000 1      1681.076 1       -61.923 1
G07  25330502.455 1 133112643.524 1      2157.380 1       -55.923 1  25330503.116 1         0.000 1      1681.076 1       -61.923 1
G10  23782071.194 9 124975573.397 9      3530.640 9        54.679 9  23782074.894 6         0.000 6      2751.150 6        37.977 6
G10  23782091.222 1 124975679.287 1      3530.647 1       -55.923 1  23782094.922 1         0.000 1      2751.156 1       -61.923 1
G21  21180431.499 9 111303898.064 9     -1257.818 9        55.705 9  21180430.787 6         0.000 6      -980.118 6        37.977 6
G21  21180431.499 1 111303898.708 1     -1257.818 1       -55.923 1  21180430.787 1         0.000 1      -980.118 1       -61.923 1
G29  24323376.150 9 127820147.584 9     -3100.722 9        54.466 9  24323377.750 6         0.000 6     -2416.150 6        37.977 6
G29  24323376.150 1 127820148.228 1     -3100.722 1       -55.923 1  24323377.750 1         0.000 1     -2416.150 1       -61.923 1
G27  21985813.466 9 115536202.675 9      2472.510 9        55.382 9  21985815.392 6         0.000 6      1926.632 6        37.977 6
G27  21985813.466 1 115536203.319 1      2472.510 1       -55.923 1  21985815.392 1         0.000 1      1926.632 1       -61.923 1
G16  20493196.219 9 107692452.683 9       523.756 9        55.978 9  20493195.393 6         0.000 6       408.122 6        37.977 6
G16  20493196.219 1 107692453.327 1       523.756 1       -55.923 1  20493195.393 1         0.000 1       408.122 1       -61.923 1
G26  20666095.388 9 108601041.909 9     -1508.712 9        55.868 9  20666098.209 6         0.000 6     -1175.620 6        37.977 6
G26  20666105.745 1 108601096.743 1     -1508.727 1       -55.923 1  20666108.566 1         0.000 1     -1175.632 1       -61.923 1
G20  21923944.621 9 115211073.680 9      2558.642 9        55.323 9  21923944.932 6         0.000 6      1993.748 6        37.977 6
G20  21923957.123 1 115211139.785 1      2558.655 1       -55.923 1  21923957.433 1         0.000 1      1993.759 1       -61.923 1
> 2019 07 03 12 01 41.0000000  0 16       0.000000000000
G07  25330091.963 1 133110485.737 1      2156.914 1       -55.923 1  25330092.625 1         0.000 1      1680.713 1       -61.923 1
G07  25330091.963 1 133110486.684 1      2156.914 1       -55.923 1  25330092.625 1         0.000 1      1680.713 1       -61.923 1
G10  23781399.349 9 124972042.837 9      3530.499 9        54.680 9  23781403.048 6         0.000 6      2751.041 6        37.977 6
G10  23781417.405 1 124972138.672 1      3544.306 1       -55.923 1  23781421.105 1         0.000 1      2761.800 1       -61.923 1
G21  21180670.888 9 111305156.058 9     -1258.173 9        55.705 9  21180670.175 6         0.000 6      -980.395 6        37.977 6
G21  21180670.888 1 111305157.005 1     -1258.173 1       -55.923 1  21180670.175 1         0.000 1      -980.395 1       -61.923 1
G29  24323966.206 9 127823248.336 9     -3100.806 9        54.466 9  24323967.806 6         0.000 6     -2416.215 6        37.977 6
G29  24323966.206 1 127823249.283 1     -3100.806 1       -55.923 1  24323967.806 1         0.000 1     -2416.215 1       -61.923 1
G27  21985342.985 9 115533730.286 9      2472.276 9        55.382 9  21985344.912 6         0.000 6      1926.449 6        37.977 6
G27  21985342.985 1 115533731.233 1      2472.276 1       -55.923 1  21985344.912 1         0.000 1      1926.449 1       -61.923 1
G16  20493096.610 9 107691929.234 9       523.141 9        55.978 9  20493095.784 6         0.000 6       407.642 6        37.977 6
G16  20493096.610 1 107691930.181 1       523.141 1       -55.923 1  20493095.784 1         0.000 1       407.642 1       -61.923 1
G26  20666382.541 9 108602550.905 9     -1509.283 9        55.868 9  20666385.362 6         0.000 6     -1176.065 6        37.977 6
G26  20666391.881 1 108602600.937 1     -1502.158 1       -55.923 1  20666394.702 1         0.000 1     -1170.513 1       -61.923 1
G20  21923457.770 9 115208515.265 9      2558.196 9        55.324 9  21923458.080 6         0.000 6      1993.400 6        37.977 6
G20  21923469.040 1 115208575.433 1      2566.821 1       -55.923 1  21923469.350 1         0.000 1      2000.122 1       -61.923 1
> 2019 07 03 12 01 42.0000000  0 16       0.000000000000
G07  25329681.561 1 133108329.060 1      2156.448 1       -55.923 1  25329682.222 1         0.000 1      1680.350 1       -61.923 1
G07  25329681.561 1 133108330.039 1      2156.448 1       -55.923 1  25329682.222 1         0.000 1      1680.350 1       -61.923 1
G10  23780727.531 9 124968512.419 9      3530.359 9        54.680 9  23780731.230 6         0.000 6      2750.932 6        37.977 6
G10  23780742.960 1 124968594.480 1      3544.164 1       -55.923 1  23780746.659 1         0.000 1      2761.689 1       -61.923 1
G21  21180910.344 9 111306414.408 9     -1258.528 9        55.705 9  21180909.631 6         0.000 6      -980.671 6        37.977 6
G21  21180910.344 1 111306415.387 1     -1258.528 1       -55.923 1  21180909.631 1         0.000 1      -980.671 1       -61.923 1
G29  24324556.277 9 127826349.173 9     -3100.889 9        54.466 9  24324557.878 6         0.000 6     -2416.280 6        37.977 6
G29  24324556.277 1 127826350.152 1     -3100.889 1       -55.923 1  24324557.878 1         0.000 1     -2416.280 1       -61.923 1
G27  21984872.549 9 115531258.130 9      2472.042 9        55.382 9  21984874.475 6         0.000 6      1926.267 6        37.977 6
G27  21984872.549 1 115531259.108 1      2472.042 1       -55.923 1  21984874.475 1         0.000 1      1926.267 1       -61.923 1
G16  20492997.119 9 107691406.401 9       522.526 9        55.978 9  20492996.292 6         0.000 6       407.163 6        37.977 6
G16  20492997.119 1 107691407.379 1       522.526 1       -55.923 1  20492996.292 1         0.000 1       407.163 1       -61.923 1
G26  20666669.802 9 108604060.472 9     -1509.855 9        55.868 9  20666672.623 6         0.000 6     -1176.511 6        37.977 6
G26  20666677.787 1 108604103.409 1     -1502.726 1       -55.923 1  20666680.608 1         0.000 1     -1170.956 1       -61.923 1
G20  21922971.004 9 115205957.297 9      2557.749 9        55.324 9  21922971.314 6         0.000 6      1993.053 6        37.977 6
G20  21922980.633 1 115206008.873 1      2566.371 1       -55.923 1  21922980.942 1         0.000 1      1999.771 1       -61.923 1
> 2019 07 03 12 01 43.0000000  0 16       0.000000000000
G07  25329271.247 1 133106172.849 1      2155.982 1       -55.923 1  25329271.907 1         0.000 1      1679.987 1       -61.923 1
G07  25329271.247 1 133106173.342 1      2155.982 1       -55.923 1  25329271.907 1         0.000 1      1679.987 1       -61.923 1
G10  23780055.739 9 124964982.141 9      3530.218 9        54.680 9  23780059.437 6         0.000 6      2750.822 6        37.977 6
G10  23780068.542 1 124965049.912 1      3544.021 1       -55.923 1  23780072.240 1         0.000 1      2761.578 1       -61.923 1
G21  21181149.867 9 111307673.112 9     -1258.882 9        55.705 9  21181149.155 6         0.000 6      -980.947 6        37.977 6
G21  21181149.867 1 111307673.605 1     -1258.882 1       -55.923 1  21181149.155 1         0.000 1      -980.947 1       -61.923 1
G29  24325146.365 9 127829450.094 9     -3100.973 9        54.466 9  24325147.967 6         0.000 6     -2416.345 6        37.977 6
G29  24325146.365 1 127829450.587 1     -3100.973 1       -55.923 1  24325147.967 1         0.000 1     -2416.345 1       -61.923 1
G27  21984402.158 9 115528786.208 9      2471.807 9        55.382 9  21984404.084 6         0.000 6      1926.084 6        37.977 6
G27  21984402.158 1 115528786.701 1      2471.807 1       -55.923 1  21984404.084 1         0.000 1      1926.084 1       -61.923 1
G16  20492897.744 9 107690884.182 9       521.911 9        55.978 9  20492896.917 6         0.000 6       406.684 6        37.977 6
G16  20492897.744 1 107690884.675 1       521.911 1       -55.923 1  20492896.917 1         0.000 1       406.684 1       -61.923 1
G26  20666957.173 9 108605570.611 9     -1510.427 9        55.868 9  20666959.994 6         0.000 6     -1176.956 6        37.977 6
G26  20666963.800 1 108605605.931 1     -1503.294 1       -55.923 1  20666966.621 1         0.000 1     -1171.398 1       -61.923 1
G20  21922484.323 9 115203399.775 9      2557.303 9        55.324 9  21922484.633 6         0.000 6      1992.705 6        37.977 6
G20  21922492.311 1 115203442.246 1      2565.921 1       -55.923 1  21922492.621 1         0.000 1      1999.420 1       -61.923 1
> 2019 07 03 12 01 44.0000000  0 16       0.000000000000
G07  25328861.021 1 133104017.103 1      2155.516 1       -55.923 1  25328861.682 1         0.000 1      1679.624 1       -61.923 1
G07  25328861.021 1 133104017.140 1      2155.516 1       -55.923 1  25328861.682 1         0.000 1      1679.624 1       -61.923 1
G10  23779383.974 9 124961452.003 9      3530.078 9        54.680 9  23779387.672 6         0.000 6      2750.712 6        37.977 6
G10  23779394.150 7 124961505.517 7      3543.878 7        44.680 7  23779397.848 6         0.000 6      2761.466 6        37.977 6
G21  21181389.458 9 111308932.171 9     -1259.237 9        55.705 9  21181388.746 6         0.000 6      -981.224 6        37.977 6
G21  21181389.458 1 111308932.208 1     -1259.237 1       -55.923 1  21181388.746 1         0.000 1      -981.224 1       -61.923 1
G29  24325736.468 9 127832551.099 9     -3101.057 9        54.466 9  24325738.071 6         0.000 6     -2416.410 6        37.977 6
G29  24325736.468 1 127832551.136 1     -3101.057 1       -55.923 1  24325738.071 1         0.000 1     -2416.410 1       -61.923 1
G27  21983931.811 9 115526314.520 9      2471.573 9        55.382 9  21983933.736 6         0.000 6      1925.902 6        37.977 6
G27  21983931.811 1 115526314.557 1      2471.573 1       -55.923 1  21983933.736 1         0.000 1      1925.902 1       -61.923 1
G16  20492798.486 9 107690362.579 9       521.295 9        55.978 9  20492797.659 6         0.000 6       406.204 6        37.977 6
G16  20492798.486 1 107690362.616 1       521.295 1       -55.923 1  20492797.659 1         0.000 1       406.204 1       -61.923 1
G26  20667244.652 9 108607081.322 9     -1510.998 9        55.868 9  20667247.473 6         0.000 6     -1177.402 6        37.977 6
G26  20667249.921 1 108607109.051 1     -1503.862 1       -55.923 1  20667252.742 1         0.000 1     -1171.841 1       -61.923 1
G20  21921997.727 9 115200842.700 9      2556.856 9        55.324 9  21921998.036 6         0.000 6      1992.357 6        37.977 6
G20  21922004.076 1 115200876.099 1      2565.471 1       -55.923 1  21922004.385 1         0.000 1      1999.069 1       -61.923 1
> 2019 07 03 12 01 45.0000000  0 16       0.000000000000
G07  25328450.885 1 133101861.824 1      2155.050 1       -55.923 1  25328451.545 1         0.000 1      1679.260 1       -61.923 1
G07  25328450.885 1 133101861.955 1      2155.050 1       -55.923 1  25328451.545 1         0.000 1      1679.260 1       -61.923 1
G10  23778712.236 9 124957922.007 9      3529.937 9        54.681 9  23778715.933 6         0.000 6      2750.603 6        37.977 6
G10  23778719.786 7 124957961.815 7      3543.735 7        44.681 7  23778723.483 6         0.000 6      2761.355 6        37.977 6
G21  21181629.117 9 111310191.584 9     -1259.591 9        55.705 9  21181628.405 6         0.000 6      -981.500 6        37.977 6
G21  21181629.117 1 111310191.715 1     -1259.591 1       -55.923 1  21181628.405 1         0.000 1      -981.500 1       -61.923 1
G29  24326326.588 9 127835652.187 9     -3101.140 9        54.465 9  24326328.191 6         0.000 6     -2416.475 6        37.977 6
G29  24326326.588 1 127835652.318 1     -3101.140 1       -55.923 1  24326328.191 1         0.000 1     -2416.475 1       -61.923 1
G27  21983461.508 9 115523843.067 9      2471.339 9        55.383 9  21983463.434 6         0.000 6      1925.719 6        37.977 6
G27  21983461.508 1 115523843.198 1      2471.339 1       -55.923 1  21983463.434 1         0.000 1      1925.719 1       -61.923 1
G16  20492699.345 9 107689841.591 9       520.680 9        55.978 9  20492698.518 6         0.000 6       405.725 6        37.977 6
G16  20492699.345 1 107689841.722 1       520.680 1       -55.923 1  20492698.518 1         0.000 1       405.725 1       -61.923 1
G26  20667532.239 9 108608592.604 9     -1511.570 9        55.868 9  20667535.061 6         0.000 6     -1177.847 6        37.977 6
G26  20667536.150 1 108608613.288 1     -1504.429 1       -55.923 1  20667538.972 1         0.000 1     -1172.283 1       -61.923 1
G20  21921511.216 9 115198286.072 9      2556.410 9        55.324 9  21921511.525 6         0.000 6      1992.009 6        37.977 6
G20  21921515.926 1 115198310.952 1      2565.020 1       -55.923 1  21921516.235 1         0.000 1      1998.718 1       -61.923 1
> 2019 07 03 12 01 46.0000000  0 16       0.000000000000
G07  25328040.837 1 133099707.011 1      2154.583 1       -55.923 1  25328041.497 1         0.000 1      1678.897 1       -61.923 1
G07  25328040.837 1 133099707.366 1      2154.583 1       -55.923 1  25328041.497 1         0.000 1      1678.897 1       -61.923 1
G10  23778040.525 9 124954392.151 9      3529.796 9        54.681 9  23778044.221 6         0.000 6      2750.493 6        37.977 6
G10  23778045.450 7 124954418.386 7      3543.592 7        44.681 7  23778049.146 6         0.000 6      2761.243 6        37.977 6
G21  21181868.843 9 111311451.352 9     -1259.946 9        55.705 9  21181868.131 6         0.000 6      -981.776 6        37.977 6
G21  21181868.843 1 111311451.707 1     -1259.946 1       -55.923 1  21181868.131 1         0.000 1      -981.776 1       -61.923 1
G29  24326916.723 9 127838753.358 9     -3101.224 9        54.465 9  24326918.327 6         0.000 6     -2416.541 6        37.977 6
G29  24326916.723 1 127838753.714 1     -3101.224 1       -55.923 1  24326918.327 1         0.000 1     -2416.541 1       -61.923 1
G27  21982991.250 9 115521371.848 9      2471.104 9        55.383 9  21982993.176 6         0.000 6      1925.536 6        37.977 6
G27  21982991.250 1 115521372.204 1      2471.104 1       -55.923 1  21982993.176 1         0.000 1      1925.536 1       -61.923 1
G16  20492600.322 9 107689321.219 9       520.065 9        55.979 9  20492599.495 6         0.000 6       405.245 6        37.977 6
G16  20492600.322 1 107689321.574 1       520.065 1       -55.923 1  20492599.495 1         0.000 1       405.245 1       -61.923 1
G26  20667819.936 9 108610104.458 9     -1512.141 9        55.867 9  20667822.757 6         0.000 6     -1178.292 6        37.977 6
G26  20667822.488 1 108610118.224 1     -1504.997 1       -55.923 1  20667825.309 1         0.000 1     -1172.725 1       -61.923 1
G20  21921024.790 9 115195729.890 9      2555.963 9        55.325 9  21921025.099 6         0.000 6      1991.661 6        37.977 6
G20  21921027.862 1 115195746.386 1      2564.570 1       -55.923 1  21921028.170 1         0.000 1      1998.367 1       -61.923 1
> 2019 07 03 12 01 47.0000000  0 16       0.000000000000
G07  25327630.877 1 133097552.664 1      2154.117 1       -55.923 1  25327631.537 1         0.000 1      1678.534 1       -61.923 1
G07  25327630.877 1 133097552.935 1      2154.117 1       -55.923 1  25327631.537 1         0.000 1      1678.534 1       -61.923 1
G10  23777368.840 9 124950862.436 9      3529.655 9        54.681 9  23777372.536 6         0.000 6      2750.383 6        37.977 6
G10  23777371.140 7 124950874.791 7      3543.449 7        44.681 7  23777374.836 6         0.000 6      2761.132 6        37.977 6
G21  21182108.636 9 111312711.474 9     -1260.300 9        55.705 9  21182107.924 6         0.000 6      -982.052 6        37.977 6
G21  21182108.636 1 111312711.745 1     -1260.300 1       -55.923 1  21182107.924 1         0.000 1      -982.052 1       -61.923 1
G29  24327506.874 1 127841854.614 1     -3101.307 1       -55.923 1  24327508.478 1         0.000 1     -2416.606 1       -61.923 1
G29  24327506.874 1 127841854.884 1     -3101.307 1       -55.923 1  24327508.478 1         0.000 1     -2416.606 1       -61.923 1
G27  21982521.037 9 115518900.864 9      2470.870 9        55.383 9  21982522.963 6         0.000 6      1925.354 6        37.977 6
G27  21982521.037 1 115518901.135 1      2470.870 1       -55.923 1  21982522.963 1         0.000 1      1925.354 1       -61.923 1
G16  20492501.415 9 107688801.462 9       519.449 9        55.979 9  20492500.588 6         0.000 6       404.766 6        37.977 6
G16  20492501.415 1 107688801.732 1       519.449 1       -55.923 1  20492500.588 1         0.000 1       404.766 1       -61.923 1
G26  20668107.741 9 108611616.883 9     -1512.713 9        55.867 9  20668110.563 6         0.000 6     -1178.738 6        37.977 6
G26  20668108.933 7 108611623.418 7     -1505.565 7        45.867 7  20668111.755 6         0.000 6     -1173.168 6        37.977 6
G20  21920538.449 9 115193174.155 9      2555.516 9        55.325 9  21920538.757 6         0.000 6      1991.312 6        37.977 6
G20  21920539.883 7 115193181.961 7      2564.119 7        45.325 7  21920540.191 6         0.000 6      1998.016 6        37.977 6
> 2019 07 03 12 01 48.0000000  0 16       0.000000000000
G07  25327221.007 1 133095398.784 1      2153.651 1       -55.923 1  25327221.667 1         0.000 1      1678.170 1       -61.923 1
G07  25327221.323 7 133095400.846 7      2140.263 7        44.138 7  25327221.982 6         0.000 6      1667.738 6        37.977 6
G10  23776697.183 9 124947332.862 9      3529.514 9        54.681 9  23776700.878 6         0.000 6      2750.273 6        37.977 6
G10  23776697.183 1 124947333.265 1      3529.514 1       -55.923 1  23776700.878 1         0.000 1      2750.273 1       -61.923 1
G21  21182348.497 1 111313971.951 1     -1260.655 1       -55.923 1  21182347.785 1         0.000 1      -982.328 1       -61.923 1
G21  21182348.571 7 111313972.742 7     -1263.788 7        45.705 7  21182347.859 6         0.000 6      -984.770 6        37.977 6
G29  24328097.041 1 127844955.952 1     -3101.391 1       -55.923 1  24328098.646 1         0.000 1     -2416.671 1       -61.923 1
G29  24328097.092 7 127844956.623 7     -3103.551 7        44.465 7  24328098.697 6         0.000 6     -2418.354 6        37.977 6
G27  21982050.869 1 115516430.114 1      2470.635 1       -55.923 1  21982052.794 1         0.000 1      1925.171 1       -61.923 1
G27  21982050.908 7 115516430.727 7      2468.947 7        45.383 7  21982052.834 6         0.000 6      1923.856 6        37.977 6
G16  20492402.626 1 107688282.320 1       518.834 1       -55.923 1  20492401.799 1         0.000 1       404.286 1       -61.923 1
G16  20492402.627 1 107688282.730 1       518.780 1       -55.923 1  20492401.800 1         0.000 1       404.244 1       -61.923 1
G26  20668395.655 9 108613129.880 9     -1513.284 9        55.867 9  20668398.477 6         0.000 6     -1179.183 6        37.977 6
G26  20668395.655 1 108613130.283 1     -1513.284 1       -55.923 1  20668398.477 1         0.000 1     -1179.183 1       -61.923 1
G20  21920052.193 9 115190618.867 9      2555.069 9        55.325 9  21920052.501 6         0.000 6      1990.964 6        37.977 6
G20  21920052.193 1 115190619.270 1      2555.069 1       -55.923 1  21920052.501 1         0.000 1      1990.964 1       -61.923 1
> 2019 07 03 12 01 49.0000000  0 16       0.000000000000
G07  25326811.225 1 133093245.370 1      2153.184 1       -55.923 1  25326811.885 1         0.000 1      1677.807 1       -61.923 1
G07  25326814.088 7 133093260.967 7      2139.798 7        44.138 7  25326814.748 6         0.000 6      1667.376 6        37.977 6
G10  23776025.552 9 124943803.429 9      3529.373 9        54.682 9  23776029.247 6         0.000 6      2750.163 6        37.977 6
G10  23776025.552 1 124943803.981 1      3529.373 1       -55.923 1  23776029.247 1         0.000 1      2750.163 1       -61.923 1
G21  21182588.426 1 111315232.782 1     -1261.009 1       -55.923 1  21182587.713 1         0.000 1      -982.605 1       -61.923 1
G21  21182589.096 1 111315236.856 1     -1264.145 1       -55.923 1  21182588.384 1         0.000 1      -985.048 1       -61.923 1
G29  24328687.224 1 127848057.375 1     -3101.474 1       -55.923 1  24328688.830 1         0.000 1     -2416.736 1       -61.923 1
G29  24328687.686 1 127848059.971 1     -3103.632 1       -55.923 1  24328689.292 1         0.000 1     -2418.417 1       -61.923 1
G27  21981580.745 1 115513959.599 1      2470.401 1       -55.923 1  21981582.670 1         0.000 1      1924.988 1       -61.923 1
G27  21981581.106 1 115513961.666 1      2468.711 1       -55.923 1  21981583.031 1         0.000 1      1923.672 1       -61.923 1
G16  20492303.953 1 107687763.794 1       518.219 1       -55.923 1  20492303.127 1         0.000 1       403.807 1       -61.923 1
G16  20492303.965 1 107687764.022 1       518.168 1       -55.923 1  20492303.138 1         0.000 1       403.767 1       -61.923 1
G26  20668683.678 9 108614643.448 9     -1513.856 9        55.867 9  20668686.500 6         0.000 6     -1179.628 6        37.977 6
G26  20668683.678 1 108614643.617 1     -1513.856 1       -55.923 1  20668686.500 1         0.000 1     -1179.628 1       -61.923 1
G20  21919566.022 9 115188064.026 9      2554.622 9        55.325 9  21919566.330 6         0.000 6      1990.616 6        37.977 6
G20  21919566.022 1 115188064.195 1      2554.622 1       -55.923 1  21919566.330 1         0.000 1      1990.616 1       -61.923 1
> 2019 07 03 12 01 50.0000000  0 16       0.000000000000
G07  25326401.532 1 133091092.422 1      2152.718 1       -55.923 1  25326402.191 1         0.000 1      1677.443 1       -61.923 1
G07  25326406.942 7 133091121.027 7      2139.334 7        44.139 7  25326407.601 6         0.000 6      1667.014 6        37.977 6
G10  23775353.948 9 124940274.138 9      3529.231 9        54.682 9  23775357.642 6         0.000 6      2750.053 6        37.977 6
G10  23775353.948 1 124940274.312 1      3529.231 1       -55.923 1  23775357.642 1         0.000 1      2750.053 1       -61.923 1
G21  21182828.421 1 111316493.967 1     -1261.363 1       -55.923 1  21182827.709 1         0.000 1      -982.881 1       -61.923 1
G21  21182829.689 1 111316500.802 1     -1264.502 1       -55.923 1  21182828.977 1         0.000 1      -985.327 1       -61.923 1
G29  24329277.423 1 127851158.880 1     -3101.558 1       -55.923 1  24329279.029 1         0.000 1     -2416.801 1       -61.923 1
G29  24329278.295 1 127851163.638 1     -3103.713 1       -55.923 1  24329279.901 1         0.000 1     -2418.480 1       -61.923 1
G27  21981110.665 1 115511489.318 1      2470.166 1       -55.923 1  21981112.590 1         0.000 1      1924.806 1       -61.923 1
G27  21981111.348 1 115511493.081 1      2468.475 1       -55.923 1  21981113.273 1         0.000 1      1923.488 1       -61.923 1
G16  20492205.398 1 107687245.883 1       517.603 1       -55.923 1  20492204.572 1         0.000 1       403.327 1       -61.923 1
G16  20492205.419 1 107687246.164 1       517.557 1       -55.923 1  20492204.592 1         0.000 1       403.291 1       -61.923 1
G26  20668971.809 9 108616157.587 9     -1514.427 9        55.867 9  20668974.632 6         0.000 6     -1180.073 6        37.977 6
G26  20668971.809 1 108616157.762 1     -1514.427 1       -55.923 1  20668974.632 1         0.000 1     -1180.073 1       -61.923 1
G20  21919079.936 9 115185509.632 9      2554.175 9        55.325 9  21919080.244 6         0.000 6      1990.267 6        37.977 6
G20  21919079.936 1 115185509.806 1      2554.175 1       -55.923 1  21919080.244 1         0.000 1      1990.267 1       -61.923 1
> 2019 07 03 12 01 51.0000000  0 16       0.000000000000
G07  25325991.928 1 133088939.942 1      2152.251 1       -55.923 1  25325992.587 1         0.000 1      1677.080 1       -61.923 1
G07  25325999.885 7 133088982.131 7      2138.870 7        44.139 7  25326000.544 6         0.000 6      1666.652 6        37.977 6
G10  23774682.371 9 124936744.987 9      3529.090 9        54.682 9  23774686.064 6         0.000 6      2749.943 6        37.977 6
G10  23774682.371 1 124936745.365 1      3529.090 1       -55.923 1  23774686.064 1         0.000 1      2749.943 1       -61.923 1
G21  21183068.484 1 111317755.507 1     -1261.717 1       -55.923 1  21183067.772 1         0.000 1      -983.157 1       -61.923 1
G21  21183070.350 1 111317765.686 1     -1264.860 1       -55.923 1  21183069.638 1         0.000 1      -985.605 1       -61.923 1
G29  24329867.638 1 127854260.470 1     -3101.641 1       -55.923 1  24329869.245 1         0.000 1     -2416.866 1       -61.923 1
G29  24329868.920 1 127854267.583 1     -3103.794 1       -55.923 1  24329870.527 1         0.000 1     -2418.543 1       -61.923 1
G27  21980640.631 1 115509019.271 1      2469.932 1       -55.923 1  21980642.555 1         0.000 1      1924.623 1       -61.923 1
G27  21980641.636 1 115509024.930 1      2468.239 1       -55.923 1  21980643.560 1         0.000 1      1923.303 1       -61.923 1
G16  20492106.960 1 107686728.587 1       516.988 1       -55.923 1  20492106.134 1         0.000 1       402.847 1       -61.923 1
G16  20492106.989 1 107686729.116 1       516.945 1       -55.923 1  20492106.162 1         0.000 1       402.814 1       -61.923 1
G26  20669260.050 9 108617672.298 9     -1514.998 9        55.867 9  20669262.872 6         0.000 6     -1180.519 6        37.977 6
G26  20669260.050 1 108617672.367 1     -1514.998 1       -55.923 1  20669262.872 1         0.000 1     -1180.519 1       -61.923 1
G20  21918593.935 9 115182955.685 9      2553.728 9        55.326 9  21918594.243 6         0.000 6      1989.919 6        37.977 6
G20  21918593.935 1 115182955.754 1      2553.728 1       -55.923 1  21918594.243 1         0.000 1      1989.919 1       -61.923 1
> 2019 07 03 12 01 52.0000000  0 16       0.000000000000
G07  25325582.413 1 133086787.927 1      2151.784 1       -55.923 1  25325583.071 1         0.000 1      1676.716 1       -61.923 1
G07  25325592.916 7 133086843.870 7      2138.405 7        44.139 7  25325593.574 6         0.000 6      1666.291 6        37.977 6
G10  23774010.821 9 124933215.979 9      3528.949 9        54.682 9  23774014.514 6         0.000 6      2749.833 6        37.977 6
G10  23774010.821 1 124933216.729 1      3528.949 1       -55.923 1  23774014.514 1         0.000 1      2749.833 1       -61.923 1
G21  21183308.615 1 111319017.400 1     -1262.072 1       -55.923 1  21183307.903 1         0.000 1      -983.433 1       -61.923 1
G21  21183311.078 1 111319031.096 1     -1265.217 1       -55.923 1  21183310.367 1         0.000 1      -985.884 1       -61.923 1
G29  24330457.869 1 127857362.142 1     -3101.725 1       -55.923 1  24330459.476 1         0.000 1     -2416.931 1       -61.923 1
G29  24330459.560 1 127857371.780 1     -3103.875 1       -55.923 1  24330461.167 1         0.000 1     -2418.606 1       -61.923 1
G27  21980170.641 1 115506549.459 1      2469.697 1       -55.923 1  21980172.565 1         0.000 1      1924.440 1       -61.923 1
G27  21980171.968 1 115506557.021 1      2468.002 1       -55.923 1  21980173.892 1         0.000 1      1923.119 1       -61.923 1
G16  20492008.639 1 107686211.908 1       516.372 1       -55.923 1  20492007.813 1         0.000 1       402.368 1       -61.923 1
G16  20492008.676 1 107686212.686 1       516.333 1       -55.923 1  20492007.849 1         0.000 1       402.337 1       -61.923 1
G26  20669548.399 9 108619187.580 9     -1515.570 9        55.867 9  20669551.221 6         0.000 6     -1180.964 6        37.977 6
G26  20669548.399 1 108619188.167 1     -1515.570 1       -55.923 1  20669551.221 1         0.000 1     -1180.964 1       -61.923 1
G20  21918108.020 9 115180402.185 9      2553.280 9        55.326 9  21918108.327 6         0.000 6      1989.570 6        37.977 6
G20  21918108.020 1 115180402.771 1      2553.280 1       -55.923 1  21918108.327 1         0.000 1      1989.570 1       -61.923 1
> 2019 07 03 12 01 53.0000000  0 16       0.000000000000
G07  25325172.986 1 133084636.380 1      2151.318 1       -55.923 1  25325173.645 1         0.000 1      1676.352 1       -61.923 1
G07  25325186.035 7 133084705.366 7      2137.940 7        44.139 7  25325186.693 6         0.000 6      1665.928 6        37.977 6
G10  23773339.298 9 124929687.112 9      3528.807 9        54.683 9  23773342.990 6         0.000 6      2749.722 6        37.977 6
G10  23773339.298 1 124929687.526 1      3528.807 1       -55.923 1  23773342.990 1         0.000 1      2749.722 1       -61.923 1
G21  21183548.813 1 111320279.648 1     -1262.426 1       -55.923 1  21183548.101 1         0.000 1      -983.708 1       -61.923 1
G21  21183551.875 1 111320296.156 1     -1265.574 1       -55.923 1  21183551.163 1         0.000 1      -986.162 1       -61.923 1
G29  24331048.115 1 127860463.898 1     -3101.808 1       -55.923 1  24331049.723 1         0.000 1     -2416.996 1       -61.923 1
G29  24331050.215 1 127860475.350 1     -3103.956 1       -55.923 1  24331051.823 1         0.000 1     -2418.669 1       -61.923 1
G27  21979700.695 1 115504079.882 1      2469.463 1       -55.923 1  21979702.619 1         0.000 1      1924.257 1       -61.923 1
G27  21979702.345 1 115504088.851 1      2467.766 1       -55.923 1  21979704.270 1         0.000 1      1922.935 1       -61.923 1
G16  20491910.436 1 107685695.844 1       515.756 1       -55.923 1  20491909.609 1         0.000 1       401.888 1       -61.923 1
G16  20491910.479 1 107685696.370 1       515.721 1       -55.923 1  20491909.652 1         0.000 1       401.861 1       -61.923 1
G26  20669836.856 9 108620703.434 9     -1516.141 9        55.867 9  20669839.679 6         0.000 6     -1181.409 6        37.977 6
G26  20669836.856 1 108620703.731 1     -1516.141 1       -55.923 1  20669839.679 1         0.000 1     -1181.409 1       -61.923 1
G20  21917622.189 9 115177849.133 9      2552.833 9        55.326 9  21917622.496 6         0.000 6      1989.222 6        37.977 6
G20  21917622.189 1 115177849.431 1      2552.833 1       -55.923 1  21917622.496 1         0.000 1      1989.222 1       -61.923 1
> 2019 07 03 12 01 54.0000000  0 16       0.000000000000
G07  25324763.649 1 133082485.299 1      2150.851 1       -55.923 1  25324764.307 1         0.000 1      1675.989 1       -61.923 1
G07  25324779.243 7 133082567.727 7      2137.476 7        44.139 7  25324779.901 6         0.000 6      1665.566 6        37.977 6
G10  23772667.802 9 124926158.386 9      3528.665 9        54.683 9  23772671.493 6         0.000 6      2749.612 6        37.977 6
G10  23772667.802 1 124926158.867 1      3528.665 1       -55.923 1  23772671.493 1         0.000 1      2749.612 1       -61.923 1
G21  21183789.078 1 111321542.250 1     -1262.780 1       -55.923 1  21183788.366 1         0.000 1      -983.984 1       -61.923 1
G21  21183792.740 1 111321561.975 1     -1265.931 1       -55.923 1  21183792.028 1         0.000 1      -986.440 1       -61.923 1
G29  24331638.378 1 127863565.738 1     -3101.891 1       -55.923 1  24331639.986 1         0.000 1     -2417.061 1       -61.923 1
G29  24331640.886 1 127863579.091 1     -3104.037 1       -55.923 1  24331642.495 1         0.000 1     -2418.732 1       -61.923 1
G27  21979230.794 1 115501610.539 1      2469.228 1       -55.923 1  21979232.718 1         0.000 1      1924.074 1       -61.923 1
G27  21979232.768 1 115501621.079 1      2467.529 1       -55.923 1  21979234.692 1         0.000 1      1922.751 1       -61.923 1
G16  20491812.349 1 107685180.395 1       515.141 1       -55.923 1  20491811.522 1         0.000 1       401.408 1       -61.923 1
G16  20491812.399 1 107685180.827 1       515.110 1       -55.923 1  20491811.572 1         0.000 1       401.384 1       -61.923 1
G26  20670125.423 9 108622219.859 9     -1516.712 9        55.867 9  20670128.245 6         0.000 6     -1181.854 6        37.977 6
G26  20670125.423 1 108622220.029 1     -1516.712 1       -55.923 1  20670128.245 1         0.000 1     -1181.854 1       -61.923 1
G20  21917136.444 9 115175296.528 9      2552.385 9        55.326 9  21917136.750 6         0.000 6      1988.873 6        37.977 6
G20  21917136.444 1 115175296.698 1      2552.385 1       -55.923 1  21917136.750 1         0.000 1      1988.873 1       -61.923 1
> 2019 07 03 12 01 55.0000000  0 16       0.000000000000
G07  25324354.400 1 133080334.685 1      2150.384 1       -55.923 1  25324355.058 1         0.000 1      1675.625 1       -61.923 1
G07  25324372.539 7 133080430.244 7      2137.011 7        44.139 7  25324373.197 6         0.000 6      1665.204 6        37.977 6
G10  23771996.333 9 124922629.802 9      3528.523 9        54.683 9  23772000.023 6         0.000 6      2749.501 6        37.977 6
G10  23771996.333 1 124922630.040 1      3528.523 1       -55.923 1  23772000.023 1         0.000 1      2749.501 1       -61.923 1
G21  21184029.411 1 111322805.206 1     -1263.134 1       -55.923 1  21184028.699 1         0.000 1      -984.260 1       -61.923 1
G21  21184033.673 1 111322827.910 1     -1266.288 1       -55.923 1  21184032.961 1         0.000 1      -986.718 1       -61.923 1
G29  24332228.656 1 127866667.661 1     -3101.975 1       -55.923 1  24332230.265 1         0.000 1     -2417.126 1       -61.923 1
G29  24332231.572 1 127866683.294 1     -3104.117 1       -55.923 1  24332233.182 1         0.000 1     -2418.795 1       -61.923 1
G27  21978760.938 1 115499141.431 1      2468.993 1       -55.923 1  21978762.862 1         0.000 1      1923.891 1       -61.923 1
G27  21978763.235 1 115499153.807 1      2467.293 1       -55.923 1  21978765.159 1         0.000 1      1922.567 1       -61.923 1
G16  20491714.380 1 107684665.562 1       514.525 1       -55.923 1  20491713.553 1         0.000 1       400.929 1       -61.923 1
G16  20491714.435 1 107684666.159 1       514.498 1       -55.923 1  20491713.608 1         0.000 1       400.907 1       -61.923 1
G26  20670414.098 9 108623736.854 9     -1517.283 9        55.866 9  20670416.920 6         0.000 6     -1182.299 6        37.977 6
G26  20670414.098 1 108623737.161 1     -1517.283 1       -55.923 1  20670416.920 1         0.000 1     -1182.299 1       -61.923 1
G20  21916650.784 9 115172744.371 9      2551.938 9        55.326 9  21916651.090 6         0.000 6      1988.524 6        37.977 6
G20  21916650.784 1 115172744.678 1      2551.938 1       -55.923 1  21916651.090 1         0.000 1      1988.524 1       -61.923 1
> 2019 07 03 12 01 56.0000000  0 16       0.000000000000
G07  25323945.240 1 133078184.538 1      2149.917 1       -55.923 1  25323945.897 1         0.000 1      1675.261 1       -61.923 1
G07  25323965.923 7 133078293.380 7      2136.546 7        44.139 7  25323966.581 6         0.000 6      1664.842 6        37.977 6
G10  23771324.891 9 124919101.360 9      3528.381 9        54.683 9  23771328.581 6         0.000 6      2749.391 6        37.977 6
G10  23771324.891 1 124919101.509 1      3528.381 1       -55.923 1  23771328.581 1         0.000 1      2749.391 1       -61.923 1
G21  21184269.811 1 111324068.516 1     -1263.488 1       -55.923 1  21184269.099 1         0.000 1      -984.536 1       -61.923 1
G21  21184274.673 1 111324094.218 1     -1266.645 1       -55.923 1  21184273.962 1         0.000 1      -986.997 1       -61.923 1
G29  24332818.950 1 127869769.667 1     -3102.058 1       -55.923 1  24332820.560 1         0.000 1     -2417.191 1       -61.923 1
G29  24332822.274 1 127869787.283 1     -3104.198 1       -55.923 1  24332823.884 1         0.000 1     -2418.858 1       -61.923 1
G27  21978291.127 1 115496672.558 1      2468.758 1       -55.923 1  21978293.051 1         0.000 1      1923.709 1       -61.923 1
G27  21978293.747 1 115496686.477 1      2467.056 1       -55.923 1  21978295.671 1         0.000 1      1922.382 1       -61.923 1
G16  20491616.527 1 107684151.345 1       513.909 1       -55.923 1  20491615.701 1         0.000 1       400.449 1       -61.923 1
G16  20491616.587 1 107684151.809 1       513.886 1       -55.923 1  20491615.761 1         0.000 1       400.431 1       -61.923 1
G26  20670702.882 9 108625254.422 9     -1517.854 9        55.866 9  20670705.704 6         0.000 6     -1182.744 6        37.977 6
G26  20670702.882 1 108625254.570 1     -1517.854 1       -55.923 1  20670705.704 1         0.000 1     -1182.744 1       -61.923 1
G20  21916165.209 9 115170192.662 9      2551.490 9        55.327 9  21916165.514 6         0.000 6      1988.175 6        37.977 6
G20  21916165.209 1 115170192.810 1      2551.490 1       -55.923 1  21916165.514 1         0.000 1      1988.175 1       -61.923 1
> 2019 07 03 12 01 57.0000000  0 16       0.000000000000
G07  25323536.168 1 133076034.858 1      2149.450 1       -55.923 1  25323536.826 1         0.000 1      1674.897 1       -61.923 1
G07  25323559.396 7 133076157.864 7      2136.081 7        44.140 7  25323560.054 6         0.000 6      1664.480 6        37.977 6
G10  23770653.476 9 124915573.060 9      3528.239 9        54.684 9  23770657.165 6         0.000 6      2749.280 6        37.977 6
G10  23770653.476 1 124915574.003 1      3528.239 1       -55.923 1  23770657.165 1         0.000 1      2749.280 1       -61.923 1
G21  21184510.278 1 111325332.180 1     -1263.841 1       -55.923 1  21184509.566 1         0.000 1      -984.812 1       -61.923 1
G21  21184515.742 1 111325361.836 1     -1267.002 1       -55.923 1  21184515.030 1         0.000 1      -987.275 1       -61.923 1
G29  24333409.260 1 127872871.757 1     -3102.142 1       -55.923 1  24333410.870 1         0.000 1     -2417.256 1       -61.923 1
G29  24333412.991 1 127872892.305 1     -3104.279 1       -55.923 1  24333414.601 1         0.000 1     -2418.921 1       -61.923 1
G27  21977821.360 1 115494203.920 1      2468.524 1       -55.923 1  21977823.284 1         0.000 1      1923.526 1       -61.923 1
G27  21977824.304 1 115494220.336 1      2466.820 1       -55.923 1  21977826.228 1         0.000 1      1922.198 1       -61.923 1
G16  20491518.792 1 107683637.744 1       513.293 1       -55.923 1  20491517.966 1         0.000 1       399.969 1       -61.923 1
G16  20491518.856 1 107683639.023 1       513.274 1       -55.923 1  20491518.030 1         0.000 1       399.954 1       -61.923 1
G26  20670991.774 9 108626772.560 9     -1518.426 9        55.866 9  20670994.597 6         0.000 6     -1183.189 6        37.977 6
G26  20670991.774 1 108626773.503 1     -1518.426 1       -55.923 1  20670994.597 1         0.000 1     -1183.189 1       -61.923 1
G20  21915679.719 9 115167641.400 9      2551.042 9        55.327 9  21915680.024 6         0.000 6      1987.826 6        37.977 6
G20  21915679.719 1 115167642.343 1      2551.042 1       -55.923 1  21915680.024 1         0.000 1      1987.826 1       -61.923 1
> 2019 07 03 12 01 58.0000000  0 16       0.000000000000
G07  25323127.186 1 133073885.645 1      2148.983 1       -55.923 1  25323127.844 1         0.000 1      1674.533 1       -61.923 1
G07  25323152.958 7 133074021.492 7      2135.616 7        44.140 7  25323153.615 6         0.000 6      1664.117 6        37.977 6
G10  23769982.087 9 124912044.903 9      3528.097 9        54.684 9  23769985.776 6         0.000 6      2749.169 6        37.977 6
G10  23769982.087 1 124912045.319 1      3528.097 1       -55.923 1  23769985.776 1         0.000 1      2749.169 1       -61.923 1
G21  21184750.813 1 111326596.197 1     -1264.195 1       -55.923 1  21184750.101 1         0.000 1      -985.087 1       -61.923 1
G21  21184756.879 1 111326628.489 1     -1267.359 1       -55.923 1  21184756.167 1         0.000 1      -987.553 1       -61.923 1
G29  24333999.586 1 127875973.930 1     -3102.225 1       -55.923 1  24334001.197 1         0.000 1     -2417.321 1       -61.923 1
G29  24334003.723 1 127875996.088 1     -3104.360 1       -55.923 1  24334005.334 1         0.000 1     -2418.984 1       -61.923 1
G27  21977351.638 1 115491735.516 1      2468.289 1       -55.923 1  21977353.561 1         0.000 1      1923.343 1       -61.923 1
G27  21977354.907 1 115491753.110 1      2466.583 1       -55.923 1  21977356.830 1         0.000 1      1922.014 1       -61.923 1
G16  20491421.174 1 107683124.758 1       512.678 1       -55.923 1  20491420.348 1         0.000 1       399.489 1       -61.923 1
G16  20491421.242 1 107683125.529 1       512.662 1       -55.923 1  20491420.415 1         0.000 1       399.477 1       -61.923 1
G26  20671280.775 9 108628291.269 9     -1518.997 9        55.866 9  20671283.598 6         0.000 6     -1183.634 6        37.977 6
G26  20671280.775 1 108628291.685 1     -1518.997 1       -55.923 1  20671283.598 1         0.000 1     -1183.634 1       -61.923 1
G20  21915194.314 9 115165090.586 9      2550.594 9        55.327 9  21915194.620 6         0.000 6      1987.477 6        37.977 6
G20  21915194.314 1 115165091.002 1      2550.594 1       -55.923 1  21915194.620 1         0.000 1      1987.477 1       -61.923 1
> 2019 07 03 12 01 59.0000000  0 16       0.000000000000
G07  25322718.293 1 133071736.900 1      2148.516 1       -55.923 1  25322718.950 1         0.000 1      1674.169 1       -61.923 1
G07  25322746.608 7 133071886.188 7      2135.151 7        44.140 7  25322747.265 6         0.000 6      1663.755 6        37.977 6
G10  23769310.726 9 124908516.887 9      3527.955 9        54.684 9  23769314.414 6         0.000 6      2749.059 6        37.977 6
G10  23769310.726 1 124908517.379 1      3527.955 1       -55.923 1  23769314.414 1         0.000 1      2749.059 1       -61.923 1
G21  21184991.415 1 111327860.569 1     -1264.549 1       -55.923 1  21184990.703 1         0.000 1      -985.363 1       -61.923 1
G21  21184998.083 1 111327896.102 1     -1267.716 1       -55.923 1  21184997.371 1         0.000 1      -987.831 1       -61.923 1
G29  24334589.927 1 127879076.186 1     -3102.308 1       -55.923 1  24334591.539 1         0.000 1     -2417.386 1       -61.923 1
G29  24334594.471 1 127879100.553 1     -3104.440 1       -55.923 1  24334596.083 1         0.000 1     -2419.047 1       -61.923 1
G27  21976881.961 1 115489267.347 1      2468.054 1       -55.923 1  21976883.884 1         0.000 1      1923.160 1       -61.923 1
G27  21976885.554 1 115489286.724 1      2466.347 1       -55.923 1  21976887.477 1         0.000 1      1921.829 1       -61.923 1
G16  20491323.674 1 107682612.388 1       512.062 1       -55.923 1  20491322.847 1         0.000 1       399.009 1       -61.923 1
G16  20491323.744 1 107682613.248 1       512.050 1       -55.923 1  20491322.917 1         0.000 1       399.000 1       -61.923 1
G26  20671569.885 9 108629810.549 9     -1519.568 9        55.866 9  20671572.708 6         0.000 6     -1184.079 6        37.977 6
G26  20671569.885 1 108629811.042 1     -1519.568 1       -55.923 1  20671572.708 1         0.000 1     -1184.079 1       -61.923 1
G20  21914708.995 9 115162540.220 9      2550.146 9        55.327 9  21914709.300 6         0.000 6      1987.128 6        37.977 6
G20  21914708.995 1 115162540.712 1      2550.146 1       -55.923 1  21914709.300 1         0.000 1      1987.128 1       -61.923 1
> 2019 07 03 12 02  0.0000000  0 16       0.000000000000
G07  25322309.488 1 133069588.621 1      2148.048 1       -55.923 1  25322310.145 1         0.000 1      1673.805 1       -61.923 1
G07  25322340.346 7 133069751.720 7      2134.686 7        44.140 7  25322341.003 6         0.000 6      1663.392 6        37.977 6
G10  23768639.392 9 124904989.014 9      3527.813 9        54.684 9  23768643.080 6         0.000 6      2748.948 6        37.977 6
G10  23768639.392 1 124904989.952 1      3527.813 1       -55.923 1  23768643.080 1         0.000 1      2748.948 1       -61.923 1
G21  21185232.084 1 111329125.294 1     -1264.903 1       -55.923 1  21185231.373 1         0.000 1      -985.639 1       -61.923 1
G21  21185239.355 1 111329164.443 1     -1268.073 1       -55.923 1  21185238.644 1         0.000 1      -988.109 1       -61.923 1
G29  24335180.285 1 127882178.525 1     -3102.391 1       -55.923 1  24335181.897 1         0.000 1     -2417.450 1       -61.923 1
G29  24335185.234 1 127882205.470 1     -3104.521 1       -55.923 1  24335186.846 1         0.000 1     -2419.110 1       -61.923 1
G27  21976412.328 1 115486799.413 1      2467.819 1       -55.923 1  21976414.251 1         0.000 1      1922.977 1       -61.923 1
G27  21976416.246 1 115486820.945 1      2466.110 1       -55.923 1  21976418.170 1         0.000 1      1921.645 1       -61.923 1
G16  20491226.290 1 107682100.635 1       511.446 1       -55.923 1  20491225.463 1         0.000 1       398.529 1       -61.923 1
G16  20491226.362 1 107682101.951 1       511.438 1       -55.923 1  20491225.535 1         0.000 1       398.523 1       -61.923 1
G26  20671859.103 9 108631330.401 9     -1520.139 9        55.866 9  20671861.927 6         0.000 6     -1184.524 6        37.977 6
G26  20671859.103 1 108631331.340 1     -1520.139 1       -55.923 1  20671861.927 1         0.000 1     -1184.524 1       -61.923 1
G20  21914223.761 9 115159990.302 9      2549.698 9        55.327 9  21914224.066 6         0.000 6      1986.779 6        37.977 6
G20  21914223.761 1 115159991.241 1      2549.698 1       -55.923 1  21914224.066 1         0.000 1      1986.779 1       -61.923 1
