     3.00           Observation Data    M (Mixed)           RINEX VERSION / TYPE
SimGEN V6.06.00     Spirent             03-Jul-19 12:00     PGM / RUN BY / DATE 
                                                            MARKER NAME         
1                                                           MARKER NUMBER       
GROUND_CRAFT                                                MARKER TYPE         
jin4hi              Spirent                                 OBSERVER / AGENCY   
rec_num             rec_type            rec_vers            REC # / TYPE / VERS 
1                   ant_type                                ANT # / TYPE        
  1000.000                                                  INTERVAL            
  2019     7     3    12     0    1.0000000     GPS         TIME OF FIRST OBS   
  4162648.2270   664428.8560  4770549.9870                  APPROX POSITION XYZ 
        0.0000        0.0000        0.0000                  ANTENNA: DELTA H/E/N
G    8 C1C L1C D1C S1C C2C L2C D2C S2C                      SYS / # / OBS TYPES 
        0.0000        0.0000        0.0000                  ANTENNA: DELTA X/Y/Z
DBHZ                                                        SIGNAL STRENGTH UNIT
                                                            END OF HEADER       
> 2019 07 03 12 00  1.0000000  0  8       0.000000000000
G07  25371586.179 9 133328538.951 9      2213.130 9        54.123 9  25371586.862 6         0.000 6      1724.517 6        37.977 6
G10  23848715.161 9 125325788.752 9      3537.188 9        54.655 9  23848718.927 6         0.000 6      2756.250 6        37.977 6
G21  21157038.846 9 111180968.911 9     -1229.943 9        55.715 9  21157038.129 6         0.000 6      -958.397 6        37.977 6
G29  24264964.223 9 127513191.839 9     -3115.004 9        54.487 9  24264965.760 6         0.000 6     -2427.276 6        37.977 6
G27  22032663.671 9 115782401.896 9      2513.192 9        55.363 9  22032665.614 6         0.000 6      1958.331 6        37.977 6
G16  20503661.869 9 107747450.039 9       592.856 9        55.974 9  20503661.042 6         0.000 6       461.965 6        37.977 6
G26  20638226.429 9 108454589.718 9     -1449.557 9        55.880 9  20638229.240 6         0.000 6     -1129.525 6        37.977 6
G20  21972540.352 9 115466445.518 9      2591.282 9        55.304 9  21972540.689 6         0.000 6      2019.181 6        37.977 6
> 2019 07 03 12 00  2.0000000  0  8       0.000000000000
G07  25371165.067 9 133326325.996 9      2212.731 9        54.123 9  25371165.750 6         0.000 6      1724.207 6        37.977 6
G10  23848042.066 9 125322251.621 9      3537.076 9        54.655 9  23848045.830 6         0.000 6      2756.166 6        37.977 6
G21  21157272.931 9 111182199.037 9     -1230.308 9        55.715 9  21157272.214 6         0.000 6      -958.682 6        37.977 6
G29  24265557.002 9 127516306.903 9     -3115.118 9        54.487 9  24265558.540 6         0.000 6     -2427.367 6        37.977 6
G27  22032185.448 9 115779888.820 9      2512.962 9        55.363 9  22032187.390 6         0.000 6      1958.153 6        37.977 6
G16  20503549.110 9 107746857.489 9       592.242 9        55.974 9  20503548.284 6         0.000 6       461.488 6        37.977 6
G26  20638502.326 9 108456039.563 9     -1450.136 9        55.880 9  20638505.136 6         0.000 6     -1129.976 6        37.977 6
G20  21972047.288 9 115463854.454 9      2590.850 9        55.305 9  21972047.625 6         0.000 6      2018.845 6        37.977 6
> 2019 07 03 12 00  3.0000000  0  8       0.000000000000
G07  25370744.041 9 133324113.497 9      2212.276 9        54.123 9  25370744.724 6         0.000 6      1723.852 6        37.977 6
G10  23847368.995 9 125318714.622 9      3536.945 9        54.656 9  23847372.759 6         0.000 6      2756.063 6        37.977 6
G21  21157507.086 9 111183429.526 9     -1230.672 9        55.715 9  21157506.369 6         0.000 6      -958.966 6        37.977 6
G29  24266149.797 9 127519422.054 9     -3115.205 9        54.487 9  24266151.336 6         0.000 6     -2427.435 6        37.977 6
G27  22031707.269 9 115777375.979 9      2512.727 9        55.364 9  22031709.212 6         0.000 6      1957.970 6        37.977 6
G16  20503436.469 9 107746265.554 9       591.629 9        55.974 9  20503435.642 6         0.000 6       461.009 6        37.977 6
G26  20638778.333 9 108457489.985 9     -1450.712 9        55.880 9  20638781.143 6         0.000 6     -1130.426 6        37.977 6
G20  21971554.307 9 115461263.828 9      2590.412 9        55.305 9  21971554.644 6         0.000 6      2018.504 6        37.977 6
> 2019 07 03 12 00  4.0000000  0  8       0.000000000000
G07  25370323.103 9 133321901.455 9      2211.821 9        54.124 9  25370323.786 6         0.000 6      1723.498 6        37.977 6
G10  23846695.949 9 125315177.749 9      3536.813 9        54.656 9  23846699.712 6         0.000 6      2755.961 6        37.977 6
G21  21157741.309 9 111184660.377 9     -1231.036 9        55.715 9  21157740.592 6         0.000 6      -959.249 6        37.977 6
G29  24266742.609 9 127522537.292 9     -3115.291 9        54.487 9  24266744.149 6         0.000 6     -2427.502 6        37.977 6
G27  22031229.135 9 115774863.370 9      2512.492 9        55.364 9  22031231.078 6         0.000 6      1957.787 6        37.977 6
G16  20503323.943 9 107745674.229 9       591.015 9        55.974 9  20503323.117 6         0.000 6       460.531 6        37.977 6
G26  20639054.448 9 108458940.980 9     -1451.289 9        55.880 9  20639057.259 6         0.000 6     -1130.875 6        37.977 6
G20  21971061.409 9 115458673.635 9      2589.974 9        55.305 9  21971061.746 6         0.000 6      2018.163 6        37.977 6
> 2019 07 03 12 00  5.0000000  0  8       0.000000000000
G07  25369902.251 9 133319689.865 9      2211.366 9        54.124 9  25369902.933 6         0.000 6      1723.143 6        37.977 6
G10  23846022.928 9 125311641.012 9      3536.682 9        54.656 9  23846026.690 6         0.000 6      2755.859 6        37.977 6
G21  21157975.602 9 111185891.595 9     -1231.400 9        55.715 9  21157974.885 6         0.000 6      -959.533 6        37.977 6
G29  24267335.437 9 127525652.617 9     -3115.378 9        54.486 9  24267336.978 6         0.000 6     -2427.570 6        37.977 6
G27  22030751.046 9 115772350.998 9      2512.257 9        55.364 9  22030752.988 6         0.000 6      1957.604 6        37.977 6
G16  20503211.535 9 107745083.522 9       590.401 9        55.974 9  20503210.709 6         0.000 6       460.053 6        37.977 6
G26  20639330.674 9 108460392.555 9     -1451.866 9        55.879 9  20639333.485 6         0.000 6     -1131.324 6        37.977 6
G20  21970568.595 9 115456083.885 9      2589.536 9        55.305 9  21970568.932 6         0.000 6      2017.822 6        37.977 6
> 2019 07 03 12 00  6.0000000  0  8       0.000000000000
G07  25369481.486 9 133317478.733 9      2210.911 9        54.124 9  25369482.168 6         0.000 6      1722.789 6        37.977 6
G10  23845349.931 9 125308104.402 9      3536.551 9        54.656 9  23845353.693 6         0.000 6      2755.756 6        37.977 6
G21  21158209.964 9 111187123.174 9     -1231.764 9        55.714 9  21158209.247 6         0.000 6      -959.816 6        37.977 6
G29  24267928.282 9 127528768.028 9     -3115.465 9        54.486 9  24267929.823 6         0.000 6     -2427.638 6        37.977 6
G27  22030273.002 9 115769838.859 9      2512.023 9        55.364 9  22030274.944 6         0.000 6      1957.421 6        37.977 6
G16  20503099.244 9 107744493.425 9       589.787 9        55.974 9  20503098.417 6         0.000 6       459.574 6        37.977 6
G26  20639607.009 9 108461844.703 9     -1452.442 9        55.879 9  20639609.820 6         0.000 6     -1131.774 6        37.977 6
G20  21970075.863 9 115453494.568 9      2589.098 9        55.305 9  21970076.200 6         0.000 6      2017.480 6        37.977 6
> 2019 07 03 12 00  7.0000000  0  8       0.000000000000
G07  25369060.807 9 133315268.053 9      2210.456 9        54.124 9  25369061.488 6         0.000 6      1722.434 6        37.977 6
G10  23844676.961 9 125304567.928 9      3536.419 9        54.657 9  23844680.722 6         0.000 6      2755.654 6        37.977 6
G21  21158444.395 9 111188355.119 9     -1232.128 9        55.714 9  21158443.679 6         0.000 6      -960.100 6        37.977 6
G29  24268521.144 9 127531883.527 9     -3115.552 9        54.486 9  24268522.686 6         0.000 6     -2427.705 6        37.977 6
G27  22029795.002 9 115767326.956 9      2511.788 9        55.364 9  22029796.944 6         0.000 6      1957.238 6        37.977 6
G16  20502987.069 9 107743903.945 9       589.173 9        55.974 9  20502986.243 6         0.000 6       459.096 6        37.977 6
G26  20639883.454 9 108463297.432 9     -1453.019 9        55.879 9  20639886.265 6         0.000 6     -1132.223 6        37.977 6
G20  21969583.216 9 115450905.693 9      2588.660 9        55.306 9  21969583.552 6         0.000 6      2017.139 6        37.977 6
> 2019 07 03 12 00  8.0000000  0  8       0.000000000000
G07  25368640.215 9 133313057.831 9      2210.001 9        54.124 9  25368640.896 6         0.000 6      1722.080 6        37.977 6
G10  23844004.014 9 125301031.581 9      3536.287 9        54.657 9  23844007.775 6         0.000 6      2755.551 6        37.977 6
G21  21158678.896 9 111189587.426 9     -1232.492 9        55.714 9  21158678.179 6         0.000 6      -960.383 6        37.977 6
G29  24269114.022 9 127534999.112 9     -3115.639 9        54.486 9  24269115.564 6         0.000 6     -2427.773 6        37.977 6
G27  22029317.047 9 115764815.287 9      2511.553 9        55.364 9  22029318.988 6         0.000 6      1957.055 6        37.977 6
G16  20502875.011 9 107743315.075 9       588.559 9        55.974 9  20502874.185 6         0.000 6       458.617 6        37.977 6
G26  20640160.009 9 108464750.733 9     -1453.596 9        55.879 9  20640162.820 6         0.000 6     -1132.672 6        37.977 6
G20  21969090.651 9 115448317.253 9      2588.222 9        55.306 9  21969090.987 6         0.000 6      2016.797 6        37.977 6
> 2019 07 03 12 00  9.0000000  0  8       0.000000000000
G07  25368219.709 9 133310848.064 9      2209.546 9        54.124 9  25368220.391 6         0.000 6      1721.725 6        37.977 6
G10  23843331.093 9 125297495.368 9      3536.156 9        54.657 9  23843334.853 6         0.000 6      2755.449 6        37.977 6
G21  21158913.465 9 111190820.097 9     -1232.855 9        55.714 9  21158912.749 6         0.000 6      -960.667 6        37.977 6
G29  24269706.916 9 127538114.778 9     -3115.725 9        54.486 9  24269708.458 6         0.000 6     -2427.841 6        37.977 6
G27  22028839.137 9 115762303.858 9      2511.318 9        55.365 9  22028841.078 6         0.000 6      1956.872 6        37.977 6
G16  20502763.071 9 107742726.825 9       587.945 9        55.974 9  20502762.244 6         0.000 6       458.139 6        37.977 6
G26  20640436.673 9 108466204.615 9     -1454.172 9        55.879 9  20640439.484 6         0.000 6     -1133.122 6        37.977 6
G20  21968598.170 9 115445729.252 9      2587.783 9        55.306 9  21968598.506 6         0.000 6      2016.456 6        37.977 6
> 2019 07 03 12 00 10.0000000  0  8       0.000000000000
G07  25367799.291 9 133308638.752 9      2209.090 9        54.124 9  25367799.972 6         0.000 6      1721.370 6        37.977 6
G10  23842658.197 9 125293959.285 9      3536.024 9        54.657 9  23842661.956 6         0.000 6      2755.346 6        37.977 6
G21  21159148.104 9 111192053.131 9     -1233.219 9        55.714 9  21159147.388 6         0.000 6      -960.950 6        37.977 6
G29  24270299.827 9 127541230.537 9     -3115.812 9        54.485 9  24270301.370 6         0.000 6     -2427.908 6        37.977 6
G27  22028361.271 9 115759792.658 9      2511.083 9        55.365 9  22028363.212 6         0.000 6      1956.689 6        37.977 6
G16  20502651.246 9 107742139.184 9       587.331 9        55.974 9  20502650.420 6         0.000 6       457.661 6        37.977 6
G26  20640713.447 9 108467659.069 9     -1454.749 9        55.879 9  20640716.258 6         0.000 6     -1133.571 6        37.977 6
G20  21968105.772 9 115443141.688 9      2587.345 9        55.306 9  21968106.108 6         0.000 6      2016.114 6        37.977 6
> 2019 07 03 12 00 11.0000000  0  8       0.000000000000
G07  25367378.958 9 133306429.893 9      2208.635 9        54.125 9  25367379.639 6         0.000 6      1721.015 6        37.977 6
G10  23841985.326 9 125290423.338 9      3535.892 9        54.657 9  23841989.085 6         0.000 6      2755.243 6        37.977 6
G21  21159382.812 9 111193286.531 9     -1233.583 9        55.714 9  21159382.096 6         0.000 6      -961.233 6        37.977 6
G29  24270892.754 9 127544346.382 9     -3115.899 9        54.485 9  24270894.298 6         0.000 6     -2427.976 6        37.977 6
G27  22027883.450 9 115757281.695 9      2510.848 9        55.365 9  22027885.391 6         0.000 6      1956.506 6        37.977 6
G16  20502539.539 9 107741552.160 9       586.717 9        55.974 9  20502538.713 6         0.000 6       457.182 6        37.977 6
G26  20640990.332 9 108469114.104 9     -1455.325 9        55.879 9  20640993.143 6         0.000 6     -1134.020 6        37.977 6
G20  21967613.459 9 115440554.567 9      2586.906 9        55.306 9  21967613.794 6         0.000 6      2015.772 6        37.977 6
> 2019 07 03 12 00 12.0000000  0  8       0.000000000000
G07  25366958.713 9 133304221.493 9      2208.180 9        54.125 9  25366959.393 6         0.000 6      1720.660 6        37.977 6
G10  23841312.480 9 125286887.519 9      3535.760 9        54.658 9  23841316.238 6         0.000 6      2755.140 6        37.977 6
G21  21159617.589 9 111194520.293 9     -1233.946 9        55.714 9  21159616.873 6         0.000 6      -961.517 6        37.977 6
G29  24271485.698 9 127547462.314 9     -3115.985 9        54.485 9  24271487.243 6         0.000 6     -2428.043 6        37.977 6
G27  22027405.674 9 115754770.965 9      2510.613 9        55.365 9  22027407.615 6         0.000 6      1956.323 6        37.977 6
G16  20502427.949 9 107740965.747 9       586.103 9        55.974 9  20502427.122 6         0.000 6       456.703 6        37.977 6
G26  20641267.325 9 108470569.711 9     -1455.902 9        55.879 9  20641270.136 6         0.000 6     -1134.469 6        37.977 6
G20  21967121.228 9 115437967.881 9      2586.468 9        55.306 9  21967121.563 6         0.000 6      2015.431 6        37.977 6
> 2019 07 03 12 00 13.0000000  0  8       0.000000000000
G07  25366538.553 9 133302013.544 9      2207.724 9        54.125 9  25366539.234 6         0.000 6      1720.305 6        37.977 6
G10  23840639.660 9 125283351.836 9      3535.627 9        54.658 9  23840643.418 6         0.000 6      2755.037 6        37.977 6
G21  21159852.436 9 111195754.420 9     -1234.310 9        55.714 9  21159851.720 6         0.000 6      -961.800 6        37.977 6
G29  24272078.659 9 127550578.333 9     -3116.072 9        54.485 9  24272080.204 6         0.000 6     -2428.111 6        37.977 6
G27  22026927.942 9 115752260.472 9      2510.378 9        55.365 9  22026929.883 6         0.000 6      1956.139 6        37.977 6
G16  20502316.476 9 107740379.951 9       585.489 9        55.974 9  20502315.649 6         0.000 6       456.225 6        37.977 6
G26  20641544.428 9 108472025.899 9     -1456.478 9        55.878 9  20641547.240 6         0.000 6     -1134.918 6        37.977 6
G20  21966629.081 9 115435381.637 9      2586.029 9        55.307 9  21966629.416 6         0.000 6      2015.089 6        37.977 6
> 2019 07 03 12 00 14.0000000  0  8       0.000000000000
G07  25366118.481 9 133299806.052 9      2207.268 9        54.125 9  25366119.161 6         0.000 6      1719.950 6        37.977 6
G10  23839966.865 9 125279816.286 9      3535.495 9        54.658 9  23839970.622 6         0.000 6      2754.934 6        37.977 6
G21  21160087.352 9 111196988.911 9     -1234.673 9        55.714 9  21160086.636 6         0.000 6      -962.083 6        37.977 6
G29  24272671.636 9 127553694.438 9     -3116.159 9        54.485 9  24272673.182 6         0.000 6     -2428.178 6        37.977 6
G27  22026450.256 9 115749750.215 9      2510.143 9        55.366 9  22026452.196 6         0.000 6      1955.956 6        37.977 6
G16  20502205.119 9 107739794.770 9       584.874 9        55.974 9  20502204.293 6         0.000 6       455.746 6        37.977 6
G26  20641821.642 9 108473482.664 9     -1457.055 9        55.878 9  20641824.453 6         0.000 6     -1135.368 6        37.977 6
G20  21966137.018 9 115432795.832 9      2585.590 9        55.307 9  21966137.352 6         0.000 6      2014.747 6        37.977 6
> 2019 07 03 12 00 15.0000000  0  8       0.000000000000
G07  25365698.495 9 133297599.018 9      2206.813 9        54.125 9  25365699.175 6         0.000 6      1719.595 6        37.977 6
G10  23839294.095 9 125276280.863 9      3535.363 9        54.658 9  23839297.851 6         0.000 6      2754.831 6        37.977 6
G21  21160322.337 9 111198223.763 9     -1235.037 9        55.714 9  21160321.621 6         0.000 6      -962.366 6        37.977 6
G29  24273264.629 9 127556810.630 9     -3116.245 9        54.484 9  24273266.176 6         0.000 6     -2428.246 6        37.977 6
G27  22025972.613 9 115747240.190 9      2509.908 9        55.366 9  22025974.554 6         0.000 6      1955.773 6        37.977 6
G16  20502093.879 9 107739210.199 9       584.260 9        55.975 9  20502093.053 6         0.000 6       455.268 6        37.977 6
G26  20642098.964 9 108474940.000 9     -1457.631 9        55.878 9  20642101.776 6         0.000 6     -1135.817 6        37.977 6
G20  21965645.037 9 115430210.462 9      2585.151 9        55.307 9  21965645.371 6         0.000 6      2014.405 6        37.977 6
> 2019 07 03 12 00 16.0000000  0  8       0.000000000000
G07  25365278.597 9 133295392.439 9      2206.357 9        54.125 9  25365279.277 6         0.000 6      1719.240 6        37.977 6
G10  23838621.350 9 125272745.575 9      3535.230 9        54.659 9  23838625.105 6         0.000 6      2754.728 6        37.977 6
G21  21160557.391 9 111199458.978 9     -1235.400 9        55.713 9  21160556.674 6         0.000 6      -962.649 6        37.977 6
G29  24273857.639 9 127559926.904 9     -3116.332 9        54.484 9  24273859.186 6         0.000 6     -2428.313 6        37.977 6
G27  22025495.017 9 115744730.406 9      2509.673 9        55.366 9  22025496.957 6         0.000 6      1955.590 6        37.977 6
G16  20501982.757 9 107738626.248 9       583.646 9        55.975 9  20501981.930 6         0.000 6       454.789 6        37.977 6
G26  20642376.397 9 108476397.917 9     -1458.207 9        55.878 9  20642379.208 6         0.000 6     -1136.266 6        37.977 6
G20  21965153.141 9 115427625.531 9      2584.712 9        55.307 9  21965153.474 6         0.000 6      2014.063 6        37.977 6
> 2019 07 03 12 00 17.0000000  0  8       0.000000000000
G07  25364858.785 9 133293186.316 9      2205.901 9        54.125 9  25364859.464 6         0.000 6      1718.885 6        37.977 6
G10  23837948.630 9 125269210.417 9      3535.098 9        54.659 9  23837952.384 6         0.000 6      2754.624 6        37.977 6
G21  21160792.513 9 111200694.556 9     -1235.763 9        55.713 9  21160791.797 6         0.000 6      -962.933 6        37.977 6
G29  24274450.665 9 127563043.269 9     -3116.418 9        54.484 9  24274452.213 6         0.000 6     -2428.381 6        37.977 6
G27  22025017.464 9 115742220.852 9      2509.438 9        55.366 9  22025019.404 6         0.000 6      1955.407 6        37.977 6
G16  20501871.751 9 107738042.906 9       583.031 9        55.975 9  20501870.924 6         0.000 6       454.310 6        37.977 6
G26  20642653.938 9 108477856.406 9     -1458.783 9        55.878 9  20642656.750 6         0.000 6     -1136.715 6        37.977 6
G20  21964661.327 9 115425041.039 9      2584.273 9        55.307 9  21964661.661 6         0.000 6      2013.720 6        37.977 6
> 2019 07 03 12 00 18.0000000  0  8       0.000000000000
G07  25364439.059 9 133290980.647 9      2205.445 9        54.126 9  25364439.739 6         0.000 6      1718.530 6        37.977 6
G10  23837275.935 9 125265675.397 9      3534.965 9        54.659 9  23837279.689 6         0.000 6      2754.521 6        37.977 6
G21  21161027.706 9 111201930.501 9     -1236.126 9        55.713 9  21161026.990 6         0.000 6      -963.216 6        37.977 6
G29  24275043.708 9 127566159.720 9     -3116.505 9        54.484 9  24275045.256 6         0.000 6     -2428.448 6        37.977 6
G27  22024539.956 9 115739711.535 9      2509.202 9        55.366 9  22024541.896 6         0.000 6      1955.223 6        37.977 6
G16  20501760.862 9 107737460.182 9       582.417 9        55.975 9  20501760.035 6         0.000 6       453.831 6        37.977 6
G26  20642931.590 9 108479315.476 9     -1459.360 9        55.878 9  20642934.402 6         0.000 6     -1137.164 6        37.977 6
G20  21964169.598 9 115422456.990 9      2583.834 9        55.308 9  21964169.931 6         0.000 6      2013.378 6        37.977 6
> 2019 07 03 12 00 19.0000000  0  8       0.000000000000
G07  25364019.421 9 133288775.436 9      2204.989 9        54.126 9  25364020.100 6         0.000 6      1718.174 6        37.977 6
G10  23836603.266 9 125262140.505 9      3534.832 9        54.659 9  23836607.019 6         0.000 6      2754.417 6        37.977 6
G21  21161262.967 9 111203166.805 9     -1236.490 9        55.713 9  21161262.251 6         0.000 6      -963.499 6        37.977 6
G29  24275636.767 9 127569276.259 9     -3116.592 9        54.484 9  24275638.316 6         0.000 6     -2428.515 6        37.977 6
G27  22024062.493 9 115737202.451 9      2508.967 9        55.367 9  22024064.433 6         0.000 6      1955.040 6        37.977 6
G16  20501650.089 9 107736878.069 9       581.803 9        55.975 9  20501649.263 6         0.000 6       453.353 6        37.977 6
G26  20643209.351 9 108480775.117 9     -1459.936 9        55.878 9  20643212.163 6         0.000 6     -1137.613 6        37.977 6
G20  21963677.952 9 115419873.376 9      2583.395 9        55.308 9  21963678.285 6         0.000 6      2013.036 6        37.977 6
> 2019 07 03 12 00 20.0000000  0  8       0.000000000000
G07  25363599.869 9 133286570.679 9      2204.533 9        54.126 9  25363600.548 6         0.000 6      1717.819 6        37.977 6
G10  23835930.622 9 125258605.750 9      3534.699 9        54.660 9  23835934.375 6         0.000 6      2754.314 6        37.977 6
G21  21161498.298 9 111204403.476 9     -1236.853 9        55.713 9  21161497.582 6         0.000 6      -963.781 6        37.977 6
G29  24276229.843 9 127572392.883 9     -3116.678 9        54.483 9  24276231.393 6         0.000 6     -2428.583 6        37.977 6
G27  22023585.075 9 115734693.605 9      2508.732 9        55.367 9  22023587.014 6         0.000 6      1954.857 6        37.977 6
G16  20501539.435 9 107736296.573 9       581.188 9        55.975 9  20501538.608 6         0.000 6       452.874 6        37.977 6
G26  20643487.223 9 108482235.339 9     -1460.512 9        55.878 9  20643490.035 6         0.000 6     -1138.062 6        37.977 6
G20  21963186.390 9 115417290.206 9      2582.955 9        55.308 9  21963186.723 6         0.000 6      2012.693 6        37.977 6
> 2019 07 03 12 00 21.0000000  0  8       0.000000000000
G07  25363180.404 9 133284366.380 9      2204.077 9        54.126 9  25363181.083 6         0.000 6      1717.464 6        37.977 6
G10  23835258.003 9 125255071.124 9      3534.566 9        54.660 9  23835261.755 6         0.000 6      2754.210 6        37.977 6
G21  21161733.697 9 111205640.507 9     -1237.216 9        55.713 9  21161732.981 6         0.000 6      -964.064 6        37.977 6
G29  24276822.936 9 127575509.594 9     -3116.765 9        54.483 9  24276824.486 6         0.000 6     -2428.650 6        37.977 6
G27  22023107.701 9 115732184.991 9      2508.496 9        55.367 9  22023109.640 6         0.000 6      1954.673 6        37.977 6
G16  20501428.896 9 107735715.689 9       580.574 9        55.975 9  20501428.069 6         0.000 6       452.395 6        37.977 6
G26  20643765.203 9 108483696.133 9     -1461.088 9        55.878 9  20643768.015 6         0.000 6     -1138.511 6        37.977 6
G20  21962694.911 9 115414707.471 9      2582.516 9        55.308 9  21962695.243 6         0.000 6      2012.351 6        37.977 6
> 2019 07 03 12 00 22.0000000  0  8       0.000000000000
G07  25362761.025 9 133282162.535 9      2203.621 9        54.126 9  25362761.704 6         0.000 6      1717.108 6        37.977 6
G10  23834585.410 9 125251536.635 9      3534.433 9        54.660 9  23834589.162 6         0.000 6      2754.106 6        37.977 6
G21  21161969.166 9 111206877.904 9     -1237.579 9        55.713 9  21161968.450 6         0.000 6      -964.347 6        37.977 6
G29  24277416.044 9 127578626.392 9     -3116.851 9        54.483 9  24277417.595 6         0.000 6     -2428.718 6        37.977 6
G27  22022630.372 9 115729676.615 9      2508.261 9        55.367 9  22022632.312 6         0.000 6      1954.490 6        37.977 6
G16  20501318.475 9 107735135.423 9       579.959 9        55.975 9  20501317.648 6         0.000 6       451.916 6        37.977 6
G26  20644043.293 9 108485157.508 9     -1461.664 9        55.877 9  20644046.106 6         0.000 6     -1138.960 6        37.977 6
G20  21962203.517 9 115412125.180 9      2582.076 9        55.308 9  21962203.849 6         0.000 6      2012.008 6        37.977 6
> 2019 07 03 12 00 23.0000000  0  8       0.000000000000
G07  25362341.734 9 133279959.146 9      2203.164 9        54.126 9  25362342.412 6         0.000 6      1716.752 6        37.977 6
G10  23833912.843 9 125248002.279 9      3534.300 9        54.660 9  23833916.593 6         0.000 6      2754.002 6        37.977 6
G21  21162204.704 9 111208115.663 9     -1237.942 9        55.713 9  21162203.988 6         0.000 6      -964.630 6        37.977 6
G29  24278009.170 9 127581743.276 9     -3116.937 9        54.483 9  24278010.721 6         0.000 6     -2428.785 6        37.977 6
G27  22022153.089 9 115727168.475 9      2508.026 9        55.367 9  22022155.028 6         0.000 6      1954.306 6        37.977 6
G16  20501208.171 9 107734555.771 9       579.345 9        55.975 9  20501207.344 6         0.000 6       451.437 6        37.977 6
G26  20644321.494 9 108486619.459 9     -1462.241 9        55.877 9  20644324.306 6         0.000 6     -1139.409 6        37.977 6
G20  21961712.206 9 115409543.328 9      2581.636 9        55.309 9  21961712.537 6         0.000 6      2011.666 6        37.977 6
> 2019 07 03 12 00 24.0000000  0  8       0.000000000000
G07  25361922.530 9 133277756.219 9      2202.708 9        54.126 9  25361923.208 6         0.000 6      1716.397 6        37.977 6
G10  23833240.299 9 125244468.050 9      3534.166 9        54.661 9  23833244.049 6         0.000 6      2753.899 6        37.977 6
G21  21162440.310 9 111209353.781 9     -1238.305 9        55.713 9  21162439.594 6         0.000 6      -964.913 6        37.977 6
G29  24278602.310 9 127584860.242 9     -3117.024 9        54.482 9  24278603.862 6         0.000 6     -2428.852 6        37.977 6
G27  22021675.850 9 115724660.572 9      2507.790 9        55.368 9  22021677.789 6         0.000 6      1954.123 6        37.977 6
G16  20501097.983 9 107733976.732 9       578.730 9        55.975 9  20501097.157 6         0.000 6       450.958 6        37.977 6
G26  20644599.803 9 108488081.981 9     -1462.817 9        55.877 9  20644602.615 6         0.000 6     -1139.858 6        37.977 6
G20  21961220.977 9 115406961.909 9      2581.197 9        55.309 9  21961221.308 6         0.000 6      2011.323 6        37.977 6
> 2019 07 03 12 00 25.0000000  0  8       0.000000000000
G07  25361503.412 9 133275553.742 9      2202.252 9        54.127 9  25361504.090 6         0.000 6      1716.041 6        37.977 6
G10  23832567.782 9 125240933.961 9      3534.033 9        54.661 9  23832571.532 6         0.000 6      2753.795 6        37.977 6
G21  21162675.986 9 111210592.266 9     -1238.667 9        55.713 9  21162675.270 6         0.000 6      -965.196 6        37.977 6
G29  24279195.468 9 127587977.298 9     -3117.110 9        54.482 9  24279197.021 6         0.000 6     -2428.920 6        37.977 6
G27  22021198.656 9 115722152.902 9      2507.555 9        55.368 9  22021200.595 6         0.000 6      1953.939 6        37.977 6
G16  20500987.913 9 107733398.310 9       578.115 9        55.975 9  20500987.087 6         0.000 6       450.479 6        37.977 6
G26  20644878.222 9 108489545.083 9     -1463.393 9        55.877 9  20644881.035 6         0.000 6     -1140.306 6        37.977 6
G20  21960729.834 9 115404380.937 9      2580.757 9        55.309 9  21960730.165 6         0.000 6      2010.980 6        37.977 6
> 2019 07 03 12 00 26.0000000  0  8       0.000000000000
G07  25361084.381 9 133273351.725 9      2201.795 9        54.127 9  25361085.059 6         0.000 6      1715.685 6        37.977 6
G10  23831895.290 9 125237400.002 9      3533.899 9        54.661 9  23831899.039 6         0.000 6      2753.691 6        37.977 6
G21  21162911.731 9 111211831.112 9     -1239.030 9        55.713 9  21162911.015 6         0.000 6      -965.478 6        37.977 6
G29  24279788.643 9 127591094.442 9     -3117.197 9        54.482 9  24279790.196 6         0.000 6     -2428.987 6        37.977 6
G27  22020721.506 9 115719645.466 9      2507.319 9        55.368 9  22020723.445 6         0.000 6      1953.756 6        37.977 6
G16  20500877.959 9 107732820.498 9       577.501 9        55.975 9  20500877.133 6         0.000 6       450.000 6        37.977 6
G26  20645156.751 9 108491008.758 9     -1463.969 9        55.877 9  20645159.563 6         0.000 6     -1140.755 6        37.977 6
G20  21960238.773 9 115401800.401 9      2580.317 9        55.309 9  21960239.104 6         0.000 6      2010.638 6        37.977 6
> 2019 07 03 12 00 27.0000000  0  8       0.000000000000
G07  25360665.437 9 133271150.162 9      2201.338 9        54.127 9  25360666.115 6         0.000 6      1715.330 6        37.977 6
G10  23831222.824 9 125233866.180 9      3533.766 9        54.661 9  23831226.572 6         0.000 6      2753.586 6        37.977 6
G21  21163147.545 9 111213070.323 9     -1239.393 9        55.712 9  21163146.829 6         0.000 6      -965.761 6        37.977 6
G29  24280381.834 9 127594211.671 9     -3117.283 9        54.482 9  24280383.388 6         0.000 6     -2429.054 6        37.977 6
G27  22020244.402 9 115717138.268 9      2507.083 9        55.368 9  22020246.340 6         0.000 6      1953.572 6        37.977 6
G16  20500768.123 9 107732243.305 9       576.886 9        55.975 9  20500767.297 6         0.000 6       449.521 6        37.977 6
G26  20645435.389 9 108492473.013 9     -1464.545 9        55.877 9  20645438.202 6         0.000 6     -1141.204 6        37.977 6
G20  21959747.797 9 115399220.308 9      2579.877 9        55.309 9  21959748.127 6         0.000 6      2010.295 6        37.977 6
> 2019 07 03 12 00 28.0000000  0  8       0.000000000000
G07  25360246.580 9 133268949.058 9      2200.882 9        54.127 9  25360247.258 6         0.000 6      1714.974 6        37.977 6
G10  23830550.383 9 125230332.487 9      3533.632 9        54.662 9  23830554.130 6         0.000 6      2753.482 6        37.977 6
G21  21163383.427 9 111214309.894 9     -1239.755 9        55.712 9  21163382.712 6         0.000 6      -966.043 6        37.977 6
G29  24280975.041 9 127597328.987 9     -3117.369 9        54.482 9  24280976.596 6         0.000 6     -2429.121 6        37.977 6
G27  22019767.342 9 115714631.303 9      2506.848 9        55.368 9  22019769.280 6         0.000 6      1953.389 6        37.977 6
G16  20500658.403 9 107731666.724 9       576.271 9        55.975 9  20500657.577 6         0.000 6       449.042 6        37.977 6
G26  20645714.137 9 108493937.839 9     -1465.121 9        55.877 9  20645716.950 6         0.000 6     -1141.653 6        37.977 6
G20  21959256.904 9 115396640.652 9      2579.437 9        55.310 9  21959257.234 6         0.000 6      2009.952 6        37.977 6
> 2019 07 03 12 00 29.0000000  0  8       0.000000000000
G07  25359827.810 9 133266748.409 9      2200.425 9        54.127 9  25359828.487 6         0.000 6      1714.618 6        37.977 6
G10  23829877.968 9 125226798.933 9      3533.498 9        54.662 9  23829881.715 6         0.000 6      2753.378 6        37.977 6
G21  21163619.380 9 111215549.830 9     -1240.118 9        55.712 9  21163618.664 6         0.000 6      -966.326 6        37.977 6
G29  24281568.265 9 127600446.389 9     -3117.456 9        54.481 9  24281569.821 6         0.000 6     -2429.189 6        37.977 6
G27  22019290.327 9 115712124.575 9      2506.612 9        55.368 9  22019292.265 6         0.000 6      1953.205 6        37.977 6
G16  20500548.801 9 107731090.760 9       575.656 9        55.975 9  20500547.974 6         0.000 6       448.563 6        37.977 6
G26  20645992.995 9 108495403.245 9     -1465.696 9        55.877 9  20645995.808 6         0.000 6     -1142.102 6        37.977 6
G20  21958766.095 9 115394061.440 9      2578.996 9        55.310 9  21958766.425 6         0.000 6      2009.609 6        37.977 6
> 2019 07 03 12 00 30.0000000  0  8       0.000000000000
G07  25359409.127 9 133264548.219 9      2199.968 9        54.127 9  25359409.804 6         0.000 6      1714.262 6        37.977 6
G10  23829205.577 9 125223265.508 9      3533.364 9        54.662 9  23829209.324 6         0.000 6      2753.273 6        37.977 6
G21  21163855.400 9 111216790.126 9     -1240.481 9        55.712 9  21163854.685 6         0.000 6      -966.608 6        37.977 6
G29  24282161.506 9 127603563.878 9     -3117.542 9        54.481 9  24282163.061 6         0.000 6     -2429.256 6        37.977 6
G27  22018813.356 9 115709618.082 9      2506.377 9        55.369 9  22018815.294 6         0.000 6      1953.021 6        37.977 6
G16  20500439.315 9 107730515.408 9       575.041 9        55.975 9  20500438.489 6         0.000 6       448.084 6        37.977 6
G26  20646271.961 9 108496869.223 9     -1466.272 9        55.877 9  20646274.775 6         0.000 6     -1142.550 6        37.977 6
G20  21958275.370 9 115391482.665 9      2578.556 9        55.310 9  21958275.699 6         0.000 6      2009.266 6        37.977 6
> 2019 07 03 12 00 31.0000000  0  8       0.000000000000
G07  25358990.531 9 133262348.483 9      2199.511 9        54.127 9  25358991.207 6         0.000 6      1713.906 6        37.977 6
G10  23828533.213 9 125219732.222 9      3533.230 9        54.662 9  23828536.959 6         0.000 6      2753.169 6        37.977 6
G21  21164091.490 9 111218030.787 9     -1240.843 9        55.712 9  21164090.775 6         0.000 6      -966.891 6        37.977 6
G29  24282754.762 9 127606681.453 9     -3117.628 9        54.481 9  24282756.319 6         0.000 6     -2429.323 6        37.977 6
G27  22018336.431 9 115707111.826 9      2506.141 9        55.369 9  22018338.369 6         0.000 6      1952.838 6        37.977 6
G16  20500329.947 9 107729940.674 9       574.426 9        55.975 9  20500329.120 6         0.000 6       447.605 6        37.977 6
G26  20646551.039 9 108498335.782 9     -1466.848 9        55.876 9  20646553.852 6         0.000 6     -1142.999 6        37.977 6
G20  21957784.729 9 115388904.333 9      2578.115 9        55.310 9  21957785.058 6         0.000 6      2008.922 6        37.977 6
> 2019 07 03 12 00 32.0000000  0  8       0.000000000000
G07  25358572.022 9 133260149.209 9      2199.054 9        54.128 9  25358572.698 6         0.000 6      1713.550 6        37.977 6
G10  23827860.874 9 125216199.063 9      3533.096 9        54.663 9  23827864.618 6         0.000 6      2753.064 6        37.977 6
G21  21164327.649 9 111219271.806 9     -1241.206 9        55.712 9  21164326.933 6         0.000 6      -967.173 6        37.977 6
G29  24283348.034 9 127609799.108 9     -3117.714 9        54.481 9  24283349.591 6         0.000 6     -2429.390 6        37.977 6
G27  22017859.551 9 115704605.808 9      2505.905 9        55.369 9  22017861.489 6         0.000 6      1952.654 6        37.977 6
G16  20500220.696 9 107729366.553 9       573.812 9        55.975 9  20500219.869 6         0.000 6       447.126 6        37.977 6
G26  20646830.224 9 108499802.911 9     -1467.424 9        55.876 9  20646833.038 6         0.000 6     -1143.448 6        37.977 6
G20  21957294.170 9 115386326.435 9      2577.675 9        55.310 9  21957294.499 6         0.000 6      2008.579 6        37.977 6
> 2019 07 03 12 00 33.0000000  0  8       0.000000000000
G07  25358153.599 9 133257950.387 9      2198.597 9        54.128 9  25358154.275 6         0.000 6      1713.193 6        37.977 6
G10  23827188.561 9 125212666.045 9      3532.961 9        54.663 9  23827192.305 6         0.000 6      2752.960 6        37.977 6
G21  21164563.877 9 111220513.192 9     -1241.568 9        55.712 9  21164563.161 6         0.000 6      -967.456 6        37.977 6
G29  24283941.324 9 127612916.855 9     -3117.800 9        54.481 9  24283942.882 6         0.000 6     -2429.457 6        37.977 6
G27  22017382.716 9 115702100.023 9      2505.669 9        55.369 9  22017384.653 6         0.000 6      1952.470 6        37.977 6
G16  20500111.561 9 107728793.049 9       573.197 9        55.975 9  20500110.735 6         0.000 6       446.647 6        37.977 6
G26  20647109.521 9 108501270.621 9     -1468.000 9        55.876 9  20647112.334 6         0.000 6     -1143.896 6        37.977 6
G20  21956803.697 9 115383748.985 9      2577.234 9        55.311 9  21956804.026 6         0.000 6      2008.236 6        37.977 6
> 2019 07 03 12 00 34.0000000  0  8       0.000000000000
G07  25357735.264 9 133255752.022 9      2198.140 9        54.128 9  25357735.940 6         0.000 6      1712.837 6        37.977 6
G10  23826516.273 9 125209133.162 9      3532.827 9        54.663 9  23826520.017 6         0.000 6      2752.855 6        37.977 6
G21  21164800.174 9 111221754.941 9     -1241.930 9        55.712 9  21164799.458 6         0.000 6      -967.738 6        37.977 6
G29  24284534.630 9 127616034.689 9     -3117.887 9        54.480 9  24284536.188 6         0.000 6     -2429.525 6        37.977 6
G27  22016905.925 9 115699594.475 9      2505.433 9        55.369 9  22016907.862 6         0.000 6      1952.286 6        37.977 6
G16  20500002.544 9 107728220.160 9       572.582 9        55.975 9  20500001.717 6         0.000 6       446.167 6        37.977 6
G26  20647388.926 9 108502738.907 9     -1468.575 9        55.876 9  20647391.740 6         0.000 6     -1144.345 6        37.977 6
G20  21956313.307 9 115381171.976 9      2576.794 9        55.311 9  21956313.636 6         0.000 6      2007.892 6        37.977 6
> 2019 07 03 12 00 35.0000000  0  8       0.000000000000
G07  25357317.016 9 133253554.117 9      2197.683 9        54.128 9  25357317.691 6         0.000 6      1712.481 6        37.977 6
G10  23825844.010 9 125205600.408 9      3532.693 9        54.663 9  23825847.753 6         0.000 6      2752.750 6        37.977 6
G21  21165036.539 9 111222997.049 9     -1242.293 9        55.712 9  21165035.824 6         0.000 6      -968.020 6        37.977 6
G29  24285127.952 9 127619152.608 9     -3117.973 9        54.480 9  24285129.511 6         0.000 6     -2429.592 6        37.977 6
G27  22016429.179 9 115697089.160 9      2505.198 9        55.370 9  22016431.116 6         0.000 6      1952.103 6        37.977 6
G16  20499893.643 9 107727647.883 9       571.966 9        55.975 9  20499892.817 6         0.000 6       445.688 6        37.977 6
G26  20647668.441 9 108504207.764 9     -1469.151 9        55.876 9  20647671.255 6         0.000 6     -1144.793 6        37.977 6
G20  21955823.001 9 115378595.403 9      2576.353 9        55.311 9  21955823.329 6         0.000 6      2007.549 6        37.977 6
> 2019 07 03 12 00 36.0000000  0  8       0.000000000000
G07  25356898.854 9 133251356.667 9      2197.225 9        54.128 9  25356899.529 6         0.000 6      1712.125 6        37.977 6
G10  23825171.774 9 125202067.794 9      3532.558 9        54.664 9  23825175.516 6         0.000 6      2752.645 6        37.977 6
G21  21165272.974 9 111224239.522 9     -1242.655 9        55.712 9  21165272.259 6         0.000 6      -968.303 6        37.977 6
G29  24285721.291 9 127622270.614 9     -3118.059 9        54.480 9  24285722.850 6         0.000 6     -2429.659 6        37.977 6
G27  22015952.478 9 115694584.083 9      2504.962 9        55.370 9  22015954.415 6         0.000 6      1951.919 6        37.977 6
G16  20499784.860 9 107727076.224 9       571.351 9        55.975 9  20499784.034 6         0.000 6       445.209 6        37.977 6
G26  20647948.066 9 108505677.201 9     -1469.727 9        55.876 9  20647950.880 6         0.000 6     -1145.242 6        37.977 6
G20  21955332.779 9 115376019.276 9      2575.912 9        55.311 9  21955333.107 6         0.000 6      2007.205 6        37.977 6
> 2019 07 03 12 00 37.0000000  0  8       0.000000000000
G07  25356480.780 9 133249159.676 9      2196.768 9        54.128 9  25356481.455 6         0.000 6      1711.768 6        37.977 6
G10  23824499.563 9 125198535.309 9      3532.423 9        54.664 9  23824503.304 6         0.000 6      2752.540 6        37.977 6
G21  21165509.477 9 111225482.355 9     -1243.017 9        55.711 9  21165508.762 6         0.000 6      -968.585 6        37.977 6
G29  24286314.646 9 127625388.706 9     -3118.145 9        54.480 9  24286316.206 6         0.000 6     -2429.726 6        37.977 6
G27  22015475.822 9 115692079.240 9      2504.726 9        55.370 9  22015477.759 6         0.000 6      1951.735 6        37.977 6
G16  20499676.194 9 107726505.177 9       570.736 9        55.976 9  20499675.367 6         0.000 6       444.730 6        37.977 6
G26  20648227.799 9 108507147.209 9     -1470.302 9        55.876 9  20648230.613 6         0.000 6     -1145.691 6        37.977 6
G20  21954842.641 9 115373443.585 9      2575.471 9        55.311 9  21954842.968 6         0.000 6      2006.862 6        37.977 6
> 2019 07 03 12 00 38.0000000  0  8       0.000000000000
G07  25356062.792 9 133246963.141 9      2196.310 9        54.128 9  25356063.467 6         0.000 6      1711.412 6        37.977 6
G10  23823827.378 9 125195002.964 9      3532.288 9        54.664 9  23823831.119 6         0.000 6      2752.435 6        37.977 6
G21  21165746.050 9 111226725.552 9     -1243.379 9        55.711 9  21165745.335 6         0.000 6      -968.867 6        37.977 6
G29  24286908.017 9 127628506.884 9     -3118.231 9        54.479 9  24286909.578 6         0.000 6     -2429.793 6        37.977 6
G27  22014999.211 9 115689574.635 9      2504.490 9        55.370 9  22015001.148 6         0.000 6      1951.551 6        37.977 6
G16  20499567.645 9 107725934.749 9       570.121 9        55.976 9  20499566.818 6         0.000 6       444.250 6        37.977 6
G26  20648507.643 9 108508617.797 9     -1470.878 9        55.876 9  20648510.457 6         0.000 6     -1146.139 6        37.977 6
G20  21954352.587 9 115370868.339 9      2575.030 9        55.311 9  21954352.914 6         0.000 6      2006.518 6        37.977 6
> 2019 07 03 12 00 39.0000000  0  8       0.000000000000
G07  25355644.893 9 133244767.065 9      2195.853 9        54.129 9  25355645.567 6         0.000 6      1711.055 6        37.977 6
G10  23823155.218 9 125191470.749 9      3532.154 9        54.664 9  23823158.958 6         0.000 6      2752.330 6        37.977 6
G21  21165982.691 9 111227969.109 9     -1243.741 9        55.711 9  21165981.976 6         0.000 6      -969.149 6        37.977 6
G29  24287501.405 9 127631625.147 9     -3118.317 9        54.479 9  24287502.966 6         0.000 6     -2429.860 6        37.977 6
G27  22014522.645 9 115687070.264 9      2504.254 9        55.370 9  22014524.581 6         0.000 6      1951.367 6        37.977 6
G16  20499459.212 9 107725364.932 9       569.506 9        55.976 9  20499458.386 6         0.000 6       443.771 6        37.977 6
G26  20648787.596 9 108510088.956 9     -1471.454 9        55.875 9  20648790.410 6         0.000 6     -1146.588 6        37.977 6
G20  21953862.616 9 115368293.530 9      2574.588 9        55.312 9  21953862.943 6         0.000 6      2006.174 6        37.977 6
> 2019 07 03 12 00 40.0000000  0  8       0.000000000000
G07  25355227.080 9 133242571.448 9      2195.395 9        54.129 9  25355227.754 6         0.000 6      1710.699 6        37.977 6
G10  23822483.084 9 125187938.672 9      3532.018 9        54.665 9  23822486.823 6         0.000 6      2752.225 6        37.977 6
G21  21166219.401 9 111229213.028 9     -1244.103 9        55.711 9  21166218.686 6         0.000 6      -969.431 6        37.977 6
G29  24288094.808 9 127634743.492 9     -3118.403 9        54.479 9  24288096.370 6         0.000 6     -2429.927 6        37.977 6
G27  22014046.124 9 115684566.135 9      2504.018 9        55.371 9  22014048.060 6         0.000 6      1951.183 6        37.977 6
G16  20499350.898 9 107724795.736 9       568.891 9        55.976 9  20499350.071 6         0.000 6       443.291 6        37.977 6
G26  20649067.659 9 108511560.696 9     -1472.029 9        55.875 9  20649070.473 6         0.000 6     -1147.036 6        37.977 6
G20  21953372.730 9 115365719.164 9      2574.147 9        55.312 9  21953373.057 6         0.000 6      2005.830 6        37.977 6
> 2019 07 03 12 00 41.0000000  0  8       0.000000000000
G07  25354809.354 9 133240376.287 9      2194.938 9        54.129 9  25354810.028 6         0.000 6      1710.342 6        37.977 6
G10  23821810.975 9 125184406.727 9      3531.883 9        54.665 9  23821814.714 6         0.000 6      2752.120 6        37.977 6
G21  21166456.180 9 111230457.309 9     -1244.465 9        55.711 9  21166455.465 6         0.000 6      -969.713 6        37.977 6
G29  24288688.229 9 127637861.928 9     -3118.489 9        54.479 9  24288689.791 6         0.000 6     -2429.994 6        37.977 6
G27  22013569.647 9 115682062.236 9      2503.782 9        55.371 9  22013571.584 6         0.000 6      1950.999 6        37.977 6
G16  20499242.699 9 107724227.149 9       568.275 9        55.976 9  20499241.873 6         0.000 6       442.812 6        37.977 6
G26  20649347.831 9 108513033.006 9     -1472.605 9        55.875 9  20649350.645 6         0.000 6     -1147.484 6        37.977 6
G20  21952882.927 9 115363145.238 9      2573.706 9        55.312 9  21952883.254 6         0.000 6      2005.486 6        37.977 6
> 2019 07 03 12 00 42.0000000  0  8       0.000000000000
G07  25354391.715 9 133238181.582 9      2194.480 9        54.129 9  25354392.389 6         0.000 6      1709.985 6        37.977 6
G10  23821138.893 9 125180874.922 9      3531.748 9        54.665 9  23821142.631 6         0.000 6      2752.014 6        37.977 6
G21  21166693.028 9 111231701.954 9     -1244.827 9        55.711 9  21166692.313 6         0.000 6      -969.995 6        37.977 6
G29  24289281.666 9 127640980.450 9     -3118.575 9        54.479 9  24289283.229 6         0.000 6     -2430.061 6        37.977 6
G27  22013093.216 9 115679558.575 9      2503.545 9        55.371 9  22013095.152 6         0.000 6      1950.815 6        37.977 6
G16  20499134.619 9 107723659.182 9       567.660 9        55.976 9  20499133.792 6         0.000 6       442.332 6        37.977 6
G26  20649628.113 9 108514505.896 9     -1473.180 9        55.875 9  20649630.927 6         0.000 6     -1147.933 6        37.977 6
G20  21952393.209 9 115360571.757 9      2573.264 9        55.312 9  21952393.535 6         0.000 6      2005.142 6        37.977 6
> 2019 07 03 12 00 43.0000000  0  8       0.000000000000
G07  25353974.163 9 133235987.335 9      2194.022 9        54.129 9  25353974.836 6         0.000 6      1709.628 6        37.977 6
G10  23820466.836 9 125177343.252 9      3531.613 9        54.665 9  23820470.574 6         0.000 6      2751.909 6        37.977 6
G21  21166929.945 9 111232946.961 9     -1245.189 9        55.711 9  21166929.230 6         0.000 6      -970.277 6        37.977 6
G29  24289875.119 9 127644099.058 9     -3118.661 9        54.478 9  24289876.683 6         0.000 6     -2430.128 6        37.977 6
G27  22012616.830 9 115677055.151 9      2503.309 9        55.371 9  22012618.766 6         0.000 6      1950.631 6        37.977 6
G16  20499026.655 9 107723091.830 9       567.045 9        55.976 9  20499025.828 6         0.000 6       441.853 6        37.977 6
G26  20649908.504 9 108515979.362 9     -1473.755 9        55.875 9  20649911.319 6         0.000 6     -1148.381 6        37.977 6
G20  21951903.575 9 115357998.718 9      2572.823 9        55.312 9  21951903.901 6         0.000 6      2004.798 6        37.977 6
> 2019 07 03 12 00 44.0000000  0  8       0.000000000000
G07  25353556.698 9 133233793.548 9      2193.564 9        54.129 9  25353557.372 6         0.000 6      1709.272 6        37.977 6
G10  23819794.805 9 125173811.714 9      3531.477 9        54.666 9  23819798.542 6         0.000 6      2751.803 6        37.977 6
G21  21167166.931 9 111234192.328 9     -1245.550 9        55.711 9  21167166.216 6         0.000 6      -970.559 6        37.977 6
G29  24290468.589 9 127647217.752 9     -3118.747 9        54.478 9  24290470.153 6         0.000 6     -2430.195 6        37.977 6
G27  22012140.488 9 115674551.961 9      2503.073 9        55.371 9  22012142.424 6         0.000 6      1950.447 6        37.977 6
G16  20498918.808 9 107722525.090 9       566.429 9        55.976 9  20498917.981 6         0.000 6       441.373 6        37.977 6
G26  20650189.004 9 108517453.399 9     -1474.331 9        55.875 9  20650191.819 6         0.000 6     -1148.830 6        37.977 6
G20  21951414.025 9 115355426.117 9      2572.381 9        55.313 9  21951414.350 6         0.000 6      2004.454 6        37.977 6
> 2019 07 03 12 00 45.0000000  0  8       0.000000000000
G07  25353139.320 9 133231600.217 9      2193.106 9        54.129 9  25353139.994 6         0.000 6      1708.915 6        37.977 6
G10  23819122.800 9 125170280.315 9      3531.342 9        54.666 9  23819126.536 6         0.000 6      2751.698 6        37.977 6
G21  21167403.986 9 111235438.058 9     -1245.912 9        55.711 9  21167403.271 6         0.000 6      -970.841 6        37.977 6
G29  24291062.075 9 127650336.532 9     -3118.833 9        54.478 9  24291063.640 6         0.000 6     -2430.262 6        37.977 6
G27  22011664.192 9 115672049.008 9      2502.837 9        55.371 9  22011666.127 6         0.000 6      1950.263 6        37.977 6
G16  20498811.079 9 107721958.968 9       565.814 9        55.976 9  20498810.252 6         0.000 6       440.894 6        37.977 6
G26  20650469.615 9 108518928.016 9     -1474.906 9        55.875 9  20650472.430 6         0.000 6     -1149.278 6        37.977 6
G20  21950924.559 9 115352853.961 9      2571.939 9        55.313 9  21950924.884 6         0.000 6      2004.110 6        37.977 6
> 2019 07 03 12 00 46.0000000  0  8       0.000000000000
G07  25352722.030 9 133229407.346 9      2192.648 9        54.130 9  25352722.703 6         0.000 6      1708.558 6        37.977 6
G10  23818450.820 9 125166749.047 9      3531.206 9        54.666 9  23818454.555 6         0.000 6      2751.592 6        37.977 6
G21  21167641.109 9 111236684.148 9     -1246.274 9        55.711 9  21167640.394 6         0.000 6      -971.123 6        37.977 6
G29  24291655.577 9 127653455.398 9     -3118.919 9        54.478 9  24291657.143 6         0.000 6     -2430.329 6        37.977 6
G27  22011187.940 9 115669546.291 9      2502.601 9        55.372 9  22011189.875 6         0.000 6      1950.079 6        37.977 6
G16  20498703.466 9 107721393.459 9       565.198 9        55.976 9  20498702.639 6         0.000 6       440.414 6        37.977 6
G26  20650750.334 9 108520403.203 9     -1475.481 9        55.875 9  20650753.149 6         0.000 6     -1149.726 6        37.977 6
G20  21950435.176 9 115350282.243 9      2571.497 9        55.313 9  21950435.501 6         0.000 6      2003.765 6        37.977 6
> 2019 07 03 12 00 47.0000000  0  8       0.000000000000
G07  25352304.827 9 133227214.931 9      2192.190 9        54.130 9  25352305.500 6         0.000 6      1708.201 6        37.977 6
G10  23817778.867 9 125163217.919 9      3531.070 9        54.666 9  23817782.601 6         0.000 6      2751.486 6        37.977 6
G21  21167878.301 9 111237930.602 9     -1246.635 9        55.710 9  21167877.586 6         0.000 6      -971.404 6        37.977 6
G29  24292249.096 9 127656574.349 9     -3119.005 9        54.478 9  24292250.662 6         0.000 6     -2430.396 6        37.977 6
G27  22010711.733 9 115667043.811 9      2502.364 9        55.372 9  22010713.668 6         0.000 6      1949.895 6        37.977 6
G16  20498595.971 9 107720828.569 9       564.583 9        55.976 9  20498595.144 6         0.000 6       439.934 6        37.977 6
G26  20651031.164 9 108521878.970 9     -1476.057 9        55.875 9  20651033.979 6         0.000 6     -1150.175 6        37.977 6
G20  21949945.879 9 115347710.971 9      2571.055 9        55.313 9  21949946.204 6         0.000 6      2003.421 6        37.977 6
> 2019 07 03 12 00 48.0000000  0  8       0.000000000000
G07  25351887.712 9 133225022.980 9      2191.732 9        54.130 9  25351888.384 6         0.000 6      1707.844 6        37.977 6
G10  23817106.938 9 125159686.921 9      3530.934 9        54.667 9  23817110.672 6         0.000 6      2751.380 6        37.977 6
G21  21168115.562 9 111239177.413 9     -1246.997 9        55.710 9  21168114.847 6         0.000 6      -971.686 6        37.977 6
G29  24292842.630 9 127659693.382 9     -3119.091 9        54.477 9  24292844.197 6         0.000 6     -2430.463 6        37.977 6
G27  22010235.572 9 115664541.569 9      2502.128 9        55.372 9  22010237.507 6         0.000 6      1949.711 6        37.977 6
G16  20498488.593 9 107720264.293 9       563.967 9        55.976 9  20498487.766 6         0.000 6       439.455 6        37.977 6
G26  20651312.102 9 108523355.308 9     -1476.632 9        55.874 9  20651314.917 6         0.000 6     -1150.623 6        37.977 6
G20  21949456.664 9 115345140.134 9      2570.613 9        55.313 9  21949456.988 6         0.000 6      2003.076 6        37.977 6
> 2019 07 03 12 00 49.0000000  0  8       0.000000000000
G07  25351470.683 9 133222831.481 9      2191.273 9        54.130 9  25351471.355 6         0.000 6      1707.486 6        37.977 6
G10  23816435.036 9 125156156.065 9      3530.798 9        54.667 9  23816438.770 6         0.000 6      2751.274 6        37.977 6
G21  21168352.892 9 111240424.590 9     -1247.358 9        55.710 9  21168352.177 6         0.000 6      -971.968 6        37.977 6
G29  24293436.181 9 127662812.505 9     -3119.176 9        54.477 9  24293437.749 6         0.000 6     -2430.530 6        37.977 6
G27  22009759.455 9 115662039.562 9      2501.891 9        55.372 9  22009761.390 6         0.000 6      1949.526 6        37.977 6
G16  20498381.332 9 107719700.633 9       563.351 9        55.976 9  20498380.505 6         0.000 6       438.975 6        37.977 6
G26  20651593.150 9 108524832.226 9     -1477.207 9        55.874 9  20651595.965 6         0.000 6     -1151.071 6        37.977 6
G20  21948967.534 9 115342569.746 9      2570.171 9        55.314 9  21948967.859 6         0.000 6      2002.732 6        37.977 6
> 2019 07 03 12 00 50.0000000  0  8       0.000000000000
G07  25351053.741 9 133220640.443 9      2190.815 9        54.130 9  25351054.414 6         0.000 6      1707.129 6        37.977 6
G10  23815763.160 9 125152625.341 9      3530.662 9        54.667 9  23815766.893 6         0.000 6      2751.168 6        37.977 6
G21  21168590.290 9 111241672.126 9     -1247.720 9        55.710 9  21168589.575 6         0.000 6      -972.249 6        37.977 6
G29  24294029.749 9 127665931.714 9     -3119.262 9        54.477 9  24294031.317 6         0.000 6     -2430.596 6        37.977 6
G27  22009283.383 9 115659537.790 9      2501.655 9        55.372 9  22009285.318 6         0.000 6      1949.342 6        37.977 6
G16  20498274.188 9 107719137.587 9       562.736 9        55.976 9  20498273.361 6         0.000 6       438.495 6        37.977 6
G26  20651874.307 9 108526309.714 9     -1477.782 9        55.874 9  20651877.123 6         0.000 6     -1151.519 6        37.977 6
G20  21948478.488 9 115339999.797 9      2569.729 9        55.314 9  21948478.812 6         0.000 6      2002.387 6        37.977 6
> 2019 07 03 12 00 51.0000000  0  8       0.000000000000
G07  25350636.887 9 133218449.861 9      2190.356 9        54.130 9  25350637.559 6         0.000 6      1706.772 6        37.977 6
G10  23815091.310 9 125149094.757 9      3530.526 9        54.667 9  23815095.042 6         0.000 6      2751.062 6        37.977 6
G21  21168827.758 9 111242920.026 9     -1248.081 9        55.710 9  21168827.043 6         0.000 6      -972.531 6        37.977 6
G29  24294623.333 9 127669051.009 9     -3119.348 9        54.477 9  24294624.902 6         0.000 6     -2430.663 6        37.977 6
G27  22008807.357 9 115657036.256 9      2501.419 9        55.373 9  22008809.291 6         0.000 6      1949.158 6        37.977 6
G16  20498167.161 9 107718575.159 9       562.120 9        55.976 9  20498166.334 6         0.000 6       438.016 6        37.977 6
G26  20652155.574 9 108527787.782 9     -1478.358 9        55.874 9  20652158.390 6         0.000 6     -1151.967 6        37.977 6
G20  21947989.527 9 115337430.293 9      2569.287 9        55.314 9  21947989.851 6         0.000 6      2002.043 6        37.977 6
> 2019 07 03 12 00 52.0000000  0  8       0.000000000000
G07  25350220.120 9 133216259.738 9      2189.898 9        54.130 9  25350220.791 6         0.000 6      1706.415 6        37.977 6
G10  23814419.486 9 125145564.310 9      3530.390 9        54.668 9  23814423.218 6         0.000 6      2750.956 6        37.977 6
G21  21169065.294 9 111244168.287 9     -1248.443 9        55.710 9  21169064.579 6         0.000 6      -972.813 6        37.977 6
G29  24295216.933 9 127672170.390 9     -3119.434 9        54.477 9  24295218.503 6         0.000 6     -2430.730 6        37.977 6
G27  22008331.375 9 115654534.958 9      2501.182 9        55.373 9  22008333.309 6         0.000 6      1948.974 6        37.977 6
G16  20498060.252 9 107718013.347 9       561.504 9        55.976 9  20498059.425 6         0.000 6       437.536 6        37.977 6
G26  20652436.951 9 108529266.425 9     -1478.933 9        55.874 9  20652439.767 6         0.000 6     -1152.415 6        37.977 6
G20  21947500.650 9 115334861.232 9      2568.844 9        55.314 9  21947500.974 6         0.000 6      2001.698 6        37.977 6
> 2019 07 03 12 00 53.0000000  0  8       0.000000000000
G07  25349803.440 9 133214070.076 9      2189.439 9        54.131 9  25349804.112 6         0.000 6      1706.057 6        37.977 6
G10  23813747.687 9 125142033.994 9      3530.254 9        54.668 9  23813751.418 6         0.000 6      2750.850 6        37.977 6
G21  21169302.899 9 111245416.907 9     -1248.804 9        55.710 9  21169302.184 6         0.000 6      -973.094 6        37.977 6
G29  24295810.550 9 127675289.856 9     -3119.519 9        54.476 9  24295812.120 6         0.000 6     -2430.797 6        37.977 6
G27  22007855.438 9 115652033.895 9      2500.946 9        55.373 9  22007857.372 6         0.000 6      1948.789 6        37.977 6
G16  20497953.459 9 107717452.147 9       560.888 9        55.976 9  20497952.632 6         0.000 6       437.056 6        37.977 6
G26  20652718.437 9 108530745.639 9     -1479.508 9        55.874 9  20652721.252 6         0.000 6     -1152.864 6        37.977 6
G20  21947011.857 9 115332292.610 9      2568.402 9        55.314 9  21947012.180 6         0.000 6      2001.353 6        37.977 6
> 2019 07 03 12 00 54.0000000  0  8       0.000000000000
G07  25349386.847 9 133211880.870 9      2188.980 9        54.131 9  25349387.519 6         0.000 6      1705.700 6        37.977 6
G10  23813075.916 9 125138503.820 9      3530.117 9        54.668 9  23813079.646 6         0.000 6      2750.743 6        37.977 6
G21  21169540.572 9 111246665.891 9     -1249.165 9        55.710 9  21169539.858 6         0.000 6      -973.375 6        37.977 6
G29  24296404.183 9 127678409.408 9     -3119.605 9        54.476 9  24296405.754 6         0.000 6     -2430.864 6        37.977 6
G27  22007379.546 9 115649533.071 9      2500.709 9        55.373 9  22007381.480 6         0.000 6      1948.605 6        37.977 6
G16  20497846.784 9 107716891.567 9       560.273 9        55.976 9  20497845.958 6         0.000 6       436.576 6        37.977 6
G26  20653000.032 9 108532225.433 9     -1480.083 9        55.874 9  20653002.848 6         0.000 6     -1153.312 6        37.977 6
G20  21946523.148 9 115329724.434 9      2567.959 9        55.315 9  21946523.471 6         0.000 6      2001.008 6        37.977 6
> 2019 07 03 12 00 55.0000000  0  8       0.000000000000
G07  25348970.343 9 133209692.128 9      2188.522 9        54.131 9  25348971.014 6         0.000 6      1705.342 6        37.977 6
G10  23812404.168 9 125134973.775 9      3529.980 9        54.668 9  23812407.898 6         0.000 6      2750.637 6        37.977 6
G21  21169778.314 9 111247915.231 9     -1249.526 9        55.710 9  21169777.600 6         0.000 6      -973.657 6        37.977 6
G29  24296997.831 9 127681529.041 9     -3119.691 9        54.476 9  24296999.403 6         0.000 6     -2430.931 6        37.977 6
G27  22006903.700 9 115647032.485 9      2500.472 9        55.373 9  22006905.634 6         0.000 6      1948.421 6        37.977 6
G16  20497740.226 9 107716331.600 9       559.657 9        55.976 9  20497739.399 6         0.000 6       436.096 6        37.977 6
G26  20653281.736 9 108533705.796 9     -1480.658 9        55.874 9  20653284.552 6         0.000 6     -1153.760 6        37.977 6
G20  21946034.523 9 115327156.694 9      2567.516 9        55.315 9  21946034.845 6         0.000 6      2000.663 6        37.977 6
> 2019 07 03 12 00 56.0000000  0  8       0.000000000000
G07  25348553.925 9 133207503.839 9      2188.063 9        54.131 9  25348554.596 6         0.000 6      1704.985 6        37.977 6
G10  23811732.448 9 125131443.874 9      3529.844 9        54.669 9  23811736.177 6         0.000 6      2750.530 6        37.977 6
G21  21170016.125 9 111249164.937 9     -1249.887 9        55.710 9  21170015.411 6         0.000 6      -973.938 6        37.977 6
G29  24297591.497 9 127684648.764 9     -3119.777 9        54.476 9  24297593.069 6         0.000 6     -2430.997 6        37.977 6
G27  22006427.899 9 115644532.134 9      2500.236 9        55.374 9  22006429.832 6         0.000 6      1948.236 6        37.977 6
G16  20497633.786 9 107715772.251 9       559.041 9        55.976 9  20497632.959 6         0.000 6       435.616 6        37.977 6
G26  20653563.551 9 108535186.739 9     -1481.233 9        55.873 9  20653566.367 6         0.000 6     -1154.208 6        37.977 6
G20  21945545.983 9 115324589.403 9      2567.073 9        55.315 9  21945546.305 6         0.000 6      2000.318 6        37.977 6
> 2019 07 03 12 00 57.0000000  0  8       0.000000000000
G07  25348137.594 9 133205316.012 9      2187.604 9        54.131 9  25348138.265 6         0.000 6      1704.627 6        37.977 6
G10  23811060.754 9 125127914.105 9      3529.707 9        54.669 9  23811064.482 6         0.000 6      2750.424 6        37.977 6
G21  21170254.005 9 111250415.002 9     -1250.248 9        55.709 9  21170253.290 6         0.000 6      -974.220 6        37.977 6
G29  24298185.179 9 127687768.574 9     -3119.862 9        54.475 9  24298186.751 6         0.000 6     -2431.064 6        37.977 6
G27  22005952.142 9 115642032.017 9      2499.999 9        55.374 9  22005954.075 6         0.000 6      1948.052 6        37.977 6
G16  20497527.462 9 107715213.515 9       558.425 9        55.976 9  20497526.635 6         0.000 6       435.136 6        37.977 6
G26  20653845.474 9 108536668.253 9     -1481.808 9        55.873 9  20653848.290 6         0.000 6     -1154.656 6        37.977 6
G20  21945057.526 9 115322022.552 9      2566.631 9        55.315 9  21945057.848 6         0.000 6      1999.973 6        37.977 6
> 2019 07 03 12 00 58.0000000  0  8       0.000000000000
G07  25347721.351 9 133203128.642 9      2187.145 9        54.131 9  25347722.021 6         0.000 6      1704.270 6        37.977 6
G10  23810389.086 9 125124384.477 9      3529.570 9        54.669 9  23810392.813 6         0.000 6      2750.317 6        37.977 6
G21  21170491.954 9 111251665.430 9     -1250.609 9        55.709 9  21170491.239 6         0.000 6      -974.501 6        37.977 6
G29  24298778.877 9 127690888.468 9     -3119.948 9        54.475 9  24298780.450 6         0.000 6     -2431.131 6        37.977 6
G27  22005476.430 9 115639532.139 9      2499.762 9        55.374 9  22005478.364 6         0.000 6      1947.867 6        37.977 6
G16  20497421.256 9 107714655.398 9       557.809 9        55.976 9  20497420.429 6         0.000 6       434.656 6        37.977 6
G26  20654127.507 9 108538150.346 9     -1482.383 9        55.873 9  20654130.324 6         0.000 6     -1155.104 6        37.977 6
G20  21944569.155 9 115319456.147 9      2566.188 9        55.315 9  21944569.477 6         0.000 6      1999.628 6        37.977 6
> 2019 07 03 12 00 59.0000000  0  8       0.000000000000
G07  25347305.195 9 133200941.733 9      2186.686 9        54.131 9  25347305.866 6         0.000 6      1703.912 6        37.977 6
G10  23809717.443 9 125120854.982 9      3529.433 9        54.669 9  23809721.170 6         0.000 6      2750.210 6        37.977 6
G21  21170729.970 9 111252916.216 9     -1250.970 9        55.709 9  21170729.256 6         0.000 6      -974.782 6        37.977 6
G29  24299372.591 9 127694008.449 9     -3120.033 9        54.475 9  24299374.165 6         0.000 6     -2431.197 6        37.977 6
G27  22005000.764 9 115637032.496 9      2499.525 9        55.374 9  22005002.697 6         0.000 6      1947.683 6        37.977 6
G16  20497315.166 9 107714097.894 9       557.193 9        55.977 9  20497314.339 6         0.000 6       434.176 6        37.977 6
G26  20654409.649 9 108539633.010 9     -1482.957 9        55.873 9  20654412.465 6         0.000 6     -1155.552 6        37.977 6
G20  21944080.867 9 115316890.181 9      2565.744 9        55.316 9  21944081.189 6         0.000 6      1999.283 6        37.977 6
> 2019 07 03 12 01  0.0000000  0  8       0.000000000000
G07  25346889.127 9 133198755.280 9      2186.226 9        54.132 9  25346889.797 6         0.000 6      1703.554 6        37.977 6
G10  23809045.827 9 125117325.628 9      3529.296 9        54.669 9  23809049.554 6         0.000 6      2750.103 6        37.977 6
G21  21170968.056 9 111254167.366 9     -1251.331 9        55.709 9  21170967.342 6         0.000 6      -975.063 6        37.977 6
G29  24299966.322 9 127697128.515 9     -3120.119 9        54.475 9  24299967.897 6         0.000 6     -2431.264 6        37.977 6
G27  22004525.142 9 115634533.092 9      2499.289 9        55.374 9  22004527.075 6         0.000 6      1947.498 6        37.977 6
G16  20497209.194 9 107713541.009 9       556.577 9        55.977 9  20497208.368 6         0.000 6       433.696 6        37.977 6
G26  20654691.901 9 108541116.253 9     -1483.532 9        55.873 9  20654694.718 6         0.000 6     -1156.000 6        37.977 6
G20  21943592.664 9 115314324.663 9      2565.301 9        55.316 9  21943592.986 6         0.000 6      1998.937 6        37.977 6
> 2019 07 03 12 01  1.0000000  0  8       0.000000000000
G07  25346473.146 9 133196569.290 9      2185.767 9        54.132 9  25346473.815 6         0.000 6      1703.196 6        37.977 6
G10  23808374.237 9 125113796.407 9      3529.159 9        54.670 9  23808377.963 6         0.000 6      2749.996 6        37.977 6
G21  21171206.211 9 111255418.874 9     -1251.692 9        55.709 9  21171205.496 6         0.000 6      -975.344 6        37.977 6
G29  24300560.069 9 127700248.666 9     -3120.205 9        54.475 9  24300561.644 6         0.000 6     -2431.331 6        37.977 6
G27  22004049.566 9 115632033.922 9      2499.052 9        55.374 9  22004051.498 6         0.000 6      1947.314 6        37.977 6
G16  20497103.339 9 107712984.737 9       555.961 9        55.977 9  20497102.513 6         0.000 6       433.216 6        37.977 6
G26  20654974.262 9 108542600.066 9     -1484.107 9        55.873 9  20654977.078 6         0.000 6     -1156.448 6        37.977 6
G20  21943104.545 9 115311759.584 9      2564.858 9        55.316 9  21943104.866 6         0.000 6      1998.592 6        37.977 6
> 2019 07 03 12 01  2.0000000  0  8       0.000000000000
G07  25346057.252 9 133194383.756 9      2185.308 9        54.132 9  25346057.921 6         0.000 6      1702.838 6        37.977 6
G10  23807702.673 9 125110267.327 9      3529.021 9        54.670 9  23807706.399 6         0.000 6      2749.889 6        37.977 6
G21  21171444.434 9 111256670.746 9     -1252.053 9        55.709 9  21171443.720 6         0.000 6      -975.626 6        37.977 6
G29  24301153.832 9 127703368.904 9     -3120.290 9        54.474 9  24301155.408 6         0.000 6     -2431.397 6        37.977 6
G27  22003574.034 9 115629534.992 9      2498.815 9        55.375 9  22003575.967 6         0.000 6      1947.129 6        37.977 6
G16  20496997.602 9 107712429.084 9       555.345 9        55.977 9  20496996.775 6         0.000 6       432.736 6        37.977 6
G26  20655256.733 9 108544084.459 9     -1484.682 9        55.873 9  20655259.549 6         0.000 6     -1156.895 6        37.977 6
G20  21942616.511 9 115309194.952 9      2564.415 9        55.316 9  21942616.832 6         0.000 6      1998.246 6        37.977 6
> 2019 07 03 12 01  3.0000000  0  8       0.000000000000
G07  25345641.446 9 133192198.684 9      2184.848 9        54.132 9  25345642.115 6         0.000 6      1702.480 6        37.977 6
G10  23807031.136 9 125106738.383 9      3528.884 9        54.670 9  23807034.860 6         0.000 6      2749.782 6        37.977 6
G21  21171682.726 9 111257922.976 9     -1252.413 9        55.709 9  21171682.012 6         0.000 6      -975.907 6        37.977 6
G29  24301747.611 9 127706489.221 9     -3120.376 9        54.474 9  24301749.188 6         0.000 6     -2431.464 6        37.977 6
G27  22003098.549 9 115627036.302 9      2498.578 9        55.375 9  22003100.481 6         0.000 6      1946.945 6        37.977 6
G16  20496891.982 9 107711874.049 9       554.728 9        55.977 9  20496891.156 6         0.000 6       432.256 6        37.977 6
G26  20655539.313 9 108545569.426 9     -1485.257 9        55.873 9  20655542.130 6         0.000 6     -1157.343 6        37.977 6
G20  21942128.561 9 115306630.760 9      2563.971 9        55.316 9  21942128.881 6         0.000 6      1997.901 6        37.977 6
> 2019 07 03 12 01  4.0000000  0  8       0.000000000000
G07  25345225.727 9 133190014.072 9      2184.389 9        54.132 9  25345226.396 6         0.000 6      1702.122 6        37.977 6
G10  23806359.624 9 125103209.575 9      3528.746 9        54.670 9  23806363.347 6         0.000 6      2749.675 6        37.977 6
G21  21171921.086 9 111259175.566 9     -1252.774 9        55.709 9  21171920.372 6         0.000 6      -976.188 6        37.977 6
G29  24302341.407 9 127709609.629 9     -3120.461 9        54.474 9  24302342.984 6         0.000 6     -2431.531 6        37.977 6
G27  22002623.108 9 115624537.843 9      2498.341 9        55.375 9  22002625.040 6         0.000 6      1946.760 6        37.977 6
G16  20496786.479 9 107711319.625 9       554.112 9        55.977 9  20496785.652 6         0.000 6       431.776 6        37.977 6
G26  20655822.002 9 108547054.963 9     -1485.831 9        55.873 9  20655824.818 6         0.000 6     -1157.791 6        37.977 6
G20  21941640.695 9 115304067.011 9      2563.528 9        55.316 9  21941641.015 6         0.000 6      1997.555 6        37.977 6
> 2019 07 03 12 01  5.0000000  0  8       0.000000000000
G07  25344810.095 9 133187829.916 9      2183.929 9        54.132 9  25344810.764 6         0.000 6      1701.764 6        37.977 6
G10  23805688.139 9 125099680.908 9      3528.609 9        54.671 9  23805691.862 6         0.000 6      2749.568 6        37.977 6
G21  21172159.515 9 111260428.520 9     -1253.135 9        55.709 9  21172158.801 6         0.000 6      -976.469 6        37.977 6
G29  24302935.219 9 127712730.123 9     -3120.547 9        54.474 9  24302936.797 6         0.000 6     -2431.597 6        37.977 6
G27  22002147.712 9 115622039.623 9      2498.104 9        55.375 9  22002149.644 6         0.000 6      1946.575 6        37.977 6
G16  20496681.094 9 107710765.821 9       553.496 9        55.977 9  20496680.267 6         0.000 6       431.296 6        37.977 6
G26  20656104.801 9 108548541.080 9     -1486.406 9        55.872 9  20656107.618 6         0.000 6     -1158.239 6        37.977 6
G20  21941152.914 9 115301503.710 9      2563.084 9        55.317 9  21941153.234 6         0.000 6      1997.209 6        37.977 6
> 2019 07 03 12 01  6.0000000  0  8       0.000000000000
G07  25344394.552 9 133185646.223 9      2183.470 9        54.132 9  25344395.220 6         0.000 6      1701.406 6        37.977 6
G10  23805016.679 9 125096152.374 9      3528.471 9        54.671 9  23805020.402 6         0.000 6      2749.460 6        37.977 6
G21  21172398.013 9 111261681.832 9     -1253.495 9        55.709 9  21172397.299 6         0.000 6      -976.750 6        37.977 6
G29  24303529.047 9 127715850.702 9     -3120.632 9        54.474 9  24303530.626 6         0.000 6     -2431.664 6        37.977 6
G27  22001672.360 9 115619541.639 9      2497.867 9        55.375 9  22001674.292 6         0.000 6      1946.391 6        37.977 6
G16  20496575.825 9 107710212.630 9       552.880 9        55.977 9  20496574.998 6         0.000 6       430.815 6        37.977 6
G26  20656387.708 9 108550027.767 9     -1486.981 9        55.872 9  20656390.525 6         0.000 6     -1158.687 6        37.977 6
G20  21940665.217 9 115298940.849 9      2562.640 9        55.317 9  21940665.536 6         0.000 6      1996.864 6        37.977 6
> 2019 07 03 12 01  7.0000000  0  8       0.000000000000
G07  25343979.095 9 133183462.986 9      2183.010 9        54.133 9  25343979.763 6         0.000 6      1701.048 6        37.977 6
G10  23804345.247 9 125092623.983 9      3528.333 9        54.671 9  23804348.968 6         0.000 6      2749.353 6        37.977 6
G21  21172636.579 9 111262935.506 9     -1253.856 9        55.709 9  21172635.865 6         0.000 6      -977.030 6        37.977 6
G29  24304122.892 9 127718971.366 9     -3120.717 9        54.473 9  24304124.471 6         0.000 6     -2431.730 6        37.977 6
G27  22001197.055 9 115617043.893 9      2497.630 9        55.376 9  22001198.986 6         0.000 6      1946.206 6        37.977 6
G16  20496470.674 9 107709660.059 9       552.263 9        55.977 9  20496469.847 6         0.000 6       430.335 6        37.977 6
G26  20656670.726 9 108551515.033 9     -1487.555 9        55.872 9  20656673.543 6         0.000 6     -1159.134 6        37.977 6
G20  21940177.605 9 115296378.435 9      2562.196 9        55.317 9  21940177.924 6         0.000 6      1996.518 6        37.977 6
> 2019 07 03 12 01  8.0000000  0  8       0.000000000000
G07  25343563.726 9 133181280.213 9      2182.550 9        54.133 9  25343564.394 6         0.000 6      1700.689 6        37.977 6
G10  23803673.839 9 125089095.725 9      3528.195 9        54.671 9  23803677.560 6         0.000 6      2749.246 6        37.977 6
G21  21172875.214 9 111264189.539 9     -1254.216 9        55.708 9  21172874.500 6         0.000 6      -977.311 6        37.977 6
G29  24304716.753 9 127722092.116 9     -3120.803 9        54.473 9  24304718.333 6         0.000 6     -2431.797 6        37.977 6
G27  22000721.794 9 115614546.382 9      2497.393 9        55.376 9  22000723.725 6         0.000 6      1946.021 6        37.977 6
G16  20496365.640 9 107709108.100 9       551.647 9        55.977 9  20496364.813 6         0.000 6       429.855 6        37.977 6
G26  20656953.852 9 108553002.869 9     -1488.130 9        55.872 9  20656956.669 6         0.000 6     -1159.582 6        37.977 6
G20  21939690.076 9 115293816.461 9      2561.752 9        55.317 9  21939690.395 6         0.000 6      1996.172 6        37.977 6
> 2019 07 03 12 01  9.0000000  0  8       0.000000000000
G07  25343148.445 9 133179097.896 9      2182.090 9        54.133 9  25343149.113 6         0.000 6      1700.331 6        37.977 6
G10  23803002.459 9 125085567.610 9      3528.057 9        54.672 9  23803006.180 6         0.000 6      2749.138 6        37.977 6
G21  21173113.917 9 111265443.934 9     -1254.576 9        55.708 9  21173113.203 6         0.000 6      -977.592 6        37.977 6
G29  24305310.630 9 127725212.951 9     -3120.888 9        54.473 9  24305312.210 6         0.000 6     -2431.864 6        37.977 6
G27  22000246.578 9 115612049.111 9      2497.156 9        55.376 9  22000248.510 6         0.000 6      1945.836 6        37.977 6
G16  20496260.724 9 107708556.761 9       551.031 9        55.977 9  20496259.897 6         0.000 6       429.375 6        37.977 6
G26  20657237.088 9 108554491.284 9     -1488.704 9        55.872 9  20657239.905 6         0.000 6     -1160.030 6        37.977 6
G20  21939202.633 9 115291254.935 9      2561.308 9        55.317 9  21939202.952 6         0.000 6      1995.826 6        37.977 6
> 2019 07 03 12 01 10.0000000  0  8       0.000000000000
G07  25342733.251 9 133176916.042 9      2181.630 9        54.133 9  25342733.919 6         0.000 6      1699.973 6        37.977 6
G10  23802331.105 9 125082039.628 9      3527.919 9        54.672 9  23802334.825 6         0.000 6      2749.030 6        37.977 6
G21  21173352.689 9 111266698.687 9     -1254.937 9        55.708 9  21173351.975 6         0.000 6      -977.873 6        37.977 6
G29  24305904.523 9 127728333.872 9     -3120.973 9        54.473 9  24305906.104 6         0.000 6     -2431.930 6        37.977 6
G27  21999771.407 9 115609552.074 9      2496.919 9        55.376 9  21999773.339 6         0.000 6      1945.651 6        37.977 6
G16  20496155.924 9 107708006.036 9       550.414 9        55.977 9  20496155.097 6         0.000 6       428.894 6        37.977 6
G26  20657520.433 9 108555980.269 9     -1489.279 9        55.872 9  20657523.250 6         0.000 6     -1160.477 6        37.977 6
G20  21938715.274 9 115288693.849 9      2560.864 9        55.318 9  21938715.593 6         0.000 6      1995.480 6        37.977 6
> 2019 07 03 12 01 11.0000000  0  8       0.000000000000
G07  25342318.145 9 133174734.648 9      2181.170 9        54.133 9  25342318.812 6         0.000 6      1699.614 6        37.977 6
G10  23801659.777 9 125078511.787 9      3527.780 9        54.672 9  23801663.496 6         0.000 6      2748.923 6        37.977 6
G21  21173591.529 9 111267953.801 9     -1255.297 9        55.708 9  21173590.816 6         0.000 6      -978.154 6        37.977 6
G29  24306498.432 9 127731454.873 9     -3121.059 9        54.472 9  24306500.014 6         0.000 6     -2431.996 6        37.977 6
G27  21999296.283 9 115607055.281 9      2496.681 9        55.376 9  21999298.214 6         0.000 6      1945.467 6        37.977 6
G16  20496051.243 9 107707455.931 9       549.798 9        55.977 9  20496050.416 6         0.000 6       428.414 6        37.977 6
G26  20657803.888 9 108557469.833 9     -1489.853 9        55.872 9  20657806.705 6         0.000 6     -1160.925 6        37.977 6
G20  21938227.999 9 115286133.209 9      2560.420 9        55.318 9  21938228.318 6         0.000 6      1995.133 6        37.977 6
> 2019 07 03 12 01 12.0000000  0  8       0.000000000000
G07  25341903.125 9 133172553.711 9      2180.710 9        54.133 9  25341903.793 6         0.000 6      1699.256 6        37.977 6
G10  23800988.476 9 125074984.086 9      3527.642 9        54.672 9  23800992.194 6         0.000 6      2748.815 6        37.977 6
G21  21173830.439 9 111269209.278 9     -1255.657 9        55.708 9  21173829.725 6         0.000 6      -978.434 6        37.977 6
G29  24307092.358 9 127734575.964 9     -3121.144 9        54.472 9  24307093.940 6         0.000 6     -2432.063 6        37.977 6
G27  21998821.203 9 115604558.721 9      2496.444 9        55.377 9  21998823.134 6         0.000 6      1945.282 6        37.977 6
G16  20495946.678 9 107706906.442 9       549.181 9        55.977 9  20495945.851 6         0.000 6       427.933 6        37.977 6
G26  20658087.452 9 108558959.972 9     -1490.428 9        55.872 9  20658090.270 6         0.000 6     -1161.373 6        37.977 6
G20  21937740.810 9 115283573.016 9      2559.976 9        55.318 9  21937741.128 6         0.000 6      1994.787 6        37.977 6
> 2019 07 03 12 01 13.0000000  0  8       0.000000000000
G07  25341488.194 9 133170373.237 9      2180.250 9        54.133 9  25341488.862 6         0.000 6      1698.897 6        37.977 6
G10  23800317.200 9 125071456.520 9      3527.504 9        54.673 9  23800320.918 6         0.000 6      2748.707 6        37.977 6
G21  21174069.416 9 111270465.112 9     -1256.017 9        55.708 9  21174068.702 6         0.000 6      -978.715 6        37.977 6
G29  24307686.300 9 127737697.140 9     -3121.229 9        54.472 9  24307687.883 6         0.000 6     -2432.129 6        37.977 6
G27  21998346.168 9 115602062.396 9      2496.207 9        55.377 9  21998348.098 6         0.000 6      1945.097 6        37.977 6
G16  20495842.231 9 107706357.566 9       548.565 9        55.977 9  20495841.404 6         0.000 6       427.453 6        37.977 6
G26  20658371.125 9 108560450.680 9     -1491.002 9        55.871 9  20658373.943 6         0.000 6     -1161.820 6        37.977 6
G20  21937253.704 9 115281013.263 9      2559.531 9        55.318 9  21937254.022 6         0.000 6      1994.441 6        37.977 6
> 2019 07 03 12 01 14.0000000  0  8       0.000000000000
G07  25341073.350 9 133168193.221 9      2179.790 9        54.134 9  25341074.017 6         0.000 6      1698.538 6        37.977 6
G10  23799645.952 9 125067929.096 9      3527.365 9        54.673 9  23799649.669 6         0.000 6      2748.599 6        37.977 6
G21  21174308.462 9 111271721.308 9     -1256.377 9        55.708 9  21174307.749 6         0.000 6      -978.995 6        37.977 6
G29  24308280.258 9 127740818.402 9     -3121.315 9        54.472 9  24308281.842 6         0.000 6     -2432.196 6        37.977 6
G27  21997871.178 9 115599566.311 9      2495.969 9        55.377 9  21997873.108 6         0.000 6      1944.912 6        37.977 6
G16  20495737.901 9 107705809.310 9       547.948 9        55.977 9  20495737.074 6         0.000 6       426.972 6        37.977 6
G26  20658654.908 9 108561941.968 9     -1491.576 9        55.871 9  20658657.726 6         0.000 6     -1162.268 6        37.977 6
G20  21936766.684 9 115278453.958 9      2559.087 9        55.318 9  21936767.001 6         0.000 6      1994.095 6        37.977 6
> 2019 07 03 12 01 15.0000000  0  8       0.000000000000
G07  25340658.595 9 133166013.667 9      2179.330 9        54.134 9  25340659.261 6         0.000 6      1698.180 6        37.977 6
G10  23798974.729 9 125064401.807 9      3527.226 9        54.673 9  23798978.445 6         0.000 6      2748.491 6        37.977 6
G21  21174547.577 9 111272977.862 9     -1256.737 9        55.708 9  21174546.863 6         0.000 6      -979.276 6        37.977 6
G29  24308874.233 9 127743939.749 9     -3121.400 9        54.472 9  24308875.817 6         0.000 6     -2432.262 6        37.977 6
G27  21997396.233 9 115597070.461 9      2495.732 9        55.377 9  21997398.163 6         0.000 6      1944.727 6        37.977 6
G16  20495633.688 9 107705261.667 9       547.331 9        55.977 9  20495632.861 6         0.000 6       426.492 6        37.977 6
G26  20658938.799 9 108563433.824 9     -1492.151 9        55.871 9  20658941.617 6         0.000 6     -1162.715 6        37.977 6
G20  21936279.748 9 115275895.094 9      2558.642 9        55.319 9  21936280.065 6         0.000 6      1993.748 6        37.977 6
> 2019 07 03 12 01 16.0000000  0  8       0.000000000000
G07  25340243.926 9 133163834.572 9      2178.869 9        54.134 9  25340244.592 6         0.000 6      1697.821 6        37.977 6
G10  23798303.533 9 125060874.660 9      3527.087 9        54.673 9  23798307.249 6         0.000 6      2748.382 6        37.977 6
G21  21174786.760 9 111274234.779 9     -1257.097 9        55.708 9  21174786.047 6         0.000 6      -979.556 6        37.977 6
G29  24309468.224 9 127747061.181 9     -3121.485 9        54.471 9  24309469.808 6         0.000 6     -2432.329 6        37.977 6
G27  21996921.333 9 115594574.850 9      2495.495 9        55.377 9  21996923.264 6         0.000 6      1944.542 6        37.977 6
G16  20495529.593 9 107704714.644 9       546.715 9        55.977 9  20495528.766 6         0.000 6       426.011 6        37.977 6
G26  20659222.800 9 108564926.261 9     -1492.725 9        55.871 9  20659225.619 6         0.000 6     -1163.163 6        37.977 6
G20  21935792.897 9 115273336.679 9      2558.197 9        55.319 9  21935793.213 6         0.000 6      1993.402 6        37.977 6
> 2019 07 03 12 01 17.0000000  0  8       0.000000000000
G07  25339829.345 9 133161655.939 9      2178.409 9        54.134 9  25339830.011 6         0.000 6      1697.462 6        37.977 6
G10  23797632.363 9 125057347.649 9      3526.949 9        54.674 9  23797636.078 6         0.000 6      2748.274 6        37.977 6
G21  21175026.012 9 111275492.053 9     -1257.457 9        55.708 9  21175025.298 6         0.000 6      -979.837 6        37.977 6
G29  24310062.231 9 127750182.699 9     -3121.570 9        54.471 9  24310063.816 6         0.000 6     -2432.395 6        37.977 6
G27  21996446.479 9 115592079.475 9      2495.257 9        55.377 9  21996448.409 6         0.000 6      1944.357 6        37.977 6
G16  20495425.615 9 107704168.234 9       546.098 9        55.977 9  20495424.788 6         0.000 6       425.531 6        37.977 6
G26  20659506.910 9 108566419.266 9     -1493.299 9        55.871 9  20659509.728 6         0.000 6     -1163.610 6        37.977 6
G20  21935306.129 9 115270778.705 9      2557.752 9        55.319 9  21935306.446 6         0.000 6      1993.055 6        37.977 6
> 2019 07 03 12 01 18.0000000  0  8       0.000000000000
G07  25339414.851 9 133159477.764 9      2177.948 9        54.134 9  25339415.517 6         0.000 6      1697.103 6        37.977 6
G10  23796961.220 9 125053820.780 9      3526.809 9        54.674 9  23796964.935 6         0.000 6      2748.166 6        37.977 6
G21  21175265.332 9 111276749.689 9     -1257.817 9        55.707 9  21175264.619 6         0.000 6      -980.117 6        37.977 6
G29  24310656.254 9 127753304.301 9     -3121.655 9        54.471 9  24310657.840 6         0.000 6     -2432.461 6        37.977 6
G27  21995971.670 9 115589584.339 9      2495.020 9        55.378 9  21995973.600 6         0.000 6      1944.172 6        37.977 6
G16  20495321.754 9 107703622.445 9       545.481 9        55.977 9  20495320.927 6         0.000 6       425.050 6        37.977 6
G26  20659791.130 9 108567912.851 9     -1493.873 9        55.871 9  20659793.949 6         0.000 6     -1164.058 6        37.977 6
G20  21934819.448 9 115268221.179 9      2557.308 9        55.319 9  21934819.764 6         0.000 6      1992.708 6        37.977 6
> 2019 07 03 12 01 19.0000000  0  8       0.000000000000
G07  25339000.447 9 133157300.056 9      2177.487 9        54.134 9  25339001.112 6         0.000 6      1696.744 6        37.977 6
G10  23796290.103 9 125050294.044 9      3526.670 9        54.674 9  23796293.817 6         0.000 6      2748.058 6        37.977 6
G21  21175504.720 9 111278007.681 9     -1258.177 9        55.707 9  21175504.007 6         0.000 6      -980.398 6        37.977 6
G29  24311250.292 9 127756425.984 9     -3121.741 9        54.471 9  24311251.879 6         0.000 6     -2432.528 6        37.977 6
G27  21995496.906 9 115587089.443 9      2494.782 9        55.378 9  21995498.836 6         0.000 6      1943.987 6        37.977 6
G16  20495218.011 9 107703077.270 9       544.864 9        55.977 9  20495217.184 6         0.000 6       424.570 6        37.977 6
G26  20660075.459 9 108569407.004 9     -1494.448 9        55.871 9  20660078.277 6         0.000 6     -1164.505 6        37.977 6
G20  21934332.849 9 115265664.091 9      2556.863 9        55.319 9  21934333.165 6         0.000 6      1992.362 6        37.977 6
> 2019 07 03 12 01 20.0000000  0  8       0.000000000000
G07  25338586.128 9 133155122.802 9      2177.027 9        54.134 9  25338586.794 6         0.000 6      1696.385 6        37.977 6
G10  23795619.013 9 125046767.454 9      3526.531 9        54.674 9  23795622.726 6         0.000 6      2747.949 6        37.977 6
G21  21175744.177 9 111279266.037 9     -1258.537 9        55.707 9  21175743.464 6         0.000 6      -980.678 6        37.977 6
G29  24311844.348 9 127759547.757 9     -3121.826 9        54.471 9  24311845.935 6         0.000 6     -2432.594 6        37.977 6
G27  21995022.188 9 115584594.782 9      2494.545 9        55.378 9  21995024.117 6         0.000 6      1943.802 6        37.977 6
G16  20495114.385 9 107702532.714 9       544.247 9        55.977 9  20495113.559 6         0.000 6       424.089 6        37.977 6
G26  20660359.897 9 108570901.737 9     -1495.022 9        55.871 9  20660362.716 6         0.000 6     -1164.952 6        37.977 6
G20  21933846.337 9 115263107.456 9      2556.417 9        55.320 9  21933846.652 6         0.000 6      1992.015 6        37.977 6
> 2019 07 03 12 01 21.0000000  0  8       0.000000000000
G07  25338171.898 9 133152946.009 9      2176.566 9        54.135 9  25338172.563 6         0.000 6      1696.026 6        37.977 6
G10  23794947.950 9 125043241.003 9      3526.392 9        54.675 9  23794951.662 6         0.000 6      2747.840 6        37.977 6
G21  21175983.703 9 111280524.753 9     -1258.896 9        55.707 9  21175982.990 6         0.000 6      -980.958 6        37.977 6
G29  24312438.420 9 127762669.615 9     -3121.911 9        54.470 9  24312440.007 6         0.000 6     -2432.660 6        37.977 6
G27  21994547.514 9 115582100.359 9      2494.307 9        55.378 9  21994549.443 6         0.000 6      1943.617 6        37.977 6
G16  20495010.877 9 107701988.775 9       543.631 9        55.978 9  20495010.050 6         0.000 6       423.608 6        37.977 6
G26  20660644.445 9 108572397.044 9     -1495.596 9        55.870 9  20660647.264 6         0.000 6     -1165.400 6        37.977 6
G20  21933359.909 9 115260551.265 9      2555.972 9        55.320 9  21933360.224 6         0.000 6      1991.668 6        37.977 6
> 2019 07 03 12 01 22.0000000  0  8       0.000000000000
G07  25337757.755 9 133150769.680 9      2176.105 9        54.135 9  25337758.421 6         0.000 6      1695.667 6        37.977 6
G10  23794276.912 9 125039714.687 9      3526.252 9        54.675 9  23794280.624 6         0.000 6      2747.732 6        37.977 6
G21  21176223.297 9 111281783.826 9     -1259.256 9        55.707 9  21176222.584 6         0.000 6      -981.239 6        37.977 6
G29  24313032.508 9 127765791.558 9     -3121.996 9        54.470 9  24313034.096 6         0.000 6     -2432.727 6        37.977 6
G27  21994072.885 9 115579606.172 9      2494.069 9        55.378 9  21994074.815 6         0.000 6      1943.431 6        37.977 6
G16  20494907.486 9 107701445.450 9       543.014 9        55.978 9  20494906.659 6         0.000 6       423.128 6        37.977 6
G26  20660929.101 9 108573892.921 9     -1496.170 9        55.870 9  20660931.920 6         0.000 6     -1165.847 6        37.977 6
G20  21932873.565 9 115257995.516 9      2555.527 9        55.320 9  21932873.880 6         0.000 6      1991.321 6        37.977 6
> 2019 07 03 12 01 23.0000000  0  8       0.000000000000
G07  25337343.700 9 133148593.809 9      2175.644 9        54.135 9  25337344.365 6         0.000 6      1695.308 6        37.977 6
G10  23793605.902 9 125036188.515 9      3526.113 9        54.675 9  23793609.613 6         0.000 6      2747.623 6        37.977 6
G21  21176462.960 9 111283043.261 9     -1259.615 9        55.707 9  21176462.246 6         0.000 6      -981.519 6        37.977 6
G29  24313626.612 9 127768913.586 9     -3122.081 9        54.470 9  24313628.201 6         0.000 6     -2432.793 6        37.977 6
G27  21993598.302 9 115577112.224 9      2493.832 9        55.379 9  21993600.232 6         0.000 6      1943.246 6        37.977 6
G16  20494804.213 9 107700902.745 9       542.397 9        55.978 9  20494803.386 6         0.000 6       422.647 6        37.977 6
G26  20661213.867 9 108575389.376 9     -1496.744 9        55.870 9  20661216.686 6         0.000 6     -1166.294 6        37.977 6
G20  21932387.307 9 115255440.216 9      2555.082 9        55.320 9  21932387.622 6         0.000 6      1990.974 6        37.977 6
> 2019 07 03 12 01 24.0000000  0  8       0.000000000000
G07  25336929.733 9 133146418.402 9      2175.183 9        54.135 9  25336930.398 6         0.000 6      1694.949 6        37.977 6
G10  23792934.917 9 125032662.478 9      3525.973 9        54.675 9  23792938.628 6         0.000 6      2747.514 6        37.977 6
G21  21176702.690 9 111284303.053 9     -1259.975 9        55.707 9  21176701.977 6         0.000 6      -981.799 6        37.977 6
G29  24314220.732 9 127772035.699 9     -3122.166 9        54.470 9  24314222.322 6         0.000 6     -2432.859 6        37.977 6
G27  21993123.764 9 115574618.512 9      2493.594 9        55.379 9  21993125.693 6         0.000 6      1943.061 6        37.977 6
G16  20494701.056 9 107700360.653 9       541.780 9        55.978 9  20494700.229 6         0.000 6       422.166 6        37.977 6
G26  20661498.742 9 108576886.400 9     -1497.318 9        55.870 9  20661501.561 6         0.000 6     -1166.742 6        37.977 6
G20  21931901.133 9 115252885.357 9      2554.636 9        55.320 9  21931901.447 6         0.000 6      1990.627 6        37.977 6
> 2019 07 03 12 01 25.0000000  0  8       0.000000000000
G07  25336515.854 9 133144243.453 9      2174.722 9        54.135 9  25336516.518 6         0.000 6      1694.589 6        37.977 6
G10  23792263.960 9 125029136.586 9      3525.833 9        54.676 9  23792267.670 6         0.000 6      2747.405 6        37.977 6
G21  21176942.490 9 111285563.207 9     -1260.334 9        55.707 9  21176941.777 6         0.000 6      -982.079 6        37.977 6
G29  24314814.869 9 127775157.897 9     -3122.251 9        54.470 9  24314816.459 6         0.000 6     -2432.925 6        37.977 6
G27  21992649.272 9 115572125.039 9      2493.356 9        55.379 9  21992651.200 6         0.000 6      1942.876 6        37.977 6
G16  20494598.017 9 107699819.182 9       541.163 9        55.978 9  20494597.191 6         0.000 6       421.685 6        37.977 6
G26  20661783.727 9 108578384.003 9     -1497.892 9        55.870 9  20661786.546 6         0.000 6     -1167.189 6        37.977 6
G20  21931415.044 9 115250330.948 9      2554.191 9        55.321 9  21931415.358 6         0.000 6      1990.280 6        37.977 6
> 2019 07 03 12 01 26.0000000  0  8       0.000000000000
G07  25336102.063 9 133142068.971 9      2174.261 9        54.135 9  25336102.727 6         0.000 6      1694.230 6        37.977 6
G10  23791593.028 9 125025610.826 9      3525.694 9        54.676 9  23791596.738 6         0.000 6      2747.296 6        37.977 6
G21  21177182.357 9 111286823.716 9     -1260.694 9        55.707 9  21177181.644 6         0.000 6      -982.359 6        37.977 6
G29  24315409.020 9 127778280.175 9     -3122.336 9        54.469 9  24315410.611 6         0.000 6     -2432.992 6        37.977 6
G27  21992174.825 9 115569631.806 9      2493.119 9        55.379 9  21992176.753 6         0.000 6      1942.690 6        37.977 6
G16  20494495.096 9 107699278.326 9       540.546 9        55.978 9  20494494.269 6         0.000 6       421.204 6        37.977 6
G26  20662068.820 9 108579882.175 9     -1498.466 9        55.870 9  20662071.639 6         0.000 6     -1167.636 6        37.977 6
G20  21930929.039 9 115247776.978 9      2553.745 9        55.321 9  21930929.353 6         0.000 6      1989.932 6        37.977 6
> 2019 07 03 12 01 27.0000000  0  8       0.000000000000
G07  25335688.359 9 133139894.945 9      2173.799 9        54.135 9  25335689.023 6         0.000 6      1693.871 6        37.977 6
G10  23790922.125 9 125022085.213 9      3525.554 9        54.676 9  23790925.833 6         0.000 6      2747.187 6        37.977 6
G21  21177422.293 9 111288084.589 9     -1261.053 9        55.707 9  21177421.580 6         0.000 6      -982.639 6        37.977 6
G29  24316003.189 9 127781402.543 9     -3122.421 9        54.469 9  24316004.781 6         0.000 6     -2433.058 6        37.977 6
G27  21991700.423 9 115567138.809 9      2492.881 9        55.379 9  21991702.351 6         0.000 6      1942.505 6        37.977 6
G16  20494392.292 9 107698738.089 9       539.928 9        55.978 9  20494391.465 6         0.000 6       420.724 6        37.977 6
G26  20662354.023 9 108581380.926 9     -1499.040 9        55.870 9  20662356.842 6         0.000 6     -1168.083 6        37.977 6
G20  21930443.119 9 115245223.460 9      2553.299 9        55.321 9  21930443.433 6         0.000 6      1989.585 6        37.977 6
> 2019 07 03 12 01 28.0000000  0  8       0.000000000000
G07  25335274.743 9 133137721.382 9      2173.338 9        54.136 9  25335275.407 6         0.000 6      1693.511 6        37.977 6
G10  23790251.247 9 125018559.736 9      3525.414 9        54.676 9  23790254.955 6         0.000 6      2747.078 6        37.977 6
G21  21177662.297 9 111289345.818 9     -1261.413 9        55.706 9  21177661.584 6         0.000 6      -982.919 6        37.977 6
G29  24316597.374 9 127784524.997 9     -3122.506 9        54.469 9  24316598.966 6         0.000 6     -2433.124 6        37.977 6
G27  21991226.066 9 115564646.048 9      2492.643 9        55.380 9  21991227.994 6         0.000 6      1942.320 6        37.977 6
G16  20494289.605 9 107698198.466 9       539.311 9        55.978 9  20494288.778 6         0.000 6       420.243 6        37.977 6
G26  20662639.334 9 108582880.247 9     -1499.614 9        55.870 9  20662642.154 6         0.000 6     -1168.531 6        37.977 6
G20  21929957.284 9 115242670.384 9      2552.853 9        55.321 9  21929957.598 6         0.000 6      1989.238 6        37.977 6
> 2019 07 03 12 01 29.0000000  0  8       0.000000000000
G07  25334861.214 9 133135548.278 9      2172.877 9        54.136 9  25334861.878 6         0.000 6      1693.152 6        37.977 6
G10  23789580.396 9 125015034.403 9      3525.273 9        54.677 9  23789584.103 6         0.000 6      2746.969 6        37.977 6
G21  21177902.370 9 111290607.410 9     -1261.772 9        55.706 9  21177901.657 6         0.000 6      -983.199 6        37.977 6
G29  24317191.575 9 127787647.535 9     -3122.591 9        54.469 9  24317193.168 6         0.000 6     -2433.190 6        37.977 6
G27  21990751.754 9 115562153.527 9      2492.405 9        55.380 9  21990753.682 6         0.000 6      1942.134 6        37.977 6
G16  20494187.037 9 107697659.463 9       538.694 9        55.978 9  20494186.210 6         0.000 6       419.762 6        37.977 6
G26  20662924.756 9 108584380.145 9     -1500.187 9        55.870 9  20662927.576 6         0.000 6     -1168.978 6        37.977 6
G20  21929471.535 9 115240117.758 9      2552.407 9        55.321 9  21929471.848 6         0.000 6      1988.890 6        37.977 6
> 2019 07 03 12 01 30.0000000  0  8       0.000000000000
G07  25334447.774 9 133133375.639 9      2172.415 9        54.136 9  25334448.437 6         0.000 6      1692.792 6        37.977 6
G10  23788909.571 9 125011509.206 9      3525.133 9        54.677 9  23788913.278 6         0.000 6      2746.860 6        37.977 6
G21  21178142.511 9 111291869.358 9     -1262.131 9        55.706 9  21178141.798 6         0.000 6      -983.479 6        37.977 6
G29  24317785.793 9 127790770.157 9     -3122.676 9        54.468 9  24317787.386 6         0.000 6     -2433.256 6        37.977 6
G27  21990277.487 9 115559661.242 9      2492.167 9        55.380 9  21990279.415 6         0.000 6      1941.949 6        37.977 6
G16  20494084.585 9 107697121.074 9       538.077 9        55.978 9  20494083.758 6         0.000 6       419.281 6        37.977 6
G26  20663210.286 9 108585880.613 9     -1500.761 9        55.869 9  20663213.106 6         0.000 6     -1169.425 6        37.977 6
G20  21928985.870 9 115237565.574 9      2551.961 9        55.321 9  21928986.183 6         0.000 6      1988.543 6        37.977 6
> 2019 07 03 12 01 31.0000000  0  8       0.000000000000
G07  25334034.421 9 133131203.458 9      2171.954 9        54.136 9  25334035.084 6         0.000 6      1692.432 6        37.977 6
G10  23788238.774 9 125007984.154 9      3524.993 9        54.677 9  23788242.480 6         0.000 6      2746.750 6        37.977 6
G21  21178382.721 9 111293131.668 9     -1262.490 9        55.706 9  21178382.008 6         0.000 6      -983.759 6        37.977 6
G29  24318380.026 9 127793892.865 9     -3122.760 9        54.468 9  24318381.620 6         0.000 6     -2433.322 6        37.977 6
G27  21989803.266 9 115557169.197 9      2491.929 9        55.380 9  21989805.194 6         0.000 6      1941.764 6        37.977 6
G16  20493982.251 9 107696583.306 9       537.460 9        55.978 9  20493981.424 6         0.000 6       418.800 6        37.977 6
G26  20663495.926 9 108587381.659 9     -1501.335 9        55.869 9  20663498.746 6         0.000 6     -1169.872 6        37.977 6
G20  21928500.290 9 115235013.840 9      2551.515 9        55.322 9  21928500.603 6         0.000 6      1988.195 6        37.977 6
> 2019 07 03 12 01 32.0000000  0  8       0.000000000000
G07  25333621.156 9 133129031.739 9      2171.492 9        54.136 9  25333621.819 6         0.000 6      1692.073 6        37.977 6
G10  23787568.004 9 125004459.242 9      3524.852 9        54.677 9  23787571.709 6         0.000 6      2746.641 6        37.977 6
G21  21178622.999 9 111294394.337 9     -1262.849 9        55.706 9  21178622.286 6         0.000 6      -984.038 6        37.977 6
G29  24318974.276 9 127797015.658 9     -3122.845 9        54.468 9  24318975.870 6         0.000 6     -2433.389 6        37.977 6
G27  21989329.091 9 115554677.389 9      2491.691 9        55.380 9  21989331.018 6         0.000 6      1941.578 6        37.977 6
G16  20493880.034 9 107696046.155 9       536.842 9        55.978 9  20493879.207 6         0.000 6       418.319 6        37.977 6
G26  20663781.675 9 108588883.280 9     -1501.909 9        55.869 9  20663784.495 6         0.000 6     -1170.319 6        37.977 6
G20  21928014.795 9 115232462.552 9      2551.069 9        55.322 9  21928015.108 6         0.000 6      1987.847 6        37.977 6
> 2019 07 03 12 01 33.0000000  0  8       0.000000000000
G07  25333207.979 9 133126860.484 9      2171.030 9        54.136 9  25333208.642 6         0.000 6      1691.713 6        37.977 6
G10  23786897.259 9 125000934.466 9      3524.712 9        54.678 9  23786900.964 6         0.000 6      2746.531 6        37.977 6
G21  21178863.345 9 111295657.362 9     -1263.208 9        55.706 9  21178862.632 6         0.000 6      -984.318 6        37.977 6
G29  24319568.541 9 127800138.535 9     -3122.930 9        54.468 9  24319570.137 6         0.000 6     -2433.455 6        37.977 6
G27  21988854.960 9 115552185.818 9      2491.453 9        55.381 9  21988856.887 6         0.000 6      1941.393 6        37.977 6
G16  20493777.935 9 107695509.618 9       536.225 9        55.978 9  20493777.108 6         0.000 6       417.838 6        37.977 6
G26  20664067.532 9 108590385.469 9     -1502.482 9        55.869 9  20664070.352 6         0.000 6     -1170.766 6        37.977 6
G20  21927529.385 9 115229911.707 9      2550.623 9        55.322 9  21927529.697 6         0.000 6      1987.499 6        37.977 6
> 2019 07 03 12 01 34.0000000  0  8       0.000000000000
G07  25332794.890 9 133124689.691 9      2170.568 9        54.136 9  25332795.553 6         0.000 6      1691.353 6        37.977 6
G10  23786226.542 9 124997409.834 9      3524.571 9        54.678 9  23786230.246 6         0.000 6      2746.421 6        37.977 6
G21  21179103.759 9 111296920.747 9     -1263.567 9        55.706 9  21179103.046 6         0.000 6      -984.598 6        37.977 6
G29  24320162.822 9 127803261.492 9     -3123.015 9        54.468 9  24320164.418 6         0.000 6     -2433.521 6        37.977 6
G27  21988380.876 9 115549694.490 9      2491.215 9        55.381 9  21988382.803 6         0.000 6      1941.207 6        37.977 6
G16  20493675.953 9 107694973.703 9       535.608 9        55.978 9  20493675.127 6         0.000 6       417.357 6        37.977 6
G26  20664353.500 9 108591888.236 9     -1503.056 9        55.869 9  20664356.320 6         0.000 6     -1171.213 6        37.977 6
G20  21927044.059 9 115227361.308 9      2550.176 9        55.322 9  21927044.371 6         0.000 6      1987.152 6        37.977 6
> 2019 07 03 12 01 35.0000000  0  8       0.000000000000
G07  25332381.889 9 133122519.359 9      2170.107 9        54.137 9  25332382.552 6         0.000 6      1690.993 6        37.977 6
G10  23785555.851 9 124993885.339 9      3524.430 9        54.678 9  23785559.554 6         0.000 6      2746.312 6        37.977 6
G21  21179344.242 9 111298184.490 9     -1263.926 9        55.706 9  21179343.529 6         0.000 6      -984.878 6        37.977 6
G29  24320757.120 9 127806384.539 9     -3123.100 9        54.467 9  24320758.717 6         0.000 6     -2433.587 6        37.977 6
G27  21987906.836 9 115547203.395 9      2490.977 9        55.381 9  21987908.763 6         0.000 6      1941.022 6        37.977 6
G16  20493574.089 9 107694438.401 9       534.990 9        55.978 9  20493573.262 6         0.000 6       416.875 6        37.977 6
G26  20664639.575 9 108593391.572 9     -1503.630 9        55.869 9  20664642.396 6         0.000 6     -1171.660 6        37.977 6
G20  21926558.818 9 115224811.355 9      2549.730 9        55.322 9  21926559.130 6         0.000 6      1986.804 6        37.977 6
> 2019 07 03 12 01 36.0000000  0  8       0.000000000000
G07  25331968.976 9 133120349.487 9      2169.645 9        54.137 9  25331969.638 6         0.000 6      1690.633 6        37.977 6
G10  23784885.188 9 124990360.990 9      3524.289 9        54.678 9  23784888.890 6         0.000 6      2746.202 6        37.977 6
G21  21179584.793 9 111299448.595 9     -1264.285 9        55.706 9  21179584.080 6         0.000 6      -985.157 6        37.977 6
G29  24321351.435 9 127809507.671 9     -3123.184 9        54.467 9  24321353.032 6         0.000 6     -2433.653 6        37.977 6
G27  21987432.841 9 115544712.540 9      2490.739 9        55.381 9  21987434.768 6         0.000 6      1940.836 6        37.977 6
G16  20493472.342 9 107693903.720 9       534.373 9        55.978 9  20493471.515 6         0.000 6       416.394 6        37.977 6
G26  20664925.761 9 108594895.487 9     -1504.203 9        55.869 9  20664928.582 6         0.000 6     -1172.107 6        37.977 6
G20  21926073.663 9 115222261.853 9      2549.283 9        55.323 9  21926073.975 6         0.000 6      1986.456 6        37.977 6
> 2019 07 03 12 01 37.0000000  0  8       0.000000000000
G07  25331556.151 9 133118180.080 9      2169.183 9        54.137 9  25331556.812 6         0.000 6      1690.273 6        37.977 6
G10  23784214.550 9 124986836.778 9      3524.148 9        54.679 9  23784218.252 6         0.000 6      2746.092 6        37.977 6
G21  21179825.412 9 111300713.056 9     -1264.644 9        55.706 9  21179824.699 6         0.000 6      -985.437 6        37.977 6
G29  24321945.765 9 127812630.887 9     -3123.269 9        54.467 9  24321947.363 6         0.000 6     -2433.719 6        37.977 6
G27  21986958.892 9 115542221.922 9      2490.500 9        55.381 9  21986960.818 6         0.000 6      1940.650 6        37.977 6
G16  20493370.713 9 107693369.652 9       533.755 9        55.978 9  20493369.886 6         0.000 6       415.913 6        37.977 6
G26  20665212.055 9 108596399.970 9     -1504.777 9        55.869 9  20665214.876 6         0.000 6     -1172.554 6        37.977 6
G20  21925588.593 9 115219712.794 9      2548.837 9        55.323 9  21925588.904 6         0.000 6      1986.108 6        37.977 6
> 2019 07 03 12 01 38.0000000  0  8       0.000000000000
G07  25331143.413 9 133116011.132 9      2168.720 9        54.137 9  25331144.074 6         0.000 6      1689.913 6        37.977 6
G10  23783543.941 9 124983312.711 9      3524.007 9        54.679 9  23783547.642 6         0.000 6      2745.982 6        37.977 6
G21  21180066.100 9 111301977.879 9     -1265.002 9        55.705 9  21180065.387 6         0.000 6      -985.716 6        37.977 6
G29  24322540.111 9 127815754.189 9     -3123.354 9        54.467 9  24322541.710 6         0.000 6     -2433.785 6        37.977 6
G27  21986484.988 9 115539731.543 9      2490.262 9        55.381 9  21986486.914 6         0.000 6      1940.465 6        37.977 6
G16  20493269.201 9 107692836.206 9       533.138 9        55.978 9  20493268.374 6         0.000 6       415.432 6        37.977 6
G26  20665498.459 9 108597905.032 9     -1505.350 9        55.868 9  20665501.280 6         0.000 6     -1173.001 6        37.977 6
G20  21925103.608 9 115217164.185 9      2548.390 9        55.323 9  21925103.918 6         0.000 6      1985.759 6        37.977 6
> 2019 07 03 12 01 39.0000000  0  8       0.000000000000
G07  25330730.764 9 133113842.649 9      2168.258 9        54.137 9  25330731.425 6         0.000 6      1689.553 6        37.977 6
G10  23782873.357 9 124979788.781 9      3523.866 9        54.679 9  23782877.058 6         0.000 6      2745.872 6        37.977 6
G21  21180306.855 9 111303243.057 9     -1265.361 9        55.705 9  21180306.143 6         0.000 6      -985.996 6        37.977 6
G29  24323134.474 9 127818877.575 9     -3123.439 9        54.467 9  24323136.073 6         0.000 6     -2433.851 6        37.977 6
G27  21986011.129 9 115537241.401 9      2490.024 9        55.382 9  21986013.055 6         0.000 6      1940.279 6        37.977 6
G16  20493167.807 9 107692303.374 9       532.520 9        55.978 9  20493166.980 6         0.000 6       414.951 6        37.977 6
G26  20665784.972 9 108599410.663 9     -1505.924 9        55.868 9  20665787.792 6         0.000 6     -1173.448 6        37.977 6
G20  21924618.707 9 115214616.019 9      2547.943 9        55.323 9  21924619.017 6         0.000 6      1985.411 6        37.977 6
> 2019 07 03 12 01 40.0000000  0  8       0.000000000000
G07  25330318.202 9 133111674.625 9      2167.796 9        54.137 9  25330318.863 6         0.000 6      1689.193 6        37.977 6
G10  23782202.801 9 124976264.996 9      3523.724 9        54.679 9  23782206.501 6         0.000 6      2745.762 6        37.977 6
G21  21180547.680 9 111304508.597 9     -1265.720 9        55.705 9  21180546.967 6         0.000 6      -986.275 6        37.977 6
G29  24323728.852 9 127822001.045 9     -3123.523 9        54.466 9  24323730.452 6         0.000 6     -2433.917 6        37.977 6
G27  21985537.316 9 115534751.499 9      2489.786 9        55.382 9  21985539.242 6         0.000 6      1940.093 6        37.977 6
G16  20493066.530 9 107691771.163 9       531.902 9        55.978 9  20493065.703 6         0.000 6       414.469 6        37.977 6
G26  20666071.594 9 108600916.871 9     -1506.497 9        55.868 9  20666074.415 6         0.000 6     -1173.894 6        37.977 6
G20  21924133.892 9 115212068.304 9      2547.496 9        55.323 9  21924134.202 6         0.000 6      1985.063 6        37.977 6
> 2019 07 03 12 01 41.0000000  0  8       0.000000000000
G07  25329905.728 9 133109507.064 9      2167.334 9        54.137 9  25329906.389 6         0.000 6      1688.832 6        37.977 6
G10  23781532.272 9 124972741.353 9      3523.583 9        54.680 9  23781535.972 6         0.000 6      2745.652 6        37.977 6
G21  21180788.572 9 111305774.495 9     -1266.078 9        55.705 9  21180787.860 6         0.000 6      -986.555 6        37.977 6
G29  24324323.247 9 127825124.600 9     -3123.608 9        54.466 9  24324324.848 6         0.000 6     -2433.983 6        37.977 6
G27  21985063.548 9 115532261.835 9      2489.547 9        55.382 9  21985065.474 6         0.000 6      1939.908 6        37.977 6
G16  20492965.371 9 107691239.569 9       531.285 9        55.978 9  20492964.544 6         0.000 6       413.988 6        37.977 6
G26  20666358.325 9 108602423.654 9     -1507.071 9        55.868 9  20666361.146 6         0.000 6     -1174.341 6        37.977 6
G20  21923649.162 9 115209521.036 9      2547.049 9        55.324 9  21923649.472 6         0.000 6      1984.715 6        37.977 6
> 2019 07 03 12 01 42.0000000  0  8       0.000000000000
G07  25329493.343 9 133107339.971 9      2166.871 9        54.138 9  25329494.004 6         0.000 6      1688.472 6        37.977 6
G10  23780861.769 9 124969217.845 9      3523.441 9        54.680 9  23780865.468 6         0.000 6      2745.541 6        37.977 6
G21  21181029.532 9 111307040.748 9     -1266.437 9        55.705 9  21181028.820 6         0.000 6      -986.834 6        37.977 6
G29  24324917.657 9 127828248.235 9     -3123.692 9        54.466 9  24324919.258 6         0.000 6     -2434.049 6        37.977 6
G27  21984589.826 9 115529772.411 9      2489.309 9        55.382 9  21984591.752 6         0.000 6      1939.722 6        37.977 6
G16  20492864.330 9 107690708.591 9       530.667 9        55.978 9  20492863.503 6         0.000 6       413.507 6        37.977 6
G26  20666645.165 9 108603931.004 9     -1507.644 9        55.868 9  20666647.986 6         0.000 6     -1174.788 6        37.977 6
G20  21923164.516 9 115206974.208 9      2546.602 9        55.324 9  21923164.826 6         0.000 6      1984.366 6        37.977 6
> 2019 07 03 12 01 43.0000000  0  8       0.000000000000
G07  25329081.045 9 133105173.334 9      2166.409 9        54.138 9  25329081.706 6         0.000 6      1688.112 6        37.977 6
G10  23780191.294 9 124965694.485 9      3523.300 9        54.680 9  23780194.992 6         0.000 6      2745.431 6        37.977 6
G21  21181270.561 9 111308307.363 9     -1266.795 9        55.705 9  21181269.849 6         0.000 6      -987.113 6        37.977 6
G29  24325512.084 9 127831371.959 9     -3123.777 9        54.466 9  24325513.686 6         0.000 6     -2434.115 6        37.977 6
G27  21984116.149 9 115527283.224 9      2489.070 9        55.382 9  21984118.075 6         0.000 6      1939.536 6        37.977 6
G16  20492763.406 9 107690178.233 9       530.049 9        55.978 9  20492762.579 6         0.000 6       413.025 6        37.977 6
G26  20666932.115 9 108605438.933 9     -1508.217 9        55.868 9  20666934.936 6         0.000 6     -1175.235 6        37.977 6
G20  21922679.956 9 115204427.834 9      2546.154 9        55.324 9  21922680.266 6         0.000 6      1984.018 6        37.977 6
> 2019 07 03 12 01 44.0000000  0  8       0.000000000000
G07  25328668.836 9 133103007.163 9      2165.946 9        54.138 9  25328669.496 6         0.000 6      1687.751 6        37.977 6
G10  23779520.845 9 124962171.262 9      3523.158 9        54.680 9  23779524.542 6         0.000 6      2745.321 6        37.977 6
G21  21181511.658 9 111309574.334 9     -1267.154 9        55.705 9  21181510.946 6         0.000 6      -987.393 6        37.977 6
G29  24326106.527 9 127834495.768 9     -3123.862 9        54.466 9  24326108.129 6         0.000 6     -2434.180 6        37.977 6
G27  21983642.517 9 115524794.274 9      2488.832 9        55.383 9  21983644.442 6         0.000 6      1939.350 6        37.977 6
G16  20492662.599 9 107689648.489 9       529.432 9        55.979 9  20492661.772 6         0.000 6       412.544 6        37.977 6
G26  20667219.173 9 108606947.430 9     -1508.791 9        55.868 9  20667221.994 6         0.000 6     -1175.681 6        37.977 6
G20  21922195.481 9 115201881.903 9      2545.707 9        55.324 9  21922195.790 6         0.000 6      1983.669 6        37.977 6
> 2019 07 03 12 01 45.0000000  0  8       0.000000000000
G07  25328256.714 9 133100841.452 9      2165.484 9        54.138 9  25328257.374 6         0.000 6      1687.391 6        37.977 6
G10  23778850.423 9 124958648.185 9      3523.016 9        54.681 9  23778854.120 6         0.000 6      2745.210 6        37.977 6
G21  21181752.823 9 111310841.666 9     -1267.512 9        55.705 9  21181752.111 6         0.000 6      -987.672 6        37.977 6
G29  24326700.986 9 127837619.662 9     -3123.946 9        54.465 9  24326702.589 6         0.000 6     -2434.246 6        37.977 6
G27  21983168.931 9 115522305.564 9      2488.594 9        55.383 9  21983170.856 6         0.000 6      1939.164 6        37.977 6
G16  20492561.910 9 107689119.367 9       528.814 9        55.979 9  20492561.083 6         0.000 6       412.063 6        37.977 6
G26  20667506.340 9 108608456.506 9     -1509.364 9        55.868 9  20667509.162 6         0.000 6     -1176.128 6        37.977 6
G20  21921711.092 9 115199336.424 9      2545.260 9        55.324 9  21921711.400 6         0.000 6      1983.320 6        37.977 6
> 2019 07 03 12 01 46.0000000  0  8       0.000000000000
G07  25327844.681 9 133098676.206 9      2165.021 9        54.138 9  25327845.340 6         0.000 6      1687.030 6        37.977 6
G10  23778180.028 9 124955125.246 9      3522.874 9        54.681 9  23778183.725 6         0.000 6      2745.099 6        37.977 6
G21  21181994.057 9 111312109.354 9     -1267.870 9        55.705 9  21181993.344 6         0.000 6      -987.951 6        37.977 6
G29  24327295.461 9 127840743.640 9     -3124.031 9        54.465 9  24327297.065 6         0.000 6     -2434.312 6        37.977 6
G27  21982695.389 9 115519817.090 9      2488.355 9        55.383 9  21982697.315 6         0.000 6      1938.979 6        37.977 6
G16  20492461.338 9 107688590.858 9       528.196 9        55.979 9  20492460.512 6         0.000 6       411.581 6        37.977 6
G26  20667793.616 9 108609966.150 9     -1509.937 9        55.867 9  20667796.438 6         0.000 6     -1176.575 6        37.977 6
G20  21921226.787 9 115196791.389 9      2544.812 9        55.325 9  21921227.095 6         0.000 6      1982.972 6        37.977 6
> 2019 07 03 12 01 47.0000000  0  8       0.000000000000
G07  25327432.735 9 133096511.420 9      2164.558 9        54.138 9  25327433.395 6         0.000 6      1686.669 6        37.977 6
G10  23777509.661 9 124951602.454 9      3522.732 9        54.681 9  23777513.357 6         0.000 6      2744.989 6        37.977 6
G21  21182235.358 9 111313377.403 9     -1268.229 9        55.705 9  21182234.646 6         0.000 6      -988.230 6        37.977 6
G29  24327889.953 9 127843867.703 9     -3124.115 9        54.465 9  24327891.557 6         0.000 6     -2434.378 6        37.977 6
G27  21982221.894 9 115517328.857 9      2488.116 9        55.383 9  21982223.819 6         0.000 6      1938.793 6        37.977 6
G16  20492360.885 9 107688062.972 9       527.578 9        55.979 9  20492360.058 6         0.000 6       411.100 6        37.977 6
G26  20668081.003 9 108611476.372 9     -1510.510 9        55.867 9  20668083.824 6         0.000 6     -1177.022 6        37.977 6
G20  21920742.568 9 115194246.805 9      2544.365 9        55.325 9  21920742.876 6         0.000 6      1982.623 6        37.977 6
> 2019 07 03 12 01 48.0000000  0  8       0.000000000000
G07  25327020.878 9 133094347.099 9      2164.095 9        54.138 9  25327021.537 6         0.000 6      1686.309 6        37.977 6
G10  23776839.320 9 124948079.799 9      3522.590 9        54.681 9  23776843.015 6         0.000 6      2744.878 6        37.977 6
G21  21182476.728 9 111314645.808 9     -1268.587 9        55.704 9  21182476.016 6         0.000 6      -988.509 6        37.977 6
G29  24328484.460 9 127846991.850 9     -3124.200 9        54.465 9  24328486.065 6         0.000 6     -2434.444 6        37.977 6
G27  21981748.443 9 115514840.861 9      2487.878 9        55.383 9  21981750.368 6         0.000 6      1938.607 6        37.977 6
G16  20492260.548 9 107687535.699 9       526.960 9        55.979 9  20492259.721 6         0.000 6       410.618 6        37.977 6
G26  20668368.497 9 108612987.162 9     -1511.084 9        55.867 9  20668371.318 6         0.000 6     -1177.468 6        37.977 6
G20  21920258.433 9 115191702.664 9      2543.917 9        55.325 9  21920258.741 6         0.000 6      1982.274 6        37.977 6
> 2019 07 03 12 01 49.0000000  0  8       0.000000000000
G07  25326609.108 9 133092183.239 9      2163.632 9        54.139 9  25326609.767 6         0.000 6      1685.948 6        37.977 6
G10  23776169.007 9 124944557.291 9      3522.448 9        54.682 9  23776172.702 6         0.000 6      2744.767 6        37.977 6
G21  21182718.166 9 111315914.573 9     -1268.945 9        55.704 9  21182717.454 6         0.000 6      -988.788 6        37.977 6
G29  24329078.984 9 127850116.081 9     -3124.284 9        54.464 9  24329080.589 6         0.000 6     -2434.510 6        37.977 6
G27  21981275.039 9 115512353.105 9      2487.639 9        55.384 9  21981276.963 6         0.000 6      1938.421 6        37.977 6
G16  20492160.330 9 107687009.048 9       526.342 9        55.979 9  20492159.503 6         0.000 6       410.137 6        37.977 6
G26  20668656.101 9 108614498.530 9     -1511.657 9        55.867 9  20668658.923 6         0.000 6     -1177.915 6        37.977 6
G20  21919774.384 9 115189158.976 9      2543.469 9        55.325 9  21919774.692 6         0.000 6      1981.925 6        37.977 6
> 2019 07 03 12 01 50.0000000  0  8       0.000000000000
G07  25326197.428 9 133090019.848 9      2163.169 9        54.139 9  25326198.087 6         0.000 6      1685.587 6        37.977 6
G10  23775498.720 9 124941034.918 9      3522.305 9        54.682 9  23775502.414 6         0.000 6      2744.656 6        37.977 6
G21  21182959.671 9 111317183.691 9     -1269.303 9        55.704 9  21182958.959 6         0.000 6      -989.067 6        37.977 6
G29  24329673.522 9 127853240.392 9     -3124.369 9        54.464 9  24329675.128 6         0.000 6     -2434.575 6        37.977 6
G27  21980801.680 9 115509865.590 9      2487.400 9        55.384 9  21980803.604 6         0.000 6      1938.235 6        37.977 6
G16  20492060.229 9 107686483.013 9       525.724 9        55.979 9  20492059.402 6         0.000 6       409.655 6        37.977 6
G26  20668943.813 9 108616010.467 9     -1512.230 9        55.867 9  20668946.635 6         0.000 6     -1178.361 6        37.977 6
G20  21919290.419 9 115186615.728 9      2543.021 9        55.325 9  21919290.727 6         0.000 6      1981.576 6        37.977 6
> 2019 07 03 12 01 51.0000000  0  8       0.000000000000
G07  25325785.834 9 133087856.914 9      2162.706 9        54.139 9  25325786.493 6         0.000 6      1685.226 6        37.977 6
G10  23774828.461 9 124937512.695 9      3522.163 9        54.682 9  23774832.154 6         0.000 6      2744.545 6        37.977 6
G21  21183201.246 9 111318453.172 9     -1269.661 9        55.704 9  21183200.534 6         0.000 6      -989.346 6        37.977 6
G29  24330268.078 9 127856364.792 9     -3124.453 9        54.464 9  24330269.685 6         0.000 6     -2434.641 6        37.977 6
G27  21980328.366 9 115507378.311 9      2487.162 9        55.384 9  21980330.290 6         0.000 6      1938.049 6        37.977 6
G16  20491960.246 9 107685957.598 9       525.106 9        55.979 9  20491959.419 6         0.000 6       409.174 6        37.977 6
G26  20669231.635 9 108617522.981 9     -1512.803 9        55.867 9  20669234.457 6         0.000 6     -1178.808 6        37.977 6
G20  21918806.541 9 115184072.935 9      2542.573 9        55.325 9  21918806.848 6         0.000 6      1981.227 6        37.977 6
> 2019 07 03 12 01 52.0000000  0  8       0.000000000000
G07  25325374.329 9 133085694.443 9      2162.243 9        54.139 9  25325374.988 6         0.000 6      1684.865 6        37.977 6
G10  23774158.229 9 124933990.614 9      3522.020 9        54.682 9  23774161.922 6         0.000 6      2744.434 6        37.977 6
G21  21183442.888 9 111319723.012 9     -1270.019 9        55.704 9  21183442.176 6         0.000 6      -989.625 6        37.977 6
G29  24330862.649 9 127859489.277 9     -3124.537 9        54.464 9  24330864.257 6         0.000 6     -2434.707 6        37.977 6
G27  21979855.097 9 115504891.272 9      2486.923 9        55.384 9  21979857.022 6         0.000 6      1937.863 6        37.977 6
G16  20491860.380 9 107685432.801 9       524.488 9        55.979 9  20491859.553 6         0.000 6       408.692 6        37.977 6
G26  20669519.567 9 108619036.069 9     -1513.376 9        55.867 9  20669522.389 6         0.000 6     -1179.254 6        37.977 6
G20  21918322.748 9 115181530.591 9      2542.125 9        55.326 9  21918323.055 6         0.000 6      1980.878 6        37.977 6
> 2019 07 03 12 01 53.0000000  0  8       0.000000000000
G07  25324962.913 9 133083532.438 9      2161.780 9        54.139 9  25324963.571 6         0.000 6      1684.505 6        37.977 6
G10  23773488.024 9 124930468.671 9      3521.877 9        54.682 9  23773491.716 6         0.000 6      2744.323 6        37.977 6
G21  21183684.598 9 111320993.206 9     -1270.377 9        55.704 9  21183683.886 6         0.000 6      -989.904 6        37.977 6
G29  24331457.237 9 127862613.846 9     -3124.622 9        54.464 9  24331458.845 6         0.000 6     -2434.773 6        37.977 6
G27  21979381.874 9 115502404.469 9      2486.684 9        55.384 9  21979383.798 6         0.000 6      1937.677 6        37.977 6
G16  20491760.631 9 107684908.619 9       523.870 9        55.979 9  20491759.805 6         0.000 6       408.210 6        37.977 6
G26  20669807.606 9 108620549.724 9     -1513.949 9        55.867 9  20669810.428 6         0.000 6     -1179.701 6        37.977 6
G20  21917839.040 9 115178988.690 9      2541.677 9        55.326 9  21917839.346 6         0.000 6      1980.528 6        37.977 6
> 2019 07 03 12 01 54.0000000  0  8       0.000000000000
G07  25324551.584 9 133081370.893 9      2161.316 9        54.139 9  25324552.242 6         0.000 6      1684.143 6        37.977 6
G10  23772817.847 9 124926946.876 9      3521.735 9        54.683 9  23772821.538 6         0.000 6      2744.211 6        37.977 6
G21  21183926.377 9 111322263.761 9     -1270.735 9        55.704 9  21183925.665 6         0.000 6      -990.183 6        37.977 6
G29  24332051.841 9 127865738.500 9     -3124.706 9        54.463 9  24332053.450 6         0.000 6     -2434.838 6        37.977 6
G27  21978908.696 9 115499917.907 9      2486.445 9        55.384 9  21978910.620 6         0.000 6      1937.491 6        37.977 6
G16  20491661.001 9 107684385.058 9       523.252 9        55.979 9  20491660.174 6         0.000 6       407.729 6        37.977 6
G26  20670095.756 9 108622063.958 9     -1514.522 9        55.867 9  20670098.578 6         0.000 6     -1180.147 6        37.977 6
G20  21917355.417 9 115176447.242 9      2541.228 9        55.326 9  21917355.724 6         0.000 6      1980.179 6        37.977 6
> 2019 07 03 12 01 55.0000000  0  8       0.000000000000
G07  25324140.344 9 133079209.815 9      2160.853 9        54.139 9  25324141.001 6         0.000 6      1683.782 6        37.977 6
G10  23772147.696 9 124923425.219 9      3521.592 9        54.683 9  23772151.386 6         0.000 6      2744.100 6        37.977 6
G21  21184168.223 9 111323534.672 9     -1271.092 9        55.704 9  21184167.511 6         0.000 6      -990.462 6        37.977 6
G29  24332646.461 9 127868863.238 9     -3124.790 9        54.463 9  24332648.070 6         0.000 6     -2434.904 6        37.977 6
G27  21978435.564 9 115497431.582 9      2486.206 9        55.385 9  21978437.488 6         0.000 6      1937.304 6        37.977 6
G16  20491561.488 9 107683862.112 9       522.634 9        55.979 9  20491560.661 6         0.000 6       407.247 6        37.977 6
G26  20670384.013 9 108623578.759 9     -1515.095 9        55.866 9  20670386.836 6         0.000 6     -1180.594 6        37.977 6
G20  21916871.880 9 115173906.238 9      2540.780 9        55.326 9  21916872.186 6         0.000 6      1979.830 6        37.977 6
> 2019 07 03 12 01 56.0000000  0  8       0.000000000000
G07  25323729.191 9 133077049.197 9      2160.389 9        54.139 9  25323729.849 6         0.000 6      1683.421 6        37.977 6
G10  23771477.573 9 124919903.709 9      3521.449 9        54.683 9  23771481.262 6         0.000 6      2743.989 6        37.977 6
G21  21184410.138 9 111324805.942 9     -1271.450 9        55.704 9  21184409.426 6         0.000 6      -990.741 6        37.977 6
G29  24333241.096 9 127871988.060 9     -3124.875 9        54.463 9  24333242.707 6         0.000 6     -2434.970 6        37.977 6
G27  21977962.477 9 115494945.497 9      2485.968 9        55.385 9  21977964.401 6         0.000 6      1937.118 6        37.977 6
G16  20491462.093 9 107683339.788 9       522.015 9        55.979 9  20491461.266 6         0.000 6       406.765 6        37.977 6
G26  20670672.380 9 108625094.139 9     -1515.668 9        55.866 9  20670675.203 6         0.000 6     -1181.040 6        37.977 6
G20  21916388.428 9 115171365.687 9      2540.332 9        55.326 9  21916388.734 6         0.000 6      1979.480 6        37.977 6
> 2019 07 03 12 01 57.0000000  0  8       0.000000000000
G07  25323318.128 9 133074889.049 9      2159.926 9        54.140 9  25323318.785 6         0.000 6      1683.060 6        37.977 6
G10  23770807.476 9 124916382.336 9      3521.306 9        54.683 9  23770811.165 6         0.000 6      2743.877 6        37.977 6
G21  21184652.120 9 111326077.566 9     -1271.808 9        55.704 9  21184651.409 6         0.000 6      -991.019 6        37.977 6
G29  24333835.747 9 127875112.961 9     -3124.959 9        54.463 9  24333837.358 6         0.000 6     -2435.035 6        37.977 6
G27  21977489.437 9 115492459.654 9      2485.729 9        55.385 9  21977491.360 6         0.000 6      1936.932 6        37.977 6
G16  20491362.815 9 107682818.079 9       521.397 9        55.979 9  20491361.988 6         0.000 6       406.283 6        37.977 6
G26  20670960.856 9 108626610.086 9     -1516.240 9        55.866 9  20670963.679 6         0.000 6     -1181.486 6        37.977 6
G20  21915905.060 9 115168825.576 9      2539.883 9        55.327 9  21915905.366 6         0.000 6      1979.131 6        37.977 6
> 2019 07 03 12 01 58.0000000  0  8       0.000000000000
G07  25322907.152 9 133072729.358 9      2159.462 9        54.140 9  25322907.809 6         0.000 6      1682.699 6        37.977 6
G10  23770137.407 9 124912861.112 9      3521.162 9        54.684 9  23770141.096 6         0.000 6      2743.765 6        37.977 6
G21  21184894.171 9 111327349.552 9     -1272.165 9        55.703 9  21184893.460 6         0.000 6      -991.298 6        37.977 6
G29  24334430.415 9 127878237.952 9     -3125.043 9        54.463 9  24334432.027 6         0.000 6     -2435.101 6        37.977 6
G27  21977016.441 9 115489974.047 9      2485.490 9        55.385 9  21977018.364 6         0.000 6      1936.746 6        37.977 6
G16  20491263.655 9 107682296.992 9       520.779 9        55.979 9  20491262.828 6         0.000 6       405.802 6        37.977 6
G26  20671249.441 9 108628126.611 9     -1516.813 9        55.866 9  20671252.264 6         0.000 6     -1181.933 6        37.977 6
G20  21915421.779 9 115166285.922 9      2539.434 9        55.327 9  21915422.084 6         0.000 6      1978.781 6        37.977 6
> 2019 07 03 12 01 59.0000000  0  8       0.000000000000
G07  25322496.264 9 133070570.134 9      2158.999 9        54.140 9  25322496.921 6         0.000 6      1682.337 6        37.977 6
G10  23769467.365 9 124909340.028 9      3521.019 9        54.684 9  23769471.053 6         0.000 6      2743.654 6        37.977 6
G21  21185136.290 9 111328621.893 9     -1272.523 9        55.703 9  21185135.578 6         0.000 6      -991.576 6        37.977 6
G29  24335025.099 9 127881363.027 9     -3125.127 9        54.462 9  24335026.711 6         0.000 6     -2435.167 6        37.977 6
G27  21976543.490 9 115487488.678 9      2485.251 9        55.385 9  21976545.413 6         0.000 6      1936.560 6        37.977 6
G16  20491164.613 9 107681776.519 9       520.160 9        55.979 9  20491163.786 6         0.000 6       405.320 6        37.977 6
G26  20671538.135 9 108629643.704 9     -1517.386 9        55.866 9  20671540.958 6         0.000 6     -1182.379 6        37.977 6
G20  21914938.583 9 115163746.712 9      2538.986 9        55.327 9  21914938.888 6         0.000 6      1978.432 6        37.977 6
> 2019 07 03 12 02  0.0000000  0  8       0.000000000000
G07  25322085.465 9 133068411.372 9      2158.535 9        54.140 9  25322086.122 6         0.000 6      1681.976 6        37.977 6
G10  23768797.351 9 124905819.089 9      3520.876 9        54.684 9  23768801.038 6         0.000 6      2743.542 6        37.977 6
G21  21185378.477 9 111329894.592 9     -1272.880 9        55.703 9  21185377.765 6         0.000 6      -991.855 6        37.977 6
G29  24335619.799 9 127884488.184 9     -3125.212 9        54.462 9  24335621.411 6         0.000 6     -2435.232 6        37.977 6
G27  21976070.586 9 115485003.550 9      2485.012 9        55.386 9  21976072.509 6         0.000 6      1936.373 6        37.977 6
G16  20491065.688 9 107681256.667 9       519.542 9        55.979 9  20491064.861 6         0.000 6       404.838 6        37.977 6
G26  20671826.938 9 108631161.373 9     -1517.959 9        55.866 9  20671829.761 6         0.000 6     -1182.825 6        37.977 6
G20  21914455.472 9 115161207.954 9      2538.537 9        55.327 9  21914455.777 6         0.000 6      1978.082 6        37.977 6
