     3.00           Observation Data    M (Mixed)           RINEX VERSION / TYPE
SimGEN V6.06.00     Spirent             03-Jul-19 12:00     PGM / RUN BY / DATE 
                                                            MARKER NAME         
1                                                           MARKER NUMBER       
GROUND_CRAFT                                                MARKER TYPE         
jin4hi              Spirent                                 OBSERVER / AGENCY   
rec_num             rec_type            rec_vers            REC # / TYPE / VERS 
1                   ant_type                                ANT # / TYPE        
  1000.000                                                  INTERVAL            
  2019     7     3    12     0    1.0000000     GPS         TIME OF FIRST OBS   
  4162656.1070   664379.4800  4770549.9870                  APPROX POSITION XYZ 
        0.0000        0.0000        0.0000                  ANTENNA: DELTA H/E/N
G    8 C1C L1C D1C S1C C2C L2C D2C S2C                      SYS / # / OBS TYPES 
        0.0000        0.0000        0.0000                  ANTENNA: DELTA X/Y/Z
DBHZ                                                        SIGNAL STRENGTH UNIT
                                                            END OF HEADER       
> 2019 07 03 12 00  1.0000000  0  8       0.000000000000
G07  25371564.539 9 133328425.235 9      2213.150 9        54.123 9  25371565.222 6         0.000 6      1724.532 6        37.977 6
G10  23848729.762 9 125325865.481 9      3537.182 9        54.655 9  23848733.528 6         0.000 6      2756.245 6        37.977 6
G21  21157055.056 9 111181054.094 9     -1229.964 9        55.715 9  21157054.339 6         0.000 6      -958.414 6        37.977 6
G29  24265012.815 9 127513447.194 9     -3115.010 9        54.487 9  24265014.353 6         0.000 6     -2427.280 6        37.977 6
G27  22032625.906 9 115782203.441 9      2513.169 9        55.363 9  22032627.849 6         0.000 6      1958.313 6        37.977 6
G16  20503643.897 9 107747355.598 9       592.841 9        55.974 9  20503643.070 6         0.000 6       461.954 6        37.977 6
G26  20638221.305 9 108454562.787 9     -1449.567 9        55.880 9  20638224.115 6         0.000 6     -1129.533 6        37.977 6
G20  21972564.092 9 115466570.276 9      2591.278 9        55.304 9  21972564.430 6         0.000 6      2019.178 6        37.977 6
> 2019 07 03 12 00  2.0000000  0  8       0.000000000000
G07  25371143.424 9 133326212.264 9      2212.750 9        54.123 9  25371144.107 6         0.000 6      1724.222 6        37.977 6
G10  23848056.668 9 125322328.354 9      3537.069 9        54.655 9  23848060.432 6         0.000 6      2756.161 6        37.977 6
G21  21157289.145 9 111182284.239 9     -1230.329 9        55.715 9  21157288.428 6         0.000 6      -958.698 6        37.977 6
G29  24265605.594 9 127516562.259 9     -3115.124 9        54.487 9  24265607.133 6         0.000 6     -2427.372 6        37.977 6
G27  22032147.688 9 115779690.392 9      2512.939 9        55.363 9  22032149.631 6         0.000 6      1958.135 6        37.977 6
G16  20503531.142 9 107746763.065 9       592.228 9        55.974 9  20503530.315 6         0.000 6       461.476 6        37.977 6
G26  20638497.203 9 108456012.642 9     -1450.146 9        55.880 9  20638500.014 6         0.000 6     -1129.984 6        37.977 6
G20  21972071.029 9 115463979.213 9      2590.845 9        55.305 9  21972071.366 6         0.000 6      2018.842 6        37.977 6
> 2019 07 03 12 00  3.0000000  0  8       0.000000000000
G07  25370722.395 9 133323999.745 9      2212.295 9        54.123 9  25370723.078 6         0.000 6      1723.867 6        37.977 6
G10  23847383.598 9 125318791.361 9      3536.938 9        54.656 9  23847387.362 6         0.000 6      2756.058 6        37.977 6
G21  21157523.303 9 111183514.750 9     -1230.694 9        55.715 9  21157522.586 6         0.000 6      -958.982 6        37.977 6
G29  24266198.391 9 127519677.416 9     -3115.211 9        54.487 9  24266199.930 6         0.000 6     -2427.439 6        37.977 6
G27  22031669.514 9 115777177.573 9      2512.704 9        55.364 9  22031671.456 6         0.000 6      1957.952 6        37.977 6
G16  20503418.503 9 107746171.144 9       591.614 9        55.974 9  20503417.676 6         0.000 6       460.998 6        37.977 6
G26  20638773.212 9 108457463.075 9     -1450.722 9        55.880 9  20638776.022 6         0.000 6     -1130.433 6        37.977 6
G20  21971578.049 9 115461388.591 9      2590.408 9        55.305 9  21971578.386 6         0.000 6      2018.501 6        37.977 6
> 2019 07 03 12 00  4.0000000  0  8       0.000000000000
G07  25370301.453 9 133321787.684 9      2211.840 9        54.124 9  25370302.136 6         0.000 6      1723.513 6        37.977 6
G10  23846710.553 9 125315254.495 9      3536.807 9        54.656 9  23846714.316 6         0.000 6      2755.956 6        37.977 6
G21  21157757.530 9 111184745.622 9     -1231.058 9        55.715 9  21157756.814 6         0.000 6      -959.266 6        37.977 6
G29  24266791.204 9 127522792.660 9     -3115.297 9        54.487 9  24266792.744 6         0.000 6     -2427.507 6        37.977 6
G27  22031191.384 9 115774664.987 9      2512.469 9        55.364 9  22031193.327 6         0.000 6      1957.769 6        37.977 6
G16  20503305.980 9 107745579.833 9       591.000 9        55.974 9  20503305.154 6         0.000 6       460.520 6        37.977 6
G26  20639049.329 9 108458914.079 9     -1451.299 9        55.880 9  20639052.139 6         0.000 6     -1130.883 6        37.977 6
G20  21971085.151 9 115458798.403 9      2589.970 9        55.305 9  21971085.488 6         0.000 6      2018.159 6        37.977 6
> 2019 07 03 12 00  5.0000000  0  8       0.000000000000
G07  25369880.597 9 133319576.075 9      2211.385 9        54.124 9  25369881.279 6         0.000 6      1723.158 6        37.977 6
G10  23846037.533 9 125311717.765 9      3536.676 9        54.656 9  23846041.296 6         0.000 6      2755.854 6        37.977 6
G21  21157991.828 9 111185976.861 9     -1231.421 9        55.715 9  21157991.111 6         0.000 6      -959.549 6        37.977 6
G29  24267384.034 9 127525907.991 9     -3115.384 9        54.486 9  24267385.574 6         0.000 6     -2427.575 6        37.977 6
G27  22030713.300 9 115772152.638 9      2512.235 9        55.364 9  22030715.242 6         0.000 6      1957.586 6        37.977 6
G16  20503193.575 9 107744989.140 9       590.386 9        55.974 9  20503192.748 6         0.000 6       460.041 6        37.977 6
G26  20639325.557 9 108460365.665 9     -1451.876 9        55.879 9  20639328.367 6         0.000 6     -1131.332 6        37.977 6
G20  21970592.338 9 115456208.657 9      2589.532 9        55.305 9  21970592.675 6         0.000 6      2017.818 6        37.977 6
> 2019 07 03 12 00  6.0000000  0  8       0.000000000000
G07  25369459.828 9 133317364.923 9      2210.931 9        54.124 9  25369460.510 6         0.000 6      1722.804 6        37.977 6
G10  23845364.538 9 125308181.161 9      3536.544 9        54.656 9  23845368.300 6         0.000 6      2755.751 6        37.977 6
G21  21158226.193 9 111187208.461 9     -1231.785 9        55.714 9  21158225.477 6         0.000 6      -959.833 6        37.977 6
G29  24267976.880 9 127529023.408 9     -3115.471 9        54.486 9  24267978.421 6         0.000 6     -2427.642 6        37.977 6
G27  22030235.259 9 115769640.522 9      2512.000 9        55.364 9  22030237.201 6         0.000 6      1957.403 6        37.977 6
G16  20503081.286 9 107744399.057 9       589.773 9        55.974 9  20503080.459 6         0.000 6       459.563 6        37.977 6
G26  20639601.894 9 108461817.822 9     -1452.452 9        55.879 9  20639604.704 6         0.000 6     -1131.782 6        37.977 6
G20  21970099.608 9 115453619.345 9      2589.094 9        55.305 9  21970099.944 6         0.000 6      2017.477 6        37.977 6
> 2019 07 03 12 00  7.0000000  0  8       0.000000000000
G07  25369039.145 9 133315154.224 9      2210.475 9        54.124 9  25369039.827 6         0.000 6      1722.449 6        37.977 6
G10  23844691.569 9 125304644.694 9      3536.413 9        54.657 9  23844695.330 6         0.000 6      2755.649 6        37.977 6
G21  21158460.629 9 111188440.428 9     -1232.149 9        55.714 9  21158459.912 6         0.000 6      -960.116 6        37.977 6
G29  24268569.742 9 127532138.913 9     -3115.558 9        54.486 9  24268571.284 6         0.000 6     -2427.710 6        37.977 6
G27  22029757.264 9 115767128.642 9      2511.765 9        55.364 9  22029759.206 6         0.000 6      1957.220 6        37.977 6
G16  20502969.115 9 107743809.592 9       589.159 9        55.974 9  20502968.288 6         0.000 6       459.085 6        37.977 6
G26  20639878.341 9 108463270.561 9     -1453.029 9        55.879 9  20639881.152 6         0.000 6     -1132.231 6        37.977 6
G20  21969606.961 9 115451030.475 9      2588.655 9        55.306 9  21969607.297 6         0.000 6      2017.135 6        37.977 6
> 2019 07 03 12 00  8.0000000  0  8       0.000000000000
G07  25368618.550 9 133312943.982 9      2210.020 9        54.124 9  25368619.231 6         0.000 6      1722.095 6        37.977 6
G10  23844018.623 9 125301108.353 9      3536.281 9        54.657 9  23844022.384 6         0.000 6      2755.546 6        37.977 6
G21  21158695.133 9 111189672.756 9     -1232.513 9        55.714 9  21158694.417 6         0.000 6      -960.400 6        37.977 6
G29  24269162.622 9 127535254.504 9     -3115.645 9        54.486 9  24269164.164 6         0.000 6     -2427.778 6        37.977 6
G27  22029279.313 9 115764616.995 9      2511.530 9        55.365 9  22029281.255 6         0.000 6      1957.037 6        37.977 6
G16  20502857.059 9 107743220.737 9       588.545 9        55.974 9  20502856.233 6         0.000 6       458.606 6        37.977 6
G26  20640154.897 9 108464723.872 9     -1453.606 9        55.879 9  20640157.708 6         0.000 6     -1132.680 6        37.977 6
G20  21969114.397 9 115448442.039 9      2588.217 9        55.306 9  21969114.733 6         0.000 6      2016.794 6        37.977 6
> 2019 07 03 12 00  9.0000000  0  8       0.000000000000
G07  25368198.040 9 133310734.193 9      2209.565 9        54.124 9  25368198.722 6         0.000 6      1721.740 6        37.977 6
G10  23843345.704 9 125297572.149 9      3536.149 9        54.657 9  23843349.464 6         0.000 6      2755.444 6        37.977 6
G21  21158929.707 9 111190905.450 9     -1232.877 9        55.714 9  21158928.991 6         0.000 6      -960.683 6        37.977 6
G29  24269755.517 9 127538370.182 9     -3115.731 9        54.486 9  24269757.060 6         0.000 6     -2427.845 6        37.977 6
G27  22028801.407 9 115762105.585 9      2511.295 9        55.365 9  22028803.348 6         0.000 6      1956.854 6        37.977 6
G16  20502745.121 9 107742632.500 9       587.931 9        55.974 9  20502744.295 6         0.000 6       458.128 6        37.977 6
G26  20640431.564 9 108466177.765 9     -1454.182 9        55.879 9  20640434.375 6         0.000 6     -1133.129 6        37.977 6
G20  21968621.918 9 115445854.045 9      2587.779 9        55.306 9  21968622.253 6         0.000 6      2016.452 6        37.977 6
> 2019 07 03 12 00 10.0000000  0  8       0.000000000000
G07  25367777.618 9 133308524.865 9      2209.110 9        54.124 9  25367778.299 6         0.000 6      1721.385 6        37.977 6
G10  23842672.808 9 125294036.070 9      3536.017 9        54.657 9  23842676.568 6         0.000 6      2755.341 6        37.977 6
G21  21159164.350 9 111192138.503 9     -1233.240 9        55.714 9  21159163.633 6         0.000 6      -960.967 6        37.977 6
G29  24270348.429 9 127541485.941 9     -3115.818 9        54.485 9  24270349.972 6         0.000 6     -2427.913 6        37.977 6
G27  22028323.546 9 115759594.412 9      2511.060 9        55.365 9  22028325.487 6         0.000 6      1956.671 6        37.977 6
G16  20502633.300 9 107742044.874 9       587.317 9        55.974 9  20502632.473 6         0.000 6       457.649 6        37.977 6
G26  20640708.340 9 108467632.228 9     -1454.759 9        55.879 9  20640711.151 6         0.000 6     -1133.579 6        37.977 6
G20  21968129.520 9 115443266.483 9      2587.340 9        55.306 9  21968129.855 6         0.000 6      2016.111 6        37.977 6
> 2019 07 03 12 00 11.0000000  0  8       0.000000000000
G07  25367357.282 9 133306315.986 9      2208.654 9        54.125 9  25367357.963 6         0.000 6      1721.030 6        37.977 6
G10  23841999.939 9 125290500.129 9      3535.885 9        54.657 9  23842003.698 6         0.000 6      2755.238 6        37.977 6
G21  21159399.062 9 111193371.925 9     -1233.604 9        55.714 9  21159398.346 6         0.000 6      -961.250 6        37.977 6
G29  24270941.357 9 127544601.792 9     -3115.905 9        54.485 9  24270942.901 6         0.000 6     -2427.980 6        37.977 6
G27  22027845.730 9 115757083.472 9      2510.825 9        55.365 9  22027847.671 6         0.000 6      1956.488 6        37.977 6
G16  20502521.596 9 107741457.865 9       586.702 9        55.974 9  20502520.769 6         0.000 6       457.171 6        37.977 6
G26  20640985.226 9 108469087.274 9     -1455.335 9        55.879 9  20640988.037 6         0.000 6     -1134.028 6        37.977 6
G20  21967637.207 9 115440679.366 9      2586.902 9        55.306 9  21967637.542 6         0.000 6      2015.769 6        37.977 6
> 2019 07 03 12 00 12.0000000  0  8       0.000000000000
G07  25366937.032 9 133304107.563 9      2208.199 9        54.125 9  25366937.713 6         0.000 6      1720.675 6        37.977 6
G10  23841327.095 9 125286964.321 9      3535.753 9        54.658 9  23841330.853 6         0.000 6      2755.135 6        37.977 6
G21  21159633.844 9 111194605.710 9     -1233.968 9        55.714 9  21159633.127 6         0.000 6      -961.533 6        37.977 6
G29  24271534.302 9 127547717.730 9     -3115.991 9        54.485 9  24271535.847 6         0.000 6     -2428.048 6        37.977 6
G27  22027367.958 9 115754572.767 9      2510.590 9        55.365 9  22027369.899 6         0.000 6      1956.305 6        37.977 6
G16  20502410.008 9 107740871.469 9       586.088 9        55.974 9  20502409.182 6         0.000 6       456.692 6        37.977 6
G26  20641262.222 9 108470542.895 9     -1455.912 9        55.879 9  20641265.033 6         0.000 6     -1134.477 6        37.977 6
G20  21967144.978 9 115438092.688 9      2586.463 9        55.306 9  21967145.313 6         0.000 6      2015.427 6        37.977 6
> 2019 07 03 12 00 13.0000000  0  8       0.000000000000
G07  25366516.870 9 133301899.598 9      2207.744 9        54.125 9  25366517.550 6         0.000 6      1720.321 6        37.977 6
G10  23840654.275 9 125283428.640 9      3535.621 9        54.658 9  23840658.033 6         0.000 6      2755.032 6        37.977 6
G21  21159868.694 9 111195839.856 9     -1234.331 9        55.714 9  21159867.978 6         0.000 6      -961.817 6        37.977 6
G29  24272127.264 9 127550833.755 9     -3116.078 9        54.485 9  24272128.809 6         0.000 6     -2428.115 6        37.977 6
G27  22026890.230 9 115752062.295 9      2510.355 9        55.365 9  22026892.171 6         0.000 6      1956.122 6        37.977 6
G16  20502298.537 9 107740285.685 9       585.474 9        55.974 9  20502297.711 6         0.000 6       456.214 6        37.977 6
G26  20641539.327 9 108471999.089 9     -1456.488 9        55.878 9  20641542.138 6         0.000 6     -1134.926 6        37.977 6
G20  21966652.831 9 115435506.445 9      2586.025 9        55.307 9  21966653.166 6         0.000 6      2015.085 6        37.977 6
> 2019 07 03 12 00 14.0000000  0  8       0.000000000000
G07  25366096.794 9 133299692.086 9      2207.288 9        54.125 9  25366097.474 6         0.000 6      1719.965 6        37.977 6
G10  23839981.482 9 125279893.096 9      3535.489 9        54.658 9  23839985.238 6         0.000 6      2754.929 6        37.977 6
G21  21160103.614 9 111197074.368 9     -1234.694 9        55.714 9  21160102.898 6         0.000 6      -962.100 6        37.977 6
G29  24272720.242 9 127553949.866 9     -3116.165 9        54.485 9  24272721.788 6         0.000 6     -2428.183 6        37.977 6
G27  22026412.548 9 115749552.060 9      2510.120 9        55.366 9  22026414.489 6         0.000 6      1955.938 6        37.977 6
G16  20502187.184 9 107739700.518 9       584.860 9        55.974 9  20502186.357 6         0.000 6       455.735 6        37.977 6
G26  20641816.542 9 108473455.864 9     -1457.065 9        55.878 9  20641819.353 6         0.000 6     -1135.375 6        37.977 6
G20  21966160.769 9 115432920.644 9      2585.586 9        55.307 9  21966161.103 6         0.000 6      2014.743 6        37.977 6
> 2019 07 03 12 00 15.0000000  0  8       0.000000000000
G07  25365676.805 9 133297485.033 9      2206.832 9        54.125 9  25365677.485 6         0.000 6      1719.610 6        37.977 6
G10  23839308.712 9 125276357.680 9      3535.356 9        54.658 9  23839312.468 6         0.000 6      2754.826 6        37.977 6
G21  21160338.603 9 111198309.241 9     -1235.058 9        55.714 9  21160337.887 6         0.000 6      -962.383 6        37.977 6
G29  24273313.237 9 127557066.064 9     -3116.251 9        54.484 9  24273314.784 6         0.000 6     -2428.250 6        37.977 6
G27  22025934.910 9 115747042.059 9      2509.885 9        55.366 9  22025936.850 6         0.000 6      1955.755 6        37.977 6
G16  20502075.946 9 107739115.962 9       584.246 9        55.975 9  20502075.120 6         0.000 6       455.256 6        37.977 6
G26  20642093.866 9 108474913.210 9     -1457.641 9        55.878 9  20642096.678 6         0.000 6     -1135.825 6        37.977 6
G20  21965668.789 9 115430335.279 9      2585.147 9        55.307 9  21965669.123 6         0.000 6      2014.401 6        37.977 6
> 2019 07 03 12 00 16.0000000  0  8       0.000000000000
G07  25365256.902 9 133295278.432 9      2206.376 9        54.125 9  25365257.582 6         0.000 6      1719.255 6        37.977 6
G10  23838635.969 9 125272822.400 9      3535.224 9        54.659 9  23838639.724 6         0.000 6      2754.723 6        37.977 6
G21  21160573.661 9 111199544.480 9     -1235.421 9        55.713 9  21160572.945 6         0.000 6      -962.666 6        37.977 6
G29  24273906.248 9 127560182.349 9     -3116.338 9        54.484 9  24273907.795 6         0.000 6     -2428.318 6        37.977 6
G27  22025457.317 9 115744532.294 9      2509.650 9        55.366 9  22025459.257 6         0.000 6      1955.572 6        37.977 6
G16  20501964.827 9 107738532.023 9       583.631 9        55.975 9  20501964.000 6         0.000 6       454.778 6        37.977 6
G26  20642371.301 9 108476371.137 9     -1458.217 9        55.878 9  20642374.112 6         0.000 6     -1136.274 6        37.977 6
G20  21965176.894 9 115427750.356 9      2584.708 9        55.307 9  21965177.228 6         0.000 6      2014.059 6        37.977 6
> 2019 07 03 12 00 17.0000000  0  8       0.000000000000
G07  25364837.086 9 133293072.290 9      2205.921 9        54.125 9  25364837.766 6         0.000 6      1718.900 6        37.977 6
G10  23837963.250 9 125269287.249 9      3535.091 9        54.659 9  23837967.005 6         0.000 6      2754.619 6        37.977 6
G21  21160808.788 9 111200780.079 9     -1235.784 9        55.713 9  21160808.072 6         0.000 6      -962.949 6        37.977 6
G29  24274499.276 9 127563298.720 9     -3116.424 9        54.484 9  24274500.824 6         0.000 6     -2428.385 6        37.977 6
G27  22024979.769 9 115742022.763 9      2509.415 9        55.366 9  22024981.709 6         0.000 6      1955.389 6        37.977 6
G16  20501853.823 9 107737948.696 9       583.017 9        55.975 9  20501852.996 6         0.000 6       454.299 6        37.977 6
G26  20642648.844 9 108477829.636 9     -1458.794 9        55.878 9  20642651.656 6         0.000 6     -1136.723 6        37.977 6
G20  21964685.082 9 115425165.868 9      2584.269 9        55.307 9  21964685.415 6         0.000 6      2013.717 6        37.977 6
> 2019 07 03 12 00 18.0000000  0  8       0.000000000000
G07  25364417.357 9 133290866.603 9      2205.465 9        54.126 9  25364418.037 6         0.000 6      1718.545 6        37.977 6
G10  23837290.557 9 125265752.233 9      3534.958 9        54.659 9  23837294.311 6         0.000 6      2754.516 6        37.977 6
G21  21161043.984 9 111202016.043 9     -1236.148 9        55.713 9  21161043.268 6         0.000 6      -963.232 6        37.977 6
G29  24275092.319 9 127566415.172 9     -3116.511 9        54.484 9  24275093.867 6         0.000 6     -2428.453 6        37.977 6
G27  22024502.266 9 115739513.472 9      2509.179 9        55.366 9  22024504.206 6         0.000 6      1955.205 6        37.977 6
G16  20501742.937 9 107737365.988 9       582.403 9        55.975 9  20501742.111 6         0.000 6       453.820 6        37.977 6
G26  20642926.498 9 108479288.716 9     -1459.370 9        55.878 9  20642929.310 6         0.000 6     -1137.172 6        37.977 6
G20  21964193.353 9 115422581.820 9      2583.829 9        55.308 9  21964193.686 6         0.000 6      2013.375 6        37.977 6
> 2019 07 03 12 00 19.0000000  0  8       0.000000000000
G07  25363997.715 9 133288661.373 9      2205.009 9        54.126 9  25363998.394 6         0.000 6      1718.190 6        37.977 6
G10  23836617.888 9 125262217.347 9      3534.826 9        54.659 9  23836621.642 6         0.000 6      2754.412 6        37.977 6
G21  21161279.249 9 111203252.369 9     -1236.511 9        55.713 9  21161278.533 6         0.000 6      -963.515 6        37.977 6
G29  24275685.379 9 127569531.716 9     -3116.597 9        54.483 9  24275686.928 6         0.000 6     -2428.520 6        37.977 6
G27  22024024.807 9 115737004.411 9      2508.944 9        55.367 9  22024026.747 6         0.000 6      1955.022 6        37.977 6
G16  20501632.168 9 107736783.889 9       581.788 9        55.975 9  20501631.341 6         0.000 6       453.342 6        37.977 6
G26  20643204.261 9 108480748.367 9     -1459.946 9        55.878 9  20643207.073 6         0.000 6     -1137.621 6        37.977 6
G20  21963701.707 9 115419998.211 9      2583.390 9        55.308 9  21963702.040 6         0.000 6      2013.032 6        37.977 6
> 2019 07 03 12 00 20.0000000  0  8       0.000000000000
G07  25363578.160 9 133286456.596 9      2204.553 9        54.126 9  25363578.838 6         0.000 6      1717.834 6        37.977 6
G10  23835945.246 9 125258682.598 9      3534.693 9        54.660 9  23835948.999 6         0.000 6      2754.309 6        37.977 6
G21  21161514.584 9 111204489.060 9     -1236.874 9        55.713 9  21161513.868 6         0.000 6      -963.798 6        37.977 6
G29  24276278.456 9 127572648.347 9     -3116.684 9        54.483 9  24276280.006 6         0.000 6     -2428.588 6        37.977 6
G27  22023547.393 9 115734495.588 9      2508.709 9        55.367 9  22023549.333 6         0.000 6      1954.839 6        37.977 6
G16  20501521.515 9 107736202.408 9       581.174 9        55.975 9  20501520.689 6         0.000 6       452.863 6        37.977 6
G26  20643482.134 9 108482208.600 9     -1460.522 9        55.878 9  20643484.946 6         0.000 6     -1138.070 6        37.977 6
G20  21963210.146 9 115417415.045 9      2582.951 9        55.308 9  21963210.479 6         0.000 6      2012.690 6        37.977 6
> 2019 07 03 12 00 21.0000000  0  8       0.000000000000
G07  25363158.691 9 133284252.278 9      2204.097 9        54.126 9  25363159.370 6         0.000 6      1717.479 6        37.977 6
G10  23835272.628 9 125255147.979 9      3534.560 9        54.660 9  23835276.380 6         0.000 6      2754.205 6        37.977 6
G21  21161749.987 9 111205726.113 9     -1237.237 9        55.713 9  21161749.271 6         0.000 6      -964.081 6        37.977 6
G29  24276871.550 9 127575765.064 9     -3116.770 9        54.483 9  24276873.100 6         0.000 6     -2428.655 6        37.977 6
G27  22023070.024 9 115731986.997 9      2508.473 9        55.367 9  22023071.963 6         0.000 6      1954.655 6        37.977 6
G16  20501410.980 9 107735621.538 9       580.559 9        55.975 9  20501410.153 6         0.000 6       452.384 6        37.977 6
G26  20643760.116 9 108483669.403 9     -1461.098 9        55.878 9  20643762.928 6         0.000 6     -1138.519 6        37.977 6
G20  21962718.668 9 115414832.315 9      2582.511 9        55.308 9  21962719.000 6         0.000 6      2012.348 6        37.977 6
> 2019 07 03 12 00 22.0000000  0  8       0.000000000000
G07  25362739.309 9 133282048.413 9      2203.640 9        54.126 9  25362739.987 6         0.000 6      1717.123 6        37.977 6
G10  23834600.036 9 125251613.496 9      3534.427 9        54.660 9  23834603.788 6         0.000 6      2754.101 6        37.977 6
G21  21161985.460 9 111206963.531 9     -1237.600 9        55.713 9  21161984.744 6         0.000 6      -964.364 6        37.977 6
G29  24277464.660 9 127578881.868 9     -3116.857 9        54.483 9  24277466.211 6         0.000 6     -2428.722 6        37.977 6
G27  22022592.700 9 115729478.644 9      2508.238 9        55.367 9  22022594.639 6         0.000 6      1954.472 6        37.977 6
G16  20501300.561 9 107735041.286 9       579.945 9        55.975 9  20501299.735 6         0.000 6       451.905 6        37.977 6
G26  20644038.209 9 108485130.788 9     -1461.675 9        55.877 9  20644041.021 6         0.000 6     -1138.968 6        37.977 6
G20  21962227.274 9 115412250.028 9      2582.072 9        55.308 9  21962227.606 6         0.000 6      2012.005 6        37.977 6
> 2019 07 03 12 00 23.0000000  0  8       0.000000000000
G07  25362320.013 9 133279845.005 9      2203.184 9        54.126 9  25362320.692 6         0.000 6      1716.768 6        37.977 6
G10  23833927.470 9 125248079.147 9      3534.293 9        54.660 9  23833931.221 6         0.000 6      2753.998 6        37.977 6
G21  21162221.002 9 111208201.311 9     -1237.963 9        55.713 9  21162220.286 6         0.000 6      -964.647 6        37.977 6
G29  24278057.786 9 127581998.758 9     -3116.943 9        54.483 9  24278059.338 6         0.000 6     -2428.790 6        37.977 6
G27  22022115.420 9 115726970.527 9      2508.003 9        55.367 9  22022117.359 6         0.000 6      1954.288 6        37.977 6
G16  20501190.260 9 107734461.649 9       579.330 9        55.975 9  20501189.433 6         0.000 6       451.426 6        37.977 6
G26  20644316.411 9 108486592.749 9     -1462.251 9        55.877 9  20644319.223 6         0.000 6     -1139.416 6        37.977 6
G20  21961735.964 9 115409668.181 9      2581.632 9        55.309 9  21961736.296 6         0.000 6      2011.662 6        37.977 6
> 2019 07 03 12 00 24.0000000  0  8       0.000000000000
G07  25361900.805 9 133277642.055 9      2202.728 9        54.126 9  25361901.483 6         0.000 6      1716.412 6        37.977 6
G10  23833254.928 9 125244544.927 9      3534.160 9        54.661 9  23833258.678 6         0.000 6      2753.894 6        37.977 6
G21  21162456.613 9 111209439.453 9     -1238.326 9        55.713 9  21162455.897 6         0.000 6      -964.929 6        37.977 6
G29  24278650.929 9 127585115.734 9     -3117.030 9        54.482 9  24278652.481 6         0.000 6     -2428.857 6        37.977 6
G27  22021638.185 9 115724462.643 9      2507.767 9        55.368 9  22021640.124 6         0.000 6      1954.105 6        37.977 6
G16  20501080.075 9 107733882.623 9       578.716 9        55.975 9  20501079.248 6         0.000 6       450.947 6        37.977 6
G26  20644594.722 9 108488055.281 9     -1462.827 9        55.877 9  20644597.535 6         0.000 6     -1139.865 6        37.977 6
G20  21961244.737 9 115407086.769 9      2581.192 9        55.309 9  21961245.069 6         0.000 6      2011.320 6        37.977 6
> 2019 07 03 12 00 25.0000000  0  8       0.000000000000
G07  25361481.684 9 133275439.563 9      2202.271 9        54.127 9  25361482.362 6         0.000 6      1716.056 6        37.977 6
G10  23832582.412 9 125241010.842 9      3534.027 9        54.661 9  23832586.162 6         0.000 6      2753.790 6        37.977 6
G21  21162692.292 9 111210677.957 9     -1238.689 9        55.713 9  21162691.577 6         0.000 6      -965.212 6        37.977 6
G29  24279244.087 9 127588232.792 9     -3117.116 9        54.482 9  24279245.640 6         0.000 6     -2428.924 6        37.977 6
G27  22021160.996 9 115721955.000 9      2507.532 9        55.368 9  22021162.935 6         0.000 6      1953.921 6        37.977 6
G16  20500970.008 9 107733304.216 9       578.101 9        55.975 9  20500969.181 6         0.000 6       450.468 6        37.977 6
G26  20644873.143 9 108489518.394 9     -1463.403 9        55.877 9  20644875.956 6         0.000 6     -1140.314 6        37.977 6
G20  21960753.594 9 115404505.798 9      2580.752 9        55.309 9  21960753.925 6         0.000 6      2010.977 6        37.977 6
> 2019 07 03 12 00 26.0000000  0  8       0.000000000000
G07  25361062.650 9 133273237.526 9      2201.815 9        54.127 9  25361063.328 6         0.000 6      1715.701 6        37.977 6
G10  23831909.921 9 125237476.888 9      3533.893 9        54.661 9  23831913.670 6         0.000 6      2753.686 6        37.977 6
G21  21162928.041 9 111211916.824 9     -1239.051 9        55.713 9  21162927.325 6         0.000 6      -965.495 6        37.977 6
G29  24279837.263 9 127591349.941 9     -3117.202 9        54.482 9  24279838.816 6         0.000 6     -2428.991 6        37.977 6
G27  22020683.851 9 115719447.587 9      2507.296 9        55.368 9  22020685.789 6         0.000 6      1953.738 6        37.977 6
G16  20500860.057 9 107732726.419 9       577.486 9        55.975 9  20500859.230 6         0.000 6       449.989 6        37.977 6
G26  20645151.674 9 108490982.078 9     -1463.979 9        55.877 9  20645154.486 6         0.000 6     -1140.763 6        37.977 6
G20  21960262.534 9 115401925.266 9      2580.312 9        55.309 9  21960262.865 6         0.000 6      2010.634 6        37.977 6
> 2019 07 03 12 00 27.0000000  0  8       0.000000000000
G07  25360643.702 9 133271035.944 9      2201.358 9        54.127 9  25360644.379 6         0.000 6      1715.345 6        37.977 6
G10  23831237.457 9 125233943.073 9      3533.759 9        54.661 9  23831241.205 6         0.000 6      2753.581 6        37.977 6
G21  21163163.859 9 111213156.056 9     -1239.414 9        55.712 9  21163163.144 6         0.000 6      -965.777 6        37.977 6
G29  24280430.455 9 127594467.176 9     -3117.289 9        54.482 9  24280432.009 6         0.000 6     -2429.059 6        37.977 6
G27  22020206.751 9 115716940.411 9      2507.061 9        55.368 9  22020208.689 6         0.000 6      1953.554 6        37.977 6
G16  20500750.223 9 107732149.240 9       576.871 9        55.975 9  20500749.397 6         0.000 6       449.510 6        37.977 6
G26  20645430.314 9 108492446.343 9     -1464.555 9        55.877 9  20645433.127 6         0.000 6     -1141.212 6        37.977 6
G20  21959771.559 9 115399345.179 9      2579.872 9        55.309 9  21959771.889 6         0.000 6      2010.291 6        37.977 6
> 2019 07 03 12 00 28.0000000  0  8       0.000000000000
G07  25360224.842 9 133268834.820 9      2200.901 9        54.127 9  25360225.519 6         0.000 6      1714.989 6        37.977 6
G10  23830565.016 9 125230409.387 9      3533.626 9        54.662 9  23830568.764 6         0.000 6      2753.477 6        37.977 6
G21  21163399.746 9 111214395.648 9     -1239.777 9        55.712 9  21163399.030 6         0.000 6      -966.060 6        37.977 6
G29  24281023.664 9 127597584.498 9     -3117.375 9        54.482 9  24281025.218 6         0.000 6     -2429.126 6        37.977 6
G27  22019729.695 9 115714433.469 9      2506.825 9        55.368 9  22019731.633 6         0.000 6      1953.371 6        37.977 6
G16  20500640.506 9 107731572.673 9       576.257 9        55.975 9  20500639.679 6         0.000 6       449.031 6        37.977 6
G26  20645709.064 9 108493911.179 9     -1465.131 9        55.877 9  20645711.877 6         0.000 6     -1141.661 6        37.977 6
G20  21959280.667 9 115396765.527 9      2579.432 9        55.310 9  21959280.997 6         0.000 6      2009.948 6        37.977 6
> 2019 07 03 12 00 29.0000000  0  8       0.000000000000
G07  25359806.067 9 133266634.151 9      2200.444 9        54.127 9  25359806.744 6         0.000 6      1714.633 6        37.977 6
G10  23829892.603 9 125226875.839 9      3533.492 9        54.662 9  23829896.349 6         0.000 6      2753.373 6        37.977 6
G21  21163635.702 9 111215635.606 9     -1240.139 9        55.712 9  21163634.987 6         0.000 6      -966.343 6        37.977 6
G29  24281616.889 9 127600701.906 9     -3117.461 9        54.481 9  24281618.444 6         0.000 6     -2429.193 6        37.977 6
G27  22019252.684 9 115711926.765 9      2506.589 9        55.368 9  22019254.623 6         0.000 6      1953.187 6        37.977 6
G16  20500530.907 9 107730996.724 9       575.642 9        55.975 9  20500530.080 6         0.000 6       448.552 6        37.977 6
G26  20645987.923 9 108495376.596 9     -1465.706 9        55.877 9  20645990.737 6         0.000 6     -1142.109 6        37.977 6
G20  21958789.859 9 115394186.319 9      2578.992 9        55.310 9  21958790.189 6         0.000 6      2009.605 6        37.977 6
> 2019 07 03 12 00 30.0000000  0  8       0.000000000000
G07  25359387.381 9 133264433.941 9      2199.988 9        54.127 9  25359388.057 6         0.000 6      1714.277 6        37.977 6
G10  23829220.213 9 125223342.420 9      3533.358 9        54.662 9  23829223.959 6         0.000 6      2753.268 6        37.977 6
G21  21163871.727 9 111216875.923 9     -1240.502 9        55.712 9  21163871.011 6         0.000 6      -966.625 6        37.977 6
G29  24282210.130 9 127603819.400 9     -3117.548 9        54.481 9  24282211.686 6         0.000 6     -2429.260 6        37.977 6
G27  22018775.718 9 115709420.294 9      2506.354 9        55.369 9  22018777.656 6         0.000 6      1953.004 6        37.977 6
G16  20500421.424 9 107730421.386 9       575.027 9        55.975 9  20500420.597 6         0.000 6       448.073 6        37.977 6
G26  20646266.892 9 108496842.584 9     -1466.282 9        55.877 9  20646269.705 6         0.000 6     -1142.558 6        37.977 6
G20  21958299.134 9 115391607.548 9      2578.551 9        55.310 9  21958299.464 6         0.000 6      2009.262 6        37.977 6
> 2019 07 03 12 00 31.0000000  0  8       0.000000000000
G07  25358968.781 9 133262234.186 9      2199.531 9        54.127 9  25358969.457 6         0.000 6      1713.921 6        37.977 6
G10  23828547.850 9 125219809.141 9      3533.224 9        54.662 9  23828551.596 6         0.000 6      2753.164 6        37.977 6
G21  21164107.821 9 111218116.606 9     -1240.864 9        55.712 9  21164107.105 6         0.000 6      -966.908 6        37.977 6
G29  24282803.388 9 127606936.981 9     -3117.634 9        54.481 9  24282804.944 6         0.000 6     -2429.328 6        37.977 6
G27  22018298.798 9 115706914.061 9      2506.118 9        55.369 9  22018300.735 6         0.000 6      1952.820 6        37.977 6
G16  20500312.058 9 107729846.667 9       574.412 9        55.975 9  20500311.231 6         0.000 6       447.594 6        37.977 6
G26  20646545.971 9 108498309.152 9     -1466.858 9        55.876 9  20646548.784 6         0.000 6     -1143.007 6        37.977 6
G20  21957808.494 9 115389029.221 9      2578.111 9        55.310 9  21957808.823 6         0.000 6      2008.919 6        37.977 6
> 2019 07 03 12 00 32.0000000  0  8       0.000000000000
G07  25358550.267 9 133260034.887 9      2199.074 9        54.128 9  25358550.943 6         0.000 6      1713.565 6        37.977 6
G10  23827875.513 9 125216275.995 9      3533.089 9        54.663 9  23827879.258 6         0.000 6      2753.059 6        37.977 6
G21  21164343.984 9 111219357.651 9     -1241.227 9        55.712 9  21164343.269 6         0.000 6      -967.190 6        37.977 6
G29  24283396.662 9 127610054.648 9     -3117.720 9        54.481 9  24283398.219 6         0.000 6     -2429.395 6        37.977 6
G27  22017821.922 9 115704408.064 9      2505.882 9        55.369 9  22017823.859 6         0.000 6      1952.636 6        37.977 6
G16  20500202.810 9 107729272.562 9       573.797 9        55.975 9  20500201.983 6         0.000 6       447.115 6        37.977 6
G26  20646825.160 9 108499776.296 9     -1467.434 9        55.876 9  20646827.973 6         0.000 6     -1143.455 6        37.977 6
G20  21957317.938 9 115386451.335 9      2577.670 9        55.310 9  21957318.267 6         0.000 6      2008.576 6        37.977 6
> 2019 07 03 12 00 33.0000000  0  8       0.000000000000
G07  25358131.842 9 133257836.051 9      2198.617 9        54.128 9  25358132.518 6         0.000 6      1713.209 6        37.977 6
G10  23827203.200 9 125212742.976 9      3532.955 9        54.663 9  23827206.944 6         0.000 6      2752.955 6        37.977 6
G21  21164580.215 9 111220599.053 9     -1241.589 9        55.712 9  21164579.500 6         0.000 6      -967.472 6        37.977 6
G29  24283989.952 9 127613172.396 9     -3117.806 9        54.481 9  24283991.509 6         0.000 6     -2429.462 6        37.977 6
G27  22017345.091 9 115701902.304 9      2505.646 9        55.369 9  22017347.028 6         0.000 6      1952.452 6        37.977 6
G16  20500093.678 9 107728699.071 9       573.182 9        55.975 9  20500092.851 6         0.000 6       446.635 6        37.977 6
G26  20647104.457 9 108501244.011 9     -1468.010 9        55.876 9  20647107.270 6         0.000 6     -1143.904 6        37.977 6
G20  21956827.464 9 115383873.882 9      2577.230 9        55.311 9  21956827.793 6         0.000 6      2008.232 6        37.977 6
> 2019 07 03 12 00 34.0000000  0  8       0.000000000000
G07  25357713.503 9 133255637.667 9      2198.159 9        54.128 9  25357714.178 6         0.000 6      1712.852 6        37.977 6
G10  23826530.914 9 125209210.099 9      3532.821 9        54.663 9  23826534.657 6         0.000 6      2752.850 6        37.977 6
G21  21164816.516 9 111221840.823 9     -1241.952 9        55.712 9  21164815.801 6         0.000 6      -967.755 6        37.977 6
G29  24284583.259 9 127616290.235 9     -3117.892 9        54.480 9  24284584.817 6         0.000 6     -2429.529 6        37.977 6
G27  22016868.305 9 115699396.778 9      2505.410 9        55.369 9  22016870.242 6         0.000 6      1952.269 6        37.977 6
G16  20499984.663 9 107728126.196 9       572.567 9        55.975 9  20499983.837 6         0.000 6       446.156 6        37.977 6
G26  20647383.865 9 108502712.307 9     -1468.585 9        55.876 9  20647386.678 6         0.000 6     -1144.353 6        37.977 6
G20  21956337.075 9 115381296.877 9      2576.789 9        55.311 9  21956337.404 6         0.000 6      2007.889 6        37.977 6
> 2019 07 03 12 00 35.0000000  0  8       0.000000000000
G07  25357295.251 9 133253439.742 9      2197.702 9        54.128 9  25357295.926 6         0.000 6      1712.496 6        37.977 6
G10  23825858.652 9 125205677.352 9      3532.686 9        54.663 9  23825862.395 6         0.000 6      2752.745 6        37.977 6
G21  21165052.886 9 111223082.953 9     -1242.314 9        55.712 9  21165052.171 6         0.000 6      -968.037 6        37.977 6
G29  24285176.582 9 127619408.160 9     -3117.979 9        54.480 9  24285178.141 6         0.000 6     -2429.596 6        37.977 6
G27  22016391.563 9 115696891.487 9      2505.175 9        55.370 9  22016393.500 6         0.000 6      1952.085 6        37.977 6
G16  20499875.765 9 107727553.933 9       571.952 9        55.975 9  20499874.939 6         0.000 6       445.677 6        37.977 6
G26  20647663.381 9 108504181.174 9     -1469.161 9        55.876 9  20647666.195 6         0.000 6     -1144.801 6        37.977 6
G20  21955846.770 9 115378720.309 9      2576.348 9        55.311 9  21955847.098 6         0.000 6      2007.545 6        37.977 6
> 2019 07 03 12 00 36.0000000  0  8       0.000000000000
G07  25356877.086 9 133251242.273 9      2197.245 9        54.128 9  25356877.761 6         0.000 6      1712.140 6        37.977 6
G10  23825186.417 9 125202144.744 9      3532.552 9        54.664 9  23825190.159 6         0.000 6      2752.640 6        37.977 6
G21  21165289.325 9 111224325.447 9     -1242.676 9        55.712 9  21165288.610 6         0.000 6      -968.319 6        37.977 6
G29  24285769.922 9 127622526.172 9     -3118.065 9        54.480 9  24285771.481 6         0.000 6     -2429.663 6        37.977 6
G27  22015914.867 9 115694386.433 9      2504.939 9        55.370 9  22015916.804 6         0.000 6      1951.901 6        37.977 6
G16  20499766.985 9 107726982.289 9       571.337 9        55.975 9  20499766.158 6         0.000 6       445.198 6        37.977 6
G26  20647943.008 9 108505650.621 9     -1469.737 9        55.876 9  20647945.822 6         0.000 6     -1145.250 6        37.977 6
G20  21955356.549 9 115376144.186 9      2575.907 9        55.311 9  21955356.877 6         0.000 6      2007.202 6        37.977 6
> 2019 07 03 12 00 37.0000000  0  8       0.000000000000
G07  25356459.008 9 133249045.263 9      2196.788 9        54.128 9  25356459.683 6         0.000 6      1711.783 6        37.977 6
G10  23824514.207 9 125198612.266 9      3532.417 9        54.664 9  23824517.949 6         0.000 6      2752.535 6        37.977 6
G21  21165525.832 9 111225568.301 9     -1243.038 9        55.711 9  21165525.117 6         0.000 6      -968.601 6        37.977 6
G29  24286363.278 9 127625644.269 9     -3118.151 9        54.480 9  24286364.838 6         0.000 6     -2429.730 6        37.977 6
G27  22015438.215 9 115691881.613 9      2504.703 9        55.370 9  22015440.151 6         0.000 6      1951.717 6        37.977 6
G16  20499658.321 9 107726411.256 9       570.722 9        55.976 9  20499657.494 6         0.000 6       444.718 6        37.977 6
G26  20648222.743 9 108507120.639 9     -1470.312 9        55.876 9  20648225.557 6         0.000 6     -1145.698 6        37.977 6
G20  21954866.411 9 115373568.499 9      2575.466 9        55.311 9  21954866.739 6         0.000 6      2006.858 6        37.977 6
> 2019 07 03 12 00 38.0000000  0  8       0.000000000000
G07  25356041.017 9 133246848.708 9      2196.330 9        54.128 9  25356041.691 6         0.000 6      1711.427 6        37.977 6
G10  23823842.023 9 125195079.927 9      3532.282 9        54.664 9  23823845.764 6         0.000 6      2752.430 6        37.977 6
G21  21165762.409 9 111226811.519 9     -1243.400 9        55.711 9  21165761.694 6         0.000 6      -968.884 6        37.977 6
G29  24286956.651 9 127628762.453 9     -3118.237 9        54.479 9  24286958.211 6         0.000 6     -2429.798 6        37.977 6
G27  22014961.608 9 115689377.031 9      2504.467 9        55.370 9  22014963.545 6         0.000 6      1951.533 6        37.977 6
G16  20499549.775 9 107725840.842 9       570.107 9        55.976 9  20499548.948 6         0.000 6       444.239 6        37.977 6
G26  20648502.589 9 108508591.238 9     -1470.888 9        55.876 9  20648505.403 6         0.000 6     -1146.147 6        37.977 6
G20  21954376.358 9 115370993.258 9      2575.025 9        55.311 9  21954376.686 6         0.000 6      2006.514 6        37.977 6
> 2019 07 03 12 00 39.0000000  0  8       0.000000000000
G07  25355623.113 9 133244652.613 9      2195.873 9        54.129 9  25355623.788 6         0.000 6      1711.070 6        37.977 6
G10  23823169.864 9 125191547.719 9      3532.147 9        54.664 9  23823173.605 6         0.000 6      2752.325 6        37.977 6
G21  21165999.054 9 111228055.098 9     -1243.762 9        55.711 9  21165998.339 6         0.000 6      -969.166 6        37.977 6
G29  24287550.039 9 127631880.723 9     -3118.323 9        54.479 9  24287551.601 6         0.000 6     -2429.865 6        37.977 6
G27  22014485.046 9 115686872.683 9      2504.231 9        55.370 9  22014486.982 6         0.000 6      1951.349 6        37.977 6
G16  20499441.345 9 107725271.040 9       569.491 9        55.976 9  20499440.518 6         0.000 6       443.760 6        37.977 6
G26  20648782.544 9 108510062.407 9     -1471.463 9        55.875 9  20648785.358 6         0.000 6     -1146.595 6        37.977 6
G20  21953886.389 9 115368418.454 9      2574.584 9        55.312 9  21953886.716 6         0.000 6      2006.171 6        37.977 6
> 2019 07 03 12 00 40.0000000  0  8       0.000000000000
G07  25355205.296 9 133242456.973 9      2195.415 9        54.129 9  25355205.970 6         0.000 6      1710.714 6        37.977 6
G10  23822497.732 9 125188015.650 9      3532.012 9        54.665 9  23822501.471 6         0.000 6      2752.220 6        37.977 6
G21  21166235.769 9 111229299.040 9     -1244.124 9        55.711 9  21166235.054 6         0.000 6      -969.448 6        37.977 6
G29  24288143.445 9 127634999.079 9     -3118.409 9        54.479 9  24288145.007 6         0.000 6     -2429.932 6        37.977 6
G27  22014008.529 9 115684368.573 9      2503.995 9        55.371 9  22014010.465 6         0.000 6      1951.165 6        37.977 6
G16  20499333.033 9 107724701.856 9       568.876 9        55.976 9  20499332.206 6         0.000 6       443.280 6        37.977 6
G26  20649062.609 9 108511534.156 9     -1472.039 9        55.875 9  20649065.423 6         0.000 6     -1147.044 6        37.977 6
G20  21953396.503 9 115365844.095 9      2574.143 9        55.312 9  21953396.830 6         0.000 6      2005.827 6        37.977 6
> 2019 07 03 12 00 41.0000000  0  8       0.000000000000
G07  25354787.567 9 133240261.796 9      2194.957 9        54.129 9  25354788.241 6         0.000 6      1710.357 6        37.977 6
G10  23821825.624 9 125184483.709 9      3531.877 9        54.665 9  23821829.363 6         0.000 6      2752.115 6        37.977 6
G21  21166472.551 9 111230543.340 9     -1244.486 9        55.711 9  21166471.836 6         0.000 6      -969.730 6        37.977 6
G29  24288736.865 9 127638117.515 9     -3118.495 9        54.479 9  24288738.428 6         0.000 6     -2429.999 6        37.977 6
G27  22013532.058 9 115681864.701 9      2503.759 9        55.371 9  22013533.994 6         0.000 6      1950.981 6        37.977 6
G16  20499224.838 9 107724133.285 9       568.261 9        55.976 9  20499224.011 6         0.000 6       442.801 6        37.977 6
G26  20649342.782 9 108513006.476 9     -1472.614 9        55.875 9  20649345.597 6         0.000 6     -1147.492 6        37.977 6
G20  21952906.701 9 115363270.170 9      2573.701 9        55.312 9  21952907.027 6         0.000 6      2005.483 6        37.977 6
> 2019 07 03 12 00 42.0000000  0  8       0.000000000000
G07  25354369.924 9 133238067.071 9      2194.499 9        54.129 9  25354370.598 6         0.000 6      1710.000 6        37.977 6
G10  23821153.543 9 125180951.910 9      3531.742 9        54.665 9  23821157.281 6         0.000 6      2752.009 6        37.977 6
G21  21166709.404 9 111231788.007 9     -1244.848 9        55.711 9  21166708.689 6         0.000 6      -970.012 6        37.977 6
G29  24289330.303 9 127641236.043 9     -3118.581 9        54.479 9  24289331.867 6         0.000 6     -2430.066 6        37.977 6
G27  22013055.631 9 115679361.063 9      2503.522 9        55.371 9  22013057.567 6         0.000 6      1950.797 6        37.977 6
G16  20499116.760 9 107723565.332 9       567.646 9        55.976 9  20499115.933 6         0.000 6       442.321 6        37.977 6
G26  20649623.066 9 108514479.377 9     -1473.190 9        55.875 9  20649625.881 6         0.000 6     -1147.941 6        37.977 6
G20  21952416.984 9 115360696.694 9      2573.260 9        55.312 9  21952417.310 6         0.000 6      2005.139 6        37.977 6
> 2019 07 03 12 00 43.0000000  0  8       0.000000000000
G07  25353952.368 9 133235872.804 9      2194.041 9        54.129 9  25353953.042 6         0.000 6      1709.644 6        37.977 6
G10  23820481.488 9 125177420.247 9      3531.606 9        54.665 9  23820485.225 6         0.000 6      2751.904 6        37.977 6
G21  21166946.325 9 111233033.035 9     -1245.210 9        55.711 9  21166945.610 6         0.000 6      -970.294 6        37.977 6
G29  24289923.758 9 127644354.657 9     -3118.667 9        54.478 9  24289925.322 6         0.000 6     -2430.133 6        37.977 6
G27  22012579.249 9 115676857.662 9      2503.286 9        55.371 9  22012581.184 6         0.000 6      1950.613 6        37.977 6
G16  20499008.799 9 107722997.994 9       567.030 9        55.976 9  20499007.972 6         0.000 6       441.842 6        37.977 6
G26  20649903.460 9 108515952.853 9     -1473.765 9        55.875 9  20649906.274 6         0.000 6     -1148.389 6        37.977 6
G20  21951927.351 9 115358123.659 9      2572.818 9        55.312 9  21951927.677 6         0.000 6      2004.795 6        37.977 6
> 2019 07 03 12 00 44.0000000  0  8       0.000000000000
G07  25353534.900 9 133233678.998 9      2193.584 9        54.129 9  25353535.574 6         0.000 6      1709.287 6        37.977 6
G10  23819809.457 9 125173888.715 9      3531.471 9        54.666 9  23819813.194 6         0.000 6      2751.798 6        37.977 6
G21  21167183.314 9 111234278.423 9     -1245.572 9        55.711 9  21167182.599 6         0.000 6      -970.576 6        37.977 6
G29  24290517.229 9 127647473.357 9     -3118.753 9        54.478 9  24290518.793 6         0.000 6     -2430.200 6        37.977 6
G27  22012102.911 9 115674354.494 9      2503.050 9        55.371 9  22012104.847 6         0.000 6      1950.429 6        37.977 6
G16  20498900.955 9 107722431.269 9       566.415 9        55.976 9  20498900.128 6         0.000 6       441.362 6        37.977 6
G26  20650183.962 9 108517426.899 9     -1474.341 9        55.875 9  20650186.776 6         0.000 6     -1148.837 6        37.977 6
G20  21951437.801 9 115355551.062 9      2572.377 9        55.313 9  21951438.127 6         0.000 6      2004.450 6        37.977 6
> 2019 07 03 12 00 45.0000000  0  8       0.000000000000
G07  25353117.519 9 133231485.647 9      2193.125 9        54.129 9  25353118.192 6         0.000 6      1708.930 6        37.977 6
G10  23819137.454 9 125170357.322 9      3531.335 9        54.666 9  23819141.190 6         0.000 6      2751.693 6        37.977 6
G21  21167420.373 9 111235524.175 9     -1245.933 9        55.711 9  21167419.658 6         0.000 6      -970.857 6        37.977 6
G29  24291110.716 9 127650592.142 9     -3118.839 9        54.478 9  24291112.281 6         0.000 6     -2430.267 6        37.977 6
G27  22011626.619 9 115671851.565 9      2502.814 9        55.371 9  22011628.555 6         0.000 6      1950.245 6        37.977 6
G16  20498793.228 9 107721865.162 9       565.799 9        55.976 9  20498792.401 6         0.000 6       440.883 6        37.977 6
G26  20650464.574 9 108518901.526 9     -1474.916 9        55.875 9  20650467.389 6         0.000 6     -1149.286 6        37.977 6
G20  21950948.336 9 115352978.911 9      2571.935 9        55.313 9  21950948.661 6         0.000 6      2004.106 6        37.977 6
> 2019 07 03 12 00 46.0000000  0  8       0.000000000000
G07  25352700.225 9 133229292.757 9      2192.667 9        54.130 9  25352700.898 6         0.000 6      1708.573 6        37.977 6
G10  23818465.475 9 125166826.061 9      3531.200 9        54.666 9  23818469.211 6         0.000 6      2751.587 6        37.977 6
G21  21167657.500 9 111236770.286 9     -1246.295 9        55.711 9  21167656.785 6         0.000 6      -971.139 6        37.977 6
G29  24291704.219 9 127653711.014 9     -3118.925 9        54.478 9  24291705.785 6         0.000 6     -2430.333 6        37.977 6
G27  22011150.372 9 115669348.870 9      2502.578 9        55.372 9  22011152.307 6         0.000 6      1950.061 6        37.977 6
G16  20498685.618 9 107721299.667 9       565.184 9        55.976 9  20498684.791 6         0.000 6       440.403 6        37.977 6
G26  20650745.295 9 108520376.723 9     -1475.491 9        55.875 9  20650748.110 6         0.000 6     -1149.734 6        37.977 6
G20  21950458.954 9 115350407.197 9      2571.493 9        55.313 9  21950459.280 6         0.000 6      2003.762 6        37.977 6
> 2019 07 03 12 00 47.0000000  0  8       0.000000000000
G07  25352283.018 9 133227100.322 9      2192.209 9        54.130 9  25352283.690 6         0.000 6      1708.216 6        37.977 6
G10  23817793.523 9 125163294.940 9      3531.064 9        54.666 9  23817797.258 6         0.000 6      2751.481 6        37.977 6
G21  21167894.697 9 111238016.761 9     -1246.657 9        55.710 9  21167893.982 6         0.000 6      -971.421 6        37.977 6
G29  24292297.739 9 127656829.971 9     -3119.011 9        54.478 9  24292299.306 6         0.000 6     -2430.400 6        37.977 6
G27  22010674.170 9 115666846.413 9      2502.341 9        55.372 9  22010676.105 6         0.000 6      1949.877 6        37.977 6
G16  20498578.126 9 107720734.791 9       564.568 9        55.976 9  20498577.299 6         0.000 6       439.923 6        37.977 6
G26  20651026.127 9 108521852.500 9     -1476.067 9        55.875 9  20651028.942 6         0.000 6     -1150.182 6        37.977 6
G20  21949969.658 9 115347835.930 9      2571.051 9        55.313 9  21949969.982 6         0.000 6      2003.417 6        37.977 6
> 2019 07 03 12 00 48.0000000  0  8       0.000000000000
G07  25351865.898 9 133224908.349 9      2191.751 9        54.130 9  25351866.571 6         0.000 6      1707.859 6        37.977 6
G10  23817121.596 9 125159763.950 9      3530.928 9        54.667 9  23817125.330 6         0.000 6      2751.375 6        37.977 6
G21  21168131.962 9 111239263.595 9     -1247.018 9        55.710 9  21168131.247 6         0.000 6      -971.703 6        37.977 6
G29  24292891.275 9 127659949.014 9     -3119.096 9        54.477 9  24292892.842 6         0.000 6     -2430.467 6        37.977 6
G27  22010198.012 9 115664344.191 9      2502.105 9        55.372 9  22010199.947 6         0.000 6      1949.693 6        37.977 6
G16  20498470.750 9 107720170.527 9       563.953 9        55.976 9  20498469.923 6         0.000 6       439.444 6        37.977 6
G26  20651307.067 9 108523328.848 9     -1476.642 9        55.874 9  20651309.882 6         0.000 6     -1150.631 6        37.977 6
G20  21949480.444 9 115345265.100 9      2570.609 9        55.313 9  21949480.769 6         0.000 6      2003.073 6        37.977 6
> 2019 07 03 12 00 49.0000000  0  8       0.000000000000
G07  25351448.866 9 133222716.833 9      2191.293 9        54.130 9  25351449.538 6         0.000 6      1707.502 6        37.977 6
G10  23816449.695 9 125156233.098 9      3530.792 9        54.667 9  23816453.429 6         0.000 6      2751.269 6        37.977 6
G21  21168369.295 9 111240510.792 9     -1247.380 9        55.710 9  21168368.581 6         0.000 6      -971.984 6        37.977 6
G29  24293484.827 9 127663068.138 9     -3119.182 9        54.477 9  24293486.394 6         0.000 6     -2430.534 6        37.977 6
G27  22009721.900 9 115661842.211 9      2501.868 9        55.372 9  22009723.835 6         0.000 6      1949.509 6        37.977 6
G16  20498363.492 9 107719606.884 9       563.337 9        55.976 9  20498362.665 6         0.000 6       438.964 6        37.977 6
G26  20651588.117 9 108524805.776 9     -1477.217 9        55.874 9  20651590.932 6         0.000 6     -1151.079 6        37.977 6
G20  21948991.315 9 115342694.714 9      2570.167 9        55.314 9  21948991.639 6         0.000 6      2002.729 6        37.977 6
> 2019 07 03 12 00 50.0000000  0  8       0.000000000000
G07  25351031.921 9 133220525.776 9      2190.834 9        54.130 9  25351032.593 6         0.000 6      1707.145 6        37.977 6
G10  23815777.820 9 125152702.380 9      3530.656 9        54.667 9  23815781.553 6         0.000 6      2751.163 6        37.977 6
G21  21168606.698 9 111241758.349 9     -1247.741 9        55.710 9  21168605.983 6         0.000 6      -972.266 6        37.977 6
G29  24294078.395 9 127666187.353 9     -3119.268 9        54.477 9  24294079.964 6         0.000 6     -2430.601 6        37.977 6
G27  22009245.833 9 115659340.462 9      2501.632 9        55.372 9  22009247.767 6         0.000 6      1949.324 6        37.977 6
G16  20498256.350 9 107719043.851 9       562.721 9        55.976 9  20498255.524 6         0.000 6       438.484 6        37.977 6
G26  20651869.276 9 108526283.274 9     -1477.792 9        55.874 9  20651872.091 6         0.000 6     -1151.527 6        37.977 6
G20  21948502.270 9 115340124.769 9      2569.725 9        55.314 9  21948502.594 6         0.000 6      2002.384 6        37.977 6
> 2019 07 03 12 00 51.0000000  0  8       0.000000000000
G07  25350615.063 9 133218335.175 9      2190.376 9        54.130 9  25350615.735 6         0.000 6      1706.787 6        37.977 6
G10  23815105.971 9 125149171.803 9      3530.520 9        54.667 9  23815109.704 6         0.000 6      2751.057 6        37.977 6
G21  21168844.169 9 111243006.270 9     -1248.102 9        55.710 9  21168843.455 6         0.000 6      -972.548 6        37.977 6
G29  24294671.981 9 127669306.654 9     -3119.354 9        54.477 9  24294673.550 6         0.000 6     -2430.668 6        37.977 6
G27  22008769.811 9 115656838.951 9      2501.396 9        55.373 9  22008771.745 6         0.000 6      1949.140 6        37.977 6
G16  20498149.327 9 107718481.438 9       562.106 9        55.976 9  20498148.500 6         0.000 6       438.004 6        37.977 6
G26  20652150.545 9 108527761.352 9     -1478.367 9        55.874 9  20652153.360 6         0.000 6     -1151.975 6        37.977 6
G20  21948013.310 9 115337555.270 9      2569.282 9        55.314 9  21948013.633 6         0.000 6      2002.039 6        37.977 6
> 2019 07 03 12 00 52.0000000  0  8       0.000000000000
G07  25350198.292 9 133216145.032 9      2189.917 9        54.130 9  25350198.963 6         0.000 6      1706.430 6        37.977 6
G10  23814434.149 9 125145641.362 9      3530.384 9        54.668 9  23814437.880 6         0.000 6      2750.951 6        37.977 6
G21  21169081.710 9 111244254.552 9     -1248.464 9        55.710 9  21169080.995 6         0.000 6      -972.829 6        37.977 6
G29  24295265.582 9 127672426.041 9     -3119.440 9        54.476 9  24295267.152 6         0.000 6     -2430.735 6        37.977 6
G27  22008293.833 9 115654337.676 9      2501.159 9        55.373 9  22008295.768 6         0.000 6      1948.956 6        37.977 6
G16  20498042.420 9 107717919.640 9       561.490 9        55.976 9  20498041.593 6         0.000 6       437.525 6        37.977 6
G26  20652431.924 9 108529240.005 9     -1478.943 9        55.874 9  20652434.739 6         0.000 6     -1152.423 6        37.977 6
G20  21947524.433 9 115334986.213 9      2568.840 9        55.314 9  21947524.757 6         0.000 6      2001.694 6        37.977 6
> 2019 07 03 12 00 53.0000000  0  8       0.000000000000
G07  25349781.608 9 133213955.350 9      2189.459 9        54.131 9  25349782.280 6         0.000 6      1706.073 6        37.977 6
G10  23813762.351 9 125142111.053 9      3530.247 9        54.668 9  23813766.082 6         0.000 6      2750.845 6        37.977 6
G21  21169319.318 9 111245503.194 9     -1248.825 9        55.710 9  21169318.604 6         0.000 6      -973.111 6        37.977 6
G29  24295859.200 9 127675545.513 9     -3119.525 9        54.476 9  24295860.770 6         0.000 6     -2430.801 6        37.977 6
G27  22007817.901 9 115651836.636 9      2500.922 9        55.373 9  22007819.835 6         0.000 6      1948.771 6        37.977 6
G16  20497935.630 9 107717358.455 9       560.874 9        55.976 9  20497934.803 6         0.000 6       437.045 6        37.977 6
G26  20652713.411 9 108530719.229 9     -1479.518 9        55.874 9  20652716.227 6         0.000 6     -1152.871 6        37.977 6
G20  21947035.641 9 115332417.595 9      2568.397 9        55.314 9  21947035.964 6         0.000 6      2001.350 6        37.977 6
> 2019 07 03 12 00 54.0000000  0  8       0.000000000000
G07  25349365.012 9 133211766.124 9      2189.000 9        54.131 9  25349365.683 6         0.000 6      1705.715 6        37.977 6
G10  23813090.580 9 125138580.884 9      3530.111 9        54.668 9  23813094.311 6         0.000 6      2750.738 6        37.977 6
G21  21169556.996 9 111246752.199 9     -1249.186 9        55.710 9  21169556.282 6         0.000 6      -973.392 6        37.977 6
G29  24296452.834 9 127678665.071 9     -3119.611 9        54.476 9  24296454.405 6         0.000 6     -2430.868 6        37.977 6
G27  22007342.014 9 115649335.835 9      2500.686 9        55.373 9  22007343.947 6         0.000 6      1948.587 6        37.977 6
G16  20497828.958 9 107716797.889 9       560.258 9        55.976 9  20497828.131 6         0.000 6       436.565 6        37.977 6
G26  20652995.008 9 108532199.032 9     -1480.093 9        55.874 9  20652997.824 6         0.000 6     -1153.319 6        37.977 6
G20  21946546.933 9 115329849.424 9      2567.955 9        55.315 9  21946547.256 6         0.000 6      2001.005 6        37.977 6
> 2019 07 03 12 00 55.0000000  0  8       0.000000000000
G07  25348948.503 9 133209577.360 9      2188.541 9        54.131 9  25348949.174 6         0.000 6      1705.358 6        37.977 6
G10  23812418.835 9 125135050.848 9      3529.974 9        54.668 9  23812422.564 6         0.000 6      2750.632 6        37.977 6
G21  21169794.742 9 111248001.562 9     -1249.547 9        55.710 9  21169794.028 6         0.000 6      -973.673 6        37.977 6
G29  24297046.484 9 127681784.714 9     -3119.697 9        54.476 9  24297048.056 6         0.000 6     -2430.935 6        37.977 6
G27  22006866.171 9 115646835.268 9      2500.449 9        55.373 9  22006868.105 6         0.000 6      1948.403 6        37.977 6
G16  20497722.402 9 107716237.935 9       559.643 9        55.976 9  20497721.576 6         0.000 6       436.085 6        37.977 6
G26  20653276.715 9 108533679.406 9     -1480.668 9        55.874 9  20653279.530 6         0.000 6     -1153.767 6        37.977 6
G20  21946058.309 9 115327281.691 9      2567.512 9        55.315 9  21946058.632 6         0.000 6      2000.660 6        37.977 6
> 2019 07 03 12 00 56.0000000  0  8       0.000000000000
G07  25348532.081 9 133207389.052 9      2188.082 9        54.131 9  25348532.752 6         0.000 6      1705.000 6        37.977 6
G10  23811747.116 9 125131520.953 9      3529.837 9        54.669 9  23811750.845 6         0.000 6      2750.525 6        37.977 6
G21  21170032.558 9 111249251.290 9     -1249.909 9        55.710 9  21170031.843 6         0.000 6      -973.955 6        37.977 6
G29  24297640.151 9 127684904.444 9     -3119.782 9        54.476 9  24297641.723 6         0.000 6     -2431.002 6        37.977 6
G27  22006390.374 9 115644334.940 9      2500.213 9        55.374 9  22006392.307 6         0.000 6      1948.218 6        37.977 6
G16  20497615.964 9 107715678.601 9       559.027 9        55.976 9  20497615.138 6         0.000 6       435.605 6        37.977 6
G26  20653558.531 9 108535160.359 9     -1481.243 9        55.873 9  20653561.347 6         0.000 6     -1154.216 6        37.977 6
G20  21945569.770 9 115324714.405 9      2567.069 9        55.315 9  21945570.092 6         0.000 6      2000.315 6        37.977 6
> 2019 07 03 12 00 57.0000000  0  8       0.000000000000
G07  25348115.748 9 133205201.208 9      2187.623 9        54.131 9  25348116.419 6         0.000 6      1704.642 6        37.977 6
G10  23811075.422 9 125127991.188 9      3529.701 9        54.669 9  23811079.150 6         0.000 6      2750.419 6        37.977 6
G21  21170270.441 9 111250501.373 9     -1250.270 9        55.709 9  21170269.726 6         0.000 6      -974.236 6        37.977 6
G29  24298233.833 9 127688024.253 9     -3119.868 9        54.475 9  24298235.406 6         0.000 6     -2431.069 6        37.977 6
G27  22005914.622 9 115641834.850 9      2499.976 9        55.374 9  22005916.555 6         0.000 6      1948.034 6        37.977 6
G16  20497509.644 9 107715119.880 9       558.411 9        55.976 9  20497508.817 6         0.000 6       435.125 6        37.977 6
G26  20653840.456 9 108536641.883 9     -1481.818 9        55.873 9  20653843.272 6         0.000 6     -1154.664 6        37.977 6
G20  21945081.314 9 115322147.555 9      2566.626 9        55.315 9  21945081.636 6         0.000 6      1999.970 6        37.977 6
> 2019 07 03 12 00 58.0000000  0  8       0.000000000000
G07  25347699.501 9 133203013.818 9      2187.164 9        54.131 9  25347700.171 6         0.000 6      1704.285 6        37.977 6
G10  23810403.755 9 125124461.566 9      3529.564 9        54.669 9  23810407.483 6         0.000 6      2750.312 6        37.977 6
G21  21170508.394 9 111251751.823 9     -1250.631 9        55.709 9  21170507.679 6         0.000 6      -974.517 6        37.977 6
G29  24298827.532 9 127691144.154 9     -3119.954 9        54.475 9  24298829.106 6         0.000 6     -2431.135 6        37.977 6
G27  22005438.915 9 115639334.995 9      2499.739 9        55.374 9  22005440.848 6         0.000 6      1947.849 6        37.977 6
G16  20497403.440 9 107714561.777 9       557.795 9        55.976 9  20497402.613 6         0.000 6       434.645 6        37.977 6
G26  20654122.491 9 108538123.986 9     -1482.393 9        55.873 9  20654125.307 6         0.000 6     -1155.111 6        37.977 6
G20  21944592.943 9 115319581.154 9      2566.183 9        55.315 9  21944593.265 6         0.000 6      1999.624 6        37.977 6
> 2019 07 03 12 00 59.0000000  0  8       0.000000000000
G07  25347283.341 9 133200826.890 9      2186.705 9        54.131 9  25347284.012 6         0.000 6      1703.927 6        37.977 6
G10  23809732.114 9 125120932.078 9      3529.427 9        54.669 9  23809735.841 6         0.000 6      2750.205 6        37.977 6
G21  21170746.415 9 111253002.631 9     -1250.991 9        55.709 9  21170745.700 6         0.000 6      -974.799 6        37.977 6
G29  24299421.248 9 127694264.140 9     -3120.039 9        54.475 9  24299422.822 6         0.000 6     -2431.202 6        37.977 6
G27  22004963.253 9 115636835.375 9      2499.502 9        55.374 9  22004965.186 6         0.000 6      1947.665 6        37.977 6
G16  20497297.353 9 107714004.288 9       557.179 9        55.977 9  20497296.526 6         0.000 6       434.165 6        37.977 6
G26  20654404.635 9 108539606.659 9     -1482.967 9        55.873 9  20654407.451 6         0.000 6     -1155.559 6        37.977 6
G20  21944104.656 9 115317015.193 9      2565.740 9        55.316 9  21944104.978 6         0.000 6      1999.279 6        37.977 6
> 2019 07 03 12 01  0.0000000  0  8       0.000000000000
G07  25346867.269 9 133198640.418 9      2186.246 9        54.132 9  25346867.939 6         0.000 6      1703.569 6        37.977 6
G10  23809060.500 9 125117402.730 9      3529.290 9        54.669 9  23809064.226 6         0.000 6      2750.098 6        37.977 6
G21  21170984.505 9 111254253.802 9     -1251.352 9        55.709 9  21170983.790 6         0.000 6      -975.080 6        37.977 6
G29  24300014.980 9 127697384.212 9     -3120.125 9        54.475 9  24300016.554 6         0.000 6     -2431.269 6        37.977 6
G27  22004487.636 9 115634335.994 9      2499.266 9        55.374 9  22004489.568 6         0.000 6      1947.480 6        37.977 6
G16  20497191.384 9 107713447.417 9       556.563 9        55.977 9  20497190.558 6         0.000 6       433.685 6        37.977 6
G26  20654686.889 9 108541089.912 9     -1483.542 9        55.873 9  20654689.705 6         0.000 6     -1156.007 6        37.977 6
G20  21943616.454 9 115314449.679 9      2565.297 9        55.316 9  21943616.775 6         0.000 6      1998.934 6        37.977 6
> 2019 07 03 12 01  1.0000000  0  8       0.000000000000
G07  25346451.284 9 133196454.405 9      2185.787 9        54.132 9  25346451.954 6         0.000 6      1703.211 6        37.977 6
G10  23808388.911 9 125113873.520 9      3529.152 9        54.670 9  23808392.637 6         0.000 6      2749.991 6        37.977 6
G21  21171222.663 9 111255505.334 9     -1251.713 9        55.709 9  21171221.949 6         0.000 6      -975.361 6        37.977 6
G29  24300608.728 9 127700504.369 9     -3120.210 9        54.475 9  24300610.303 6         0.000 6     -2431.335 6        37.977 6
G27  22004012.064 9 115631836.849 9      2499.029 9        55.375 9  22004013.996 6         0.000 6      1947.296 6        37.977 6
G16  20497085.533 9 107712891.162 9       555.947 9        55.977 9  20497084.706 6         0.000 6       433.205 6        37.977 6
G26  20654969.252 9 108542573.740 9     -1484.117 9        55.873 9  20654972.069 6         0.000 6     -1156.455 6        37.977 6
G20  21943128.337 9 115311884.609 9      2564.854 9        55.316 9  21943128.657 6         0.000 6      1998.588 6        37.977 6
> 2019 07 03 12 01  2.0000000  0  8       0.000000000000
G07  25346035.387 9 133194268.854 9      2185.327 9        54.132 9  25346036.056 6         0.000 6      1702.853 6        37.977 6
G10  23807717.348 9 125110344.443 9      3529.015 9        54.670 9  23807721.073 6         0.000 6      2749.884 6        37.977 6
G21  21171460.890 9 111256757.224 9     -1252.074 9        55.709 9  21171460.176 6         0.000 6      -975.642 6        37.977 6
G29  24301202.492 9 127703624.612 9     -3120.296 9        54.474 9  24301204.068 6         0.000 6     -2431.402 6        37.977 6
G27  22003536.537 9 115629337.940 9      2498.792 9        55.375 9  22003538.469 6         0.000 6      1947.111 6        37.977 6
G16  20496979.798 9 107712335.521 9       555.330 9        55.977 9  20496978.971 6         0.000 6       432.725 6        37.977 6
G26  20655251.724 9 108544058.138 9     -1484.692 9        55.873 9  20655254.541 6         0.000 6     -1156.903 6        37.977 6
G20  21942640.303 9 115309319.977 9      2564.410 9        55.316 9  21942640.623 6         0.000 6      1998.243 6        37.977 6
> 2019 07 03 12 01  3.0000000  0  8       0.000000000000
G07  25345619.576 9 133192083.760 9      2184.868 9        54.132 9  25345620.246 6         0.000 6      1702.495 6        37.977 6
G10  23807045.812 9 125106815.507 9      3528.877 9        54.670 9  23807049.536 6         0.000 6      2749.777 6        37.977 6
G21  21171699.186 9 111258009.478 9     -1252.435 9        55.709 9  21171698.472 6         0.000 6      -975.923 6        37.977 6
G29  24301796.273 9 127706744.941 9     -3120.381 9        54.474 9  24301797.849 6         0.000 6     -2431.469 6        37.977 6
G27  22003061.055 9 115626839.269 9      2498.555 9        55.375 9  22003062.987 6         0.000 6      1946.927 6        37.977 6
G16  20496874.180 9 107711780.498 9       554.714 9        55.977 9  20496873.353 6         0.000 6       432.245 6        37.977 6
G26  20655534.306 9 108545543.115 9     -1485.267 9        55.873 9  20655537.123 6         0.000 6     -1157.351 6        37.977 6
G20  21942152.354 9 115306755.793 9      2563.967 9        55.316 9  21942152.674 6         0.000 6      1997.897 6        37.977 6
> 2019 07 03 12 01  4.0000000  0  8       0.000000000000
G07  25345203.855 9 133189899.131 9      2184.409 9        54.132 9  25345204.524 6         0.000 6      1702.137 6        37.977 6
G10  23806374.301 9 125103286.702 9      3528.740 9        54.670 9  23806378.024 6         0.000 6      2749.670 6        37.977 6
G21  21171937.550 9 111259262.087 9     -1252.795 9        55.709 9  21171936.836 6         0.000 6      -976.204 6        37.977 6
G29  24302390.069 9 127709865.349 9     -3120.467 9        54.474 9  24302391.646 6         0.000 6     -2431.535 6        37.977 6
G27  22002585.618 9 115624340.837 9      2498.318 9        55.375 9  22002587.551 6         0.000 6      1946.742 6        37.977 6
G16  20496768.680 9 107711226.091 9       554.098 9        55.977 9  20496767.853 6         0.000 6       431.765 6        37.977 6
G26  20655816.997 9 108547028.663 9     -1485.841 9        55.873 9  20655819.814 6         0.000 6     -1157.799 6        37.977 6
G20  21941664.488 9 115304192.045 9      2563.523 9        55.316 9  21941664.808 6         0.000 6      1997.552 6        37.977 6
> 2019 07 03 12 01  5.0000000  0  8       0.000000000000
G07  25344788.219 9 133187714.956 9      2183.949 9        54.132 9  25344788.888 6         0.000 6      1701.779 6        37.977 6
G10  23805702.817 9 125099758.042 9      3528.602 9        54.671 9  23805706.540 6         0.000 6      2749.563 6        37.977 6
G21  21172175.984 9 111260515.062 9     -1253.156 9        55.709 9  21172175.269 6         0.000 6      -976.485 6        37.977 6
G29  24302983.882 9 127712985.849 9     -3120.552 9        54.474 9  24302985.460 6         0.000 6     -2431.602 6        37.977 6
G27  22002110.227 9 115621842.640 9      2498.081 9        55.375 9  22002112.159 6         0.000 6      1946.557 6        37.977 6
G16  20496663.297 9 107710672.301 9       553.482 9        55.977 9  20496662.470 6         0.000 6       431.284 6        37.977 6
G26  20656099.797 9 108548514.789 9     -1486.416 9        55.872 9  20656102.614 6         0.000 6     -1158.247 6        37.977 6
G20  21941176.708 9 115301628.749 9      2563.079 9        55.317 9  21941177.028 6         0.000 6      1997.206 6        37.977 6
> 2019 07 03 12 01  6.0000000  0  8       0.000000000000
G07  25344372.672 9 133185531.243 9      2183.489 9        54.132 9  25344373.340 6         0.000 6      1701.421 6        37.977 6
G10  23805031.358 9 125096229.514 9      3528.465 9        54.671 9  23805035.081 6         0.000 6      2749.456 6        37.977 6
G21  21172414.485 9 111261768.395 9     -1253.516 9        55.709 9  21172413.771 6         0.000 6      -976.766 6        37.977 6
G29  24303577.712 9 127716106.433 9     -3120.638 9        54.474 9  24303579.290 6         0.000 6     -2431.668 6        37.977 6
G27  22001634.880 9 115619344.679 9      2497.844 9        55.375 9  22001636.812 6         0.000 6      1946.373 6        37.977 6
G16  20496558.031 9 107710119.124 9       552.865 9        55.977 9  20496557.204 6         0.000 6       430.804 6        37.977 6
G26  20656382.707 9 108550001.486 9     -1486.990 9        55.872 9  20656385.524 6         0.000 6     -1158.694 6        37.977 6
G20  21940689.011 9 115299065.891 9      2562.636 9        55.317 9  21940689.331 6         0.000 6      1996.860 6        37.977 6
> 2019 07 03 12 01  7.0000000  0  8       0.000000000000
G07  25343957.211 9 133183347.987 9      2183.030 9        54.133 9  25343957.880 6         0.000 6      1701.063 6        37.977 6
G10  23804359.927 9 125092701.130 9      3528.327 9        54.671 9  23804363.649 6         0.000 6      2749.348 6        37.977 6
G21  21172653.056 9 111263022.091 9     -1253.877 9        55.709 9  21172652.342 6         0.000 6      -977.047 6        37.977 6
G29  24304171.557 9 127719227.103 9     -3120.723 9        54.473 9  24304173.136 6         0.000 6     -2431.735 6        37.977 6
G27  22001159.579 9 115616846.956 9      2497.607 9        55.376 9  22001161.510 6         0.000 6      1946.188 6        37.977 6
G16  20496452.883 9 107709566.567 9       552.249 9        55.977 9  20496452.056 6         0.000 6       430.324 6        37.977 6
G26  20656665.726 9 108551488.762 9     -1487.565 9        55.872 9  20656668.544 6         0.000 6     -1159.142 6        37.977 6
G20  21940201.400 9 115296503.482 9      2562.192 9        55.317 9  21940201.720 6         0.000 6      1996.514 6        37.977 6
> 2019 07 03 12 01  8.0000000  0  8       0.000000000000
G07  25343541.839 9 133181165.194 9      2182.570 9        54.133 9  25343542.507 6         0.000 6      1700.705 6        37.977 6
G10  23803688.521 9 125089172.878 9      3528.189 9        54.671 9  23803692.242 6         0.000 6      2749.241 6        37.977 6
G21  21172891.694 9 111264276.145 9     -1254.237 9        55.708 9  21172890.980 6         0.000 6      -977.328 6        37.977 6
G29  24304765.419 9 127722347.859 9     -3120.808 9        54.473 9  24304766.999 6         0.000 6     -2431.801 6        37.977 6
G27  22000684.322 9 115614349.468 9      2497.370 9        55.376 9  22000686.254 6         0.000 6      1946.003 6        37.977 6
G16  20496347.852 9 107709014.622 9       551.633 9        55.977 9  20496347.025 6         0.000 6       429.844 6        37.977 6
G26  20656948.854 9 108552976.608 9     -1488.140 9        55.872 9  20656951.672 6         0.000 6     -1159.590 6        37.977 6
G20  21939713.873 9 115293941.513 9      2561.748 9        55.317 9  21939714.192 6         0.000 6      1996.168 6        37.977 6
> 2019 07 03 12 01  9.0000000  0  8       0.000000000000
G07  25343126.553 9 133178982.857 9      2182.110 9        54.133 9  25343127.221 6         0.000 6      1700.346 6        37.977 6
G10  23803017.142 9 125085644.769 9      3528.051 9        54.672 9  23803020.863 6         0.000 6      2749.133 6        37.977 6
G21  21173130.402 9 111265530.562 9     -1254.598 9        55.708 9  21173129.688 6         0.000 6      -977.609 6        37.977 6
G29  24305359.297 9 127725468.700 9     -3120.894 9        54.473 9  24305360.878 6         0.000 6     -2431.868 6        37.977 6
G27  22000209.111 9 115611852.220 9      2497.133 9        55.376 9  22000211.042 6         0.000 6      1945.818 6        37.977 6
G16  20496242.938 9 107708463.298 9       551.016 9        55.977 9  20496242.111 6         0.000 6       429.363 6        37.977 6
G26  20657232.093 9 108554465.033 9     -1488.714 9        55.872 9  20657234.910 6         0.000 6     -1160.037 6        37.977 6
G20  21939226.431 9 115291379.991 9      2561.304 9        55.317 9  21939226.749 6         0.000 6      1995.822 6        37.977 6
> 2019 07 03 12 01 10.0000000  0  8       0.000000000000
G07  25342711.356 9 133176800.984 9      2181.650 9        54.133 9  25342712.024 6         0.000 6      1699.988 6        37.977 6
G10  23802345.789 9 125082116.794 9      3527.912 9        54.672 9  23802349.509 6         0.000 6      2749.025 6        37.977 6
G21  21173369.178 9 111266785.336 9     -1254.958 9        55.708 9  21173368.464 6         0.000 6      -977.889 6        37.977 6
G29  24305953.192 9 127728589.626 9     -3120.979 9        54.473 9  24305954.773 6         0.000 6     -2431.934 6        37.977 6
G27  21999733.945 9 115609355.207 9      2496.895 9        55.376 9  21999735.876 6         0.000 6      1945.634 6        37.977 6
G16  20496138.141 9 107707912.587 9       550.400 9        55.977 9  20496137.314 6         0.000 6       428.883 6        37.977 6
G26  20657515.439 9 108555954.028 9     -1489.289 9        55.872 9  20657518.257 6         0.000 6     -1160.485 6        37.977 6
G20  21938739.072 9 115288818.910 9      2560.860 9        55.318 9  21938739.391 6         0.000 6      1995.476 6        37.977 6
> 2019 07 03 12 01 11.0000000  0  8       0.000000000000
G07  25342296.246 9 133174619.567 9      2181.190 9        54.133 9  25342296.913 6         0.000 6      1699.629 6        37.977 6
G10  23801674.463 9 125078588.961 9      3527.774 9        54.672 9  23801678.182 6         0.000 6      2748.918 6        37.977 6
G21  21173608.023 9 111268040.474 9     -1255.318 9        55.708 9  21173607.309 6         0.000 6      -978.170 6        37.977 6
G29  24306547.103 9 127731710.638 9     -3121.065 9        54.472 9  24306548.684 6         0.000 6     -2432.001 6        37.977 6
G27  21999258.824 9 115606858.433 9      2496.658 9        55.376 9  21999260.755 6         0.000 6      1945.449 6        37.977 6
G16  20496033.462 9 107707362.495 9       549.783 9        55.977 9  20496032.635 6         0.000 6       428.403 6        37.977 6
G26  20657798.896 9 108557443.602 9     -1489.863 9        55.872 9  20657801.714 6         0.000 6     -1160.933 6        37.977 6
G20  21938251.799 9 115286258.277 9      2560.415 9        55.318 9  21938252.117 6         0.000 6      1995.130 6        37.977 6
> 2019 07 03 12 01 12.0000000  0  8       0.000000000000
G07  25341881.223 9 133172438.614 9      2180.730 9        54.133 9  25341881.891 6         0.000 6      1699.271 6        37.977 6
G10  23801003.162 9 125075061.264 9      3527.636 9        54.672 9  23801006.881 6         0.000 6      2748.810 6        37.977 6
G21  21173846.936 9 111269295.969 9     -1255.678 9        55.708 9  21173846.222 6         0.000 6      -978.451 6        37.977 6
G29  24307141.029 9 127734831.730 9     -3121.150 9        54.472 9  24307142.611 6         0.000 6     -2432.067 6        37.977 6
G27  21998783.749 9 115604361.899 9      2496.421 9        55.377 9  21998785.680 6         0.000 6      1945.264 6        37.977 6
G16  20495928.901 9 107706813.021 9       549.167 9        55.977 9  20495928.074 6         0.000 6       427.922 6        37.977 6
G26  20658082.462 9 108558933.750 9     -1490.438 9        55.872 9  20658085.280 6         0.000 6     -1161.380 6        37.977 6
G20  21937764.610 9 115283698.085 9      2559.971 9        55.318 9  21937764.928 6         0.000 6      1994.784 6        37.977 6
> 2019 07 03 12 01 13.0000000  0  8       0.000000000000
G07  25341466.288 9 133170258.120 9      2180.270 9        54.133 9  25341466.956 6         0.000 6      1698.912 6        37.977 6
G10  23800331.888 9 125071533.704 9      3527.497 9        54.673 9  23800335.606 6         0.000 6      2748.702 6        37.977 6
G21  21174085.917 9 111270551.824 9     -1256.038 9        55.708 9  21174085.203 6         0.000 6      -978.731 6        37.977 6
G29  24307734.972 9 127737952.912 9     -3121.235 9        54.472 9  24307736.555 6         0.000 6     -2432.134 6        37.977 6
G27  21998308.718 9 115601865.598 9      2496.184 9        55.377 9  21998310.649 6         0.000 6      1945.079 6        37.977 6
G16  20495824.456 9 107706264.159 9       548.550 9        55.977 9  20495823.629 6         0.000 6       427.442 6        37.977 6
G26  20658366.137 9 108560424.468 9     -1491.012 9        55.871 9  20658368.955 6         0.000 6     -1161.828 6        37.977 6
G20  21937277.505 9 115281138.336 9      2559.527 9        55.318 9  21937277.823 6         0.000 6      1994.438 6        37.977 6
> 2019 07 03 12 01 14.0000000  0  8       0.000000000000
G07  25341051.441 9 133168078.085 9      2179.809 9        54.134 9  25341052.108 6         0.000 6      1698.554 6        37.977 6
G10  23799660.641 9 125068006.287 9      3527.359 9        54.673 9  23799664.358 6         0.000 6      2748.594 6        37.977 6
G21  21174324.967 9 111271808.042 9     -1256.399 9        55.708 9  21174324.254 6         0.000 6      -979.012 6        37.977 6
G29  24308328.931 9 127741074.179 9     -3121.320 9        54.472 9  24308330.515 6         0.000 6     -2432.200 6        37.977 6
G27  21997833.733 9 115599369.536 9      2495.946 9        55.377 9  21997835.663 6         0.000 6      1944.894 6        37.977 6
G16  20495720.129 9 107705715.917 9       547.934 9        55.977 9  20495719.302 6         0.000 6       426.961 6        37.977 6
G26  20658649.922 9 108561915.766 9     -1491.586 9        55.871 9  20658652.739 6         0.000 6     -1162.275 6        37.977 6
G20  21936790.486 9 115278579.036 9      2559.082 9        55.318 9  21936790.803 6         0.000 6      1994.091 6        37.977 6
> 2019 07 03 12 01 15.0000000  0  8       0.000000000000
G07  25340636.681 9 133165898.512 9      2179.349 9        54.134 9  25340637.348 6         0.000 6      1698.195 6        37.977 6
G10  23798989.419 9 125064479.004 9      3527.220 9        54.673 9  23798993.135 6         0.000 6      2748.486 6        37.977 6
G21  21174564.086 9 111273064.618 9     -1256.759 9        55.708 9  21174563.372 6         0.000 6      -979.293 6        37.977 6
G29  24308922.907 9 127744195.532 9     -3121.406 9        54.472 9  24308924.491 6         0.000 6     -2432.267 6        37.977 6
G27  21997358.792 9 115596873.709 9      2495.709 9        55.377 9  21997360.722 6         0.000 6      1944.709 6        37.977 6
G16  20495615.919 9 107705168.289 9       547.317 9        55.977 9  20495615.092 6         0.000 6       426.481 6        37.977 6
G26  20658933.815 9 108563407.633 9     -1492.161 9        55.871 9  20658936.633 6         0.000 6     -1162.723 6        37.977 6
G20  21936303.550 9 115276020.177 9      2558.638 9        55.319 9  21936303.867 6         0.000 6      1993.745 6        37.977 6
> 2019 07 03 12 01 16.0000000  0  8       0.000000000000
G07  25340222.009 9 133163719.396 9      2178.889 9        54.134 9  25340222.675 6         0.000 6      1697.836 6        37.977 6
G10  23798318.224 9 125060951.864 9      3527.081 9        54.673 9  23798321.940 6         0.000 6      2748.378 6        37.977 6
G21  21174803.273 9 111274321.556 9     -1257.119 9        55.708 9  21174802.560 6         0.000 6      -979.573 6        37.977 6
G29  24309516.899 9 127747316.970 9     -3121.491 9        54.471 9  24309518.483 6         0.000 6     -2432.333 6        37.977 6
G27  21996883.897 9 115594378.121 9      2495.472 9        55.377 9  21996885.827 6         0.000 6      1944.524 6        37.977 6
G16  20495511.826 9 107704621.280 9       546.700 9        55.977 9  20495510.999 6         0.000 6       426.000 6        37.977 6
G26  20659217.818 9 108564900.078 9     -1492.735 9        55.871 9  20659220.636 6         0.000 6     -1163.170 6        37.977 6
G20  21935816.700 9 115273461.766 9      2558.193 9        55.319 9  21935817.017 6         0.000 6      1993.398 6        37.977 6
> 2019 07 03 12 01 17.0000000  0  8       0.000000000000
G07  25339807.424 9 133161540.744 9      2178.428 9        54.134 9  25339808.090 6         0.000 6      1697.477 6        37.977 6
G10  23797647.056 9 125057424.858 9      3526.942 9        54.674 9  23797650.771 6         0.000 6      2748.269 6        37.977 6
G21  21175042.529 9 111275578.851 9     -1257.478 9        55.708 9  21175041.815 6         0.000 6      -979.854 6        37.977 6
G29  24310110.907 9 127750438.493 9     -3121.576 9        54.471 9  24310112.492 6         0.000 6     -2432.399 6        37.977 6
G27  21996409.047 9 115591882.769 9      2495.234 9        55.378 9  21996410.977 6         0.000 6      1944.339 6        37.977 6
G16  20495407.851 9 107704074.885 9       546.084 9        55.977 9  20495407.024 6         0.000 6       425.520 6        37.977 6
G26  20659501.930 9 108566393.094 9     -1493.309 9        55.871 9  20659504.748 6         0.000 6     -1163.618 6        37.977 6
G20  21935329.933 9 115270903.796 9      2557.748 9        55.319 9  21935330.250 6         0.000 6      1993.052 6        37.977 6
> 2019 07 03 12 01 18.0000000  0  8       0.000000000000
G07  25339392.927 9 133159362.550 9      2177.968 9        54.134 9  25339393.593 6         0.000 6      1697.118 6        37.977 6
G10  23796975.914 9 125053897.996 9      3526.803 9        54.674 9  23796979.629 6         0.000 6      2748.161 6        37.977 6
G21  21175281.853 9 111276836.509 9     -1257.838 9        55.707 9  21175281.140 6         0.000 6      -980.134 6        37.977 6
G29  24310704.931 9 127753560.101 9     -3121.661 9        54.471 9  24310706.517 6         0.000 6     -2432.466 6        37.977 6
G27  21995934.242 9 115589387.657 9      2494.997 9        55.378 9  21995936.172 6         0.000 6      1944.154 6        37.977 6
G16  20495303.993 9 107703529.110 9       545.467 9        55.977 9  20495303.166 6         0.000 6       425.039 6        37.977 6
G26  20659786.152 9 108567886.688 9     -1493.883 9        55.871 9  20659788.970 6         0.000 6     -1164.065 6        37.977 6
G20  21934843.252 9 115268346.275 9      2557.303 9        55.319 9  21934843.569 6         0.000 6      1992.705 6        37.977 6
> 2019 07 03 12 01 19.0000000  0  8       0.000000000000
G07  25338978.518 9 133157184.819 9      2177.507 9        54.134 9  25338979.184 6         0.000 6      1696.760 6        37.977 6
G10  23796304.798 9 125050371.269 9      3526.664 9        54.674 9  23796308.512 6         0.000 6      2748.053 6        37.977 6
G21  21175521.246 9 111278094.524 9     -1258.198 9        55.707 9  21175520.532 6         0.000 6      -980.414 6        37.977 6
G29  24311298.971 9 127756681.795 9     -3121.746 9        54.471 9  24311300.558 6         0.000 6     -2432.532 6        37.977 6
G27  21995459.482 9 115586892.780 9      2494.759 9        55.378 9  21995461.412 6         0.000 6      1943.969 6        37.977 6
G16  20495200.252 9 107702983.948 9       544.850 9        55.977 9  20495199.425 6         0.000 6       424.559 6        37.977 6
G26  20660070.482 9 108569380.852 9     -1494.457 9        55.871 9  20660073.300 6         0.000 6     -1164.513 6        37.977 6
G20  21934356.655 9 115265789.194 9      2556.858 9        55.319 9  21934356.971 6         0.000 6      1992.358 6        37.977 6
> 2019 07 03 12 01 20.0000000  0  8       0.000000000000
G07  25338564.196 9 133155007.549 9      2177.046 9        54.134 9  25338564.862 6         0.000 6      1696.401 6        37.977 6
G10  23795633.709 9 125046844.683 9      3526.525 9        54.674 9  23795637.422 6         0.000 6      2747.944 6        37.977 6
G21  21175760.707 9 111279352.899 9     -1258.558 9        55.707 9  21175759.993 6         0.000 6      -980.695 6        37.977 6
G29  24311893.027 9 127759803.568 9     -3121.831 9        54.471 9  24311894.614 6         0.000 6     -2432.598 6        37.977 6
G27  21994984.769 9 115584398.146 9      2494.522 9        55.378 9  21994986.698 6         0.000 6      1943.784 6        37.977 6
G16  20495096.630 9 107702439.408 9       544.233 9        55.977 9  20495095.803 6         0.000 6       424.078 6        37.977 6
G26  20660354.922 9 108570875.595 9     -1495.032 9        55.871 9  20660357.741 6         0.000 6     -1164.960 6        37.977 6
G20  21933870.143 9 115263232.560 9      2556.413 9        55.320 9  21933870.459 6         0.000 6      1992.011 6        37.977 6
> 2019 07 03 12 01 21.0000000  0  8       0.000000000000
G07  25338149.962 9 133152830.736 9      2176.585 9        54.135 9  25338150.627 6         0.000 6      1696.041 6        37.977 6
G10  23794962.647 9 125043318.238 9      3526.385 9        54.675 9  23794966.360 6         0.000 6      2747.836 6        37.977 6
G21  21176000.237 9 111280611.636 9     -1258.918 9        55.707 9  21175999.523 6         0.000 6      -980.975 6        37.977 6
G29  24312487.100 9 127762925.432 9     -3121.916 9        54.470 9  24312488.688 6         0.000 6     -2432.665 6        37.977 6
G27  21994510.100 9 115581903.746 9      2494.284 9        55.378 9  21994512.029 6         0.000 6      1943.599 6        37.977 6
G16  20494993.124 9 107701895.483 9       543.616 9        55.978 9  20494992.297 6         0.000 6       423.597 6        37.977 6
G26  20660639.472 9 108572370.912 9     -1495.606 9        55.870 9  20660642.291 6         0.000 6     -1165.408 6        37.977 6
G20  21933383.716 9 115260676.374 9      2555.968 9        55.320 9  21933384.032 6         0.000 6      1991.664 6        37.977 6
> 2019 07 03 12 01 22.0000000  0  8       0.000000000000
G07  25337735.816 9 133150654.388 9      2176.125 9        54.135 9  25337736.481 6         0.000 6      1695.682 6        37.977 6
G10  23794291.611 9 125039791.928 9      3526.246 9        54.675 9  23794295.322 6         0.000 6      2747.727 6        37.977 6
G21  21176239.834 9 111281870.730 9     -1259.277 9        55.707 9  21176239.121 6         0.000 6      -981.255 6        37.977 6
G29  24313081.189 9 127766047.380 9     -3122.001 9        54.470 9  24313082.777 6         0.000 6     -2432.731 6        37.977 6
G27  21994035.476 9 115579409.581 9      2494.046 9        55.378 9  21994037.405 6         0.000 6      1943.413 6        37.977 6
G16  20494889.736 9 107701352.172 9       542.999 9        55.978 9  20494888.909 6         0.000 6       423.116 6        37.977 6
G26  20660924.130 9 108573866.798 9     -1496.180 9        55.870 9  20660926.949 6         0.000 6     -1165.855 6        37.977 6
G20  21932897.373 9 115258120.629 9      2555.523 9        55.320 9  21932897.689 6         0.000 6      1991.317 6        37.977 6
> 2019 07 03 12 01 23.0000000  0  8       0.000000000000
G07  25337321.757 9 133148478.497 9      2175.664 9        54.135 9  25337322.422 6         0.000 6      1695.323 6        37.977 6
G10  23793620.601 9 125036265.763 9      3526.107 9        54.675 9  23793624.313 6         0.000 6      2747.618 6        37.977 6
G21  21176479.501 9 111283130.187 9     -1259.637 9        55.707 9  21176478.788 6         0.000 6      -981.535 6        37.977 6
G29  24313675.294 9 127769169.414 9     -3122.087 9        54.470 9  24313676.883 6         0.000 6     -2432.797 6        37.977 6
G27  21993560.897 9 115576915.657 9      2493.809 9        55.379 9  21993562.826 6         0.000 6      1943.228 6        37.977 6
G16  20494786.465 9 107700809.481 9       542.382 9        55.978 9  20494785.638 6         0.000 6       422.636 6        37.977 6
G26  20661208.898 9 108575363.263 9     -1496.754 9        55.870 9  20661211.717 6         0.000 6     -1166.302 6        37.977 6
G20  21932411.116 9 115255565.333 9      2555.077 9        55.320 9  21932411.431 6         0.000 6      1990.970 6        37.977 6
> 2019 07 03 12 01 24.0000000  0  8       0.000000000000
G07  25336907.786 9 133146303.070 9      2175.203 9        54.135 9  25336908.451 6         0.000 6      1694.964 6        37.977 6
G10  23792949.618 9 125032739.732 9      3525.967 9        54.675 9  23792953.329 6         0.000 6      2747.509 6        37.977 6
G21  21176719.236 9 111284390.000 9     -1259.996 9        55.707 9  21176718.523 6         0.000 6      -981.815 6        37.977 6
G29  24314269.416 9 127772291.533 9     -3122.172 9        54.470 9  24314271.005 6         0.000 6     -2432.864 6        37.977 6
G27  21993086.363 9 115574421.968 9      2493.571 9        55.379 9  21993088.292 6         0.000 6      1943.043 6        37.977 6
G16  20494683.311 9 107700267.404 9       541.765 9        55.978 9  20494682.484 6         0.000 6       422.155 6        37.977 6
G26  20661493.775 9 108576860.297 9     -1497.328 9        55.870 9  20661496.594 6         0.000 6     -1166.749 6        37.977 6
G20  21931924.943 9 115253010.479 9      2554.632 9        55.320 9  21931925.257 6         0.000 6      1990.623 6        37.977 6
> 2019 07 03 12 01 25.0000000  0  8       0.000000000000
G07  25336493.903 9 133144128.102 9      2174.741 9        54.135 9  25336494.568 6         0.000 6      1694.605 6        37.977 6
G10  23792278.662 9 125029213.846 9      3525.827 9        54.676 9  23792282.372 6         0.000 6      2747.400 6        37.977 6
G21  21176959.039 9 111285650.176 9     -1260.356 9        55.707 9  21176958.326 6         0.000 6      -982.096 6        37.977 6
G29  24314863.553 9 127775413.737 9     -3122.257 9        54.470 9  24314865.144 6         0.000 6     -2432.930 6        37.977 6
G27  21992611.875 9 115571928.518 9      2493.333 9        55.379 9  21992613.804 6         0.000 6      1942.858 6        37.977 6
G16  20494580.275 9 107699725.947 9       541.148 9        55.978 9  20494579.448 6         0.000 6       421.674 6        37.977 6
G26  20661778.761 9 108578357.910 9     -1497.902 9        55.870 9  20661781.580 6         0.000 6     -1167.197 6        37.977 6
G20  21931438.855 9 115250456.075 9      2554.186 9        55.321 9  21931439.169 6         0.000 6      1990.276 6        37.977 6
> 2019 07 03 12 01 26.0000000  0  8       0.000000000000
G07  25336080.108 9 133141953.597 9      2174.280 9        54.135 9  25336080.772 6         0.000 6      1694.245 6        37.977 6
G10  23791607.732 9 125025688.095 9      3525.687 9        54.676 9  23791611.442 6         0.000 6      2747.291 6        37.977 6
G21  21177198.911 9 111286910.708 9     -1260.715 9        55.707 9  21177198.198 6         0.000 6      -982.376 6        37.977 6
G29  24315457.707 9 127778536.026 9     -3122.342 9        54.469 9  24315459.298 6         0.000 6     -2432.996 6        37.977 6
G27  21992137.432 9 115569435.305 9      2493.095 9        55.379 9  21992139.360 6         0.000 6      1942.672 6        37.977 6
G16  20494477.356 9 107699185.103 9       540.531 9        55.978 9  20494476.529 6         0.000 6       421.193 6        37.977 6
G26  20662063.856 9 108579856.092 9     -1498.476 9        55.870 9  20662066.676 6         0.000 6     -1167.644 6        37.977 6
G20  21930952.851 9 115247902.112 9      2553.741 9        55.321 9  21930953.165 6         0.000 6      1989.929 6        37.977 6
> 2019 07 03 12 01 27.0000000  0  8       0.000000000000
G07  25335666.400 9 133139779.551 9      2173.819 9        54.135 9  25335667.064 6         0.000 6      1693.886 6        37.977 6
G10  23790936.829 9 125022162.488 9      3525.547 9        54.676 9  23790940.538 6         0.000 6      2747.182 6        37.977 6
G21  21177438.851 9 111288171.602 9     -1261.075 9        55.707 9  21177438.138 6         0.000 6      -982.656 6        37.977 6
G29  24316051.877 9 127781658.399 9     -3122.427 9        54.469 9  24316053.469 6         0.000 6     -2433.062 6        37.977 6
G27  21991663.034 9 115566942.331 9      2492.858 9        55.379 9  21991664.962 6         0.000 6      1942.487 6        37.977 6
G16  20494374.555 9 107698644.881 9       539.914 9        55.978 9  20494373.728 6         0.000 6       420.712 6        37.977 6
G26  20662349.061 9 108581354.853 9     -1499.050 9        55.870 9  20662351.881 6         0.000 6     -1168.091 6        37.977 6
G20  21930466.933 9 115245348.598 9      2553.295 9        55.321 9  21930467.246 6         0.000 6      1989.582 6        37.977 6
> 2019 07 03 12 01 28.0000000  0  8       0.000000000000
G07  25335252.781 9 133137605.972 9      2173.358 9        54.136 9  25335253.445 6         0.000 6      1693.526 6        37.977 6
G10  23790265.952 9 125018637.015 9      3525.407 9        54.676 9  23790269.660 6         0.000 6      2747.073 6        37.977 6
G21  21177678.859 9 111289432.851 9     -1261.434 9        55.706 9  21177678.146 6         0.000 6      -982.936 6        37.977 6
G29  24316646.062 9 127784780.853 9     -3122.511 9        54.469 9  24316647.654 6         0.000 6     -2433.128 6        37.977 6
G27  21991188.682 9 115564449.597 9      2492.620 9        55.380 9  21991190.610 6         0.000 6      1942.302 6        37.977 6
G16  20494271.871 9 107698105.273 9       539.297 9        55.978 9  20494271.044 6         0.000 6       420.232 6        37.977 6
G26  20662634.375 9 108582854.183 9     -1499.623 9        55.870 9  20662637.194 6         0.000 6     -1168.538 6        37.977 6
G20  21929981.098 9 115242795.524 9      2552.849 9        55.321 9  21929981.411 6         0.000 6      1989.234 6        37.977 6
> 2019 07 03 12 01 29.0000000  0  8       0.000000000000
G07  25334839.249 9 133135432.849 9      2172.896 9        54.136 9  25334839.912 6         0.000 6      1693.167 6        37.977 6
G10  23789595.103 9 125015111.688 9      3525.267 9        54.677 9  23789598.810 6         0.000 6      2746.964 6        37.977 6
G21  21177918.936 9 111290694.464 9     -1261.793 9        55.706 9  21177918.223 6         0.000 6      -983.216 6        37.977 6
G29  24317240.264 9 127787903.396 9     -3122.596 9        54.469 9  24317241.857 6         0.000 6     -2433.195 6        37.977 6
G27  21990714.375 9 115561957.099 9      2492.382 9        55.380 9  21990716.303 6         0.000 6      1942.116 6        37.977 6
G16  20494169.305 9 107697566.285 9       538.680 9        55.978 9  20494168.478 6         0.000 6       419.751 6        37.977 6
G26  20662919.798 9 108584354.092 9     -1500.197 9        55.870 9  20662922.618 6         0.000 6     -1168.985 6        37.977 6
G20  21929495.349 9 115240242.902 9      2552.403 9        55.321 9  21929495.662 6         0.000 6      1988.887 6        37.977 6
> 2019 07 03 12 01 30.0000000  0  8       0.000000000000
G07  25334425.804 9 133133260.187 9      2172.435 9        54.136 9  25334426.468 6         0.000 6      1692.807 6        37.977 6
G10  23788924.280 9 125011586.502 9      3525.127 9        54.677 9  23788927.987 6         0.000 6      2746.855 6        37.977 6
G21  21178159.081 9 111291956.436 9     -1262.152 9        55.706 9  21178158.368 6         0.000 6      -983.495 6        37.977 6
G29  24317834.483 9 127791026.025 9     -3122.681 9        54.468 9  24317836.076 6         0.000 6     -2433.261 6        37.977 6
G27  21990240.113 9 115559464.839 9      2492.144 9        55.380 9  21990242.041 6         0.000 6      1941.931 6        37.977 6
G16  20494066.857 9 107697027.913 9       538.063 9        55.978 9  20494066.030 6         0.000 6       419.270 6        37.977 6
G26  20663205.331 9 108585854.574 9     -1500.771 9        55.869 9  20663208.150 6         0.000 6     -1169.432 6        37.977 6
G20  21929009.685 9 115237690.726 9      2551.957 9        55.321 9  21929009.998 6         0.000 6      1988.539 6        37.977 6
> 2019 07 03 12 01 31.0000000  0  8       0.000000000000
G07  25334012.448 9 133131087.989 9      2171.973 9        54.136 9  25334013.111 6         0.000 6      1692.448 6        37.977 6
G10  23788253.483 9 125008061.452 9      3524.986 9        54.677 9  23788257.189 6         0.000 6      2746.745 6        37.977 6
G21  21178399.295 9 111293218.765 9     -1262.511 9        55.706 9  21178398.582 6         0.000 6      -983.775 6        37.977 6
G29  24318428.717 9 127794148.738 9     -3122.766 9        54.468 9  24318430.311 6         0.000 6     -2433.327 6        37.977 6
G27  21989765.896 9 115556972.815 9      2491.906 9        55.380 9  21989767.824 6         0.000 6      1941.746 6        37.977 6
G16  20493964.525 9 107696490.156 9       537.445 9        55.978 9  20493963.698 6         0.000 6       418.789 6        37.977 6
G26  20663490.972 9 108587355.625 9     -1501.345 9        55.869 9  20663493.791 6         0.000 6     -1169.880 6        37.977 6
G20  21928524.106 9 115235138.993 9      2551.511 9        55.322 9  21928524.418 6         0.000 6      1988.191 6        37.977 6
> 2019 07 03 12 01 32.0000000  0  8       0.000000000000
G07  25333599.179 9 133128916.250 9      2171.512 9        54.136 9  25333599.842 6         0.000 6      1692.088 6        37.977 6
G10  23787582.714 9 125004536.546 9      3524.846 9        54.677 9  23787586.420 6         0.000 6      2746.636 6        37.977 6
G21  21178639.577 9 111294481.455 9     -1262.871 9        55.706 9  21178638.864 6         0.000 6      -984.055 6        37.977 6
G29  24319022.968 9 127797271.537 9     -3122.851 9        54.468 9  24319024.563 6         0.000 6     -2433.393 6        37.977 6
G27  21989291.725 9 115554481.030 9      2491.668 9        55.380 9  21989293.652 6         0.000 6      1941.560 6        37.977 6
G16  20493862.311 9 107695953.019 9       536.828 9        55.978 9  20493861.484 6         0.000 6       418.308 6        37.977 6
G26  20663776.723 9 108588857.255 9     -1501.919 9        55.869 9  20663779.543 6         0.000 6     -1170.327 6        37.977 6
G20  21928038.612 9 115232587.709 9      2551.065 9        55.322 9  21928038.924 6         0.000 6      1987.844 6        37.977 6
> 2019 07 03 12 01 33.0000000  0  8       0.000000000000
G07  25333185.999 9 133126744.976 9      2171.050 9        54.136 9  25333186.661 6         0.000 6      1691.728 6        37.977 6
G10  23786911.971 9 125001011.777 9      3524.705 9        54.678 9  23786915.676 6         0.000 6      2746.526 6        37.977 6
G21  21178879.927 9 111295744.502 9     -1263.230 9        55.706 9  21178879.214 6         0.000 6      -984.335 6        37.977 6
G29  24319617.235 9 127800394.420 9     -3122.936 9        54.468 9  24319618.830 6         0.000 6     -2433.459 6        37.977 6
G27  21988817.599 9 115551989.482 9      2491.430 9        55.381 9  21988819.526 6         0.000 6      1941.375 6        37.977 6
G16  20493760.214 9 107695416.497 9       536.211 9        55.978 9  20493759.387 6         0.000 6       417.827 6        37.977 6
G26  20664062.582 9 108590359.454 9     -1502.492 9        55.869 9  20664065.402 6         0.000 6     -1170.774 6        37.977 6
G20  21927553.202 9 115230036.868 9      2550.618 9        55.322 9  21927553.514 6         0.000 6      1987.496 6        37.977 6
> 2019 07 03 12 01 34.0000000  0  8       0.000000000000
G07  25332772.906 9 133124574.160 9      2170.588 9        54.136 9  25332773.568 6         0.000 6      1691.368 6        37.977 6
G10  23786241.255 9 124997487.152 9      3524.565 9        54.678 9  23786244.959 6         0.000 6      2746.417 6        37.977 6
G21  21179120.346 9 111297007.910 9     -1263.588 9        55.706 9  21179119.633 6         0.000 6      -984.615 6        37.977 6
G29  24320211.518 9 127803517.387 9     -3123.021 9        54.468 9  24320213.114 6         0.000 6     -2433.525 6        37.977 6
G27  21988343.518 9 115549498.174 9      2491.192 9        55.381 9  21988345.445 6         0.000 6      1941.189 6        37.977 6
G16  20493658.235 9 107694880.595 9       535.593 9        55.978 9  20493657.409 6         0.000 6       417.345 6        37.977 6
G26  20664348.551 9 108591862.232 9     -1503.066 9        55.869 9  20664351.371 6         0.000 6     -1171.221 6        37.977 6
G20  21927067.878 9 115227486.477 9      2550.172 9        55.322 9  21927068.190 6         0.000 6      1987.148 6        37.977 6
> 2019 07 03 12 01 35.0000000  0  8       0.000000000000
G07  25332359.901 9 133122403.812 9      2170.126 9        54.137 9  25332360.564 6         0.000 6      1691.008 6        37.977 6
G10  23785570.565 9 124993962.662 9      3524.424 9        54.678 9  23785574.268 6         0.000 6      2746.307 6        37.977 6
G21  21179360.832 9 111298271.673 9     -1263.947 9        55.706 9  21179360.119 6         0.000 6      -984.894 6        37.977 6
G29  24320805.816 9 127806640.435 9     -3123.105 9        54.467 9  24320807.412 6         0.000 6     -2433.591 6        37.977 6
G27  21987869.483 9 115547007.106 9      2490.954 9        55.381 9  21987871.410 6         0.000 6      1941.004 6        37.977 6
G16  20493556.374 9 107694345.308 9       534.976 9        55.978 9  20493555.547 6         0.000 6       416.864 6        37.977 6
G26  20664634.629 9 108593365.578 9     -1503.640 9        55.869 9  20664637.449 6         0.000 6     -1171.668 6        37.977 6
G20  21926582.637 9 115224936.526 9      2549.726 9        55.322 9  21926582.949 6         0.000 6      1986.800 6        37.977 6
> 2019 07 03 12 01 36.0000000  0  8       0.000000000000
G07  25331946.984 9 133120233.921 9      2169.664 9        54.137 9  25331947.646 6         0.000 6      1690.648 6        37.977 6
G10  23784899.903 9 124990438.319 9      3524.283 9        54.678 9  23784903.606 6         0.000 6      2746.197 6        37.977 6
G21  21179601.387 9 111299535.799 9     -1264.306 9        55.706 9  21179600.674 6         0.000 6      -985.174 6        37.977 6
G29  24321400.131 9 127809763.572 9     -3123.190 9        54.467 9  24321401.728 6         0.000 6     -2433.657 6        37.977 6
G27  21987395.493 9 115544516.274 9      2490.715 9        55.381 9  21987397.420 6         0.000 6      1940.818 6        37.977 6
G16  20493454.630 9 107693810.641 9       534.358 9        55.978 9  20493453.803 6         0.000 6       416.383 6        37.977 6
G26  20664920.816 9 108594869.502 9     -1504.213 9        55.869 9  20664923.637 6         0.000 6     -1172.115 6        37.977 6
G20  21926097.483 9 115222387.028 9      2549.279 9        55.323 9  21926097.795 6         0.000 6      1986.452 6        37.977 6
> 2019 07 03 12 01 37.0000000  0  8       0.000000000000
G07  25331534.155 9 133118064.494 9      2169.202 9        54.137 9  25331534.817 6         0.000 6      1690.288 6        37.977 6
G10  23784229.267 9 124986914.113 9      3524.142 9        54.679 9  23784232.969 6         0.000 6      2746.087 6        37.977 6
G21  21179842.010 9 111300800.281 9     -1264.665 9        55.706 9  21179841.298 6         0.000 6      -985.453 6        37.977 6
G29  24321994.462 9 127812886.794 9     -3123.275 9        54.467 9  24321996.060 6         0.000 6     -2433.723 6        37.977 6
G27  21986921.548 9 115542025.679 9      2490.477 9        55.381 9  21986923.474 6         0.000 6      1940.632 6        37.977 6
G16  20493353.003 9 107693276.588 9       533.741 9        55.978 9  20493352.176 6         0.000 6       415.902 6        37.977 6
G26  20665207.112 9 108596373.995 9     -1504.787 9        55.869 9  20665209.933 6         0.000 6     -1172.561 6        37.977 6
G20  21925612.413 9 115219837.973 9      2548.832 9        55.323 9  21925612.724 6         0.000 6      1986.104 6        37.977 6
> 2019 07 03 12 01 38.0000000  0  8       0.000000000000
G07  25331121.414 9 133115895.526 9      2168.740 9        54.137 9  25331122.075 6         0.000 6      1689.928 6        37.977 6
G10  23783558.658 9 124983390.052 9      3524.001 9        54.679 9  23783562.360 6         0.000 6      2745.977 6        37.977 6
G21  21180082.702 9 111302065.125 9     -1265.024 9        55.705 9  21180081.989 6         0.000 6      -985.733 6        37.977 6
G29  24322588.810 9 127816010.101 9     -3123.359 9        54.467 9  24322590.408 6         0.000 6     -2433.789 6        37.977 6
G27  21986447.648 9 115539535.323 9      2490.239 9        55.381 9  21986449.575 6         0.000 6      1940.447 6        37.977 6
G16  20493251.494 9 107692743.156 9       533.123 9        55.978 9  20493250.667 6         0.000 6       415.421 6        37.977 6
G26  20665493.518 9 108597879.067 9     -1505.360 9        55.868 9  20665496.339 6         0.000 6     -1173.008 6        37.977 6
G20  21925127.429 9 115217289.368 9      2548.385 9        55.323 9  21925127.740 6         0.000 6      1985.756 6        37.977 6
> 2019 07 03 12 01 39.0000000  0  8       0.000000000000
G07  25330708.761 9 133113727.023 9      2168.278 9        54.137 9  25330709.422 6         0.000 6      1689.568 6        37.977 6
G10  23782888.076 9 124979866.128 9      3523.859 9        54.679 9  23782891.777 6         0.000 6      2745.867 6        37.977 6
G21  21180323.462 9 111303330.325 9     -1265.382 9        55.705 9  21180322.749 6         0.000 6      -986.012 6        37.977 6
G29  24323183.173 9 127819133.493 9     -3123.444 9        54.467 9  24323184.773 6         0.000 6     -2433.855 6        37.977 6
G27  21985973.794 9 115537045.204 9      2490.001 9        55.382 9  21985975.720 6         0.000 6      1940.261 6        37.977 6
G16  20493150.102 9 107692210.338 9       532.506 9        55.978 9  20493149.276 6         0.000 6       414.940 6        37.977 6
G26  20665780.033 9 108599384.707 9     -1505.934 9        55.868 9  20665782.853 6         0.000 6     -1173.455 6        37.977 6
G20  21924642.529 9 115214741.207 9      2547.939 9        55.323 9  21924642.840 6         0.000 6      1985.408 6        37.977 6
> 2019 07 03 12 01 40.0000000  0  8       0.000000000000
G07  25330296.195 9 133111558.980 9      2167.816 9        54.137 9  25330296.856 6         0.000 6      1689.208 6        37.977 6
G10  23782217.521 9 124976342.350 9      3523.718 9        54.679 9  23782221.221 6         0.000 6      2745.757 6        37.977 6
G21  21180564.290 9 111304595.886 9     -1265.741 9        55.705 9  21180563.578 6         0.000 6      -986.292 6        37.977 6
G29  24323777.553 9 127822256.969 9     -3123.529 9        54.466 9  24323779.153 6         0.000 6     -2433.921 6        37.977 6
G27  21985499.985 9 115534555.325 9      2489.762 9        55.382 9  21985501.911 6         0.000 6      1940.075 6        37.977 6
G16  20493048.829 9 107691678.141 9       531.888 9        55.978 9  20493048.002 6         0.000 6       414.458 6        37.977 6
G26  20666066.657 9 108600890.926 9     -1506.507 9        55.868 9  20666069.478 6         0.000 6     -1173.902 6        37.977 6
G20  21924157.715 9 115212193.496 9      2547.492 9        55.323 9  21924158.025 6         0.000 6      1985.059 6        37.977 6
> 2019 07 03 12 01 41.0000000  0  8       0.000000000000
G07  25329883.718 9 133109391.399 9      2167.353 9        54.137 9  25329884.378 6         0.000 6      1688.848 6        37.977 6
G10  23781546.993 9 124972818.713 9      3523.577 9        54.680 9  23781550.693 6         0.000 6      2745.647 6        37.977 6
G21  21180805.187 9 111305861.806 9     -1266.100 9        55.705 9  21180804.474 6         0.000 6      -986.571 6        37.977 6
G29  24324371.949 9 127825380.529 9     -3123.613 9        54.466 9  24324373.549 6         0.000 6     -2433.987 6        37.977 6
G27  21985026.222 9 115532065.685 9      2489.524 9        55.382 9  21985028.148 6         0.000 6      1939.890 6        37.977 6
G16  20492947.672 9 107691146.561 9       531.271 9        55.978 9  20492946.846 6         0.000 6       413.977 6        37.977 6
G26  20666353.390 9 108602397.718 9     -1507.081 9        55.868 9  20666356.211 6         0.000 6     -1174.349 6        37.977 6
G20  21923672.986 9 115209646.232 9      2547.045 9        55.324 9  21923673.296 6         0.000 6      1984.711 6        37.977 6
> 2019 07 03 12 01 42.0000000  0  8       0.000000000000
G07  25329471.328 9 133107224.283 9      2166.891 9        54.138 9  25329471.989 6         0.000 6      1688.487 6        37.977 6
G10  23780876.491 9 124969295.214 9      3523.435 9        54.680 9  23780880.190 6         0.000 6      2745.537 6        37.977 6
G21  21181046.151 9 111307128.082 9     -1266.458 9        55.705 9  21181045.439 6         0.000 6      -986.851 6        37.977 6
G29  24324966.361 9 127828504.175 9     -3123.698 9        54.466 9  24324967.962 6         0.000 6     -2434.053 6        37.977 6
G27  21984552.503 9 115529576.281 9      2489.286 9        55.382 9  21984554.429 6         0.000 6      1939.704 6        37.977 6
G16  20492846.633 9 107690615.596 9       530.653 9        55.978 9  20492845.806 6         0.000 6       413.496 6        37.977 6
G26  20666640.232 9 108603905.079 9     -1507.654 9        55.868 9  20666643.053 6         0.000 6     -1174.796 6        37.977 6
G20  21923188.342 9 115207099.412 9      2546.597 9        55.324 9  21923188.651 6         0.000 6      1984.363 6        37.977 6
> 2019 07 03 12 01 43.0000000  0  8       0.000000000000
G07  25329059.027 9 133105057.630 9      2166.428 9        54.138 9  25329059.688 6         0.000 6      1688.127 6        37.977 6
G10  23780206.017 9 124965771.858 9      3523.293 9        54.680 9  23780209.715 6         0.000 6      2745.426 6        37.977 6
G21  21181287.184 9 111308394.716 9     -1266.817 9        55.705 9  21181286.472 6         0.000 6      -987.130 6        37.977 6
G29  24325560.788 9 127831627.900 9     -3123.783 9        54.466 9  24325562.390 6         0.000 6     -2434.119 6        37.977 6
G27  21984078.831 9 115527087.120 9      2489.047 9        55.382 9  21984080.757 6         0.000 6      1939.518 6        37.977 6
G16  20492745.712 9 107690085.254 9       530.035 9        55.978 9  20492744.885 6         0.000 6       413.014 6        37.977 6
G26  20666927.183 9 108605413.017 9     -1508.227 9        55.868 9  20666930.004 6         0.000 6     -1175.242 6        37.977 6
G20  21922703.782 9 115204553.039 9      2546.150 9        55.324 9  21922704.092 6         0.000 6      1984.014 6        37.977 6
> 2019 07 03 12 01 44.0000000  0  8       0.000000000000
G07  25328646.814 9 133102891.439 9      2165.966 9        54.138 9  25328647.475 6         0.000 6      1687.767 6        37.977 6
G10  23779535.569 9 124962248.641 9      3523.152 9        54.680 9  23779539.267 6         0.000 6      2745.316 6        37.977 6
G21  21181528.285 9 111309661.709 9     -1267.175 9        55.705 9  21181527.572 6         0.000 6      -987.409 6        37.977 6
G29  24326155.232 9 127834751.714 9     -3123.867 9        54.465 9  24326156.834 6         0.000 6     -2434.185 6        37.977 6
G27  21983605.204 9 115524598.193 9      2488.809 9        55.383 9  21983607.129 6         0.000 6      1939.332 6        37.977 6
G16  20492644.908 9 107689555.524 9       529.417 9        55.979 9  20492644.081 6         0.000 6       412.533 6        37.977 6
G26  20667214.243 9 108606921.524 9     -1508.800 9        55.868 9  20667217.064 6         0.000 6     -1175.689 6        37.977 6
G20  21922219.308 9 115202007.113 9      2545.703 9        55.324 9  21922219.617 6         0.000 6      1983.666 6        37.977 6
> 2019 07 03 12 01 45.0000000  0  8       0.000000000000
G07  25328234.689 9 133100725.708 9      2165.503 9        54.138 9  25328235.349 6         0.000 6      1687.406 6        37.977 6
G10  23778865.149 9 124958725.571 9      3523.010 9        54.681 9  23778868.846 6         0.000 6      2745.205 6        37.977 6
G21  21181769.454 9 111310929.062 9     -1267.533 9        55.705 9  21181768.742 6         0.000 6      -987.689 6        37.977 6
G29  24326749.692 9 127837875.613 9     -3123.952 9        54.465 9  24326751.295 6         0.000 6     -2434.251 6        37.977 6
G27  21983131.622 9 115522109.506 9      2488.570 9        55.383 9  21983133.547 6         0.000 6      1939.146 6        37.977 6
G16  20492544.222 9 107689026.416 9       528.800 9        55.979 9  20492543.395 6         0.000 6       412.052 6        37.977 6
G26  20667501.413 9 108608430.610 9     -1509.374 9        55.868 9  20667504.234 6         0.000 6     -1176.136 6        37.977 6
G20  21921734.919 9 115199461.639 9      2545.255 9        55.324 9  21921735.228 6         0.000 6      1983.317 6        37.977 6
> 2019 07 03 12 01 46.0000000  0  8       0.000000000000
G07  25327822.652 9 133098560.443 9      2165.041 9        54.138 9  25327823.312 6         0.000 6      1687.045 6        37.977 6
G10  23778194.756 9 124955202.638 9      3522.868 9        54.681 9  23778198.452 6         0.000 6      2745.095 6        37.977 6
G21  21182010.691 9 111312196.772 9     -1267.892 9        55.705 9  21182009.979 6         0.000 6      -987.968 6        37.977 6
G29  24327344.168 9 127840999.597 9     -3124.036 9        54.465 9  24327345.772 6         0.000 6     -2434.317 6        37.977 6
G27  21982658.085 9 115519621.056 9      2488.332 9        55.383 9  21982660.010 6         0.000 6      1938.961 6        37.977 6
G16  20492443.653 9 107688497.922 9       528.182 9        55.979 9  20492442.826 6         0.000 6       411.570 6        37.977 6
G26  20667788.690 9 108609940.263 9     -1509.947 9        55.867 9  20667791.512 6         0.000 6     -1176.583 6        37.977 6
G20  21921250.615 9 115196916.607 9      2544.808 9        55.325 9  21921250.923 6         0.000 6      1982.968 6        37.977 6
> 2019 07 03 12 01 47.0000000  0  8       0.000000000000
G07  25327410.702 9 133096395.637 9      2164.578 9        54.138 9  25327411.362 6         0.000 6      1686.685 6        37.977 6
G10  23777524.390 9 124951679.852 9      3522.726 9        54.681 9  23777528.085 6         0.000 6      2744.984 6        37.977 6
G21  21182251.997 9 111313464.842 9     -1268.250 9        55.705 9  21182251.285 6         0.000 6      -988.247 6        37.977 6
G29  24327938.661 9 127844123.665 9     -3124.121 9        54.465 9  24327940.265 6         0.000 6     -2434.382 6        37.977 6
G27  21982184.594 9 115517132.846 9      2488.093 9        55.383 9  21982186.519 6         0.000 6      1938.775 6        37.977 6
G16  20492343.202 9 107687970.049 9       527.564 9        55.979 9  20492342.375 6         0.000 6       411.089 6        37.977 6
G26  20668076.078 9 108611450.495 9     -1510.520 9        55.867 9  20668078.900 6         0.000 6     -1177.029 6        37.977 6
G20  21920766.397 9 115194372.028 9      2544.360 9        55.325 9  21920766.705 6         0.000 6      1982.619 6        37.977 6
> 2019 07 03 12 01 48.0000000  0  8       0.000000000000
G07  25326998.841 9 133094231.297 9      2164.115 9        54.138 9  25326999.501 6         0.000 6      1686.324 6        37.977 6
G10  23776854.050 9 124948157.203 9      3522.584 9        54.681 9  23776857.745 6         0.000 6      2744.873 6        37.977 6
G21  21182493.371 9 111314733.268 9     -1268.608 9        55.704 9  21182492.659 6         0.000 6      -988.526 6        37.977 6
G29  24328533.169 9 127847247.818 9     -3124.205 9        54.465 9  24328534.774 6         0.000 6     -2434.448 6        37.977 6
G27  21981711.148 9 115514644.873 9      2487.855 9        55.383 9  21981713.073 6         0.000 6      1938.589 6        37.977 6
G16  20492242.868 9 107687442.791 9       526.946 9        55.979 9  20492242.041 6         0.000 6       410.607 6        37.977 6
G26  20668363.574 9 108612961.295 9     -1511.093 9        55.867 9  20668366.396 6         0.000 6     -1177.476 6        37.977 6
G20  21920282.263 9 115191827.892 9      2543.912 9        55.325 9  21920282.571 6         0.000 6      1982.271 6        37.977 6
> 2019 07 03 12 01 49.0000000  0  8       0.000000000000
G07  25326587.068 9 133092067.418 9      2163.652 9        54.139 9  25326587.727 6         0.000 6      1685.963 6        37.977 6
G10  23776183.738 9 124944634.701 9      3522.441 9        54.681 9  23776187.432 6         0.000 6      2744.762 6        37.977 6
G21  21182734.813 9 111316002.054 9     -1268.966 9        55.704 9  21182734.101 6         0.000 6      -988.805 6        37.977 6
G29  24329127.694 9 127850372.055 9     -3124.290 9        54.464 9  24329129.299 6         0.000 6     -2434.514 6        37.977 6
G27  21981237.748 9 115512157.141 9      2487.616 9        55.384 9  21981239.672 6         0.000 6      1938.403 6        37.977 6
G16  20492142.653 9 107686916.154 9       526.328 9        55.979 9  20492141.826 6         0.000 6       410.126 6        37.977 6
G26  20668651.180 9 108614472.673 9     -1511.666 9        55.867 9  20668654.002 6         0.000 6     -1177.922 6        37.977 6
G20  21919798.215 9 115189284.208 9      2543.465 9        55.325 9  21919798.523 6         0.000 6      1981.922 6        37.977 6
> 2019 07 03 12 01 50.0000000  0  8       0.000000000000
G07  25326175.383 9 133089904.001 9      2163.189 9        54.139 9  25326176.042 6         0.000 6      1685.603 6        37.977 6
G10  23775513.453 9 124941112.342 9      3522.299 9        54.682 9  23775517.147 6         0.000 6      2744.651 6        37.977 6
G21  21182976.323 9 111317271.199 9     -1269.324 9        55.704 9  21182975.611 6         0.000 6      -989.084 6        37.977 6
G29  24329722.234 9 127853496.376 9     -3124.374 9        54.464 9  24329723.841 6         0.000 6     -2434.580 6        37.977 6
G27  21980764.393 9 115509669.647 9      2487.377 9        55.384 9  21980766.317 6         0.000 6      1938.217 6        37.977 6
G16  20492042.555 9 107686390.135 9       525.710 9        55.979 9  20492041.728 6         0.000 6       409.644 6        37.977 6
G26  20668938.896 9 108615984.625 9     -1512.240 9        55.867 9  20668941.717 6         0.000 6     -1178.369 6        37.977 6
G20  21919314.252 9 115186740.971 9      2543.017 9        55.325 9  21919314.560 6         0.000 6      1981.573 6        37.977 6
> 2019 07 03 12 01 51.0000000  0  8       0.000000000000
G07  25325763.787 9 133087741.053 9      2162.726 9        54.139 9  25325764.446 6         0.000 6      1685.242 6        37.977 6
G10  23774843.194 9 124937590.118 9      3522.157 9        54.682 9  23774846.887 6         0.000 6      2744.540 6        37.977 6
G21  21183217.901 9 111318540.697 9     -1269.682 9        55.704 9  21183217.189 6         0.000 6      -989.363 6        37.977 6
G29  24330316.790 9 127856620.777 9     -3124.458 9        54.464 9  24330318.397 6         0.000 6     -2434.646 6        37.977 6
G27  21980291.084 9 115507182.393 9      2487.139 9        55.384 9  21980293.008 6         0.000 6      1938.031 6        37.977 6
G16  20491942.574 9 107685864.732 9       525.092 9        55.979 9  20491941.747 6         0.000 6       409.163 6        37.977 6
G26  20669226.719 9 108617497.144 9     -1512.813 9        55.867 9  20669229.541 6         0.000 6     -1178.815 6        37.977 6
G20  21918830.374 9 115184198.176 9      2542.569 9        55.325 9  21918830.681 6         0.000 6      1981.223 6        37.977 6
> 2019 07 03 12 01 52.0000000  0  8       0.000000000000
G07  25325352.278 9 133085578.562 9      2162.262 9        54.139 9  25325352.936 6         0.000 6      1684.881 6        37.977 6
G10  23774172.964 9 124934068.043 9      3522.014 9        54.682 9  23774176.656 6         0.000 6      2744.429 6        37.977 6
G21  21183459.547 9 111319810.557 9     -1270.040 9        55.704 9  21183458.835 6         0.000 6      -989.642 6        37.977 6
G29  24330911.363 9 127859745.267 9     -3124.543 9        54.464 9  24330912.970 6         0.000 6     -2434.711 6        37.977 6
G27  21979817.820 9 115504695.377 9      2486.900 9        55.384 9  21979819.744 6         0.000 6      1937.845 6        37.977 6
G16  20491842.711 9 107685339.949 9       524.474 9        55.979 9  20491841.884 6         0.000 6       408.681 6        37.977 6
G26  20669514.652 9 108619010.241 9     -1513.386 9        55.867 9  20669517.474 6         0.000 6     -1179.262 6        37.977 6
G20  21918346.582 9 115181655.836 9      2542.121 9        55.326 9  21918346.888 6         0.000 6      1980.874 6        37.977 6
> 2019 07 03 12 01 53.0000000  0  8       0.000000000000
G07  25324940.858 9 133083416.537 9      2161.799 9        54.139 9  25324941.516 6         0.000 6      1684.520 6        37.977 6
G10  23773502.760 9 124930546.107 9      3521.871 9        54.682 9  23773506.451 6         0.000 6      2744.318 6        37.977 6
G21  21183701.262 9 111321080.773 9     -1270.398 9        55.704 9  21183700.550 6         0.000 6      -989.921 6        37.977 6
G29  24331505.951 9 127862869.842 9     -3124.627 9        54.464 9  24331507.560 6         0.000 6     -2434.777 6        37.977 6
G27  21979344.601 9 115502208.597 9      2486.661 9        55.384 9  21979346.525 6         0.000 6      1937.659 6        37.977 6
G16  20491742.965 9 107684815.781 9       523.856 9        55.979 9  20491742.138 6         0.000 6       408.199 6        37.977 6
G26  20669802.693 9 108620523.907 9     -1513.959 9        55.867 9  20669805.515 6         0.000 6     -1179.708 6        37.977 6
G20  21917862.874 9 115179113.939 9      2541.672 9        55.326 9  21917863.181 6         0.000 6      1980.525 6        37.977 6
> 2019 07 03 12 01 54.0000000  0  8       0.000000000000
G07  25324529.525 9 133081254.973 9      2161.336 9        54.139 9  25324530.183 6         0.000 6      1684.159 6        37.977 6
G10  23772832.583 9 124927024.317 9      3521.728 9        54.683 9  23772836.274 6         0.000 6      2744.207 6        37.977 6
G21  21183943.044 9 111322351.349 9     -1270.756 9        55.704 9  21183942.333 6         0.000 6      -990.200 6        37.977 6
G29  24332100.556 9 127865994.501 9     -3124.712 9        54.463 9  24332102.165 6         0.000 6     -2434.843 6        37.977 6
G27  21978871.428 9 115499722.058 9      2486.422 9        55.384 9  21978873.352 6         0.000 6      1937.472 6        37.977 6
G16  20491643.337 9 107684292.235 9       523.238 9        55.979 9  20491642.511 6         0.000 6       407.718 6        37.977 6
G26  20670090.844 9 108622038.150 9     -1514.532 9        55.867 9  20670093.667 6         0.000 6     -1180.155 6        37.977 6
G20  21917379.252 9 115176572.496 9      2541.224 9        55.326 9  21917379.559 6         0.000 6      1980.176 6        37.977 6
> 2019 07 03 12 01 55.0000000  0  8       0.000000000000
G07  25324118.281 9 133079093.875 9      2160.873 9        54.139 9  25324118.939 6         0.000 6      1683.798 6        37.977 6
G10  23772162.433 9 124923502.666 9      3521.585 9        54.683 9  23772166.124 6         0.000 6      2744.095 6        37.977 6
G21  21184184.895 9 111323622.281 9     -1271.114 9        55.704 9  21184184.183 6         0.000 6      -990.478 6        37.977 6
G29  24332695.177 9 127869119.244 9     -3124.796 9        54.463 9  24332696.787 6         0.000 6     -2434.908 6        37.977 6
G27  21978398.300 9 115497235.756 9      2486.183 9        55.385 9  21978400.223 6         0.000 6      1937.286 6        37.977 6
G16  20491543.827 9 107683769.303 9       522.619 9        55.979 9  20491543.000 6         0.000 6       407.236 6        37.977 6
G26  20670379.104 9 108623552.961 9     -1515.104 9        55.866 9  20670381.926 6         0.000 6     -1180.601 6        37.977 6
G20  21916895.715 9 115174031.496 9      2540.776 9        55.326 9  21916896.021 6         0.000 6      1979.826 6        37.977 6
> 2019 07 03 12 01 56.0000000  0  8       0.000000000000
G07  25323707.125 9 133076933.238 9      2160.409 9        54.140 9  25323707.782 6         0.000 6      1683.436 6        37.977 6
G10  23771492.312 9 124919981.163 9      3521.442 9        54.683 9  23771496.001 6         0.000 6      2743.984 6        37.977 6
G21  21184426.814 9 111324893.573 9     -1271.471 9        55.704 9  21184426.102 6         0.000 6      -990.757 6        37.977 6
G29  24333289.814 9 127872244.072 9     -3124.880 9        54.463 9  24333291.424 6         0.000 6     -2434.974 6        37.977 6
G27  21977925.217 9 115494749.695 9      2485.944 9        55.385 9  21977927.141 6         0.000 6      1937.100 6        37.977 6
G16  20491444.434 9 107683246.993 9       522.001 9        55.979 9  20491443.608 6         0.000 6       406.754 6        37.977 6
G26  20670667.473 9 108625068.350 9     -1515.677 9        55.866 9  20670670.296 6         0.000 6     -1181.048 6        37.977 6
G20  21916412.265 9 115171490.949 9      2540.327 9        55.326 9  21916412.570 6         0.000 6      1979.477 6        37.977 6
> 2019 07 03 12 01 57.0000000  0  8       0.000000000000
G07  25323296.057 9 133074773.067 9      2159.946 9        54.140 9  25323296.715 6         0.000 6      1683.075 6        37.977 6
G10  23770822.216 9 124916459.798 9      3521.299 9        54.683 9  23770825.905 6         0.000 6      2743.872 6        37.977 6
G21  21184668.800 9 111326165.220 9     -1271.829 9        55.704 9  21184668.089 6         0.000 6      -991.036 6        37.977 6
G29  24333884.467 9 127875368.984 9     -3124.964 9        54.463 9  24333886.078 6         0.000 6     -2435.040 6        37.977 6
G27  21977452.180 9 115492263.871 9      2485.705 9        55.385 9  21977454.104 6         0.000 6      1936.914 6        37.977 6
G16  20491345.159 9 107682725.297 9       521.383 9        55.979 9  20491344.332 6         0.000 6       406.272 6        37.977 6
G26  20670955.950 9 108626584.307 9     -1516.250 9        55.866 9  20670958.773 6         0.000 6     -1181.494 6        37.977 6
G20  21915928.898 9 115168950.846 9      2539.879 9        55.327 9  21915929.204 6         0.000 6      1979.127 6        37.977 6
> 2019 07 03 12 01 58.0000000  0  8       0.000000000000
G07  25322885.077 9 133072613.357 9      2159.482 9        54.140 9  25322885.735 6         0.000 6      1682.714 6        37.977 6
G10  23770152.149 9 124912938.581 9      3521.156 9        54.684 9  23770155.837 6         0.000 6      2743.761 6        37.977 6
G21  21184910.855 9 111327437.227 9     -1272.187 9        55.703 9  21184910.144 6         0.000 6      -991.315 6        37.977 6
G29  24334479.136 9 127878493.980 9     -3125.049 9        54.463 9  24334480.747 6         0.000 6     -2435.105 6        37.977 6
G27  21976979.189 9 115489778.288 9      2485.466 9        55.385 9  21976981.112 6         0.000 6      1936.728 6        37.977 6
G16  20491246.002 9 107682204.224 9       520.765 9        55.979 9  20491245.175 6         0.000 6       405.791 6        37.977 6
G26  20671244.538 9 108628100.842 9     -1516.823 9        55.866 9  20671247.361 6         0.000 6     -1181.940 6        37.977 6
G20  21915445.618 9 115166411.196 9      2539.430 9        55.327 9  21915445.923 6         0.000 6      1978.778 6        37.977 6
> 2019 07 03 12 01 59.0000000  0  8       0.000000000000
G07  25322474.187 9 133070454.116 9      2159.018 9        54.140 9  25322474.844 6         0.000 6      1682.353 6        37.977 6
G10  23769482.107 9 124909417.500 9      3521.013 9        54.684 9  23769485.795 6         0.000 6      2743.649 6        37.977 6
G21  21185152.978 9 111328709.588 9     -1272.544 9        55.703 9  21185152.266 6         0.000 6      -991.593 6        37.977 6
G29  24335073.820 9 127881619.055 9     -3125.133 9        54.462 9  24335075.432 6         0.000 6     -2435.171 6        37.977 6
G27  21976506.244 9 115487292.946 9      2485.227 9        55.385 9  21976508.167 6         0.000 6      1936.541 6        37.977 6
G16  20491146.962 9 107681683.766 9       520.146 9        55.979 9  20491146.136 6         0.000 6       405.309 6        37.977 6
G26  20671533.233 9 108629617.945 9     -1517.396 9        55.866 9  20671536.056 6         0.000 6     -1182.387 6        37.977 6
G20  21914962.422 9 115163871.988 9      2538.981 9        55.327 9  21914962.727 6         0.000 6      1978.428 6        37.977 6
> 2019 07 03 12 02  0.0000000  0  8       0.000000000000
G07  25322063.383 9 133068295.332 9      2158.554 9        54.140 9  25322064.040 6         0.000 6      1681.991 6        37.977 6
G10  23768812.095 9 124905896.571 9      3520.869 9        54.684 9  23768815.782 6         0.000 6      2743.537 6        37.977 6
G21  21185395.169 9 111329982.311 9     -1272.902 9        55.703 9  21185394.457 6         0.000 6      -991.872 6        37.977 6
G29  24335668.522 9 127884744.223 9     -3125.217 9        54.462 9  24335670.134 6         0.000 6     -2435.237 6        37.977 6
G27  21976033.343 9 115484807.838 9      2484.988 9        55.386 9  21976035.266 6         0.000 6      1936.355 6        37.977 6
G16  20491048.040 9 107681163.928 9       519.528 9        55.979 9  20491047.214 6         0.000 6       404.827 6        37.977 6
G26  20671822.038 9 108631135.624 9     -1517.968 9        55.866 9  20671824.861 6         0.000 6     -1182.833 6        37.977 6
G20  21914479.313 9 115161333.237 9      2538.532 9        55.327 9  21914479.618 6         0.000 6      1978.078 6        37.977 6
