     3.00           Observation Data    M (Mixed)           RINEX VERSION / TYPE
SimGEN V6.06.00     Spirent             03-Jul-19 12:00     PGM / RUN BY / DATE 
                                                            MARKER NAME         
1                                                           MARKER NUMBER       
GROUND_CRAFT                                                MARKER TYPE         
jin4hi              Spirent                                 OBSERVER / AGENCY   
rec_num             rec_type            rec_vers            REC # / TYPE / VERS 
1                   ant_type                                ANT # / TYPE        
  1000.000                                                  INTERVAL            
  2019     7     3    12     0    1.0000000     GPS         TIME OF FIRST OBS   
  4162630.6890   664395.6770  4770569.7770                  APPROX POSITION XYZ 
        0.0000        0.0000        0.0000                  ANTENNA: DELTA H/E/N
G    8 C1C L1C D1C S1C C2C L2C D2C S2C                      SYS / # / OBS TYPES 
        0.0000        0.0000        0.0000                  ANTENNA: DELTA X/Y/Z
DBHZ                                                        SIGNAL STRENGTH UNIT
                                                            END OF HEADER       
> 2019 07 03 12 00  1.0000000  0  8       0.000000000000
G07  25371546.350 9 133328329.653 9      2213.135 9        54.123 9  25371547.034 6         0.000 6      1724.521 6        37.977 6
G10  23848750.834 9 125325976.215 9      3537.192 9        54.655 9  23848754.600 6         0.000 6      2756.254 6        37.977 6
G21  21157044.684 9 111180999.589 9     -1229.942 9        55.715 9  21157043.967 6         0.000 6      -958.397 6        37.977 6
G29  24264993.816 9 127513347.356 9     -3115.020 9        54.487 9  24264995.354 6         0.000 6     -2427.288 6        37.977 6
G27  22032634.474 9 115782248.465 9      2513.185 9        55.363 9  22032636.417 6         0.000 6      1958.326 6        37.977 6
G16  20503648.889 9 107747381.833 9       592.827 9        55.974 9  20503648.063 6         0.000 6       461.943 6        37.977 6
G26  20638235.610 9 108454637.963 9     -1449.583 9        55.880 9  20638238.420 6         0.000 6     -1129.545 6        37.977 6
G20  21972573.009 9 115466617.133 9      2591.296 9        55.304 9  21972573.347 6         0.000 6      2019.192 6        37.977 6
> 2019 07 03 12 00  2.0000000  0  8       0.000000000000
G07  25371125.238 9 133326116.696 9      2212.735 9        54.123 9  25371125.921 6         0.000 6      1724.210 6        37.977 6
G10  23848077.737 9 125322439.076 9      3537.080 9        54.655 9  23848081.502 6         0.000 6      2756.169 6        37.977 6
G21  21157278.768 9 111182229.711 9     -1230.307 9        55.715 9  21157278.051 6         0.000 6      -958.681 6        37.977 6
G29  24265586.598 9 127516462.436 9     -3115.133 9        54.487 9  24265588.137 6         0.000 6     -2427.379 6        37.977 6
G27  22032156.252 9 115779735.395 9      2512.954 9        55.363 9  22032158.194 6         0.000 6      1958.147 6        37.977 6
G16  20503536.136 9 107746789.309 9       592.214 9        55.974 9  20503535.309 6         0.000 6       461.465 6        37.977 6
G26  20638511.511 9 108456087.830 9     -1450.162 9        55.880 9  20638514.321 6         0.000 6     -1129.997 6        37.977 6
G20  21972079.942 9 115464026.051 9      2590.864 9        55.305 9  21972080.279 6         0.000 6      2018.856 6        37.977 6
> 2019 07 03 12 00  3.0000000  0  8       0.000000000000
G07  25370704.212 9 133323904.192 9      2212.281 9        54.123 9  25370704.895 6         0.000 6      1723.856 6        37.977 6
G10  23847404.666 9 125318902.072 9      3536.949 9        54.656 9  23847408.430 6         0.000 6      2756.067 6        37.977 6
G21  21157512.923 9 111183460.200 9     -1230.671 9        55.715 9  21157512.206 6         0.000 6      -958.965 6        37.977 6
G29  24266179.397 9 127519577.603 9     -3115.220 9        54.487 9  24266180.936 6         0.000 6     -2427.447 6        37.977 6
G27  22031678.075 9 115777222.560 9      2512.720 9        55.364 9  22031680.017 6         0.000 6      1957.964 6        37.977 6
G16  20503423.500 9 107746197.402 9       591.600 9        55.974 9  20503422.673 6         0.000 6       460.987 6        37.977 6
G26  20638787.522 9 108457538.278 9     -1450.739 9        55.880 9  20638790.333 6         0.000 6     -1130.446 6        37.977 6
G20  21971586.958 9 115461435.411 9      2590.426 9        55.305 9  21971587.296 6         0.000 6      2018.515 6        37.977 6
> 2019 07 03 12 00  4.0000000  0  8       0.000000000000
G07  25370283.273 9 133321692.145 9      2211.826 9        54.124 9  25370283.955 6         0.000 6      1723.502 6        37.977 6
G10  23846731.618 9 125315365.196 9      3536.818 9        54.656 9  23846735.382 6         0.000 6      2755.965 6        37.977 6
G21  21157747.146 9 111184691.050 9     -1231.035 9        55.715 9  21157746.429 6         0.000 6      -959.248 6        37.977 6
G29  24266772.212 9 127522692.856 9     -3115.307 9        54.487 9  24266773.751 6         0.000 6     -2427.515 6        37.977 6
G27  22031199.942 9 115774709.959 9      2512.485 9        55.364 9  22031201.884 6         0.000 6      1957.781 6        37.977 6
G16  20503310.980 9 107745606.106 9       590.986 9        55.974 9  20503310.153 6         0.000 6       460.509 6        37.977 6
G26  20639063.643 9 108458989.299 9     -1451.315 9        55.880 9  20639066.453 6         0.000 6     -1130.896 6        37.977 6
G20  21971094.058 9 115458845.205 9      2589.988 9        55.305 9  21971094.394 6         0.000 6      2018.174 6        37.977 6
> 2019 07 03 12 00  5.0000000  0  8       0.000000000000
G07  25369862.420 9 133319480.553 9      2211.371 9        54.124 9  25369863.102 6         0.000 6      1723.147 6        37.977 6
G10  23846058.596 9 125311828.452 9      3536.686 9        54.656 9  23846062.359 6         0.000 6      2755.862 6        37.977 6
G21  21157981.438 9 111185922.264 9     -1231.399 9        55.715 9  21157980.721 6         0.000 6      -959.532 6        37.977 6
G29  24267365.042 9 127525808.192 9     -3115.394 9        54.486 9  24267366.583 6         0.000 6     -2427.582 6        37.977 6
G27  22030721.855 9 115772197.598 9      2512.250 9        55.364 9  22030723.797 6         0.000 6      1957.598 6        37.977 6
G16  20503198.577 9 107745015.428 9       590.372 9        55.974 9  20503197.751 6         0.000 6       460.030 6        37.977 6
G26  20639339.874 9 108460440.900 9     -1451.892 9        55.879 9  20639342.684 6         0.000 6     -1131.345 6        37.977 6
G20  21970601.240 9 115456255.438 9      2589.550 9        55.305 9  21970601.577 6         0.000 6      2017.832 6        37.977 6
> 2019 07 03 12 00  6.0000000  0  8       0.000000000000
G07  25369441.654 9 133317269.416 9      2210.916 9        54.124 9  25369442.336 6         0.000 6      1722.793 6        37.977 6
G10  23845385.599 9 125308291.838 9      3536.555 9        54.656 9  23845389.361 6         0.000 6      2755.760 6        37.977 6
G21  21158215.800 9 111187153.842 9     -1231.763 9        55.714 9  21158215.083 6         0.000 6      -959.816 6        37.977 6
G29  24267957.890 9 127528923.619 9     -3115.481 9        54.486 9  24267959.431 6         0.000 6     -2427.650 6        37.977 6
G27  22030243.812 9 115769685.466 9      2512.015 9        55.364 9  22030245.754 6         0.000 6      1957.415 6        37.977 6
G16  20503086.291 9 107744425.359 9       589.758 9        55.974 9  20503085.464 6         0.000 6       459.552 6        37.977 6
G26  20639616.214 9 108461893.074 9     -1452.469 9        55.879 9  20639619.024 6         0.000 6     -1131.794 6        37.977 6
G20  21970108.506 9 115453666.107 9      2589.112 9        55.305 9  21970108.843 6         0.000 6      2017.491 6        37.977 6
> 2019 07 03 12 00  7.0000000  0  8       0.000000000000
G07  25369020.974 9 133315058.732 9      2210.461 9        54.124 9  25369021.656 6         0.000 6      1722.438 6        37.977 6
G10  23844712.628 9 125304755.360 9      3536.423 9        54.656 9  23844716.389 6         0.000 6      2755.657 6        37.977 6
G21  21158450.231 9 111188385.787 9     -1232.127 9        55.714 9  21158449.515 6         0.000 6      -960.099 6        37.977 6
G29  24268550.755 9 127532039.133 9     -3115.568 9        54.486 9  24268552.296 6         0.000 6     -2427.718 6        37.977 6
G27  22029765.814 9 115767173.571 9      2511.781 9        55.364 9  22029767.755 6         0.000 6      1957.232 6        37.977 6
G16  20502974.122 9 107743835.908 9       589.145 9        55.974 9  20502973.296 6         0.000 6       459.074 6        37.977 6
G26  20639892.664 9 108463345.830 9     -1453.045 9        55.879 9  20639895.475 6         0.000 6     -1132.244 6        37.977 6
G20  21969615.856 9 115451077.219 9      2588.674 9        55.306 9  21969616.192 6         0.000 6      2017.149 6        37.977 6
> 2019 07 03 12 00  8.0000000  0  8       0.000000000000
G07  25368600.381 9 133312848.502 9      2210.006 9        54.124 9  25368601.062 6         0.000 6      1722.083 6        37.977 6
G10  23844039.681 9 125301219.013 9      3536.292 9        54.657 9  23844043.442 6         0.000 6      2755.555 6        37.977 6
G21  21158684.732 9 111189618.095 9     -1232.491 9        55.714 9  21158684.015 6         0.000 6      -960.383 6        37.977 6
G29  24269143.636 9 127535154.734 9     -3115.654 9        54.486 9  24269145.178 6         0.000 6     -2427.785 6        37.977 6
G27  22029287.860 9 115764661.910 9      2511.546 9        55.365 9  22029289.802 6         0.000 6      1957.049 6        37.977 6
G16  20502862.070 9 107743247.070 9       588.531 9        55.974 9  20502861.244 6         0.000 6       458.595 6        37.977 6
G26  20640169.224 9 108464799.162 9     -1453.622 9        55.879 9  20640172.035 6         0.000 6     -1132.693 6        37.977 6
G20  21969123.290 9 115448488.769 9      2588.235 9        55.306 9  21969123.626 6         0.000 6      2016.808 6        37.977 6
> 2019 07 03 12 00  9.0000000  0  8       0.000000000000
G07  25368179.874 9 133310638.730 9      2209.551 9        54.124 9  25368180.556 6         0.000 6      1721.729 6        37.977 6
G10  23843366.759 9 125297682.794 9      3536.160 9        54.657 9  23843370.519 6         0.000 6      2755.452 6        37.977 6
G21  21158919.301 9 111190850.764 9     -1232.854 9        55.714 9  21158918.585 6         0.000 6      -960.666 6        37.977 6
G29  24269736.534 9 127538270.422 9     -3115.741 9        54.486 9  24269738.076 6         0.000 6     -2427.853 6        37.977 6
G27  22028809.951 9 115762150.483 9      2511.311 9        55.365 9  22028811.892 6         0.000 6      1956.866 6        37.977 6
G16  20502750.134 9 107742658.844 9       587.917 9        55.974 9  20502749.308 6         0.000 6       458.117 6        37.977 6
G26  20640445.893 9 108466253.065 9     -1454.199 9        55.879 9  20640448.704 6         0.000 6     -1133.142 6        37.977 6
G20  21968630.806 9 115445900.753 9      2587.797 9        55.306 9  21968631.141 6         0.000 6      2016.466 6        37.977 6
> 2019 07 03 12 00 10.0000000  0  8       0.000000000000
G07  25367759.454 9 133308429.411 9      2209.095 9        54.124 9  25367760.135 6         0.000 6      1721.374 6        37.977 6
G10  23842693.863 9 125294146.711 9      3536.028 9        54.657 9  23842697.622 6         0.000 6      2755.349 6        37.977 6
G21  21159153.940 9 111192083.800 9     -1233.218 9        55.714 9  21159153.224 6         0.000 6      -960.949 6        37.977 6
G29  24270329.448 9 127541386.196 9     -3115.828 9        54.485 9  24270330.991 6         0.000 6     -2427.920 6        37.977 6
G27  22028332.086 9 115759639.292 9      2511.076 9        55.365 9  22028334.028 6         0.000 6      1956.683 6        37.977 6
G16  20502638.316 9 107742071.234 9       587.302 9        55.974 9  20502637.489 6         0.000 6       457.638 6        37.977 6
G26  20640722.673 9 108467707.550 9     -1454.775 9        55.879 9  20640725.484 6         0.000 6     -1133.591 6        37.977 6
G20  21968138.406 9 115443313.180 9      2587.359 9        55.306 9  21968138.741 6         0.000 6      2016.125 6        37.977 6
> 2019 07 03 12 00 11.0000000  0  8       0.000000000000
G07  25367339.121 9 133306220.550 9      2208.640 9        54.125 9  25367339.802 6         0.000 6      1721.019 6        37.977 6
G10  23842020.991 9 125290610.755 9      3535.896 9        54.657 9  23842024.749 6         0.000 6      2755.246 6        37.977 6
G21  21159388.648 9 111193317.197 9     -1233.582 9        55.714 9  21159387.931 6         0.000 6      -961.233 6        37.977 6
G29  24270922.378 9 127544502.057 9     -3115.915 9        54.485 9  24270923.922 6         0.000 6     -2427.988 6        37.977 6
G27  22027854.267 9 115757128.335 9      2510.841 9        55.365 9  22027856.208 6         0.000 6      1956.500 6        37.977 6
G16  20502526.614 9 107741484.235 9       586.688 9        55.974 9  20502525.787 6         0.000 6       457.160 6        37.977 6
G26  20640999.561 9 108469162.607 9     -1455.352 9        55.879 9  20641002.373 6         0.000 6     -1134.041 6        37.977 6
G20  21967646.089 9 115440726.041 9      2586.920 9        55.306 9  21967646.424 6         0.000 6      2015.783 6        37.977 6
> 2019 07 03 12 00 12.0000000  0  8       0.000000000000
G07  25366918.875 9 133304012.144 9      2208.184 9        54.125 9  25366919.555 6         0.000 6      1720.664 6        37.977 6
G10  23841348.144 9 125287074.934 9      3535.764 9        54.658 9  23841351.902 6         0.000 6      2755.143 6        37.977 6
G21  21159623.425 9 111194550.958 9     -1233.945 9        55.714 9  21159622.708 6         0.000 6      -961.516 6        37.977 6
G29  24271515.324 9 127547618.000 9     -3116.001 9        54.485 9  24271516.869 6         0.000 6     -2428.056 6        37.977 6
G27  22027376.493 9 115754617.618 9      2510.606 9        55.365 9  22027378.433 6         0.000 6      1956.317 6        37.977 6
G16  20502415.029 9 107740897.856 9       586.074 9        55.974 9  20502414.203 6         0.000 6       456.681 6        37.977 6
G26  20641276.560 9 108470618.245 9     -1455.928 9        55.879 9  20641279.372 6         0.000 6     -1134.490 6        37.977 6
G20  21967153.856 9 115438139.341 9      2586.481 9        55.306 9  21967154.190 6         0.000 6      2015.441 6        37.977 6
> 2019 07 03 12 00 13.0000000  0  8       0.000000000000
G07  25366498.715 9 133301804.194 9      2207.729 9        54.125 9  25366499.396 6         0.000 6      1720.309 6        37.977 6
G10  23840675.322 9 125283539.242 9      3535.632 9        54.658 9  23840679.080 6         0.000 6      2755.040 6        37.977 6
G21  21159858.271 9 111195785.082 9     -1234.309 9        55.714 9  21159857.555 6         0.000 6      -961.799 6        37.977 6
G29  24272108.288 9 127550734.035 9     -3116.088 9        54.485 9  24272109.833 6         0.000 6     -2428.123 6        37.977 6
G27  22026898.762 9 115752107.131 9      2510.371 9        55.365 9  22026900.703 6         0.000 6      1956.134 6        37.977 6
G16  20502303.561 9 107740312.085 9       585.460 9        55.974 9  20502302.734 6         0.000 6       456.203 6        37.977 6
G26  20641553.668 9 108472074.455 9     -1456.504 9        55.878 9  20641556.480 6         0.000 6     -1134.939 6        37.977 6
G20  21966661.706 9 115435553.080 9      2586.043 9        55.307 9  21966662.040 6         0.000 6      2015.099 6        37.977 6
> 2019 07 03 12 00 14.0000000  0  8       0.000000000000
G07  25366078.642 9 133299596.697 9      2207.273 9        54.125 9  25366079.322 6         0.000 6      1719.954 6        37.977 6
G10  23840002.527 9 125280003.687 9      3535.499 9        54.658 9  23840006.283 6         0.000 6      2754.937 6        37.977 6
G21  21160093.187 9 111197019.571 9     -1234.672 9        55.714 9  21160092.470 6         0.000 6      -962.082 6        37.977 6
G29  24272701.268 9 127553850.156 9     -3116.175 9        54.485 9  24272702.814 6         0.000 6     -2428.191 6        37.977 6
G27  22026421.077 9 115749596.880 9      2510.136 9        55.366 9  22026423.017 6         0.000 6      1955.951 6        37.977 6
G16  20502192.210 9 107739726.932 9       584.846 9        55.974 9  20502191.383 6         0.000 6       455.724 6        37.977 6
G26  20641830.887 9 108473531.246 9     -1457.081 9        55.878 9  20641833.698 6         0.000 6     -1135.388 6        37.977 6
G20  21966169.640 9 115432967.261 9      2585.604 9        55.307 9  21966169.974 6         0.000 6      2014.757 6        37.977 6
> 2019 07 03 12 00 15.0000000  0  8       0.000000000000
G07  25365658.655 9 133297389.658 9      2206.818 9        54.125 9  25365659.335 6         0.000 6      1719.599 6        37.977 6
G10  23839329.755 9 125276468.261 9      3535.367 9        54.658 9  23839333.511 6         0.000 6      2754.834 6        37.977 6
G21  21160328.171 9 111198254.422 9     -1235.036 9        55.714 9  21160327.455 6         0.000 6      -962.366 6        37.977 6
G29  24273294.264 9 127556966.364 9     -3116.261 9        54.484 9  24273295.811 6         0.000 6     -2428.258 6        37.977 6
G27  22025943.436 9 115747086.863 9      2509.901 9        55.366 9  22025945.376 6         0.000 6      1955.767 6        37.977 6
G16  20502080.976 9 107739142.390 9       584.232 9        55.975 9  20502080.149 6         0.000 6       455.245 6        37.977 6
G26  20642108.214 9 108474988.608 9     -1457.657 9        55.878 9  20642111.025 6         0.000 6     -1135.837 6        37.977 6
G20  21965677.657 9 115430381.877 9      2585.165 9        55.307 9  21965677.991 6         0.000 6      2014.415 6        37.977 6
> 2019 07 03 12 00 16.0000000  0  8       0.000000000000
G07  25365238.755 9 133295183.072 9      2206.362 9        54.125 9  25365239.435 6         0.000 6      1719.244 6        37.977 6
G10  23838657.010 9 125272932.971 9      3535.234 9        54.659 9  23838660.765 6         0.000 6      2754.731 6        37.977 6
G21  21160563.225 9 111199489.639 9     -1235.399 9        55.713 9  21160562.509 6         0.000 6      -962.649 6        37.977 6
G29  24273887.278 9 127560082.658 9     -3116.348 9        54.484 9  24273888.825 6         0.000 6     -2428.326 6        37.977 6
G27  22025465.840 9 115744577.083 9      2509.665 9        55.366 9  22025467.780 6         0.000 6      1955.584 6        37.977 6
G16  20501969.858 9 107738558.466 9       583.617 9        55.975 9  20501969.032 6         0.000 6       454.767 6        37.977 6
G26  20642385.652 9 108476446.552 9     -1458.234 9        55.878 9  20642388.463 6         0.000 6     -1136.286 6        37.977 6
G20  21965185.758 9 115427796.936 9      2584.726 9        55.307 9  21965186.091 6         0.000 6      2014.073 6        37.977 6
> 2019 07 03 12 00 17.0000000  0  8       0.000000000000
G07  25364818.943 9 133292976.944 9      2205.906 9        54.125 9  25364819.622 6         0.000 6      1718.889 6        37.977 6
G10  23837984.289 9 125269397.809 9      3535.102 9        54.659 9  23837988.044 6         0.000 6      2754.628 6        37.977 6
G21  21160798.348 9 111200725.216 9     -1235.762 9        55.713 9  21160797.632 6         0.000 6      -962.932 6        37.977 6
G29  24274480.307 9 127563199.039 9     -3116.434 9        54.484 9  24274481.855 6         0.000 6     -2428.393 6        37.977 6
G27  22024988.289 9 115742067.536 9      2509.430 9        55.366 9  22024990.229 6         0.000 6      1955.401 6        37.977 6
G16  20501858.858 9 107737975.153 9       583.003 9        55.975 9  20501858.031 6         0.000 6       454.288 6        37.977 6
G26  20642663.198 9 108477905.067 9     -1458.810 9        55.878 9  20642666.010 6         0.000 6     -1136.735 6        37.977 6
G20  21964693.942 9 115425212.430 9      2584.287 9        55.307 9  21964694.275 6         0.000 6      2013.731 6        37.977 6
> 2019 07 03 12 00 18.0000000  0  8       0.000000000000
G07  25364399.216 9 133290771.270 9      2205.450 9        54.126 9  25364399.895 6         0.000 6      1718.533 6        37.977 6
G10  23837311.594 9 125265862.784 9      3534.969 9        54.659 9  23837315.348 6         0.000 6      2754.524 6        37.977 6
G21  21161033.540 9 111201961.160 9     -1236.125 9        55.713 9  21161032.824 6         0.000 6      -963.215 6        37.977 6
G29  24275073.353 9 127566315.506 9     -3116.521 9        54.484 9  24275074.901 6         0.000 6     -2428.460 6        37.977 6
G27  22024510.782 9 115739558.226 9      2509.195 9        55.366 9  22024512.722 6         0.000 6      1955.218 6        37.977 6
G16  20501747.974 9 107737392.457 9       582.389 9        55.975 9  20501747.148 6         0.000 6       453.809 6        37.977 6
G26  20642940.855 9 108479364.163 9     -1459.386 9        55.878 9  20642943.667 6         0.000 6     -1137.184 6        37.977 6
G20  21964202.210 9 115422628.367 9      2583.848 9        55.308 9  21964202.543 6         0.000 6      2013.389 6        37.977 6
> 2019 07 03 12 00 19.0000000  0  8       0.000000000000
G07  25363979.576 9 133288566.052 9      2204.994 9        54.126 9  25363980.255 6         0.000 6      1718.178 6        37.977 6
G10  23836638.924 9 125262327.892 9      3534.836 9        54.659 9  23836642.678 6         0.000 6      2754.421 6        37.977 6
G21  21161268.802 9 111203197.466 9     -1236.489 9        55.713 9  21161268.085 6         0.000 6      -963.498 6        37.977 6
G29  24275666.415 9 127569432.060 9     -3116.607 9        54.483 9  24275667.964 6         0.000 6     -2428.528 6        37.977 6
G27  22024033.321 9 115737049.151 9      2508.960 9        55.367 9  22024035.261 6         0.000 6      1955.034 6        37.977 6
G16  20501637.208 9 107736810.376 9       581.774 9        55.975 9  20501636.381 6         0.000 6       453.331 6        37.977 6
G26  20643218.622 9 108480823.836 9     -1459.962 9        55.878 9  20643221.434 6         0.000 6     -1137.633 6        37.977 6
G20  21963710.562 9 115420044.744 9      2583.408 9        55.308 9  21963710.895 6         0.000 6      2013.047 6        37.977 6
> 2019 07 03 12 00 20.0000000  0  8       0.000000000000
G07  25363560.024 9 133286361.295 9      2204.538 9        54.126 9  25363560.703 6         0.000 6      1717.823 6        37.977 6
G10  23835966.279 9 125258793.126 9      3534.703 9        54.660 9  23835970.031 6         0.000 6      2754.317 6        37.977 6
G21  21161504.131 9 111204434.131 9     -1236.852 9        55.713 9  21161503.415 6         0.000 6      -963.781 6        37.977 6
G29  24276259.493 9 127572548.696 9     -3116.694 9        54.483 9  24276261.043 6         0.000 6     -2428.595 6        37.977 6
G27  22023555.904 9 115734540.314 9      2508.724 9        55.367 9  22023557.844 6         0.000 6      1954.851 6        37.977 6
G16  20501526.558 9 107736228.907 9       581.160 9        55.975 9  20501525.731 6         0.000 6       452.852 6        37.977 6
G26  20643496.497 9 108482284.079 9     -1460.538 9        55.878 9  20643499.310 6         0.000 6     -1138.082 6        37.977 6
G20  21963218.996 9 115417461.552 9      2582.969 9        55.308 9  21963219.329 6         0.000 6      2012.704 6        37.977 6
> 2019 07 03 12 00 21.0000000  0  8       0.000000000000
G07  25363140.558 9 133284156.989 9      2204.082 9        54.126 9  25363141.237 6         0.000 6      1717.467 6        37.977 6
G10  23835293.660 9 125255258.500 9      3534.570 9        54.660 9  23835297.412 6         0.000 6      2754.213 6        37.977 6
G21  21161739.531 9 111205671.163 9     -1237.215 9        55.713 9  21161738.815 6         0.000 6      -964.064 6        37.977 6
G29  24276852.589 9 127575665.423 9     -3116.780 9        54.483 9  24276854.139 6         0.000 6     -2428.663 6        37.977 6
G27  22023078.532 9 115732031.710 9      2508.489 9        55.367 9  22023080.472 6         0.000 6      1954.667 6        37.977 6
G16  20501416.025 9 107735648.054 9       580.545 9        55.975 9  20501415.199 6         0.000 6       452.373 6        37.977 6
G26  20643774.483 9 108483744.904 9     -1461.115 9        55.878 9  20643777.296 6         0.000 6     -1138.531 6        37.977 6
G20  21962727.516 9 115414878.808 9      2582.529 9        55.308 9  21962727.848 6         0.000 6      2012.362 6        37.977 6
> 2019 07 03 12 00 22.0000000  0  8       0.000000000000
G07  25362721.179 9 133281953.141 9      2203.626 9        54.126 9  25362721.858 6         0.000 6      1717.112 6        37.977 6
G10  23834621.065 9 125251724.003 9      3534.437 9        54.660 9  23834624.817 6         0.000 6      2754.110 6        37.977 6
G21  21161974.999 9 111206908.557 9     -1237.578 9        55.713 9  21161974.283 6         0.000 6      -964.346 6        37.977 6
G29  24277445.700 9 127578782.236 9     -3116.867 9        54.483 9  24277447.251 6         0.000 6     -2428.730 6        37.977 6
G27  22022601.205 9 115729523.339 9      2508.254 9        55.367 9  22022603.144 6         0.000 6      1954.484 6        37.977 6
G16  20501305.609 9 107735067.813 9       579.931 9        55.975 9  20501304.783 6         0.000 6       451.894 6        37.977 6
G26  20644052.578 9 108485206.300 9     -1461.691 9        55.877 9  20644055.391 6         0.000 6     -1138.980 6        37.977 6
G20  21962236.118 9 115412296.499 9      2582.090 9        55.308 9  21962236.449 6         0.000 6      2012.019 6        37.977 6
> 2019 07 03 12 00 23.0000000  0  8       0.000000000000
G07  25362301.887 9 133279749.748 9      2203.169 9        54.126 9  25362302.565 6         0.000 6      1716.756 6        37.977 6
G10  23833948.497 9 125248189.643 9      3534.304 9        54.660 9  23833952.248 6         0.000 6      2754.006 6        37.977 6
G21  21162210.537 9 111208146.315 9     -1237.941 9        55.713 9  21162209.821 6         0.000 6      -964.629 6        37.977 6
G29  24278038.829 9 127581899.136 9     -3116.953 9        54.483 9  24278040.380 6         0.000 6     -2428.797 6        37.977 6
G27  22022123.922 9 115727015.206 9      2508.018 9        55.367 9  22022125.862 6         0.000 6      1954.301 6        37.977 6
G16  20501195.311 9 107734488.190 9       579.316 9        55.975 9  20501194.484 6         0.000 6       451.415 6        37.977 6
G26  20644330.784 9 108486668.277 9     -1462.267 9        55.877 9  20644333.596 6         0.000 6     -1139.429 6        37.977 6
G20  21961744.804 9 115409714.633 9      2581.650 9        55.309 9  21961745.136 6         0.000 6      2011.677 6        37.977 6
> 2019 07 03 12 00 24.0000000  0  8       0.000000000000
G07  25361882.681 9 133277546.813 9      2202.713 9        54.126 9  25361883.359 6         0.000 6      1716.401 6        37.977 6
G10  23833275.953 9 125244655.412 9      3534.171 9        54.661 9  23833279.703 6         0.000 6      2753.902 6        37.977 6
G21  21162446.143 9 111209384.434 9     -1238.304 9        55.713 9  21162445.427 6         0.000 6      -964.912 6        37.977 6
G29  24278631.973 9 127585016.122 9     -3117.040 9        54.482 9  24278633.526 6         0.000 6     -2428.865 6        37.977 6
G27  22021646.685 9 115724507.306 9      2507.783 9        55.368 9  22021648.623 6         0.000 6      1954.117 6        37.977 6
G16  20501085.128 9 107733909.178 9       578.701 9        55.975 9  20501084.302 6         0.000 6       450.936 6        37.977 6
G26  20644609.098 9 108488130.826 9     -1462.843 9        55.877 9  20644611.910 6         0.000 6     -1139.878 6        37.977 6
G20  21961253.573 9 115407133.203 9      2581.210 9        55.309 9  21961253.905 6         0.000 6      2011.334 6        37.977 6
> 2019 07 03 12 00 25.0000000  0  8       0.000000000000
G07  25361463.562 9 133275344.332 9      2202.256 9        54.127 9  25361464.240 6         0.000 6      1716.045 6        37.977 6
G10  23832603.435 9 125241121.318 9      3534.037 9        54.661 9  23832607.185 6         0.000 6      2753.798 6        37.977 6
G21  21162681.819 9 111210622.919 9     -1238.666 9        55.713 9  21162681.103 6         0.000 6      -965.195 6        37.977 6
G29  24279225.135 9 127588133.195 9     -3117.126 9        54.482 9  24279226.687 6         0.000 6     -2428.932 6        37.977 6
G27  22021169.492 9 115721999.644 9      2507.547 9        55.368 9  22021171.430 6         0.000 6      1953.934 6        37.977 6
G16  20500975.064 9 107733330.784 9       578.087 9        55.975 9  20500974.237 6         0.000 6       450.457 6        37.977 6
G26  20644887.522 9 108489593.955 9     -1463.419 9        55.877 9  20644890.335 6         0.000 6     -1140.327 6        37.977 6
G20  21960762.427 9 115404552.217 9      2580.771 9        55.309 9  21960762.758 6         0.000 6      2010.991 6        37.977 6
> 2019 07 03 12 00 26.0000000  0  8       0.000000000000
G07  25361044.531 9 133273142.310 9      2201.800 9        54.127 9  25361045.209 6         0.000 6      1715.689 6        37.977 6
G10  23831930.942 9 125237587.354 9      3533.904 9        54.661 9  23831934.691 6         0.000 6      2753.694 6        37.977 6
G21  21162917.563 9 111211861.763 9     -1239.029 9        55.713 9  21162916.848 6         0.000 6      -965.477 6        37.977 6
G29  24279818.312 9 127591250.354 9     -3117.212 9        54.482 9  24279819.865 6         0.000 6     -2428.999 6        37.977 6
G27  22020692.343 9 115719492.216 9      2507.312 9        55.368 9  22020694.282 6         0.000 6      1953.750 6        37.977 6
G16  20500865.115 9 107732753.001 9       577.472 9        55.975 9  20500864.288 6         0.000 6       449.978 6        37.977 6
G26  20645166.055 9 108491057.655 9     -1463.995 9        55.877 9  20645168.868 6         0.000 6     -1140.776 6        37.977 6
G20  21960271.364 9 115401971.667 9      2580.331 9        55.309 9  21960271.695 6         0.000 6      2010.648 6        37.977 6
> 2019 07 03 12 00 27.0000000  0  8       0.000000000000
G07  25360625.586 9 133270940.742 9      2201.343 9        54.127 9  25360626.263 6         0.000 6      1715.333 6        37.977 6
G10  23831258.475 9 125234053.528 9      3533.770 9        54.661 9  23831262.224 6         0.000 6      2753.590 6        37.977 6
G21  21163153.377 9 111213100.973 9     -1239.392 9        55.712 9  21163152.662 6         0.000 6      -965.760 6        37.977 6
G29  24280411.506 9 127594367.599 9     -3117.299 9        54.482 9  24280413.060 6         0.000 6     -2429.066 6        37.977 6
G27  22020215.240 9 115716985.024 9      2507.076 9        55.368 9  22020217.179 6         0.000 6      1953.566 6        37.977 6
G16  20500755.284 9 107732175.837 9       576.857 9        55.975 9  20500754.458 6         0.000 6       449.499 6        37.977 6
G26  20645444.699 9 108492521.936 9     -1464.571 9        55.877 9  20645447.512 6         0.000 6     -1141.225 6        37.977 6
G20  21959780.385 9 115399391.561 9      2579.890 9        55.309 9  21959780.716 6         0.000 6      2010.305 6        37.977 6
> 2019 07 03 12 00 28.0000000  0  8       0.000000000000
G07  25360206.728 9 133268739.634 9      2200.887 9        54.127 9  25360207.405 6         0.000 6      1714.977 6        37.977 6
G10  23830586.034 9 125230519.834 9      3533.636 9        54.662 9  23830589.781 6         0.000 6      2753.485 6        37.977 6
G21  21163389.260 9 111214340.544 9     -1239.755 9        55.712 9  21163388.544 6         0.000 6      -966.043 6        37.977 6
G29  24281004.716 9 127597484.926 9     -3117.385 9        54.482 9  24281006.270 6         0.000 6     -2429.134 6        37.977 6
G27  22019738.183 9 115714478.073 9      2506.841 9        55.368 9  22019740.121 6         0.000 6      1953.383 6        37.977 6
G16  20500645.571 9 107731599.288 9       576.243 9        55.975 9  20500644.744 6         0.000 6       449.020 6        37.977 6
G26  20645723.453 9 108493986.793 9     -1465.147 9        55.877 9  20645726.266 6         0.000 6     -1141.673 6        37.977 6
G20  21959289.490 9 115396811.892 9      2579.450 9        55.310 9  21959289.820 6         0.000 6      2009.962 6        37.977 6
> 2019 07 03 12 00 29.0000000  0  8       0.000000000000
G07  25359787.957 9 133266538.982 9      2200.430 9        54.127 9  25359788.634 6         0.000 6      1714.622 6        37.977 6
G10  23829913.617 9 125226986.271 9      3533.502 9        54.662 9  23829917.364 6         0.000 6      2753.381 6        37.977 6
G21  21163625.211 9 111215580.476 9     -1240.117 9        55.712 9  21163624.496 6         0.000 6      -966.325 6        37.977 6
G29  24281597.942 9 127600602.344 9     -3117.471 9        54.481 9  24281599.498 6         0.000 6     -2429.201 6        37.977 6
G27  22019261.169 9 115711971.351 9      2506.605 9        55.368 9  22019263.107 6         0.000 6      1953.199 6        37.977 6
G16  20500535.973 9 107731023.350 9       575.628 9        55.975 9  20500535.147 6         0.000 6       448.541 6        37.977 6
G26  20646002.315 9 108495452.222 9     -1465.723 9        55.877 9  20646005.128 6         0.000 6     -1142.122 6        37.977 6
G20  21958798.678 9 115394232.662 9      2579.010 9        55.310 9  21958799.008 6         0.000 6      2009.619 6        37.977 6
> 2019 07 03 12 00 30.0000000  0  8       0.000000000000
G07  25359369.273 9 133264338.784 9      2199.973 9        54.127 9  25359369.950 6         0.000 6      1714.265 6        37.977 6
G10  23829241.227 9 125223452.846 9      3533.368 9        54.662 9  23829244.973 6         0.000 6      2753.277 6        37.977 6
G21  21163861.232 9 111216820.774 9     -1240.480 9        55.712 9  21163860.517 6         0.000 6      -966.608 6        37.977 6
G29  24282191.186 9 127603719.848 9     -3117.558 9        54.481 9  24282192.741 6         0.000 6     -2429.268 6        37.977 6
G27  22018784.200 9 115709464.866 9      2506.369 9        55.369 9  22018786.138 6         0.000 6      1953.016 6        37.977 6
G16  20500426.494 9 107730448.030 9       575.013 9        55.975 9  20500425.667 6         0.000 6       448.062 6        37.977 6
G26  20646281.287 9 108496918.231 9     -1466.299 9        55.877 9  20646284.100 6         0.000 6     -1142.571 6        37.977 6
G20  21958307.950 9 115391653.877 9      2578.570 9        55.310 9  21958308.280 6         0.000 6      2009.276 6        37.977 6
> 2019 07 03 12 00 31.0000000  0  8       0.000000000000
G07  25358950.676 9 133262139.046 9      2199.516 9        54.127 9  25358951.352 6         0.000 6      1713.910 6        37.977 6
G10  23828568.861 9 125219919.551 9      3533.234 9        54.662 9  23828572.606 6         0.000 6      2753.172 6        37.977 6
G21  21164097.322 9 111218061.432 9     -1240.842 9        55.712 9  21164096.606 6         0.000 6      -966.890 6        37.977 6
G29  24282784.445 9 127606837.439 9     -3117.644 9        54.481 9  24282786.002 6         0.000 6     -2429.335 6        37.977 6
G27  22018307.276 9 115706958.616 9      2506.133 9        55.369 9  22018309.214 6         0.000 6      1952.832 6        37.977 6
G16  20500317.130 9 107729873.321 9       574.398 9        55.975 9  20500316.303 6         0.000 6       447.583 6        37.977 6
G26  20646560.368 9 108498384.810 9     -1466.874 9        55.876 9  20646563.182 6         0.000 6     -1143.019 6        37.977 6
G20  21957817.306 9 115389075.528 9      2578.129 9        55.310 9  21957817.635 6         0.000 6      2008.933 6        37.977 6
> 2019 07 03 12 00 32.0000000  0  8       0.000000000000
G07  25358532.166 9 133259939.762 9      2199.059 9        54.128 9  25358532.842 6         0.000 6      1713.553 6        37.977 6
G10  23827896.521 9 125216386.394 9      3533.100 9        54.663 9  23827900.266 6         0.000 6      2753.068 6        37.977 6
G21  21164333.481 9 111219302.455 9     -1241.205 9        55.712 9  21164332.765 6         0.000 6      -967.173 6        37.977 6
G29  24283377.721 9 127609955.115 9     -3117.730 9        54.481 9  24283379.279 6         0.000 6     -2429.403 6        37.977 6
G27  22017830.397 9 115704452.603 9      2505.898 9        55.369 9  22017832.335 6         0.000 6      1952.648 6        37.977 6
G16  20500207.884 9 107729299.231 9       573.783 9        55.975 9  20500207.058 6         0.000 6       447.104 6        37.977 6
G26  20646839.560 9 108499851.971 9     -1467.450 9        55.876 9  20646842.373 6         0.000 6     -1143.468 6        37.977 6
G20  21957326.746 9 115386497.623 9      2577.689 9        55.310 9  21957327.075 6         0.000 6      2008.590 6        37.977 6
> 2019 07 03 12 00 33.0000000  0  8       0.000000000000
G07  25358113.743 9 133257740.938 9      2198.602 9        54.128 9  25358114.418 6         0.000 6      1713.197 6        37.977 6
G10  23827224.207 9 125212853.368 9      3532.966 9        54.663 9  23827227.951 6         0.000 6      2752.963 6        37.977 6
G21  21164569.708 9 111220543.838 9     -1241.567 9        55.712 9  21164568.993 6         0.000 6      -967.455 6        37.977 6
G29  24283971.014 9 127613072.878 9     -3117.816 9        54.481 9  24283972.572 6         0.000 6     -2429.470 6        37.977 6
G27  22017353.563 9 115701946.824 9      2505.662 9        55.369 9  22017355.500 6         0.000 6      1952.465 6        37.977 6
G16  20500098.755 9 107728725.752 9       573.168 9        55.975 9  20500097.928 6         0.000 6       446.624 6        37.977 6
G26  20647118.860 9 108501319.703 9     -1468.026 9        55.876 9  20647121.674 6         0.000 6     -1143.917 6        37.977 6
G20  21956836.269 9 115383920.155 9      2577.248 9        55.311 9  21956836.598 6         0.000 6      2008.246 6        37.977 6
> 2019 07 03 12 00 34.0000000  0  8       0.000000000000
G07  25357695.406 9 133255542.569 9      2198.145 9        54.128 9  25357696.082 6         0.000 6      1712.841 6        37.977 6
G10  23826551.919 9 125209320.480 9      3532.831 9        54.663 9  23826555.662 6         0.000 6      2752.858 6        37.977 6
G21  21164806.005 9 111221785.585 9     -1241.929 9        55.712 9  21164805.290 6         0.000 6      -967.737 6        37.977 6
G29  24284564.323 9 127616190.727 9     -3117.902 9        54.480 9  24284565.881 6         0.000 6     -2429.537 6        37.977 6
G27  22016876.774 9 115699441.283 9      2505.426 9        55.369 9  22016878.711 6         0.000 6      1952.281 6        37.977 6
G16  20499989.743 9 107728152.891 9       572.553 9        55.975 9  20499988.916 6         0.000 6       446.145 6        37.977 6
G26  20647398.271 9 108502788.015 9     -1468.602 9        55.876 9  20647401.085 6         0.000 6     -1144.365 6        37.977 6
G20  21956345.877 9 115381343.132 9      2576.807 9        55.311 9  21956346.206 6         0.000 6      2007.903 6        37.977 6
> 2019 07 03 12 00 35.0000000  0  8       0.000000000000
G07  25357277.157 9 133253344.659 9      2197.688 9        54.128 9  25357277.833 6         0.000 6      1712.485 6        37.977 6
G10  23825879.655 9 125205787.722 9      3532.697 9        54.663 9  23825883.398 6         0.000 6      2752.754 6        37.977 6
G21  21165042.370 9 111223027.693 9     -1242.292 9        55.712 9  21165041.655 6         0.000 6      -968.020 6        37.977 6
G29  24285157.648 9 127619308.663 9     -3117.988 9        54.480 9  24285159.207 6         0.000 6     -2429.604 6        37.977 6
G27  22016400.029 9 115696935.976 9      2505.190 9        55.370 9  22016401.966 6         0.000 6      1952.097 6        37.977 6
G16  20499880.848 9 107727580.643 9       571.938 9        55.975 9  20499880.021 6         0.000 6       445.666 6        37.977 6
G26  20647677.791 9 108504256.898 9     -1469.177 9        55.876 9  20647680.604 6         0.000 6     -1144.814 6        37.977 6
G20  21955855.568 9 115378766.545 9      2576.367 9        55.311 9  21955855.897 6         0.000 6      2007.560 6        37.977 6
> 2019 07 03 12 00 36.0000000  0  8       0.000000000000
G07  25356858.995 9 133251147.206 9      2197.230 9        54.128 9  25356859.670 6         0.000 6      1712.128 6        37.977 6
G10  23825207.418 9 125202255.101 9      3532.562 9        54.664 9  23825211.160 6         0.000 6      2752.649 6        37.977 6
G21  21165278.805 9 111224270.163 9     -1242.654 9        55.712 9  21165278.089 6         0.000 6      -968.302 6        37.977 6
G29  24285750.989 9 127622426.679 9     -3118.075 9        54.480 9  24285752.548 6         0.000 6     -2429.671 6        37.977 6
G27  22015923.330 9 115694430.910 9      2504.954 9        55.370 9  22015925.267 6         0.000 6      1951.913 6        37.977 6
G16  20499772.071 9 107727009.014 9       571.323 9        55.975 9  20499771.244 6         0.000 6       445.187 6        37.977 6
G26  20647957.421 9 108505726.361 9     -1469.753 9        55.876 9  20647960.234 6         0.000 6     -1145.263 6        37.977 6
G20  21955365.343 9 115376190.401 9      2575.926 9        55.311 9  21955365.671 6         0.000 6      2007.216 6        37.977 6
> 2019 07 03 12 00 37.0000000  0  8       0.000000000000
G07  25356440.920 9 133248950.209 9      2196.773 9        54.128 9  25356441.595 6         0.000 6      1711.772 6        37.977 6
G10  23824535.206 9 125198722.616 9      3532.428 9        54.664 9  23824538.948 6         0.000 6      2752.544 6        37.977 6
G21  21165515.308 9 111225512.997 9     -1243.016 9        55.711 9  21165514.593 6         0.000 6      -968.584 6        37.977 6
G29  24286344.347 9 127625544.786 9     -3118.161 9        54.480 9  24286345.907 6         0.000 6     -2429.738 6        37.977 6
G27  22015446.676 9 115691926.076 9      2504.718 9        55.370 9  22015448.613 6         0.000 6      1951.729 6        37.977 6
G16  20499663.410 9 107726437.999 9       570.708 9        55.976 9  20499662.583 6         0.000 6       444.707 6        37.977 6
G26  20648237.160 9 108507196.400 9     -1470.329 9        55.876 9  20648239.974 6         0.000 6     -1145.711 6        37.977 6
G20  21954875.203 9 115373614.700 9      2575.485 9        55.311 9  21954875.531 6         0.000 6      2006.872 6        37.977 6
> 2019 07 03 12 00 38.0000000  0  8       0.000000000000
G07  25356022.932 9 133246753.671 9      2196.315 9        54.128 9  25356023.606 6         0.000 6      1711.415 6        37.977 6
G10  23823863.019 9 125195190.263 9      3532.293 9        54.664 9  23823866.760 6         0.000 6      2752.439 6        37.977 6
G21  21165751.880 9 111226756.191 9     -1243.378 9        55.711 9  21165751.165 6         0.000 6      -968.866 6        37.977 6
G29  24286937.721 9 127628662.980 9     -3118.247 9        54.479 9  24286939.282 6         0.000 6     -2429.805 6        37.977 6
G27  22014970.066 9 115689421.477 9      2504.482 9        55.370 9  22014972.002 6         0.000 6      1951.545 6        37.977 6
G16  20499554.866 9 107725867.595 9       570.093 9        55.976 9  20499554.039 6         0.000 6       444.228 6        37.977 6
G26  20648517.008 9 108508667.010 9     -1470.904 9        55.876 9  20648519.822 6         0.000 6     -1146.160 6        37.977 6
G20  21954385.146 9 115371039.436 9      2575.044 9        55.311 9  21954385.473 6         0.000 6      2006.529 6        37.977 6
> 2019 07 03 12 00 39.0000000  0  8       0.000000000000
G07  25355605.030 9 133244557.588 9      2195.858 9        54.129 9  25355605.705 6         0.000 6      1711.059 6        37.977 6
G10  23823190.859 9 125191658.048 9      3532.158 9        54.664 9  23823194.600 6         0.000 6      2752.334 6        37.977 6
G21  21165988.522 9 111227999.749 9     -1243.740 9        55.711 9  21165987.807 6         0.000 6      -969.148 6        37.977 6
G29  24287531.112 9 127631781.260 9     -3118.333 9        54.479 9  24287532.674 6         0.000 6     -2429.872 6        37.977 6
G27  22014493.501 9 115686917.115 9      2504.246 9        55.370 9  22014495.438 6         0.000 6      1951.361 6        37.977 6
G16  20499446.439 9 107725297.810 9       569.477 9        55.976 9  20499445.613 6         0.000 6       443.749 6        37.977 6
G26  20648796.967 9 108510138.200 9     -1471.480 9        55.875 9  20648799.781 6         0.000 6     -1146.608 6        37.977 6
G20  21953895.173 9 115368464.618 9      2574.602 9        55.312 9  21953895.500 6         0.000 6      2006.185 6        37.977 6
> 2019 07 03 12 00 40.0000000  0  8       0.000000000000
G07  25355187.216 9 133242361.965 9      2195.400 9        54.129 9  25355187.891 6         0.000 6      1710.702 6        37.977 6
G10  23822518.724 9 125188125.964 9      3532.023 9        54.665 9  23822522.464 6         0.000 6      2752.228 6        37.977 6
G21  21166225.232 9 111229243.667 9     -1244.102 9        55.711 9  21166224.516 6         0.000 6      -969.430 6        37.977 6
G29  24288124.519 9 127634899.625 9     -3118.419 9        54.479 9  24288126.081 6         0.000 6     -2429.939 6        37.977 6
G27  22014016.981 9 115684412.988 9      2504.010 9        55.371 9  22014018.917 6         0.000 6      1951.178 6        37.977 6
G16  20499338.129 9 107724728.638 9       568.862 9        55.976 9  20499337.303 6         0.000 6       443.269 6        37.977 6
G26  20649077.034 9 108511609.961 9     -1472.055 9        55.875 9  20649079.848 6         0.000 6     -1147.056 6        37.977 6
G20  21953405.284 9 115365890.237 9      2574.161 9        55.312 9  21953405.611 6         0.000 6      2005.841 6        37.977 6
> 2019 07 03 12 00 41.0000000  0  8       0.000000000000
G07  25354769.489 9 133240166.798 9      2194.942 9        54.129 9  25354770.163 6         0.000 6      1710.346 6        37.977 6
G10  23821846.615 9 125184594.019 9      3531.888 9        54.665 9  23821850.354 6         0.000 6      2752.123 6        37.977 6
G21  21166462.011 9 111230487.950 9     -1244.464 9        55.711 9  21166461.296 6         0.000 6      -969.712 6        37.977 6
G29  24288717.943 9 127638018.077 9     -3118.505 9        54.479 9  24288719.506 6         0.000 6     -2430.006 6        37.977 6
G27  22013540.506 9 115681909.098 9      2503.774 9        55.371 9  22013542.442 6         0.000 6      1950.994 6        37.977 6
G16  20499229.937 9 107724160.083 9       568.247 9        55.976 9  20499229.110 6         0.000 6       442.790 6        37.977 6
G26  20649357.211 9 108513082.302 9     -1472.631 9        55.875 9  20649360.026 6         0.000 6     -1147.505 6        37.977 6
G20  21952915.479 9 115363316.301 9      2573.720 9        55.312 9  21952915.806 6         0.000 6      2005.497 6        37.977 6
> 2019 07 03 12 00 42.0000000  0  8       0.000000000000
G07  25354351.850 9 133237972.091 9      2194.485 9        54.129 9  25354352.524 6         0.000 6      1709.989 6        37.977 6
G10  23821174.531 9 125181062.205 9      3531.753 9        54.665 9  23821178.270 6         0.000 6      2752.018 6        37.977 6
G21  21166698.858 9 111231732.592 9     -1244.826 9        55.711 9  21166698.143 6         0.000 6      -969.994 6        37.977 6
G29  24289311.383 9 127641136.615 9     -3118.591 9        54.479 9  24289312.946 6         0.000 6     -2430.073 6        37.977 6
G27  22013064.076 9 115679405.443 9      2503.538 9        55.371 9  22013066.012 6         0.000 6      1950.810 6        37.977 6
G16  20499121.861 9 107723592.141 9       567.631 9        55.976 9  20499121.034 6         0.000 6       442.310 6        37.977 6
G26  20649637.497 9 108514555.214 9     -1473.206 9        55.875 9  20649640.312 6         0.000 6     -1147.953 6        37.977 6
G20  21952425.758 9 115360742.802 9      2573.278 9        55.312 9  21952426.084 6         0.000 6      2005.153 6        37.977 6
> 2019 07 03 12 00 43.0000000  0  8       0.000000000000
G07  25353934.297 9 133235777.839 9      2194.027 9        54.129 9  25353934.970 6         0.000 6      1709.632 6        37.977 6
G10  23820502.474 9 125177530.531 9      3531.617 9        54.665 9  23820506.212 6         0.000 6      2751.912 6        37.977 6
G21  21166935.775 9 111232977.598 9     -1245.188 9        55.711 9  21166935.060 6         0.000 6      -970.276 6        37.977 6
G29  24289904.839 9 127644255.239 9     -3118.677 9        54.478 9  24289906.403 6         0.000 6     -2430.140 6        37.977 6
G27  22012587.691 9 115676902.026 9      2503.302 9        55.371 9  22012589.627 6         0.000 6      1950.625 6        37.977 6
G16  20499013.903 9 107723024.817 9       567.016 9        55.976 9  20499013.076 6         0.000 6       441.831 6        37.977 6
G26  20649917.894 9 108516028.706 9     -1473.782 9        55.875 9  20649920.709 6         0.000 6     -1148.402 6        37.977 6
G20  21951936.121 9 115358169.749 9      2572.837 9        55.312 9  21951936.447 6         0.000 6      2004.809 6        37.977 6
> 2019 07 03 12 00 44.0000000  0  8       0.000000000000
G07  25353516.832 9 133233584.050 9      2193.569 9        54.129 9  25353517.505 6         0.000 6      1709.275 6        37.977 6
G10  23819830.441 9 125173998.986 9      3531.482 9        54.666 9  23819834.178 6         0.000 6      2751.807 6        37.977 6
G21  21167172.760 9 111234222.961 9     -1245.550 9        55.711 9  21167172.045 6         0.000 6      -970.558 6        37.977 6
G29  24290498.311 9 127647373.943 9     -3118.763 9        54.478 9  24290499.875 6         0.000 6     -2430.207 6        37.977 6
G27  22012111.351 9 115674398.847 9      2503.066 9        55.371 9  22012113.287 6         0.000 6      1950.441 6        37.977 6
G16  20498906.062 9 107722458.107 9       566.401 9        55.976 9  20498905.235 6         0.000 6       441.351 6        37.977 6
G26  20650198.399 9 108517502.769 9     -1474.357 9        55.875 9  20650201.214 6         0.000 6     -1148.850 6        37.977 6
G20  21951446.568 9 115355597.131 9      2572.395 9        55.313 9  21951446.893 6         0.000 6      2004.465 6        37.977 6
> 2019 07 03 12 00 45.0000000  0  8       0.000000000000
G07  25353099.453 9 133231390.714 9      2193.111 9        54.129 9  25353100.127 6         0.000 6      1708.918 6        37.977 6
G10  23819158.436 9 125170467.583 9      3531.346 9        54.666 9  23819162.172 6         0.000 6      2751.701 6        37.977 6
G21  21167409.815 9 111235468.691 9     -1245.911 9        55.711 9  21167409.100 6         0.000 6      -970.840 6        37.977 6
G29  24291091.800 9 127650492.739 9     -3118.849 9        54.478 9  24291093.365 6         0.000 6     -2430.274 6        37.977 6
G27  22011635.056 9 115671895.902 9      2502.829 9        55.371 9  22011636.992 6         0.000 6      1950.257 6        37.977 6
G16  20498798.338 9 107721892.014 9       565.785 9        55.976 9  20498797.511 6         0.000 6       440.872 6        37.977 6
G26  20650479.015 9 108518977.412 9     -1474.932 9        55.875 9  20650481.830 6         0.000 6     -1149.298 6        37.977 6
G20  21950957.099 9 115353024.961 9      2571.953 9        55.313 9  21950957.425 6         0.000 6      2004.120 6        37.977 6
> 2019 07 03 12 00 46.0000000  0  8       0.000000000000
G07  25352682.162 9 133229197.838 9      2192.653 9        54.130 9  25352682.835 6         0.000 6      1708.561 6        37.977 6
G10  23818486.455 9 125166936.311 9      3531.211 9        54.666 9  23818490.190 6         0.000 6      2751.595 6        37.977 6
G21  21167646.938 9 111236714.780 9     -1246.273 9        55.711 9  21167646.223 6         0.000 6      -971.122 6        37.977 6
G29  24291685.305 9 127653611.620 9     -3118.935 9        54.478 9  24291686.871 6         0.000 6     -2430.341 6        37.977 6
G27  22011158.806 9 115669393.191 9      2502.593 9        55.372 9  22011160.741 6         0.000 6      1950.073 6        37.977 6
G16  20498690.731 9 107721326.534 9       565.170 9        55.976 9  20498689.904 6         0.000 6       440.392 6        37.977 6
G26  20650759.739 9 108520452.625 9     -1475.508 9        55.875 9  20650762.554 6         0.000 6     -1149.747 6        37.977 6
G20  21950467.714 9 115350453.230 9      2571.511 9        55.313 9  21950468.039 6         0.000 6      2003.776 6        37.977 6
> 2019 07 03 12 00 47.0000000  0  8       0.000000000000
G07  25352264.958 9 133227005.418 9      2192.194 9        54.130 9  25352265.631 6         0.000 6      1708.204 6        37.977 6
G10  23817814.501 9 125163405.179 9      3531.075 9        54.666 9  23817818.236 6         0.000 6      2751.489 6        37.977 6
G21  21167884.130 9 111237961.233 9     -1246.635 9        55.710 9  21167883.415 6         0.000 6      -971.404 6        37.977 6
G29  24292278.827 9 127656730.587 9     -3119.021 9        54.478 9  24292280.393 6         0.000 6     -2430.408 6        37.977 6
G27  22010682.601 9 115666890.719 9      2502.357 9        55.372 9  22010684.536 6         0.000 6      1949.889 6        37.977 6
G16  20498583.241 9 107720761.672 9       564.554 9        55.976 9  20498582.414 6         0.000 6       439.912 6        37.977 6
G26  20651040.573 9 108521928.419 9     -1476.083 9        55.875 9  20651043.388 6         0.000 6     -1150.195 6        37.977 6
G20  21949978.414 9 115347881.944 9      2571.069 9        55.313 9  21949978.739 6         0.000 6      2003.432 6        37.977 6
> 2019 07 03 12 00 48.0000000  0  8       0.000000000000
G07  25351847.841 9 133224813.457 9      2191.736 9        54.130 9  25351848.513 6         0.000 6      1707.847 6        37.977 6
G10  23817142.573 9 125159874.183 9      3530.939 9        54.667 9  23817146.307 6         0.000 6      2751.384 6        37.977 6
G21  21168121.391 9 111239208.048 9     -1246.996 9        55.710 9  21168120.676 6         0.000 6      -971.685 6        37.977 6
G29  24292872.365 9 127659849.641 9     -3119.106 9        54.477 9  24292873.932 6         0.000 6     -2430.475 6        37.977 6
G27  22010206.440 9 115664388.483 9      2502.120 9        55.372 9  22010208.375 6         0.000 6      1949.705 6        37.977 6
G16  20498475.868 9 107720197.426 9       563.938 9        55.976 9  20498475.042 6         0.000 6       439.433 6        37.977 6
G26  20651321.517 9 108523404.788 9     -1476.658 9        55.874 9  20651324.332 6         0.000 6     -1150.643 6        37.977 6
G20  21949489.198 9 115345311.100 9      2570.627 9        55.313 9  21949489.522 6         0.000 6      2003.087 6        37.977 6
> 2019 07 03 12 00 49.0000000  0  8       0.000000000000
G07  25351430.811 9 133222621.956 9      2191.278 9        54.130 9  25351431.484 6         0.000 6      1707.490 6        37.977 6
G10  23816470.669 9 125156343.318 9      3530.803 9        54.667 9  23816474.403 6         0.000 6      2751.278 6        37.977 6
G21  21168358.721 9 111240455.221 9     -1247.358 9        55.710 9  21168358.006 6         0.000 6      -971.967 6        37.977 6
G29  24293465.919 9 127662968.780 9     -3119.192 9        54.477 9  24293467.487 6         0.000 6     -2430.542 6        37.977 6
G27  22009730.325 9 115661886.482 9      2501.884 9        55.372 9  22009732.260 6         0.000 6      1949.521 6        37.977 6
G16  20498368.612 9 107719633.792 9       563.323 9        55.976 9  20498367.786 6         0.000 6       438.953 6        37.977 6
G26  20651602.570 9 108524881.727 9     -1477.233 9        55.874 9  20651605.385 6         0.000 6     -1151.091 6        37.977 6
G20  21949000.065 9 115342740.694 9      2570.185 9        55.314 9  21949000.389 6         0.000 6      2002.743 6        37.977 6
> 2019 07 03 12 00 50.0000000  0  8       0.000000000000
G07  25351013.869 9 133220430.911 9      2190.819 9        54.130 9  25351014.541 6         0.000 6      1707.133 6        37.977 6
G10  23815798.793 9 125152812.594 9      3530.667 9        54.667 9  23815802.526 6         0.000 6      2751.172 6        37.977 6
G21  21168596.119 9 111241702.759 9     -1247.719 9        55.710 9  21168595.404 6         0.000 6      -972.249 6        37.977 6
G29  24294059.490 9 127666088.005 9     -3119.278 9        54.477 9  24294061.058 6         0.000 6     -2430.609 6        37.977 6
G27  22009254.255 9 115659384.719 9      2501.648 9        55.372 9  22009256.189 6         0.000 6      1949.336 6        37.977 6
G16  20498261.474 9 107719070.777 9       562.707 9        55.976 9  20498260.647 6         0.000 6       438.473 6        37.977 6
G26  20651883.733 9 108526359.246 9     -1477.809 9        55.874 9  20651886.548 6         0.000 6     -1151.540 6        37.977 6
G20  21948511.017 9 115340170.735 9      2569.743 9        55.314 9  21948511.341 6         0.000 6      2002.398 6        37.977 6
> 2019 07 03 12 00 51.0000000  0  8       0.000000000000
G07  25350597.014 9 133218240.330 9      2190.361 9        54.130 9  25350597.686 6         0.000 6      1706.776 6        37.977 6
G10  23815126.941 9 125149281.999 9      3530.531 9        54.667 9  23815130.673 6         0.000 6      2751.066 6        37.977 6
G21  21168833.586 9 111242950.653 9     -1248.080 9        55.710 9  21168832.871 6         0.000 6      -972.530 6        37.977 6
G29  24294653.076 9 127669207.310 9     -3119.364 9        54.477 9  24294654.645 6         0.000 6     -2430.676 6        37.977 6
G27  22008778.230 9 115656883.194 9      2501.411 9        55.373 9  22008780.164 6         0.000 6      1949.152 6        37.977 6
G16  20498154.453 9 107718508.376 9       562.092 9        55.976 9  20498153.626 6         0.000 6       437.993 6        37.977 6
G26  20652165.004 9 108527837.336 9     -1478.384 9        55.874 9  20652167.820 6         0.000 6     -1151.988 6        37.977 6
G20  21948022.052 9 115337601.210 9      2569.301 9        55.314 9  21948022.375 6         0.000 6      2002.053 6        37.977 6
> 2019 07 03 12 00 52.0000000  0  8       0.000000000000
G07  25350180.246 9 133216050.201 9      2189.902 9        54.130 9  25350180.918 6         0.000 6      1706.418 6        37.977 6
G10  23814455.116 9 125145751.547 9      3530.394 9        54.668 9  23814458.848 6         0.000 6      2750.959 6        37.977 6
G21  21169071.122 9 111244198.914 9     -1248.442 9        55.710 9  21169070.407 6         0.000 6      -972.812 6        37.977 6
G29  24295246.679 9 127672326.707 9     -3119.450 9        54.477 9  24295248.249 6         0.000 6     -2430.742 6        37.977 6
G27  22008302.250 9 115654381.904 9      2501.175 9        55.373 9  22008304.184 6         0.000 6      1948.968 6        37.977 6
G16  20498047.549 9 107717946.592 9       561.476 9        55.976 9  20498046.722 6         0.000 6       437.514 6        37.977 6
G26  20652446.386 9 108529316.005 9     -1478.959 9        55.874 9  20652449.202 6         0.000 6     -1152.436 6        37.977 6
G20  21947533.172 9 115335032.136 9      2568.858 9        55.314 9  21947533.496 6         0.000 6      2001.709 6        37.977 6
> 2019 07 03 12 00 53.0000000  0  8       0.000000000000
G07  25349763.566 9 133213860.535 9      2189.444 9        54.131 9  25349764.237 6         0.000 6      1706.061 6        37.977 6
G10  23813783.317 9 125142221.227 9      3530.258 9        54.668 9  23813787.048 6         0.000 6      2750.853 6        37.977 6
G21  21169308.726 9 111245447.533 9     -1248.803 9        55.710 9  21169308.012 6         0.000 6      -973.093 6        37.977 6
G29  24295840.299 9 127675446.189 9     -3119.535 9        54.476 9  24295841.869 6         0.000 6     -2430.809 6        37.977 6
G27  22007826.314 9 115651880.849 9      2500.938 9        55.373 9  22007828.248 6         0.000 6      1948.784 6        37.977 6
G16  20497940.762 9 107717385.421 9       560.860 9        55.976 9  20497939.935 6         0.000 6       437.034 6        37.977 6
G26  20652727.876 9 108530795.245 9     -1479.534 9        55.874 9  20652730.692 6         0.000 6     -1152.884 6        37.977 6
G20  21947044.376 9 115332463.499 9      2568.416 9        55.314 9  21947044.699 6         0.000 6      2001.364 6        37.977 6
> 2019 07 03 12 00 54.0000000  0  8       0.000000000000
G07  25349346.972 9 133211671.324 9      2188.985 9        54.131 9  25349347.643 6         0.000 6      1705.704 6        37.977 6
G10  23813111.544 9 125138691.048 9      3530.121 9        54.668 9  23813115.274 6         0.000 6      2750.747 6        37.977 6
G21  21169546.400 9 111246696.516 9     -1249.164 9        55.710 9  21169545.686 6         0.000 6      -973.375 6        37.977 6
G29  24296433.935 9 127678565.757 9     -3119.621 9        54.476 9  24296435.506 6         0.000 6     -2430.876 6        37.977 6
G27  22007350.424 9 115649380.032 9      2500.701 9        55.373 9  22007352.358 6         0.000 6      1948.599 6        37.977 6
G16  20497834.092 9 107716824.869 9       560.244 9        55.976 9  20497833.265 6         0.000 6       436.554 6        37.977 6
G26  20653009.477 9 108532275.065 9     -1480.109 9        55.874 9  20653012.293 6         0.000 6     -1153.332 6        37.977 6
G20  21946555.665 9 115329895.309 9      2567.973 9        55.315 9  21946555.988 6         0.000 6      2001.019 6        37.977 6
> 2019 07 03 12 00 55.0000000  0  8       0.000000000000
G07  25348930.466 9 133209482.574 9      2188.526 9        54.131 9  25348931.137 6         0.000 6      1705.346 6        37.977 6
G10  23812439.796 9 125135161.001 9      3529.985 9        54.668 9  23812443.526 6         0.000 6      2750.640 6        37.977 6
G21  21169784.142 9 111247945.857 9     -1249.525 9        55.710 9  21169783.427 6         0.000 6      -973.656 6        37.977 6
G29  24297027.587 9 127681685.410 9     -3119.707 9        54.476 9  24297029.159 6         0.000 6     -2430.943 6        37.977 6
G27  22006874.578 9 115646879.449 9      2500.465 9        55.373 9  22006876.512 6         0.000 6      1948.415 6        37.977 6
G16  20497727.539 9 107716264.930 9       559.628 9        55.976 9  20497726.712 6         0.000 6       436.074 6        37.977 6
G26  20653291.186 9 108533755.454 9     -1480.684 9        55.874 9  20653294.002 6         0.000 6     -1153.780 6        37.977 6
G20  21946067.037 9 115327327.558 9      2567.530 9        55.315 9  21946067.360 6         0.000 6      2000.674 6        37.977 6
> 2019 07 03 12 00 56.0000000  0  8       0.000000000000
G07  25348514.047 9 133207294.281 9      2188.067 9        54.131 9  25348514.718 6         0.000 6      1704.989 6        37.977 6
G10  23811768.076 9 125131631.095 9      3529.848 9        54.669 9  23811771.805 6         0.000 6      2750.534 6        37.977 6
G21  21170021.953 9 111249195.562 9     -1249.886 9        55.710 9  21170021.239 6         0.000 6      -973.938 6        37.977 6
G29  24297621.256 9 127684805.149 9     -3119.792 9        54.476 9  24297622.828 6         0.000 6     -2431.010 6        37.977 6
G27  22006398.778 9 115644379.106 9      2500.228 9        55.374 9  22006400.712 6         0.000 6      1948.230 6        37.977 6
G16  20497621.104 9 107715705.609 9       559.012 9        55.976 9  20497620.277 6         0.000 6       435.594 6        37.977 6
G26  20653573.006 9 108535236.424 9     -1481.259 9        55.873 9  20653575.822 6         0.000 6     -1154.228 6        37.977 6
G20  21945578.495 9 115324760.254 9      2567.087 9        55.315 9  21945578.817 6         0.000 6      2000.329 6        37.977 6
> 2019 07 03 12 00 57.0000000  0  8       0.000000000000
G07  25348097.715 9 133205106.447 9      2187.608 9        54.131 9  25348098.386 6         0.000 6      1704.631 6        37.977 6
G10  23811096.381 9 125128101.326 9      3529.711 9        54.669 9  23811100.109 6         0.000 6      2750.427 6        37.977 6
G21  21170259.833 9 111250445.629 9     -1250.247 9        55.709 9  21170259.119 6         0.000 6      -974.219 6        37.977 6
G29  24298214.941 9 127687924.974 9     -3119.878 9        54.475 9  24298216.513 6         0.000 6     -2431.076 6        37.977 6
G27  22005923.023 9 115641878.998 9      2499.991 9        55.374 9  22005924.957 6         0.000 6      1948.046 6        37.977 6
G16  20497514.786 9 107715146.905 9       558.396 9        55.976 9  20497513.959 6         0.000 6       435.114 6        37.977 6
G26  20653854.934 9 108536717.969 9     -1481.834 9        55.873 9  20653857.751 6         0.000 6     -1154.676 6        37.977 6
G20  21945090.036 9 115322193.393 9      2566.644 9        55.315 9  21945090.358 6         0.000 6      1999.984 6        37.977 6
> 2019 07 03 12 00 58.0000000  0  8       0.000000000000
G07  25347681.471 9 133202919.074 9      2187.150 9        54.131 9  25347682.142 6         0.000 6      1704.273 6        37.977 6
G10  23810424.711 9 125124571.690 9      3529.574 9        54.669 9  23810428.439 6         0.000 6      2750.320 6        37.977 6
G21  21170497.781 9 111251696.053 9     -1250.608 9        55.709 9  21170497.067 6         0.000 6      -974.500 6        37.977 6
G29  24298808.642 9 127691044.885 9     -3119.964 9        54.475 9  24298810.215 6         0.000 6     -2431.143 6        37.977 6
G27  22005447.313 9 115639379.126 9      2499.755 9        55.374 9  22005449.246 6         0.000 6      1947.862 6        37.977 6
G16  20497408.585 9 107714588.813 9       557.780 9        55.976 9  20497407.758 6         0.000 6       434.634 6        37.977 6
G26  20654136.972 9 108538200.084 9     -1482.409 9        55.873 9  20654139.788 6         0.000 6     -1155.124 6        37.977 6
G20  21944601.661 9 115319626.970 9      2566.201 9        55.315 9  21944601.983 6         0.000 6      1999.639 6        37.977 6
> 2019 07 03 12 00 59.0000000  0  8       0.000000000000
G07  25347265.315 9 133200732.160 9      2186.690 9        54.131 9  25347265.985 6         0.000 6      1703.915 6        37.977 6
G10  23809753.068 9 125121042.192 9      3529.437 9        54.669 9  23809756.795 6         0.000 6      2750.214 6        37.977 6
G21  21170735.798 9 111252946.839 9     -1250.969 9        55.709 9  21170735.083 6         0.000 6      -974.781 6        37.977 6
G29  24299402.358 9 127694164.876 9     -3120.049 9        54.475 9  24299403.932 6         0.000 6     -2431.210 6        37.977 6
G27  22004971.649 9 115636879.496 9      2499.518 9        55.374 9  22004973.582 6         0.000 6      1947.677 6        37.977 6
G16  20497302.502 9 107714031.342 9       557.164 9        55.977 9  20497301.675 6         0.000 6       434.154 6        37.977 6
G26  20654419.120 9 108539682.778 9     -1482.984 9        55.873 9  20654421.936 6         0.000 6     -1155.572 6        37.977 6
G20  21944113.371 9 115317060.991 9      2565.758 9        55.316 9  21944113.693 6         0.000 6      1999.293 6        37.977 6
> 2019 07 03 12 01  0.0000000  0  8       0.000000000000
G07  25346849.246 9 133198545.706 9      2186.231 9        54.132 9  25346849.916 6         0.000 6      1703.558 6        37.977 6
G10  23809081.451 9 125117512.830 9      3529.300 9        54.669 9  23809085.177 6         0.000 6      2750.107 6        37.977 6
G21  21170973.883 9 111254197.986 9     -1251.330 9        55.709 9  21170973.169 6         0.000 6      -975.063 6        37.977 6
G29  24299996.092 9 127697284.958 9     -3120.135 9        54.475 9  24299997.667 6         0.000 6     -2431.276 6        37.977 6
G27  22004496.028 9 115634380.097 9      2499.281 9        55.374 9  22004497.961 6         0.000 6      1947.492 6        37.977 6
G16  20497196.535 9 107713474.483 9       556.548 9        55.977 9  20497195.708 6         0.000 6       433.674 6        37.977 6
G26  20654701.376 9 108541166.042 9     -1483.558 9        55.873 9  20654704.192 6         0.000 6     -1156.020 6        37.977 6
G20  21943625.165 9 115314495.455 9      2565.315 9        55.316 9  21943625.486 6         0.000 6      1998.948 6        37.977 6
> 2019 07 03 12 01  1.0000000  0  8       0.000000000000
G07  25346433.264 9 133196359.708 9      2185.772 9        54.132 9  25346433.933 6         0.000 6      1703.200 6        37.977 6
G10  23808409.860 9 125113983.609 9      3529.163 9        54.670 9  23808413.586 6         0.000 6      2750.000 6        37.977 6
G21  21171212.038 9 111255449.496 9     -1251.691 9        55.709 9  21171211.324 6         0.000 6      -975.344 6        37.977 6
G29  24300589.842 9 127700405.125 9     -3120.220 9        54.475 9  24300591.417 6         0.000 6     -2431.343 6        37.977 6
G27  22004020.453 9 115631880.937 9      2499.044 9        55.374 9  22004022.386 6         0.000 6      1947.308 6        37.977 6
G16  20497090.686 9 107712918.242 9       555.932 9        55.977 9  20497089.859 6         0.000 6       433.194 6        37.977 6
G26  20654983.742 9 108542649.886 9     -1484.133 9        55.873 9  20654986.559 6         0.000 6     -1156.468 6        37.977 6
G20  21943137.044 9 115311930.366 9      2564.872 9        55.316 9  21943137.365 6         0.000 6      1998.603 6        37.977 6
> 2019 07 03 12 01  2.0000000  0  8       0.000000000000
G07  25346017.369 9 133194174.172 9      2185.313 9        54.132 9  25346018.039 6         0.000 6      1702.842 6        37.977 6
G10  23807738.295 9 125110454.521 9      3529.026 9        54.670 9  23807742.020 6         0.000 6      2749.893 6        37.977 6
G21  21171450.261 9 111256701.364 9     -1252.052 9        55.709 9  21171449.546 6         0.000 6      -975.625 6        37.977 6
G29  24301183.608 9 127703525.378 9     -3120.306 9        54.474 9  24301185.184 6         0.000 6     -2431.410 6        37.977 6
G27  22003544.923 9 115629382.012 9      2498.807 9        55.375 9  22003546.856 6         0.000 6      1947.123 6        37.977 6
G16  20496984.953 9 107712362.615 9       555.316 9        55.977 9  20496984.127 6         0.000 6       432.714 6        37.977 6
G26  20655266.217 9 108544134.300 9     -1484.708 9        55.873 9  20655269.034 6         0.000 6     -1156.916 6        37.977 6
G20  21942649.006 9 115309365.716 9      2564.429 9        55.316 9  21942649.327 6         0.000 6      1998.257 6        37.977 6
> 2019 07 03 12 01  3.0000000  0  8       0.000000000000
G07  25345601.562 9 133191989.093 9      2184.853 9        54.132 9  25345602.231 6         0.000 6      1702.484 6        37.977 6
G10  23807066.757 9 125106925.574 9      3528.888 9        54.670 9  23807070.481 6         0.000 6      2749.786 6        37.977 6
G21  21171688.552 9 111257953.596 9     -1252.412 9        55.709 9  21171687.838 6         0.000 6      -975.906 6        37.977 6
G29  24301777.391 9 127706645.716 9     -3120.391 9        54.474 9  24301778.967 6         0.000 6     -2431.476 6        37.977 6
G27  22003069.439 9 115626883.326 9      2498.570 9        55.375 9  22003071.371 6         0.000 6      1946.939 6        37.977 6
G16  20496879.339 9 107711807.607 9       554.700 9        55.977 9  20496878.512 6         0.000 6       432.234 6        37.977 6
G26  20655548.802 9 108545619.294 9     -1485.283 9        55.873 9  20655551.619 6         0.000 6     -1157.364 6        37.977 6
G20  21942161.054 9 115306801.514 9      2563.985 9        55.316 9  21942161.374 6         0.000 6      1997.912 6        37.977 6
> 2019 07 03 12 01  4.0000000  0  8       0.000000000000
G07  25345185.842 9 133189804.475 9      2184.394 9        54.132 9  25345186.511 6         0.000 6      1702.126 6        37.977 6
G10  23806395.244 9 125103396.761 9      3528.751 9        54.670 9  23806398.968 6         0.000 6      2749.679 6        37.977 6
G21  21171926.912 9 111259206.185 9     -1252.773 9        55.709 9  21171926.198 6         0.000 6      -976.187 6        37.977 6
G29  24302371.190 9 127709766.140 9     -3120.477 9        54.474 9  24302372.767 6         0.000 6     -2431.543 6        37.977 6
G27  22002593.999 9 115624384.875 9      2498.334 9        55.375 9  22002595.931 6         0.000 6      1946.754 6        37.977 6
G16  20496773.841 9 107711253.212 9       554.084 9        55.977 9  20496773.014 6         0.000 6       431.754 6        37.977 6
G26  20655831.496 9 108547104.858 9     -1485.857 9        55.873 9  20655834.313 6         0.000 6     -1157.811 6        37.977 6
G20  21941673.185 9 115304237.751 9      2563.541 9        55.316 9  21941673.505 6         0.000 6      1997.566 6        37.977 6
> 2019 07 03 12 01  5.0000000  0  8       0.000000000000
G07  25344770.210 9 133187620.315 9      2183.934 9        54.132 9  25344770.878 6         0.000 6      1701.768 6        37.977 6
G10  23805723.758 9 125099868.090 9      3528.613 9        54.671 9  23805727.481 6         0.000 6      2749.571 6        37.977 6
G21  21172165.342 9 111260459.138 9     -1253.134 9        55.709 9  21172164.627 6         0.000 6      -976.468 6        37.977 6
G29  24302965.005 9 127712886.649 9     -3120.562 9        54.474 9  24302966.583 6         0.000 6     -2431.610 6        37.977 6
G27  22002118.604 9 115621886.663 9      2498.097 9        55.375 9  22002120.536 6         0.000 6      1946.569 6        37.977 6
G16  20496668.461 9 107710699.436 9       553.468 9        55.977 9  20496667.634 6         0.000 6       431.273 6        37.977 6
G26  20656114.300 9 108548591.001 9     -1486.432 9        55.872 9  20656117.117 6         0.000 6     -1158.259 6        37.977 6
G20  21941185.402 9 115301674.436 9      2563.098 9        55.317 9  21941185.722 6         0.000 6      1997.220 6        37.977 6
> 2019 07 03 12 01  6.0000000  0  8       0.000000000000
G07  25344354.665 9 133185436.617 9      2183.475 9        54.132 9  25344355.334 6         0.000 6      1701.410 6        37.977 6
G10  23805052.298 9 125096339.552 9      3528.475 9        54.671 9  23805056.020 6         0.000 6      2749.464 6        37.977 6
G21  21172403.839 9 111261712.449 9     -1253.494 9        55.709 9  21172403.125 6         0.000 6      -976.749 6        37.977 6
G29  24303558.836 9 127716007.244 9     -3120.648 9        54.474 9  24303560.415 6         0.000 6     -2431.676 6        37.977 6
G27  22001643.254 9 115619388.686 9      2497.859 9        55.375 9  22001645.186 6         0.000 6      1946.385 6        37.977 6
G16  20496563.198 9 107710146.274 9       552.851 9        55.977 9  20496562.371 6         0.000 6       430.793 6        37.977 6
G26  20656397.212 9 108550077.714 9     -1487.007 9        55.872 9  20656400.029 6         0.000 6     -1158.707 6        37.977 6
G20  21940697.702 9 115299111.560 9      2562.654 9        55.317 9  21940698.021 6         0.000 6      1996.874 6        37.977 6
> 2019 07 03 12 01  7.0000000  0  8       0.000000000000
G07  25343939.208 9 133183253.379 9      2183.015 9        54.133 9  25343939.876 6         0.000 6      1701.051 6        37.977 6
G10  23804380.864 9 125092811.154 9      3528.337 9        54.671 9  23804384.586 6         0.000 6      2749.357 6        37.977 6
G21  21172642.405 9 111262966.121 9     -1253.855 9        55.709 9  21172641.691 6         0.000 6      -977.030 6        37.977 6
G29  24304152.683 9 127719127.919 9     -3120.733 9        54.473 9  24304154.262 6         0.000 6     -2431.743 6        37.977 6
G27  22001167.951 9 115616890.951 9      2497.622 9        55.376 9  22001169.882 6         0.000 6      1946.200 6        37.977 6
G16  20496458.052 9 107709593.732 9       552.235 9        55.977 9  20496457.226 6         0.000 6       430.313 6        37.977 6
G26  20656680.235 9 108551565.006 9     -1487.581 9        55.872 9  20656683.052 6         0.000 6     -1159.155 6        37.977 6
G20  21940210.087 9 115296549.129 9      2562.210 9        55.317 9  21940210.406 6         0.000 6      1996.529 6        37.977 6
> 2019 07 03 12 01  8.0000000  0  8       0.000000000000
G07  25343523.838 9 133181070.597 9      2182.555 9        54.133 9  25343524.506 6         0.000 6      1700.693 6        37.977 6
G10  23803709.457 9 125089282.896 9      3528.199 9        54.671 9  23803713.178 6         0.000 6      2749.249 6        37.977 6
G21  21172881.040 9 111264220.155 9     -1254.215 9        55.708 9  21172880.326 6         0.000 6      -977.311 6        37.977 6
G29  24304746.547 9 127722248.684 9     -3120.819 9        54.473 9  24304748.126 6         0.000 6     -2431.809 6        37.977 6
G27  22000692.692 9 115614393.450 9      2497.385 9        55.376 9  22000694.623 6         0.000 6      1946.015 6        37.977 6
G16  20496353.024 9 107709041.805 9       551.619 9        55.977 9  20496352.197 6         0.000 6       429.833 6        37.977 6
G26  20656963.367 9 108553052.872 9     -1488.156 9        55.872 9  20656966.184 6         0.000 6     -1159.602 6        37.977 6
G20  21939722.557 9 115293987.146 9      2561.766 9        55.317 9  21939722.876 6         0.000 6      1996.183 6        37.977 6
> 2019 07 03 12 01  9.0000000  0  8       0.000000000000
G07  25343108.556 9 133178888.279 9      2182.095 9        54.133 9  25343109.224 6         0.000 6      1700.335 6        37.977 6
G10  23803038.075 9 125085754.772 9      3528.061 9        54.672 9  23803041.796 6         0.000 6      2749.141 6        37.977 6
G21  21173119.743 9 111265474.547 9     -1254.576 9        55.708 9  21173119.029 6         0.000 6      -977.591 6        37.977 6
G29  24305340.427 9 127725369.535 9     -3120.904 9        54.473 9  24305342.007 6         0.000 6     -2431.876 6        37.977 6
G27  22000217.477 9 115611896.184 9      2497.148 9        55.376 9  22000219.408 6         0.000 6      1945.830 6        37.977 6
G16  20496248.113 9 107708490.492 9       551.002 9        55.977 9  20496247.286 6         0.000 6       429.352 6        37.977 6
G26  20657246.607 9 108554541.309 9     -1488.730 9        55.872 9  20657249.425 6         0.000 6     -1160.050 6        37.977 6
G20  21939235.110 9 115291425.602 9      2561.322 9        55.317 9  21939235.429 6         0.000 6      1995.837 6        37.977 6
> 2019 07 03 12 01 10.0000000  0  8       0.000000000000
G07  25342693.361 9 133176706.417 9      2181.635 9        54.133 9  25342694.028 6         0.000 6      1699.976 6        37.977 6
G10  23802366.720 9 125082226.790 9      3527.923 9        54.672 9  23802370.440 6         0.000 6      2749.034 6        37.977 6
G21  21173358.515 9 111266729.302 9     -1254.936 9        55.708 9  21173357.801 6         0.000 6      -977.872 6        37.977 6
G29  24305934.323 9 127728490.472 9     -3120.989 9        54.473 9  24305935.904 6         0.000 6     -2431.942 6        37.977 6
G27  21999742.308 9 115609399.157 9      2496.911 9        55.376 9  21999744.239 6         0.000 6      1945.646 6        37.977 6
G16  20496143.319 9 107707939.798 9       550.386 9        55.977 9  20496142.492 6         0.000 6       428.872 6        37.977 6
G26  20657529.958 9 108556030.325 9     -1489.305 9        55.872 9  20657532.776 6         0.000 6     -1160.498 6        37.977 6
G20  21938747.749 9 115288864.506 9      2560.878 9        55.318 9  21938748.067 6         0.000 6      1995.491 6        37.977 6
> 2019 07 03 12 01 11.0000000  0  8       0.000000000000
G07  25342278.253 9 133174525.018 9      2181.175 9        54.133 9  25342278.921 6         0.000 6      1699.618 6        37.977 6
G10  23801695.391 9 125078698.942 9      3527.785 9        54.672 9  23801699.110 6         0.000 6      2748.926 6        37.977 6
G21  21173597.355 9 111267984.415 9     -1255.296 9        55.708 9  21173596.641 6         0.000 6      -978.153 6        37.977 6
G29  24306528.236 9 127731611.493 9     -3121.074 9        54.472 9  24306529.817 6         0.000 6     -2432.009 6        37.977 6
G27  21999267.184 9 115606902.366 9      2496.674 9        55.376 9  21999269.115 6         0.000 6      1945.461 6        37.977 6
G16  20496038.642 9 107707389.717 9       549.769 9        55.977 9  20496037.816 6         0.000 6       428.392 6        37.977 6
G26  20657813.417 9 108557519.911 9     -1489.879 9        55.872 9  20657816.235 6         0.000 6     -1160.945 6        37.977 6
G20  21938260.472 9 115286303.851 9      2560.434 9        55.318 9  21938260.790 6         0.000 6      1995.144 6        37.977 6
> 2019 07 03 12 01 12.0000000  0  8       0.000000000000
G07  25341863.233 9 133172344.077 9      2180.715 9        54.133 9  25341863.901 6         0.000 6      1699.259 6        37.977 6
G10  23801024.089 9 125075171.237 9      3527.647 9        54.672 9  23801027.808 6         0.000 6      2748.818 6        37.977 6
G21  21173836.264 9 111269239.890 9     -1255.656 9        55.708 9  21173835.550 6         0.000 6      -978.434 6        37.977 6
G29  24307122.165 9 127734732.600 9     -3121.160 9        54.472 9  24307123.747 6         0.000 6     -2432.075 6        37.977 6
G27  21998792.105 9 115604405.813 9      2496.436 9        55.377 9  21998794.036 6         0.000 6      1945.276 6        37.977 6
G16  20495934.083 9 107706840.256 9       549.153 9        55.977 9  20495933.257 6         0.000 6       427.911 6        37.977 6
G26  20658096.986 9 108559010.075 9     -1490.454 9        55.872 9  20658099.804 6         0.000 6     -1161.393 6        37.977 6
G20  21937773.279 9 115283743.644 9      2559.989 9        55.318 9  21937773.597 6         0.000 6      1994.798 6        37.977 6
> 2019 07 03 12 01 13.0000000  0  8       0.000000000000
G07  25341448.301 9 133170163.598 9      2180.255 9        54.133 9  25341448.969 6         0.000 6      1698.901 6        37.977 6
G10  23800352.813 9 125071643.666 9      3527.508 9        54.673 9  23800356.531 6         0.000 6      2748.710 6        37.977 6
G21  21174075.241 9 111270495.724 9     -1256.016 9        55.708 9  21174074.528 6         0.000 6      -978.714 6        37.977 6
G29  24307716.110 9 127737853.792 9     -3121.245 9        54.472 9  24307717.693 6         0.000 6     -2432.142 6        37.977 6
G27  21998317.072 9 115601909.496 9      2496.199 9        55.377 9  21998319.002 6         0.000 6      1945.091 6        37.977 6
G16  20495829.641 9 107706291.409 9       548.536 9        55.977 9  20495828.814 6         0.000 6       427.431 6        37.977 6
G26  20658380.664 9 108560500.810 9     -1491.028 9        55.871 9  20658383.482 6         0.000 6     -1161.841 6        37.977 6
G20  21937286.171 9 115281183.877 9      2559.545 9        55.318 9  21937286.489 6         0.000 6      1994.452 6        37.977 6
> 2019 07 03 12 01 14.0000000  0  8       0.000000000000
G07  25341033.457 9 133167983.577 9      2179.795 9        54.134 9  25341034.123 6         0.000 6      1698.542 6        37.977 6
G10  23799681.564 9 125068116.238 9      3527.369 9        54.673 9  23799685.281 6         0.000 6      2748.602 6        37.977 6
G21  21174314.288 9 111271751.919 9     -1256.377 9        55.708 9  21174313.574 6         0.000 6      -978.995 6        37.977 6
G29  24308310.071 9 127740975.070 9     -3121.330 9        54.472 9  24308311.655 6         0.000 6     -2432.208 6        37.977 6
G27  21997842.083 9 115599413.418 9      2495.962 9        55.377 9  21997844.014 6         0.000 6      1944.906 6        37.977 6
G16  20495725.317 9 107705743.181 9       547.919 9        55.977 9  20495724.490 6         0.000 6       426.950 6        37.977 6
G26  20658664.452 9 108561992.123 9     -1491.603 9        55.871 9  20658667.270 6         0.000 6     -1162.288 6        37.977 6
G20  21936799.148 9 115278624.558 9      2559.101 9        55.318 9  21936799.466 6         0.000 6      1994.105 6        37.977 6
> 2019 07 03 12 01 15.0000000  0  8       0.000000000000
G07  25340618.700 9 133165804.022 9      2179.334 9        54.134 9  25340619.367 6         0.000 6      1698.183 6        37.977 6
G10  23799010.339 9 125064588.942 9      3527.231 9        54.673 9  23799014.056 6         0.000 6      2748.494 6        37.977 6
G21  21174553.401 9 111273008.471 9     -1256.737 9        55.708 9  21174552.688 6         0.000 6      -979.275 6        37.977 6
G29  24308904.048 9 127744096.427 9     -3121.416 9        54.472 9  24308905.632 6         0.000 6     -2432.274 6        37.977 6
G27  21997367.140 9 115596917.580 9      2495.724 9        55.377 9  21997369.071 6         0.000 6      1944.721 6        37.977 6
G16  20495621.110 9 107705195.568 9       547.303 9        55.977 9  20495620.283 6         0.000 6       426.470 6        37.977 6
G26  20658948.348 9 108563484.006 9     -1492.177 9        55.871 9  20658951.166 6         0.000 6     -1162.736 6        37.977 6
G20  21936312.209 9 115276065.677 9      2558.656 9        55.319 9  21936312.526 6         0.000 6      1993.759 6        37.977 6
> 2019 07 03 12 01 16.0000000  0  8       0.000000000000
G07  25340204.031 9 133163624.921 9      2178.874 9        54.134 9  25340204.697 6         0.000 6      1697.825 6        37.977 6
G10  23798339.143 9 125061061.791 9      3527.092 9        54.673 9  23798342.859 6         0.000 6      2748.386 6        37.977 6
G21  21174792.585 9 111274265.386 9     -1257.097 9        55.708 9  21174791.871 6         0.000 6      -979.556 6        37.977 6
G29  24309498.041 9 127747217.875 9     -3121.501 9        54.471 9  24309499.626 6         0.000 6     -2432.341 6        37.977 6
G27  21996892.242 9 115594421.977 9      2495.487 9        55.377 9  21996894.173 6         0.000 6      1944.536 6        37.977 6
G16  20495517.020 9 107704648.574 9       546.686 9        55.977 9  20495516.193 6         0.000 6       425.989 6        37.977 6
G26  20659232.355 9 108564976.468 9     -1492.751 9        55.871 9  20659235.173 6         0.000 6     -1163.183 6        37.977 6
G20  21935825.355 9 115273507.248 9      2558.211 9        55.319 9  21935825.672 6         0.000 6      1993.412 6        37.977 6
> 2019 07 03 12 01 17.0000000  0  8       0.000000000000
G07  25339789.448 9 133161446.281 9      2178.413 9        54.134 9  25339790.115 6         0.000 6      1697.466 6        37.977 6
G10  23797667.973 9 125057534.779 9      3526.953 9        54.674 9  23797671.688 6         0.000 6      2748.278 6        37.977 6
G21  21175031.836 9 111275522.662 9     -1257.456 9        55.708 9  21175031.123 6         0.000 6      -979.836 6        37.977 6
G29  24310092.051 9 127750339.408 9     -3121.586 9        54.471 9  24310093.637 6         0.000 6     -2432.407 6        37.977 6
G27  21996417.390 9 115591926.611 9      2495.250 9        55.378 9  21996419.320 6         0.000 6      1944.351 6        37.977 6
G16  20495413.048 9 107704102.196 9       546.069 9        55.977 9  20495412.221 6         0.000 6       425.509 6        37.977 6
G26  20659516.470 9 108566469.505 9     -1493.325 9        55.871 9  20659519.289 6         0.000 6     -1163.631 6        37.977 6
G20  21935338.586 9 115270949.264 9      2557.766 9        55.319 9  21935338.902 6         0.000 6      1993.066 6        37.977 6
> 2019 07 03 12 01 18.0000000  0  8       0.000000000000
G07  25339374.955 9 133159268.105 9      2177.953 9        54.134 9  25339375.620 6         0.000 6      1697.107 6        37.977 6
G10  23796996.828 9 125054007.902 9      3526.814 9        54.674 9  23797000.543 6         0.000 6      2748.169 6        37.977 6
G21  21175271.156 9 111276780.295 9     -1257.816 9        55.707 9  21175270.443 6         0.000 6      -980.117 6        37.977 6
G29  24310686.078 9 127753461.027 9     -3121.671 9        54.471 9  24310687.664 6         0.000 6     -2432.474 6        37.977 6
G27  21995942.582 9 115589431.481 9      2495.012 9        55.378 9  21995944.511 6         0.000 6      1944.166 6        37.977 6
G16  20495309.192 9 107703556.432 9       545.453 9        55.977 9  20495308.365 6         0.000 6       425.028 6        37.977 6
G26  20659800.694 9 108567963.111 9     -1493.900 9        55.871 9  20659803.513 6         0.000 6     -1164.078 6        37.977 6
G20  21934851.900 9 115268391.720 9      2557.322 9        55.319 9  21934852.217 6         0.000 6      1992.719 6        37.977 6
> 2019 07 03 12 01 19.0000000  0  8       0.000000000000
G07  25338960.548 9 133157090.386 9      2177.492 9        54.134 9  25338961.213 6         0.000 6      1696.748 6        37.977 6
G10  23796325.711 9 125050481.168 9      3526.675 9        54.674 9  23796329.425 6         0.000 6      2748.061 6        37.977 6
G21  21175510.545 9 111278038.291 9     -1258.176 9        55.707 9  21175509.832 6         0.000 6      -980.397 6        37.977 6
G29  24311280.120 9 127756582.730 9     -3121.756 9        54.471 9  24311281.706 6         0.000 6     -2432.540 6        37.977 6
G27  21995467.819 9 115586936.590 9      2494.775 9        55.378 9  21995469.749 6         0.000 6      1943.981 6        37.977 6
G16  20495205.455 9 107703011.288 9       544.836 9        55.977 9  20495204.628 6         0.000 6       424.547 6        37.977 6
G26  20660085.029 9 108569457.296 9     -1494.474 9        55.871 9  20660087.847 6         0.000 6     -1164.525 6        37.977 6
G20  21934365.301 9 115265834.626 9      2556.877 9        55.319 9  21934365.617 6         0.000 6      1992.372 6        37.977 6
> 2019 07 03 12 01 20.0000000  0  8       0.000000000000
G07  25338546.229 9 133154913.130 9      2177.031 9        54.134 9  25338546.895 6         0.000 6      1696.389 6        37.977 6
G10  23795654.620 9 125046954.569 9      3526.536 9        54.674 9  23795658.333 6         0.000 6      2747.953 6        37.977 6
G21  21175750.002 9 111279296.644 9     -1258.536 9        55.707 9  21175749.288 6         0.000 6      -980.677 6        37.977 6
G29  24311874.178 9 127759704.519 9     -3121.841 9        54.471 9  24311875.766 6         0.000 6     -2432.606 6        37.977 6
G27  21994993.102 9 115584441.935 9      2494.537 9        55.378 9  21994995.031 6         0.000 6      1943.796 6        37.977 6
G16  20495101.834 9 107702466.757 9       544.219 9        55.977 9  20495101.007 6         0.000 6       424.067 6        37.977 6
G26  20660369.471 9 108570952.050 9     -1495.048 9        55.871 9  20660372.290 6         0.000 6     -1164.973 6        37.977 6
G20  21933878.785 9 115263277.972 9      2556.431 9        55.320 9  21933879.101 6         0.000 6      1992.026 6        37.977 6
> 2019 07 03 12 01 21.0000000  0  8       0.000000000000
G07  25338131.998 9 133152736.333 9      2176.571 9        54.135 9  25338132.663 6         0.000 6      1696.030 6        37.977 6
G10  23794983.556 9 125043428.114 9      3526.396 9        54.675 9  23794987.268 6         0.000 6      2747.844 6        37.977 6
G21  21175989.527 9 111280555.359 9     -1258.896 9        55.707 9  21175988.814 6         0.000 6      -980.958 6        37.977 6
G29  24312468.253 9 127762826.392 9     -3121.926 9        54.470 9  24312469.841 6         0.000 6     -2432.673 6        37.977 6
G27  21994518.430 9 115581947.520 9      2494.299 9        55.378 9  21994520.359 6         0.000 6      1943.611 6        37.977 6
G16  20494998.331 9 107701922.847 9       543.602 9        55.978 9  20494997.505 6         0.000 6       423.586 6        37.977 6
G26  20660654.024 9 108572447.383 9     -1495.622 9        55.870 9  20660656.843 6         0.000 6     -1165.420 6        37.977 6
G20  21933392.354 9 115260721.767 9      2555.986 9        55.320 9  21933392.670 6         0.000 6      1991.679 6        37.977 6
> 2019 07 03 12 01 22.0000000  0  8       0.000000000000
G07  25337717.855 9 133150560.002 9      2176.110 9        54.135 9  25337718.520 6         0.000 6      1695.671 6        37.977 6
G10  23794312.517 9 125039901.791 9      3526.257 9        54.675 9  23794316.229 6         0.000 6      2747.735 6        37.977 6
G21  21176229.121 9 111281814.429 9     -1259.255 9        55.707 9  21176228.407 6         0.000 6      -981.238 6        37.977 6
G29  24313062.343 9 127765948.346 9     -3122.012 9        54.470 9  24313063.932 6         0.000 6     -2432.739 6        37.977 6
G27  21994043.803 9 115579453.343 9      2494.062 9        55.378 9  21994045.732 6         0.000 6      1943.425 6        37.977 6
G16  20494894.946 9 107701379.551 9       542.985 9        55.978 9  20494894.119 6         0.000 6       423.105 6        37.977 6
G26  20660938.685 9 108573943.285 9     -1496.196 9        55.870 9  20660941.504 6         0.000 6     -1165.868 6        37.977 6
G20  21932906.007 9 115258166.001 9      2555.541 9        55.320 9  21932906.323 6         0.000 6      1991.332 6        37.977 6
> 2019 07 03 12 01 23.0000000  0  8       0.000000000000
G07  25337303.799 9 133148384.126 9      2175.649 9        54.135 9  25337304.464 6         0.000 6      1695.312 6        37.977 6
G10  23793641.506 9 125036375.614 9      3526.117 9        54.675 9  23793645.217 6         0.000 6      2747.627 6        37.977 6
G21  21176468.783 9 111283073.863 9     -1259.615 9        55.707 9  21176468.070 6         0.000 6      -981.518 6        37.977 6
G29  24313656.450 9 127769070.390 9     -3122.097 9        54.470 9  24313658.039 6         0.000 6     -2432.805 6        37.977 6
G27  21993569.222 9 115576959.403 9      2493.824 9        55.379 9  21993571.151 6         0.000 6      1943.240 6        37.977 6
G16  20494791.678 9 107700836.874 9       542.368 9        55.978 9  20494790.851 6         0.000 6       422.625 6        37.977 6
G26  20661223.456 9 108575439.767 9     -1496.770 9        55.870 9  20661226.275 6         0.000 6     -1166.315 6        37.977 6
G20  21932419.746 9 115255610.687 9      2555.096 9        55.320 9  21932420.061 6         0.000 6      1990.985 6        37.977 6
> 2019 07 03 12 01 24.0000000  0  8       0.000000000000
G07  25336889.831 9 133146208.714 9      2175.188 9        54.135 9  25336890.496 6         0.000 6      1694.952 6        37.977 6
G10  23792970.520 9 125032849.573 9      3525.978 9        54.675 9  23792974.231 6         0.000 6      2747.518 6        37.977 6
G21  21176708.514 9 111284333.655 9     -1259.974 9        55.707 9  21176707.800 6         0.000 6      -981.798 6        37.977 6
G29  24314250.574 9 127772192.518 9     -3122.182 9        54.470 9  24314252.163 6         0.000 6     -2432.871 6        37.977 6
G27  21993094.685 9 115574465.699 9      2493.586 9        55.379 9  21993096.614 6         0.000 6      1943.055 6        37.977 6
G16  20494688.527 9 107700294.811 9       541.751 9        55.978 9  20494687.700 6         0.000 6       422.144 6        37.977 6
G26  20661508.336 9 108576936.817 9     -1497.344 9        55.870 9  20661511.155 6         0.000 6     -1166.762 6        37.977 6
G20  21931933.570 9 115253055.815 9      2554.650 9        55.320 9  21931933.884 6         0.000 6      1990.638 6        37.977 6
> 2019 07 03 12 01 25.0000000  0  8       0.000000000000
G07  25336475.950 9 133144033.761 9      2174.727 9        54.135 9  25336476.615 6         0.000 6      1694.593 6        37.977 6
G10  23792299.562 9 125029323.676 9      3525.838 9        54.676 9  23792303.272 6         0.000 6      2747.409 6        37.977 6
G21  21176948.313 9 111285593.808 9     -1260.334 9        55.707 9  21176947.600 6         0.000 6      -982.078 6        37.977 6
G29  24314844.713 9 127775314.732 9     -3122.267 9        54.470 9  24314846.303 6         0.000 6     -2432.938 6        37.977 6
G27  21992620.194 9 115571972.234 9      2493.349 9        55.379 9  21992622.122 6         0.000 6      1942.870 6        37.977 6
G16  20494585.493 9 107699753.369 9       541.134 9        55.978 9  20494584.667 6         0.000 6       421.663 6        37.977 6
G26  20661793.326 9 108578434.446 9     -1497.918 9        55.870 9  20661796.145 6         0.000 6     -1167.209 6        37.977 6
G20  21931447.478 9 115250501.392 9      2554.205 9        55.321 9  21931447.792 6         0.000 6      1990.290 6        37.977 6
> 2019 07 03 12 01 26.0000000  0  8       0.000000000000
G07  25336062.158 9 133141859.268 9      2174.265 9        54.135 9  25336062.822 6         0.000 6      1694.234 6        37.977 6
G10  23791628.631 9 125025797.919 9      3525.698 9        54.676 9  23791632.340 6         0.000 6      2747.300 6        37.977 6
G21  21177188.181 9 111286854.321 9     -1260.693 9        55.707 9  21177187.467 6         0.000 6      -982.358 6        37.977 6
G29  24315438.869 9 127778437.031 9     -3122.352 9        54.469 9  24315440.460 6         0.000 6     -2433.004 6        37.977 6
G27  21992145.748 9 115569479.007 9      2493.111 9        55.379 9  21992147.676 6         0.000 6      1942.684 6        37.977 6
G16  20494482.578 9 107699212.543 9       540.517 9        55.978 9  20494481.751 6         0.000 6       421.182 6        37.977 6
G26  20662078.425 9 108579932.650 9     -1498.492 9        55.870 9  20662081.244 6         0.000 6     -1167.657 6        37.977 6
G20  21930961.472 9 115247947.414 9      2553.759 9        55.321 9  21930961.786 6         0.000 6      1989.943 6        37.977 6
> 2019 07 03 12 01 27.0000000  0  8       0.000000000000
G07  25335648.453 9 133139685.240 9      2173.804 9        54.135 9  25335649.117 6         0.000 6      1693.874 6        37.977 6
G10  23790957.725 9 125022272.297 9      3525.558 9        54.676 9  23790961.434 6         0.000 6      2747.191 6        37.977 6
G21  21177428.116 9 111288115.190 9     -1261.053 9        55.707 9  21177427.403 6         0.000 6      -982.639 6        37.977 6
G29  24316033.041 9 127781559.415 9     -3122.437 9        54.469 9  24316034.632 6         0.000 6     -2433.070 6        37.977 6
G27  21991671.347 9 115566986.016 9      2492.873 9        55.379 9  21991673.275 6         0.000 6      1942.499 6        37.977 6
G16  20494379.779 9 107698672.331 9       539.900 9        55.978 9  20494378.952 6         0.000 6       420.701 6        37.977 6
G26  20662363.632 9 108581431.422 9     -1499.066 9        55.870 9  20662366.451 6         0.000 6     -1168.104 6        37.977 6
G20  21930475.549 9 115245393.878 9      2553.313 9        55.321 9  21930475.863 6         0.000 6      1989.596 6        37.977 6
> 2019 07 03 12 01 28.0000000  0  8       0.000000000000
G07  25335234.836 9 133137511.670 9      2173.343 9        54.136 9  25335235.500 6         0.000 6      1693.515 6        37.977 6
G10  23790286.847 9 125018746.819 9      3525.418 9        54.676 9  23790290.555 6         0.000 6      2747.082 6        37.977 6
G21  21177668.121 9 111289376.422 9     -1261.412 9        55.706 9  21177667.408 6         0.000 6      -982.918 6        37.977 6
G29  24316627.229 9 127784681.884 9     -3122.521 9        54.469 9  24316628.821 6         0.000 6     -2433.136 6        37.977 6
G27  21991196.992 9 115564493.264 9      2492.635 9        55.380 9  21991198.920 6         0.000 6      1942.314 6        37.977 6
G16  20494277.098 9 107698132.740 9       539.283 9        55.978 9  20494276.271 6         0.000 6       420.220 6        37.977 6
G26  20662648.949 9 108582930.773 9     -1499.640 9        55.870 9  20662651.769 6         0.000 6     -1168.551 6        37.977 6
G20  21929989.712 9 115242840.793 9      2552.867 9        55.321 9  21929990.026 6         0.000 6      1989.248 6        37.977 6
> 2019 07 03 12 01 29.0000000  0  8       0.000000000000
G07  25334821.307 9 133135338.564 9      2172.881 9        54.136 9  25334821.970 6         0.000 6      1693.155 6        37.977 6
G10  23789615.995 9 125015221.477 9      3525.278 9        54.677 9  23789619.702 6         0.000 6      2746.972 6        37.977 6
G21  21177908.193 9 111290638.010 9     -1261.771 9        55.706 9  21177907.480 6         0.000 6      -983.198 6        37.977 6
G29  24317221.433 9 127787804.437 9     -3122.606 9        54.469 9  24317223.026 6         0.000 6     -2433.202 6        37.977 6
G27  21990722.681 9 115562000.749 9      2492.397 9        55.380 9  21990724.609 6         0.000 6      1942.128 6        37.977 6
G16  20494174.534 9 107697593.763 9       538.666 9        55.978 9  20494173.707 6         0.000 6       419.739 6        37.977 6
G26  20662934.375 9 108584430.693 9     -1500.214 9        55.870 9  20662937.194 6         0.000 6     -1168.998 6        37.977 6
G20  21929503.959 9 115240288.149 9      2552.421 9        55.321 9  21929504.272 6         0.000 6      1988.901 6        37.977 6
> 2019 07 03 12 01 30.0000000  0  8       0.000000000000
G07  25334407.866 9 133133165.920 9      2172.420 9        54.136 9  25334408.529 6         0.000 6      1692.796 6        37.977 6
G10  23788945.170 9 125011696.278 9      3525.138 9        54.677 9  23788948.877 6         0.000 6      2746.863 6        37.977 6
G21  21178148.334 9 111291899.958 9     -1262.130 9        55.706 9  21178147.621 6         0.000 6      -983.478 6        37.977 6
G29  24317815.652 9 127790927.070 9     -3122.691 9        54.468 9  24317817.246 6         0.000 6     -2433.269 6        37.977 6
G27  21990248.417 9 115559508.477 9      2492.159 9        55.380 9  21990250.345 6         0.000 6      1941.943 6        37.977 6
G16  20494072.088 9 107697055.407 9       538.048 9        55.978 9  20494071.262 6         0.000 6       419.258 6        37.977 6
G26  20663219.911 9 108585931.192 9     -1500.787 9        55.869 9  20663222.730 6         0.000 6     -1169.445 6        37.977 6
G20  21929018.291 9 115237735.951 9      2551.975 9        55.321 9  21929018.604 6         0.000 6      1988.553 6        37.977 6
> 2019 07 03 12 01 31.0000000  0  8       0.000000000000
G07  25333994.512 9 133130993.737 9      2171.958 9        54.136 9  25333995.176 6         0.000 6      1692.436 6        37.977 6
G10  23788274.371 9 125008171.217 9      3524.997 9        54.677 9  23788278.077 6         0.000 6      2746.754 6        37.977 6
G21  21178388.543 9 111293162.265 9     -1262.489 9        55.706 9  21178387.830 6         0.000 6      -983.758 6        37.977 6
G29  24318409.889 9 127794049.794 9     -3122.776 9        54.468 9  24318411.483 6         0.000 6     -2433.335 6        37.977 6
G27  21989774.197 9 115557016.437 9      2491.921 9        55.380 9  21989776.125 6         0.000 6      1941.758 6        37.977 6
G16  20493969.759 9 107696517.664 9       537.431 9        55.978 9  20493968.932 6         0.000 6       418.777 6        37.977 6
G26  20663505.555 9 108587432.259 9     -1501.361 9        55.869 9  20663508.374 6         0.000 6     -1169.892 6        37.977 6
G20  21928532.708 9 115235184.199 9      2551.529 9        55.322 9  21928533.021 6         0.000 6      1988.206 6        37.977 6
> 2019 07 03 12 01 32.0000000  0  8       0.000000000000
G07  25333581.246 9 133128822.013 9      2171.497 9        54.136 9  25333581.909 6         0.000 6      1692.076 6        37.977 6
G10  23787603.600 9 125004646.301 9      3524.857 9        54.677 9  23787607.305 6         0.000 6      2746.644 6        37.977 6
G21  21178628.821 9 111294424.933 9     -1262.848 9        55.706 9  21178628.108 6         0.000 6      -984.038 6        37.977 6
G29  24319004.141 9 127797172.602 9     -3122.861 9        54.468 9  24319005.736 6         0.000 6     -2433.401 6        37.977 6
G27  21989300.023 9 115554524.638 9      2491.683 9        55.380 9  21989301.951 6         0.000 6      1941.572 6        37.977 6
G16  20493867.548 9 107695980.542 9       536.814 9        55.978 9  20493866.721 6         0.000 6       418.296 6        37.977 6
G26  20663791.309 9 108588933.906 9     -1501.935 9        55.869 9  20663794.129 6         0.000 6     -1170.339 6        37.977 6
G20  21928047.211 9 115232632.898 9      2551.083 9        55.322 9  21928047.523 6         0.000 6      1987.858 6        37.977 6
> 2019 07 03 12 01 33.0000000  0  8       0.000000000000
G07  25333168.069 9 133126650.753 9      2171.035 9        54.136 9  25333168.731 6         0.000 6      1691.716 6        37.977 6
G10  23786932.854 9 125001121.520 9      3524.716 9        54.678 9  23786936.559 6         0.000 6      2746.535 6        37.977 6
G21  21178869.167 9 111295687.958 9     -1263.207 9        55.706 9  21178868.454 6         0.000 6      -984.318 6        37.977 6
G29  24319598.410 9 127800295.495 9     -3122.946 9        54.468 9  24319600.005 6         0.000 6     -2433.467 6        37.977 6
G27  21988825.894 9 115552033.074 9      2491.445 9        55.381 9  21988827.821 6         0.000 6      1941.387 6        37.977 6
G16  20493765.454 9 107695444.033 9       536.196 9        55.978 9  20493764.627 6         0.000 6       417.815 6        37.977 6
G26  20664077.171 9 108590436.121 9     -1502.509 9        55.869 9  20664079.991 6         0.000 6     -1170.786 6        37.977 6
G20  21927561.798 9 115230082.038 9      2550.637 9        55.322 9  21927562.110 6         0.000 6      1987.510 6        37.977 6
> 2019 07 03 12 01 34.0000000  0  8       0.000000000000
G07  25332754.978 9 133124479.953 9      2170.573 9        54.136 9  25332755.641 6         0.000 6      1691.357 6        37.977 6
G10  23786262.137 9 124997596.885 9      3524.575 9        54.678 9  23786265.841 6         0.000 6      2746.425 6        37.977 6
G21  21179109.581 9 111296951.344 9     -1263.566 9        55.706 9  21179108.869 6         0.000 6      -984.597 6        37.977 6
G29  24320192.695 9 127803418.473 9     -3123.031 9        54.468 9  24320194.291 6         0.000 6     -2433.533 6        37.977 6
G27  21988351.810 9 115549541.750 9      2491.207 9        55.381 9  21988353.737 6         0.000 6      1941.201 6        37.977 6
G16  20493663.478 9 107694908.145 9       535.579 9        55.978 9  20493662.651 6         0.000 6       417.334 6        37.977 6
G26  20664363.143 9 108591938.914 9     -1503.082 9        55.869 9  20664365.964 6         0.000 6     -1171.233 6        37.977 6
G20  21927076.470 9 115227531.629 9      2550.190 9        55.322 9  21927076.782 6         0.000 6      1987.162 6        37.977 6
> 2019 07 03 12 01 35.0000000  0  8       0.000000000000
G07  25332341.977 9 133122309.617 9      2170.111 9        54.137 9  25332342.639 6         0.000 6      1690.997 6        37.977 6
G10  23785591.445 9 124994072.386 9      3524.435 9        54.678 9  23785595.148 6         0.000 6      2746.315 6        37.977 6
G21  21179350.064 9 111298215.087 9     -1263.925 9        55.706 9  21179349.351 6         0.000 6      -984.877 6        37.977 6
G29  24320786.996 9 127806541.536 9     -3123.115 9        54.467 9  24320788.592 6         0.000 6     -2433.599 6        37.977 6
G27  21987877.771 9 115547050.663 9      2490.969 9        55.381 9  21987879.698 6         0.000 6      1941.016 6        37.977 6
G16  20493561.619 9 107694372.872 9       534.962 9        55.978 9  20493560.792 6         0.000 6       416.853 6        37.977 6
G26  20664649.224 9 108593442.277 9     -1503.656 9        55.869 9  20664652.044 6         0.000 6     -1171.680 6        37.977 6
G20  21926591.227 9 115224981.662 9      2549.744 9        55.322 9  21926591.538 6         0.000 6      1986.815 6        37.977 6
> 2019 07 03 12 01 36.0000000  0  8       0.000000000000
G07  25331929.062 9 133120139.740 9      2169.649 9        54.137 9  25331929.724 6         0.000 6      1690.637 6        37.977 6
G10  23784920.781 9 124990548.033 9      3524.294 9        54.678 9  23784924.483 6         0.000 6      2746.205 6        37.977 6
G21  21179590.615 9 111299479.191 9     -1264.284 9        55.706 9  21179589.902 6         0.000 6      -985.157 6        37.977 6
G29  24321381.313 9 127809664.683 9     -3123.200 9        54.467 9  24321382.910 6         0.000 6     -2433.665 6        37.977 6
G27  21987403.778 9 115544559.816 9      2490.731 9        55.381 9  21987405.705 6         0.000 6      1940.830 6        37.977 6
G16  20493459.878 9 107693838.219 9       534.344 9        55.978 9  20493459.051 6         0.000 6       416.372 6        37.977 6
G26  20664935.415 9 108594946.217 9     -1504.229 9        55.869 9  20664938.235 6         0.000 6     -1172.127 6        37.977 6
G20  21926106.069 9 115222432.146 9      2549.297 9        55.323 9  21926106.380 6         0.000 6      1986.467 6        37.977 6
> 2019 07 03 12 01 37.0000000  0  8       0.000000000000
G07  25331516.236 9 133117970.325 9      2169.187 9        54.137 9  25331516.897 6         0.000 6      1690.277 6        37.977 6
G10  23784250.143 9 124987023.820 9      3524.153 9        54.679 9  23784253.845 6         0.000 6      2746.096 6        37.977 6
G21  21179831.234 9 111300743.654 9     -1264.643 9        55.706 9  21179830.522 6         0.000 6      -985.436 6        37.977 6
G29  24321975.646 9 127812787.915 9     -3123.285 9        54.467 9  24321977.244 6         0.000 6     -2433.731 6        37.977 6
G27  21986929.831 9 115542069.206 9      2490.493 9        55.381 9  21986931.757 6         0.000 6      1940.644 6        37.977 6
G16  20493358.254 9 107693304.184 9       533.727 9        55.978 9  20493357.427 6         0.000 6       415.891 6        37.977 6
G26  20665221.715 9 108596450.732 9     -1504.803 9        55.869 9  20665224.535 6         0.000 6     -1172.574 6        37.977 6
G20  21925620.996 9 115219883.076 9      2548.851 9        55.323 9  21925621.307 6         0.000 6      1986.118 6        37.977 6
> 2019 07 03 12 01 38.0000000  0  8       0.000000000000
G07  25331103.498 9 133115801.378 9      2168.725 9        54.137 9  25331104.160 6         0.000 6      1689.917 6        37.977 6
G10  23783579.531 9 124983499.742 9      3524.012 9        54.679 9  23783583.233 6         0.000 6      2745.986 6        37.977 6
G21  21180071.921 9 111302008.471 9     -1265.002 9        55.705 9  21180071.209 6         0.000 6      -985.716 6        37.977 6
G29  24322569.995 9 127815911.227 9     -3123.369 9        54.467 9  24322571.593 6         0.000 6     -2433.797 6        37.977 6
G27  21986455.929 9 115539578.837 9      2490.255 9        55.381 9  21986457.855 6         0.000 6      1940.459 6        37.977 6
G16  20493256.748 9 107692770.764 9       533.109 9        55.978 9  20493255.921 6         0.000 6       415.410 6        37.977 6
G26  20665508.123 9 108597955.815 9     -1505.376 9        55.868 9  20665510.944 6         0.000 6     -1173.021 6        37.977 6
G20  21925136.007 9 115217334.446 9      2548.404 9        55.323 9  21925136.318 6         0.000 6      1985.770 6        37.977 6
> 2019 07 03 12 01 39.0000000  0  8       0.000000000000
G07  25330690.847 9 133113632.888 9      2168.263 9        54.137 9  25330691.509 6         0.000 6      1689.556 6        37.977 6
G10  23782908.948 9 124979975.812 9      3523.870 9        54.679 9  23782912.649 6         0.000 6      2745.876 6        37.977 6
G21  21180312.677 9 111303273.651 9     -1265.360 9        55.705 9  21180311.965 6         0.000 6      -985.995 6        37.977 6
G29  24323164.360 9 127819034.628 9     -3123.454 9        54.467 9  24323165.959 6         0.000 6     -2433.863 6        37.977 6
G27  21985982.072 9 115537088.705 9      2490.016 9        55.382 9  21985983.998 6         0.000 6      1940.273 6        37.977 6
G16  20493155.359 9 107692237.963 9       532.492 9        55.978 9  20493154.532 6         0.000 6       414.928 6        37.977 6
G26  20665794.641 9 108599461.476 9     -1505.950 9        55.868 9  20665797.462 6         0.000 6     -1173.468 6        37.977 6
G20  21924651.105 9 115214786.270 9      2547.957 9        55.323 9  21924651.415 6         0.000 6      1985.422 6        37.977 6
> 2019 07 03 12 01 40.0000000  0  8       0.000000000000
G07  25330278.285 9 133111464.862 9      2167.801 9        54.137 9  25330278.946 6         0.000 6      1689.196 6        37.977 6
G10  23782238.390 9 124976452.018 9      3523.729 9        54.679 9  23782242.090 6         0.000 6      2745.765 6        37.977 6
G21  21180553.501 9 111304539.188 9     -1265.719 9        55.705 9  21180552.788 6         0.000 6      -986.275 6        37.977 6
G29  24323758.742 9 127822158.115 9     -3123.539 9        54.466 9  24323760.342 6         0.000 6     -2433.929 6        37.977 6
G27  21985508.260 9 115534598.808 9      2489.778 9        55.382 9  21985510.186 6         0.000 6      1940.087 6        37.977 6
G16  20493054.088 9 107691705.778 9       531.874 9        55.978 9  20493053.261 6         0.000 6       414.447 6        37.977 6
G26  20666081.267 9 108600967.706 9     -1506.523 9        55.868 9  20666084.088 6         0.000 6     -1173.915 6        37.977 6
G20  21924166.286 9 115212238.537 9      2547.510 9        55.323 9  21924166.596 6         0.000 6      1985.074 6        37.977 6
> 2019 07 03 12 01 41.0000000  0  8       0.000000000000
G07  25329865.810 9 133109297.296 9      2167.338 9        54.137 9  25329866.471 6         0.000 6      1688.836 6        37.977 6
G10  23781567.860 9 124972928.371 9      3523.587 9        54.680 9  23781571.560 6         0.000 6      2745.655 6        37.977 6
G21  21180794.393 9 111305805.086 9     -1266.078 9        55.705 9  21180793.681 6         0.000 6      -986.554 6        37.977 6
G29  24324353.139 9 127825281.685 9     -3123.623 9        54.466 9  24324354.740 6         0.000 6     -2433.995 6        37.977 6
G27  21985034.493 9 115532109.152 9      2489.540 9        55.382 9  21985036.419 6         0.000 6      1939.902 6        37.977 6
G16  20492952.934 9 107691174.212 9       531.256 9        55.978 9  20492952.107 6         0.000 6       413.966 6        37.977 6
G26  20666368.004 9 108602474.514 9     -1507.097 9        55.868 9  20666370.825 6         0.000 6     -1174.362 6        37.977 6
G20  21923681.554 9 115209691.255 9      2547.063 9        55.324 9  21923681.864 6         0.000 6      1984.725 6        37.977 6
> 2019 07 03 12 01 42.0000000  0  8       0.000000000000
G07  25329453.424 9 133107130.195 9      2166.876 9        54.138 9  25329454.085 6         0.000 6      1688.476 6        37.977 6
G10  23780897.357 9 124969404.860 9      3523.446 9        54.680 9  23780901.055 6         0.000 6      2745.545 6        37.977 6
G21  21181035.354 9 111307071.339 9     -1266.436 9        55.705 9  21181034.641 6         0.000 6      -986.834 6        37.977 6
G29  24324947.553 9 127828405.341 9     -3123.708 9        54.466 9  24324949.154 6         0.000 6     -2434.061 6        37.977 6
G27  21984560.772 9 115529619.733 9      2489.301 9        55.382 9  21984562.698 6         0.000 6      1939.716 6        37.977 6
G16  20492851.898 9 107690643.262 9       530.639 9        55.978 9  20492851.071 6         0.000 6       413.485 6        37.977 6
G26  20666654.849 9 108603981.891 9     -1507.670 9        55.868 9  20666657.670 6         0.000 6     -1174.808 6        37.977 6
G20  21923196.906 9 115207144.416 9      2546.616 9        55.324 9  21923197.215 6         0.000 6      1984.377 6        37.977 6
> 2019 07 03 12 01 43.0000000  0  8       0.000000000000
G07  25329041.125 9 133104963.554 9      2166.413 9        54.138 9  25329041.786 6         0.000 6      1688.115 6        37.977 6
G10  23780226.881 9 124965881.495 9      3523.304 9        54.680 9  23780230.579 6         0.000 6      2745.435 6        37.977 6
G21  21181276.382 9 111308337.954 9     -1266.795 9        55.705 9  21181275.670 6         0.000 6      -987.113 6        37.977 6
G29  24325541.983 9 127831529.081 9     -3123.793 9        54.466 9  24325543.585 6         0.000 6     -2434.127 6        37.977 6
G27  21984087.096 9 115527130.553 9      2489.063 9        55.382 9  21984089.022 6         0.000 6      1939.530 6        37.977 6
G16  20492750.979 9 107690112.932 9       530.021 9        55.978 9  20492750.152 6         0.000 6       413.003 6        37.977 6
G26  20666941.803 9 108605489.846 9     -1508.243 9        55.868 9  20666944.624 6         0.000 6     -1175.255 6        37.977 6
G20  21922712.343 9 115204598.028 9      2546.169 9        55.324 9  21922712.653 6         0.000 6      1984.029 6        37.977 6
> 2019 07 03 12 01 44.0000000  0  8       0.000000000000
G07  25328628.915 9 133102797.378 9      2165.951 9        54.138 9  25328629.575 6         0.000 6      1687.755 6        37.977 6
G10  23779556.431 9 124962358.268 9      3523.163 9        54.680 9  23779560.128 6         0.000 6      2745.324 6        37.977 6
G21  21181517.479 9 111309604.925 9     -1267.153 9        55.705 9  21181516.767 6         0.000 6      -987.392 6        37.977 6
G29  24326136.429 9 127834652.905 9     -3123.877 9        54.465 9  24326138.032 6         0.000 6     -2434.193 6        37.977 6
G27  21983613.466 9 115524641.611 9      2488.824 9        55.383 9  21983615.391 6         0.000 6      1939.344 6        37.977 6
G16  20492650.178 9 107689583.217 9       529.403 9        55.979 9  20492649.351 6         0.000 6       412.522 6        37.977 6
G26  20667228.866 9 108606998.370 9     -1508.817 9        55.868 9  20667231.687 6         0.000 6     -1175.702 6        37.977 6
G20  21922227.865 9 115202052.084 9      2545.721 9        55.324 9  21922228.174 6         0.000 6      1983.680 6        37.977 6
> 2019 07 03 12 01 45.0000000  0  8       0.000000000000
G07  25328216.792 9 133100631.662 9      2165.488 9        54.138 9  25328217.452 6         0.000 6      1687.394 6        37.977 6
G10  23778886.009 9 124958835.187 9      3523.021 9        54.681 9  23778889.706 6         0.000 6      2745.214 6        37.977 6
G21  21181758.644 9 111310872.256 9     -1267.511 9        55.705 9  21181757.932 6         0.000 6      -987.671 6        37.977 6
G29  24326730.891 9 127837776.815 9     -3123.962 9        54.465 9  24326732.494 6         0.000 6     -2434.259 6        37.977 6
G27  21983139.881 9 115522152.908 9      2488.586 9        55.383 9  21983141.806 6         0.000 6      1939.158 6        37.977 6
G16  20492549.495 9 107689054.123 9       528.785 9        55.979 9  20492548.668 6         0.000 6       412.040 6        37.977 6
G26  20667516.039 9 108608507.471 9     -1509.390 9        55.868 9  20667518.860 6         0.000 6     -1176.149 6        37.977 6
G20  21921743.473 9 115199506.591 9      2545.274 9        55.324 9  21921743.782 6         0.000 6      1983.331 6        37.977 6
> 2019 07 03 12 01 46.0000000  0  8       0.000000000000
G07  25327804.758 9 133098466.412 9      2165.025 9        54.138 9  25327805.418 6         0.000 6      1687.034 6        37.977 6
G10  23778215.613 9 124955312.246 9      3522.879 9        54.681 9  23778219.309 6         0.000 6      2745.103 6        37.977 6
G21  21181999.877 9 111312139.944 9     -1267.870 9        55.705 9  21181999.165 6         0.000 6      -987.951 6        37.977 6
G29  24327325.369 9 127840900.803 9     -3124.046 9        54.465 9  24327326.972 6         0.000 6     -2434.324 6        37.977 6
G27  21982666.342 9 115519664.448 9      2488.347 9        55.383 9  21982668.268 6         0.000 6      1938.973 6        37.977 6
G16  20492448.929 9 107688525.648 9       528.167 9        55.979 9  20492448.102 6         0.000 6       411.559 6        37.977 6
G26  20667803.321 9 108610017.146 9     -1509.963 9        55.867 9  20667806.142 6         0.000 6     -1176.595 6        37.977 6
G20  21921259.166 9 115196961.542 9      2544.826 9        55.325 9  21921259.474 6         0.000 6      1982.983 6        37.977 6
> 2019 07 03 12 01 47.0000000  0  8       0.000000000000
G07  25327392.812 9 133096301.624 9      2164.563 9        54.138 9  25327393.472 6         0.000 6      1686.673 6        37.977 6
G10  23777545.244 9 124951789.444 9      3522.737 9        54.681 9  23777548.940 6         0.000 6      2744.992 6        37.977 6
G21  21182241.179 9 111313407.989 9     -1268.228 9        55.705 9  21182240.466 6         0.000 6      -988.230 6        37.977 6
G29  24327919.863 9 127844024.881 9     -3124.131 9        54.465 9  24327921.467 6         0.000 6     -2434.390 6        37.977 6
G27  21982192.848 9 115517176.221 9      2488.109 9        55.383 9  21982194.773 6         0.000 6      1938.787 6        37.977 6
G16  20492348.480 9 107687997.786 9       527.550 9        55.979 9  20492347.654 6         0.000 6       411.078 6        37.977 6
G26  20668090.711 9 108611527.389 9     -1510.536 9        55.867 9  20668093.532 6         0.000 6     -1177.042 6        37.977 6
G20  21920774.943 9 115194416.940 9      2544.379 9        55.325 9  21920775.251 6         0.000 6      1982.634 6        37.977 6
> 2019 07 03 12 01 48.0000000  0  8       0.000000000000
G07  25326980.953 9 133094137.296 9      2164.100 9        54.138 9  25326981.613 6         0.000 6      1686.312 6        37.977 6
G10  23776874.903 9 124948266.789 9      3522.594 9        54.681 9  23776878.598 6         0.000 6      2744.881 6        37.977 6
G21  21182482.548 9 111314676.396 9     -1268.586 9        55.704 9  21182481.836 6         0.000 6      -988.509 6        37.977 6
G29  24328514.373 9 127847149.044 9     -3124.215 9        54.465 9  24328515.978 6         0.000 6     -2434.456 6        37.977 6
G27  21981719.399 9 115514688.234 9      2487.870 9        55.383 9  21981721.324 6         0.000 6      1938.601 6        37.977 6
G16  20492248.150 9 107687470.546 9       526.932 9        55.979 9  20492247.323 6         0.000 6       410.596 6        37.977 6
G26  20668378.211 9 108613038.210 9     -1511.110 9        55.867 9  20668381.033 6         0.000 6     -1177.488 6        37.977 6
G20  21920290.807 9 115191872.790 9      2543.931 9        55.325 9  21920291.115 6         0.000 6      1982.285 6        37.977 6
> 2019 07 03 12 01 49.0000000  0  8       0.000000000000
G07  25326569.183 9 133091973.434 9      2163.637 9        54.139 9  25326569.843 6         0.000 6      1685.952 6        37.977 6
G10  23776204.589 9 124944744.272 9      3522.452 9        54.681 9  23776208.283 6         0.000 6      2744.771 6        37.977 6
G21  21182723.986 9 111315945.158 9     -1268.944 9        55.704 9  21182723.274 6         0.000 6      -988.788 6        37.977 6
G29  24329108.900 9 127850273.291 9     -3124.300 9        54.464 9  24329110.505 6         0.000 6     -2434.522 6        37.977 6
G27  21981245.996 9 115512200.484 9      2487.631 9        55.384 9  21981247.920 6         0.000 6      1938.415 6        37.977 6
G16  20492147.936 9 107686943.920 9       526.314 9        55.979 9  20492147.109 6         0.000 6       410.115 6        37.977 6
G26  20668665.819 9 108614549.600 9     -1511.683 9        55.867 9  20668668.641 6         0.000 6     -1177.935 6        37.977 6
G20  21919806.754 9 115189329.083 9      2543.483 9        55.325 9  21919807.062 6         0.000 6      1981.936 6        37.977 6
> 2019 07 03 12 01 50.0000000  0  8       0.000000000000
G07  25326157.501 9 133089810.032 9      2163.174 9        54.139 9  25326158.160 6         0.000 6      1685.591 6        37.977 6
G10  23775534.302 9 124941221.901 9      3522.310 9        54.682 9  23775537.995 6         0.000 6      2744.660 6        37.977 6
G21  21182965.492 9 111317214.280 9     -1269.302 9        55.704 9  21182964.780 6         0.000 6      -989.067 6        37.977 6
G29  24329703.442 9 127853397.623 9     -3124.384 9        54.464 9  24329705.048 6         0.000 6     -2434.588 6        37.977 6
G27  21980772.638 9 115509712.975 9      2487.393 9        55.384 9  21980774.562 6         0.000 6      1938.229 6        37.977 6
G16  20492047.841 9 107686417.915 9       525.696 9        55.979 9  20492047.014 6         0.000 6       409.633 6        37.977 6
G26  20668953.537 9 108616061.567 9     -1512.256 9        55.867 9  20668956.359 6         0.000 6     -1178.382 6        37.977 6
G20  21919322.788 9 115186785.828 9      2543.035 9        55.325 9  21919323.096 6         0.000 6      1981.587 6        37.977 6
> 2019 07 03 12 01 51.0000000  0  8       0.000000000000
G07  25325745.907 9 133087647.096 9      2162.711 9        54.139 9  25325746.566 6         0.000 6      1685.230 6        37.977 6
G10  23774864.041 9 124937699.669 9      3522.167 9        54.682 9  23774867.734 6         0.000 6      2744.549 6        37.977 6
G21  21183207.066 9 111318483.758 9     -1269.660 9        55.704 9  21183206.354 6         0.000 6      -989.346 6        37.977 6
G29  24330298.001 9 127856522.039 9     -3124.469 9        54.464 9  24330299.607 6         0.000 6     -2434.653 6        37.977 6
G27  21980299.325 9 115507225.702 9      2487.154 9        55.384 9  21980301.250 6         0.000 6      1938.043 6        37.977 6
G16  20491947.863 9 107685892.525 9       525.078 9        55.979 9  20491947.036 6         0.000 6       409.151 6        37.977 6
G26  20669241.364 9 108617574.103 9     -1512.829 9        55.867 9  20669244.186 6         0.000 6     -1178.828 6        37.977 6
G20  21918838.907 9 115184243.017 9      2542.587 9        55.325 9  21918839.214 6         0.000 6      1981.238 6        37.977 6
> 2019 07 03 12 01 52.0000000  0  8       0.000000000000
G07  25325334.401 9 133085484.620 9      2162.248 9        54.139 9  25325335.060 6         0.000 6      1684.869 6        37.977 6
G10  23774193.809 9 124934177.583 9      3522.025 9        54.682 9  23774197.501 6         0.000 6      2744.438 6        37.977 6
G21  21183448.708 9 111319753.597 9     -1270.018 9        55.704 9  21183447.996 6         0.000 6      -989.625 6        37.977 6
G29  24330892.575 9 127859646.539 9     -3124.553 9        54.464 9  24330894.183 6         0.000 6     -2434.719 6        37.977 6
G27  21979826.058 9 115504738.670 9      2486.915 9        55.384 9  21979827.982 6         0.000 6      1937.857 6        37.977 6
G16  20491848.002 9 107685367.757 9       524.459 9        55.979 9  20491847.176 6         0.000 6       408.670 6        37.977 6
G26  20669529.300 9 108619087.217 9     -1513.402 9        55.867 9  20669532.122 6         0.000 6     -1179.275 6        37.977 6
G20  21918355.111 9 115181700.659 9      2542.139 9        55.326 9  21918355.418 6         0.000 6      1980.889 6        37.977 6
> 2019 07 03 12 01 53.0000000  0  8       0.000000000000
G07  25324922.984 9 133083322.611 9      2161.784 9        54.139 9  25324923.642 6         0.000 6      1684.508 6        37.977 6
G10  23773523.602 9 124930655.636 9      3521.882 9        54.682 9  23773527.294 6         0.000 6      2744.326 6        37.977 6
G21  21183690.418 9 111321023.791 9     -1270.376 9        55.704 9  21183689.706 6         0.000 6      -989.904 6        37.977 6
G29  24331487.166 9 127862771.124 9     -3124.637 9        54.464 9  24331488.774 6         0.000 6     -2434.785 6        37.977 6
G27  21979352.836 9 115502251.875 9      2486.676 9        55.384 9  21979354.760 6         0.000 6      1937.671 6        37.977 6
G16  20491748.259 9 107684843.603 9       523.841 9        55.979 9  20491747.432 6         0.000 6       408.188 6        37.977 6
G26  20669817.344 9 108620600.898 9     -1513.975 9        55.867 9  20669820.166 6         0.000 6     -1179.721 6        37.977 6
G20  21917871.400 9 115179158.744 9      2541.691 9        55.326 9  21917871.707 6         0.000 6      1980.539 6        37.977 6
> 2019 07 03 12 01 54.0000000  0  8       0.000000000000
G07  25324511.655 9 133081161.064 9      2161.321 9        54.139 9  25324512.313 6         0.000 6      1684.147 6        37.977 6
G10  23772853.424 9 124927133.833 9      3521.739 9        54.683 9  23772857.115 6         0.000 6      2744.215 6        37.977 6
G21  21183932.196 9 111322294.343 9     -1270.734 9        55.704 9  21183931.485 6         0.000 6      -990.182 6        37.977 6
G29  24332081.772 9 127865895.788 9     -3124.722 9        54.463 9  24332083.380 6         0.000 6     -2434.851 6        37.977 6
G27  21978879.661 9 115499765.325 9      2486.438 9        55.384 9  21978881.585 6         0.000 6      1937.484 6        37.977 6
G16  20491648.635 9 107684320.072 9       523.223 9        55.979 9  20491647.808 6         0.000 6       407.706 6        37.977 6
G26  20670105.499 9 108622115.158 9     -1514.548 9        55.867 9  20670108.321 6         0.000 6     -1180.168 6        37.977 6
G20  21917387.774 9 115176617.279 9      2541.243 9        55.326 9  21917388.081 6         0.000 6      1980.190 6        37.977 6
> 2019 07 03 12 01 55.0000000  0  8       0.000000000000
G07  25324100.413 9 133078999.981 9      2160.858 9        54.139 9  25324101.071 6         0.000 6      1683.786 6        37.977 6
G10  23772183.272 9 124923612.172 9      3521.596 9        54.683 9  23772186.962 6         0.000 6      2744.104 6        37.977 6
G21  21184174.043 9 111323565.253 9     -1271.092 9        55.704 9  21184173.331 6         0.000 6      -990.461 6        37.977 6
G29  24332676.394 9 127869020.541 9     -3124.806 9        54.463 9  24332678.004 6         0.000 6     -2434.916 6        37.977 6
G27  21978406.530 9 115497279.007 9      2486.199 9        55.385 9  21978408.454 6         0.000 6      1937.298 6        37.977 6
G16  20491549.127 9 107683797.155 9       522.605 9        55.979 9  20491548.300 6         0.000 6       407.225 6        37.977 6
G26  20670393.761 9 108623629.985 9     -1515.121 9        55.866 9  20670396.583 6         0.000 6     -1180.614 6        37.977 6
G20  21916904.234 9 115174076.261 9      2540.794 9        55.326 9  21916904.540 6         0.000 6      1979.841 6        37.977 6
> 2019 07 03 12 01 56.0000000  0  8       0.000000000000
G07  25323689.260 9 133076839.359 9      2160.394 9        54.140 9  25323689.918 6         0.000 6      1683.425 6        37.977 6
G10  23771513.148 9 124920090.658 9      3521.453 9        54.683 9  23771516.838 6         0.000 6      2743.992 6        37.977 6
G21  21184415.957 9 111324836.523 9     -1271.449 9        55.704 9  21184415.246 6         0.000 6      -990.740 6        37.977 6
G29  24333271.033 9 127872145.379 9     -3124.890 9        54.463 9  24333272.643 6         0.000 6     -2434.982 6        37.977 6
G27  21977933.445 9 115494792.931 9      2485.960 9        55.385 9  21977935.368 6         0.000 6      1937.112 6        37.977 6
G16  20491449.737 9 107683274.859 9       521.987 9        55.979 9  20491448.910 6         0.000 6       406.743 6        37.977 6
G26  20670682.133 9 108625145.391 9     -1515.694 9        55.866 9  20670684.956 6         0.000 6     -1181.060 6        37.977 6
G20  21916420.779 9 115171535.695 9      2540.346 9        55.326 9  21916421.085 6         0.000 6      1979.491 6        37.977 6
> 2019 07 03 12 01 57.0000000  0  8       0.000000000000
G07  25323278.195 9 133074679.200 9      2159.930 9        54.140 9  25323278.852 6         0.000 6      1683.064 6        37.977 6
G10  23770843.051 9 124916569.286 9      3521.310 9        54.683 9  23770846.740 6         0.000 6      2743.881 6        37.977 6
G21  21184657.940 9 111326108.150 9     -1271.807 9        55.704 9  21184657.228 6         0.000 6      -991.019 6        37.977 6
G29  24333865.688 9 127875270.301 9     -3124.974 9        54.463 9  24333867.299 6         0.000 6     -2435.048 6        37.977 6
G27  21977460.405 9 115492307.093 9      2485.721 9        55.385 9  21977462.329 6         0.000 6      1936.926 6        37.977 6
G16  20491350.465 9 107682753.181 9       521.368 9        55.979 9  20491349.638 6         0.000 6       406.261 6        37.977 6
G26  20670970.615 9 108626661.369 9     -1516.266 9        55.866 9  20670973.437 6         0.000 6     -1181.507 6        37.977 6
G20  21915937.410 9 115168995.578 9      2539.897 9        55.327 9  21915937.716 6         0.000 6      1979.142 6        37.977 6
> 2019 07 03 12 01 58.0000000  0  8       0.000000000000
G07  25322867.218 9 133072519.508 9      2159.467 9        54.140 9  25322867.876 6         0.000 6      1682.702 6        37.977 6
G10  23770172.981 9 124913048.054 9      3521.167 9        54.684 9  23770176.669 6         0.000 6      2743.769 6        37.977 6
G21  21184899.991 9 111327380.133 9     -1272.165 9        55.703 9  21184899.279 6         0.000 6      -991.297 6        37.977 6
G29  24334460.359 9 127878395.307 9     -3125.059 9        54.463 9  24334461.970 6         0.000 6     -2435.113 6        37.977 6
G27  21976987.411 9 115489821.493 9      2485.482 9        55.385 9  21976989.334 6         0.000 6      1936.740 6        37.977 6
G16  20491251.310 9 107682232.119 9       520.750 9        55.979 9  20491250.484 6         0.000 6       405.779 6        37.977 6
G26  20671259.204 9 108628177.915 9     -1516.839 9        55.866 9  20671262.027 6         0.000 6     -1181.953 6        37.977 6
G20  21915454.126 9 115166455.905 9      2539.448 9        55.327 9  21915454.431 6         0.000 6      1978.792 6        37.977 6
> 2019 07 03 12 01 59.0000000  0  8       0.000000000000
G07  25322456.330 9 133070360.276 9      2159.003 9        54.140 9  25322456.987 6         0.000 6      1682.341 6        37.977 6
G10  23769502.939 9 124909526.969 9      3521.024 9        54.684 9  23769506.627 6         0.000 6      2743.657 6        37.977 6
G21  21185142.110 9 111328652.476 9     -1272.522 9        55.703 9  21185141.398 6         0.000 6      -991.576 6        37.977 6
G29  24335055.046 9 127881520.398 9     -3125.143 9        54.462 9  24335056.658 6         0.000 6     -2435.179 6        37.977 6
G27  21976514.462 9 115487336.133 9      2485.243 9        55.385 9  21976516.385 6         0.000 6      1936.554 6        37.977 6
G16  20491152.274 9 107681711.678 9       520.132 9        55.979 9  20491151.447 6         0.000 6       405.298 6        37.977 6
G26  20671547.904 9 108629695.039 9     -1517.412 9        55.866 9  20671550.727 6         0.000 6     -1182.399 6        37.977 6
G20  21914970.928 9 115163916.686 9      2539.000 9        55.327 9  21914971.233 6         0.000 6      1978.442 6        37.977 6
> 2019 07 03 12 02  0.0000000  0  8       0.000000000000
G07  25322045.530 9 133068201.513 9      2158.539 9        54.140 9  25322046.187 6         0.000 6      1681.980 6        37.977 6
G10  23768832.923 9 124906006.022 9      3520.880 9        54.684 9  23768836.610 6         0.000 6      2743.546 6        37.977 6
G21  21185384.296 9 111329925.173 9     -1272.880 9        55.703 9  21185383.584 6         0.000 6      -991.855 6        37.977 6
G29  24335649.749 9 127884645.571 9     -3125.227 9        54.462 9  24335651.361 6         0.000 6     -2435.245 6        37.977 6
G27  21976041.558 9 115484851.011 9      2485.004 9        55.386 9  21976043.481 6         0.000 6      1936.367 6        37.977 6
G16  20491053.354 9 107681191.852 9       519.513 9        55.979 9  20491052.527 6         0.000 6       404.816 6        37.977 6
G26  20671836.711 9 108631212.729 9     -1517.985 9        55.866 9  20671839.534 6         0.000 6     -1182.846 6        37.977 6
G20  21914487.814 9 115161377.909 9      2538.551 9        55.327 9  21914488.118 6         0.000 6      1978.093 6        37.977 6
