     3.00           Observation Data    M (Mixed)           RINEX VERSION / TYPE
SimGEN V6.06.00     Spirent             03-Jul-19 12:00     PGM / RUN BY / DATE 
                                                            MARKER NAME         
1                                                           MARKER NUMBER       
GROUND_CRAFT                                                MARKER TYPE         
jin4hi              Spirent                                 OBSERVER / AGENCY   
rec_num             rec_type            rec_vers            REC # / TYPE / VERS 
1                   ant_type                                ANT # / TYPE        
  1000.000                                                  INTERVAL            
  2019     7     3    12     0    1.0000000     GPS         TIME OF FIRST OBS   
  4162660.8350   664349.8550  4770549.9870                  APPROX POSITION XYZ 
        0.0000        0.0000        0.0000                  ANTENNA: DELTA H/E/N
G    8 C1C L1C D1C S1C C2C L2C D2C S2C                      SYS / # / OBS TYPES 
        0.0000        0.0000        0.0000                  ANTENNA: DELTA X/Y/Z
DBHZ                                                        SIGNAL STRENGTH UNIT
                                                            END OF HEADER       
> 2019 07 03 12 00  1.0000000  0  8       0.000000000000
G07  25371551.556 9 133328357.008 9      2213.161 9        54.123 9  25371552.239 6         0.000 6      1724.541 6        37.977 6
G10  23848738.523 9 125325911.517 9      3537.178 9        54.655 9  23848742.288 6         0.000 6      2756.242 6        37.977 6
G21  21157064.781 9 111181105.203 9     -1229.977 9        55.715 9  21157064.065 6         0.000 6      -958.424 6        37.977 6
G29  24265041.970 9 127513600.404 9     -3115.013 9        54.487 9  24265043.508 6         0.000 6     -2427.283 6        37.977 6
G27  22032603.248 9 115782084.370 9      2513.155 9        55.363 9  22032605.190 6         0.000 6      1958.303 6        37.977 6
G16  20503633.114 9 107747298.935 9       592.832 9        55.974 9  20503632.288 6         0.000 6       461.947 6        37.977 6
G26  20638218.230 9 108454546.629 9     -1449.573 9        55.880 9  20638221.040 6         0.000 6     -1129.538 6        37.977 6
G20  21972578.336 9 115466645.129 9      2591.275 9        55.304 9  21972578.674 6         0.000 6      2019.175 6        37.977 6
> 2019 07 03 12 00  2.0000000  0  8       0.000000000000
G07  25371130.438 9 133326144.022 9      2212.762 9        54.123 9  25371131.121 6         0.000 6      1724.231 6        37.977 6
G10  23848065.429 9 125322374.397 9      3537.066 9        54.655 9  23848069.194 6         0.000 6      2756.158 6        37.977 6
G21  21157298.873 9 111182335.362 9     -1230.342 9        55.715 9  21157298.156 6         0.000 6      -958.708 6        37.977 6
G29  24265634.751 9 127516715.478 9     -3115.127 9        54.487 9  24265636.289 6         0.000 6     -2427.374 6        37.977 6
G27  22032125.031 9 115779571.331 9      2512.925 9        55.363 9  22032126.974 6         0.000 6      1958.124 6        37.977 6
G16  20503520.361 9 107746706.409 9       592.219 9        55.974 9  20503519.534 6         0.000 6       461.470 6        37.977 6
G26  20638494.130 9 108455996.490 9     -1450.152 9        55.880 9  20638496.940 6         0.000 6     -1129.989 6        37.977 6
G20  21972085.274 9 115464054.072 9      2590.843 9        55.305 9  21972085.611 6         0.000 6      2018.840 6        37.977 6
> 2019 07 03 12 00  3.0000000  0  8       0.000000000000
G07  25370709.407 9 133323931.494 9      2212.307 9        54.123 9  25370710.090 6         0.000 6      1723.876 6        37.977 6
G10  23847392.360 9 125318837.406 9      3536.934 9        54.656 9  23847396.124 6         0.000 6      2756.055 6        37.977 6
G21  21157533.034 9 111183565.884 9     -1230.706 9        55.715 9  21157532.317 6         0.000 6      -958.992 6        37.977 6
G29  24266227.547 9 127519830.634 9     -3115.214 9        54.487 9  24266229.086 6         0.000 6     -2427.442 6        37.977 6
G27  22031646.861 9 115777058.530 9      2512.690 9        55.364 9  22031648.803 6         0.000 6      1957.941 6        37.977 6
G16  20503407.724 9 107746114.498 9       591.605 9        55.974 9  20503406.897 6         0.000 6       460.991 6        37.977 6
G26  20638770.139 9 108457446.929 9     -1450.728 9        55.880 9  20638772.950 6         0.000 6     -1130.438 6        37.977 6
G20  21971592.294 9 115461463.450 9      2590.405 9        55.305 9  21971592.631 6         0.000 6      2018.498 6        37.977 6
> 2019 07 03 12 00  4.0000000  0  8       0.000000000000
G07  25370288.463 9 133321719.421 9      2211.852 9        54.124 9  25370289.146 6         0.000 6      1723.522 6        37.977 6
G10  23846719.315 9 125315300.543 9      3536.803 9        54.656 9  23846723.079 6         0.000 6      2755.953 6        37.977 6
G21  21157767.263 9 111184796.769 9     -1231.070 9        55.715 9  21157766.547 6         0.000 6      -959.276 6        37.977 6
G29  24266820.361 9 127522945.881 9     -3115.301 9        54.487 9  24266821.901 6         0.000 6     -2427.510 6        37.977 6
G27  22031168.734 9 115774545.957 9      2512.456 9        55.364 9  22031170.676 6         0.000 6      1957.758 6        37.977 6
G16  20503295.203 9 107745523.196 9       590.992 9        55.974 9  20503294.376 6         0.000 6       460.513 6        37.977 6
G26  20639046.258 9 108458897.939 9     -1451.305 9        55.880 9  20639049.068 6         0.000 6     -1130.888 6        37.977 6
G20  21971099.397 9 115458873.264 9      2589.967 9        55.305 9  21971099.734 6         0.000 6      2018.157 6        37.977 6
> 2019 07 03 12 00  5.0000000  0  8       0.000000000000
G07  25369867.605 9 133319507.800 9      2211.397 9        54.124 9  25369868.287 6         0.000 6      1723.168 6        37.977 6
G10  23846046.297 9 125311763.816 9      3536.672 9        54.656 9  23846050.059 6         0.000 6      2755.851 6        37.977 6
G21  21158001.563 9 111186028.021 9     -1231.434 9        55.715 9  21158000.846 6         0.000 6      -959.559 6        37.977 6
G29  24267413.191 9 127526061.215 9     -3115.388 9        54.486 9  24267414.732 6         0.000 6     -2427.577 6        37.977 6
G27  22030690.652 9 115772033.622 9      2512.221 9        55.364 9  22030692.594 6         0.000 6      1957.575 6        37.977 6
G16  20503182.799 9 107744932.511 9       590.378 9        55.974 9  20503181.972 6         0.000 6       460.035 6        37.977 6
G26  20639322.487 9 108460349.531 9     -1451.882 9        55.879 9  20639325.297 6         0.000 6     -1131.337 6        37.977 6
G20  21970606.584 9 115456283.521 9      2589.529 9        55.305 9  21970606.921 6         0.000 6      2017.816 6        37.977 6
> 2019 07 03 12 00  6.0000000  0  8       0.000000000000
G07  25369446.834 9 133317296.637 9      2210.942 9        54.124 9  25369447.516 6         0.000 6      1722.813 6        37.977 6
G10  23845373.302 9 125308227.217 9      3536.540 9        54.656 9  23845377.064 6         0.000 6      2755.748 6        37.977 6
G21  21158235.931 9 111187259.634 9     -1231.798 9        55.714 9  21158235.215 6         0.000 6      -959.843 6        37.977 6
G29  24268006.038 9 127529176.636 9     -3115.475 9        54.486 9  24268007.579 6         0.000 6     -2427.645 6        37.977 6
G27  22030212.614 9 115769521.519 9      2511.986 9        55.364 9  22030214.556 6         0.000 6      1957.392 6        37.977 6
G16  20503070.512 9 107744342.437 9       589.764 9        55.974 9  20503069.685 6         0.000 6       459.556 6        37.977 6
G26  20639598.825 9 108461801.694 9     -1452.459 9        55.879 9  20639601.635 6         0.000 6     -1131.786 6        37.977 6
G20  21970113.854 9 115453694.211 9      2589.091 9        55.305 9  21970114.191 6         0.000 6      2017.475 6        37.977 6
> 2019 07 03 12 00  7.0000000  0  8       0.000000000000
G07  25369026.149 9 133315085.926 9      2210.487 9        54.124 9  25369026.831 6         0.000 6      1722.458 6        37.977 6
G10  23844700.333 9 125304690.753 9      3536.409 9        54.656 9  23844704.095 6         0.000 6      2755.646 6        37.977 6
G21  21158470.369 9 111188491.613 9     -1232.162 9        55.714 9  21158469.653 6         0.000 6      -960.126 6        37.977 6
G29  24268598.902 9 127532292.144 9     -3115.561 9        54.486 9  24268600.443 6         0.000 6     -2427.713 6        37.977 6
G27  22029734.621 9 115767009.653 9      2511.751 9        55.364 9  22029736.563 6         0.000 6      1957.209 6        37.977 6
G16  20502958.342 9 107743752.981 9       589.150 9        55.974 9  20502957.515 6         0.000 6       459.078 6        37.977 6
G26  20639875.273 9 108463254.439 9     -1453.035 9        55.879 9  20639878.084 6         0.000 6     -1132.236 6        37.977 6
G20  21969621.208 9 115451105.344 9      2588.653 9        55.306 9  21969621.544 6         0.000 6      2017.133 6        37.977 6
> 2019 07 03 12 00  8.0000000  0  8       0.000000000000
G07  25368605.551 9 133312875.673 9      2210.032 9        54.124 9  25368606.233 6         0.000 6      1722.104 6        37.977 6
G10  23844027.389 9 125301154.416 9      3536.277 9        54.657 9  23844031.149 6         0.000 6      2755.543 6        37.977 6
G21  21158704.876 9 111189723.954 9     -1232.526 9        55.714 9  21158704.159 6         0.000 6      -960.410 6        37.977 6
G29  24269191.781 9 127535407.739 9     -3115.648 9        54.486 9  24269193.324 6         0.000 6     -2427.780 6        37.977 6
G27  22029256.673 9 115764498.021 9      2511.516 9        55.365 9  22029258.614 6         0.000 6      1957.026 6        37.977 6
G16  20502846.288 9 107743164.134 9       588.536 9        55.974 9  20502845.461 6         0.000 6       458.600 6        37.977 6
G26  20640151.830 9 108464707.756 9     -1453.612 9        55.879 9  20640154.641 6         0.000 6     -1132.685 6        37.977 6
G20  21969128.645 9 115448516.910 9      2588.215 9        55.306 9  21969128.981 6         0.000 6      2016.792 6        37.977 6
> 2019 07 03 12 00  9.0000000  0  8       0.000000000000
G07  25368185.039 9 133310665.872 9      2209.577 9        54.124 9  25368185.721 6         0.000 6      1721.749 6        37.977 6
G10  23843354.470 9 125297618.216 9      3536.145 9        54.657 9  23843358.230 6         0.000 6      2755.441 6        37.977 6
G21  21158939.452 9 111190956.661 9     -1232.889 9        55.714 9  21158938.736 6         0.000 6      -960.693 6        37.977 6
G29  24269784.678 9 127538523.421 9     -3115.735 9        54.486 9  24269786.221 6         0.000 6     -2427.848 6        37.977 6
G27  22028778.769 9 115761986.624 9      2511.281 9        55.365 9  22028780.711 6         0.000 6      1956.843 6        37.977 6
G16  20502734.352 9 107742575.905 9       587.922 9        55.974 9  20502733.525 6         0.000 6       458.121 6        37.977 6
G26  20640428.498 9 108466161.655 9     -1454.188 9        55.879 9  20640431.309 6         0.000 6     -1133.134 6        37.977 6
G20  21968636.166 9 115445928.920 9      2587.776 9        55.306 9  21968636.501 6         0.000 6      2016.450 6        37.977 6
> 2019 07 03 12 00 10.0000000  0  8       0.000000000000
G07  25367764.615 9 133308456.529 9      2209.122 9        54.124 9  25367765.296 6         0.000 6      1721.394 6        37.977 6
G10  23842681.576 9 125294082.143 9      3536.013 9        54.657 9  23842685.335 6         0.000 6      2755.338 6        37.977 6
G21  21159174.098 9 111192189.729 9     -1233.253 9        55.714 9  21159173.381 6         0.000 6      -960.977 6        37.977 6
G29  24270377.591 9 127541639.189 9     -3115.822 9        54.485 9  24270379.134 6         0.000 6     -2427.915 6        37.977 6
G27  22028300.910 9 115759475.461 9      2511.047 9        55.365 9  22028302.852 6         0.000 6      1956.660 6        37.977 6
G16  20502622.532 9 107741988.287 9       587.308 9        55.974 9  20502621.705 6         0.000 6       457.643 6        37.977 6
G26  20640705.275 9 108467616.125 9     -1454.765 9        55.879 9  20640708.086 6         0.000 6     -1133.583 6        37.977 6
G20  21968143.769 9 115443341.363 9      2587.338 9        55.306 9  21968144.105 6         0.000 6      2016.108 6        37.977 6
> 2019 07 03 12 00 11.0000000  0  8       0.000000000000
G07  25367344.277 9 133306247.642 9      2208.666 9        54.125 9  25367344.957 6         0.000 6      1721.039 6        37.977 6
G10  23842008.707 9 125290546.204 9      3535.881 9        54.657 9  23842012.466 6         0.000 6      2755.235 6        37.977 6
G21  21159408.812 9 111193423.161 9     -1233.617 9        55.714 9  21159408.096 6         0.000 6      -961.260 6        37.977 6
G29  24270970.519 9 127544755.038 9     -3115.908 9        54.485 9  24270972.063 6         0.000 6     -2427.983 6        37.977 6
G27  22027823.097 9 115756964.539 9      2510.812 9        55.365 9  22027825.038 6         0.000 6      1956.477 6        37.977 6
G16  20502510.829 9 107741401.288 9       586.694 9        55.974 9  20502510.003 6         0.000 6       457.164 6        37.977 6
G26  20640982.163 9 108469071.176 9     -1455.341 9        55.879 9  20640984.974 6         0.000 6     -1134.033 6        37.977 6
G20  21967651.456 9 115440754.246 9      2586.899 9        55.306 9  21967651.791 6         0.000 6      2015.767 6        37.977 6
> 2019 07 03 12 00 12.0000000  0  8       0.000000000000
G07  25366924.025 9 133304039.207 9      2208.211 9        54.125 9  25366924.705 6         0.000 6      1720.685 6        37.977 6
G10  23841335.864 9 125287010.399 9      3535.749 9        54.658 9  23841339.622 6         0.000 6      2755.132 6        37.977 6
G21  21159643.596 9 111194656.959 9     -1233.980 9        55.714 9  21159642.880 6         0.000 6      -961.543 6        37.977 6
G29  24271563.465 9 127547870.980 9     -3115.995 9        54.485 9  24271565.010 6         0.000 6     -2428.051 6        37.977 6
G27  22027345.328 9 115754453.847 9      2510.577 9        55.365 9  22027347.269 6         0.000 6      1956.294 6        37.977 6
G16  20502399.244 9 107740814.901 9       586.080 9        55.974 9  20502398.417 6         0.000 6       456.686 6        37.977 6
G26  20641259.160 9 108470526.804 9     -1455.918 9        55.879 9  20641261.971 6         0.000 6     -1134.482 6        37.977 6
G20  21967159.228 9 115438167.571 9      2586.461 9        55.306 9  21967159.562 6         0.000 6      2015.425 6        37.977 6
> 2019 07 03 12 00 13.0000000  0  8       0.000000000000
G07  25366503.860 9 133301831.231 9      2207.755 9        54.125 9  25366504.541 6         0.000 6      1720.330 6        37.977 6
G10  23840663.045 9 125283474.722 9      3535.617 9        54.658 9  23840666.802 6         0.000 6      2755.029 6        37.977 6
G21  21159878.449 9 111195891.118 9     -1234.344 9        55.714 9  21159877.733 6         0.000 6      -961.826 6        37.977 6
G29  24272156.427 9 127550987.008 9     -3116.082 9        54.485 9  24272157.973 6         0.000 6     -2428.118 6        37.977 6
G27  22026867.603 9 115751943.389 9      2510.341 9        55.365 9  22026869.544 6         0.000 6      1956.111 6        37.977 6
G16  20502287.774 9 107740229.125 9       585.466 9        55.974 9  20502286.948 6         0.000 6       456.207 6        37.977 6
G26  20641536.266 9 108471983.003 9     -1456.494 9        55.878 9  20641539.077 6         0.000 6     -1134.931 6        37.977 6
G20  21966667.081 9 115435581.330 9      2586.022 9        55.307 9  21966667.416 6         0.000 6      2015.083 6        37.977 6
> 2019 07 03 12 00 14.0000000  0  8       0.000000000000
G07  25366083.782 9 133299623.707 9      2207.300 9        54.125 9  25366084.462 6         0.000 6      1719.975 6        37.977 6
G10  23839990.252 9 125279939.182 9      3535.485 9        54.658 9  23839994.008 6         0.000 6      2754.926 6        37.977 6
G21  21160113.371 9 111197125.642 9     -1234.707 9        55.714 9  21160112.655 6         0.000 6      -962.110 6        37.977 6
G29  24272749.406 9 127554103.123 9     -3116.168 9        54.485 9  24272750.952 6         0.000 6     -2428.186 6        37.977 6
G27  22026389.923 9 115749433.168 9      2510.106 9        55.366 9  22026391.864 6         0.000 6      1955.928 6        37.977 6
G16  20502176.422 9 107739643.967 9       584.851 9        55.974 9  20502175.596 6         0.000 6       455.728 6        37.977 6
G26  20641813.482 9 108473439.784 9     -1457.071 9        55.878 9  20641816.294 6         0.000 6     -1135.380 6        37.977 6
G20  21966175.020 9 115432995.532 9      2585.583 9        55.307 9  21966175.354 6         0.000 6      2014.741 6        37.977 6
> 2019 07 03 12 00 15.0000000  0  8       0.000000000000
G07  25365663.790 9 133297416.642 9      2206.844 9        54.125 9  25365664.470 6         0.000 6      1719.620 6        37.977 6
G10  23839317.483 9 125276403.770 9      3535.353 9        54.658 9  23839321.239 6         0.000 6      2754.823 6        37.977 6
G21  21160348.362 9 111198360.528 9     -1235.071 9        55.714 9  21160347.646 6         0.000 6      -962.393 6        37.977 6
G29  24273342.402 9 127557219.325 9     -3116.255 9        54.484 9  24273343.948 6         0.000 6     -2428.253 6        37.977 6
G27  22025912.288 9 115746923.180 9      2509.871 9        55.366 9  22025914.229 6         0.000 6      1955.745 6        37.977 6
G16  20502065.187 9 107739059.420 9       584.237 9        55.975 9  20502064.360 6         0.000 6       455.250 6        37.977 6
G26  20642090.807 9 108474897.136 9     -1457.647 9        55.878 9  20642093.619 6         0.000 6     -1135.829 6        37.977 6
G20  21965683.041 9 115430410.169 9      2585.144 9        55.307 9  21965683.374 6         0.000 6      2014.399 6        37.977 6
> 2019 07 03 12 00 16.0000000  0  8       0.000000000000
G07  25365243.885 9 133295210.029 9      2206.388 9        54.125 9  25365244.565 6         0.000 6      1719.264 6        37.977 6
G10  23838644.740 9 125272868.494 9      3535.220 9        54.659 9  23838648.496 6         0.000 6      2754.720 6        37.977 6
G21  21160583.423 9 111199595.780 9     -1235.434 9        55.713 9  21160582.707 6         0.000 6      -962.676 6        37.977 6
G29  24273935.413 9 127560335.613 9     -3116.341 9        54.484 9  24273936.960 6         0.000 6     -2428.321 6        37.977 6
G27  22025434.698 9 115744413.429 9      2509.636 9        55.366 9  22025436.638 6         0.000 6      1955.561 6        37.977 6
G16  20501954.069 9 107738475.490 9       583.623 9        55.975 9  20501953.242 6         0.000 6       454.771 6        37.977 6
G26  20642368.243 9 108476355.069 9     -1458.223 9        55.878 9  20642371.055 6         0.000 6     -1136.278 6        37.977 6
G20  21965191.146 9 115427825.249 9      2584.705 9        55.307 9  21965191.479 6         0.000 6      2014.057 6        37.977 6
> 2019 07 03 12 00 17.0000000  0  8       0.000000000000
G07  25364824.067 9 133293003.876 9      2205.932 9        54.125 9  25364824.747 6         0.000 6      1718.909 6        37.977 6
G10  23837972.022 9 125269333.347 9      3535.087 9        54.659 9  23837975.777 6         0.000 6      2754.616 6        37.977 6
G21  21160818.552 9 111200831.392 9     -1235.797 9        55.713 9  21160817.836 6         0.000 6      -962.959 6        37.977 6
G29  24274528.442 9 127563451.987 9     -3116.428 9        54.484 9  24274529.989 6         0.000 6     -2428.388 6        37.977 6
G27  22024957.152 9 115741903.911 9      2509.401 9        55.366 9  22024959.092 6         0.000 6      1955.378 6        37.977 6
G16  20501843.067 9 107737892.171 9       583.008 9        55.975 9  20501842.240 6         0.000 6       454.292 6        37.977 6
G26  20642645.788 9 108477813.574 9     -1458.800 9        55.878 9  20642648.599 6         0.000 6     -1136.727 6        37.977 6
G20  21964699.334 9 115425240.764 9      2584.266 9        55.307 9  21964699.667 6         0.000 6      2013.715 6        37.977 6
> 2019 07 03 12 00 18.0000000  0  8       0.000000000000
G07  25364404.336 9 133290798.178 9      2205.476 9        54.126 9  25364405.016 6         0.000 6      1718.554 6        37.977 6
G10  23837299.330 9 125265798.334 9      3534.955 9        54.659 9  23837303.084 6         0.000 6      2754.513 6        37.977 6
G21  21161053.751 9 111202067.368 9     -1236.160 9        55.713 9  21161053.035 6         0.000 6      -963.242 6        37.977 6
G29  24275121.485 9 127566568.443 9     -3116.515 9        54.484 9  24275123.034 6         0.000 6     -2428.455 6        37.977 6
G27  22024479.652 9 115739394.635 9      2509.166 9        55.366 9  22024481.592 6         0.000 6      1955.195 6        37.977 6
G16  20501732.183 9 107737309.471 9       582.394 9        55.975 9  20501731.356 6         0.000 6       453.814 6        37.977 6
G26  20642923.443 9 108479272.660 9     -1459.376 9        55.878 9  20642926.255 6         0.000 6     -1137.176 6        37.977 6
G20  21964207.605 9 115422656.719 9      2583.827 9        55.308 9  21964207.938 6         0.000 6      2013.373 6        37.977 6
> 2019 07 03 12 00 19.0000000  0  8       0.000000000000
G07  25363984.692 9 133288592.936 9      2205.020 9        54.126 9  25363985.371 6         0.000 6      1718.199 6        37.977 6
G10  23836626.662 9 125262263.452 9      3534.822 9        54.659 9  23836630.415 6         0.000 6      2754.409 6        37.977 6
G21  21161289.019 9 111203303.707 9     -1236.524 9        55.713 9  21161288.303 6         0.000 6      -963.525 6        37.977 6
G29  24275714.547 9 127569684.991 9     -3116.601 9        54.483 9  24275716.096 6         0.000 6     -2428.523 6        37.977 6
G27  22024002.196 9 115736885.587 9      2508.930 9        55.367 9  22024004.135 6         0.000 6      1955.011 6        37.977 6
G16  20501621.415 9 107736727.381 9       581.780 9        55.975 9  20501620.588 6         0.000 6       453.335 6        37.977 6
G26  20643201.207 9 108480732.318 9     -1459.952 9        55.878 9  20643204.019 6         0.000 6     -1137.625 6        37.977 6
G20  21963715.961 9 115420073.112 9      2583.387 9        55.308 9  21963716.293 6         0.000 6      2013.030 6        37.977 6
> 2019 07 03 12 00 20.0000000  0  8       0.000000000000
G07  25363565.134 9 133286388.147 9      2204.564 9        54.126 9  25363565.813 6         0.000 6      1717.843 6        37.977 6
G10  23835954.020 9 125258728.708 9      3534.689 9        54.660 9  23835957.773 6         0.000 6      2754.306 6        37.977 6
G21  21161524.356 9 111204540.411 9     -1236.887 9        55.713 9  21161523.640 6         0.000 6      -963.808 6        37.977 6
G29  24276307.624 9 127572801.625 9     -3116.688 9        54.483 9  24276309.174 6         0.000 6     -2428.590 6        37.977 6
G27  22023524.785 9 115734376.778 9      2508.695 9        55.367 9  22023526.724 6         0.000 6      1954.828 6        37.977 6
G16  20501510.764 9 107736145.909 9       581.165 9        55.975 9  20501509.937 6         0.000 6       452.856 6        37.977 6
G26  20643479.081 9 108482192.556 9     -1460.528 9        55.878 9  20643481.893 6         0.000 6     -1138.074 6        37.977 6
G20  21963224.400 9 115417489.949 9      2582.948 9        55.308 9  21963224.732 6         0.000 6      2012.688 6        37.977 6
> 2019 07 03 12 00 21.0000000  0  8       0.000000000000
G07  25363145.663 9 133284183.817 9      2204.108 9        54.126 9  25363146.342 6         0.000 6      1717.488 6        37.977 6
G10  23835281.403 9 125255194.092 9      3534.556 9        54.660 9  23835285.155 6         0.000 6      2754.202 6        37.977 6
G21  21161759.762 9 111205777.477 9     -1237.250 9        55.713 9  21161759.046 6         0.000 6      -964.091 6        37.977 6
G29  24276900.718 9 127575918.346 9     -3116.774 9        54.483 9  24276902.269 6         0.000 6     -2428.658 6        37.977 6
G27  22023047.418 9 115731868.201 9      2508.460 9        55.367 9  22023049.357 6         0.000 6      1954.645 6        37.977 6
G16  20501400.230 9 107735565.048 9       580.551 9        55.975 9  20501399.403 6         0.000 6       452.377 6        37.977 6
G26  20643757.064 9 108483653.366 9     -1461.104 9        55.878 9  20643759.877 6         0.000 6     -1138.523 6        37.977 6
G20  21962732.922 9 115414907.221 9      2582.509 9        55.308 9  21962733.255 6         0.000 6      2012.345 6        37.977 6
> 2019 07 03 12 00 22.0000000  0  8       0.000000000000
G07  25362726.279 9 133281979.941 9      2203.652 9        54.126 9  25362726.957 6         0.000 6      1717.132 6        37.977 6
G10  23834608.812 9 125251659.613 9      3534.423 9        54.660 9  23834612.564 6         0.000 6      2754.098 6        37.977 6
G21  21161995.237 9 111207014.907 9     -1237.613 9        55.713 9  21161994.521 6         0.000 6      -964.374 6        37.977 6
G29  24277493.829 9 127579035.153 9     -3116.860 9        54.483 9  24277495.380 6         0.000 6     -2428.725 6        37.977 6
G27  22022570.096 9 115729359.862 9      2508.224 9        55.367 9  22022572.035 6         0.000 6      1954.461 6        37.977 6
G16  20501289.813 9 107734984.804 9       579.936 9        55.975 9  20501288.986 6         0.000 6       451.898 6        37.977 6
G26  20644035.158 9 108485114.757 9     -1461.681 9        55.877 9  20644037.970 6         0.000 6     -1138.972 6        37.977 6
G20  21962241.529 9 115412324.937 9      2582.069 9        55.308 9  21962241.861 6         0.000 6      2012.003 6        37.977 6
> 2019 07 03 12 00 23.0000000  0  8       0.000000000000
G07  25362306.981 9 133279776.521 9      2203.196 9        54.126 9  25362307.660 6         0.000 6      1716.777 6        37.977 6
G10  23833936.247 9 125248125.268 9      3534.290 9        54.660 9  23833939.997 6         0.000 6      2753.995 6        37.977 6
G21  21162230.781 9 111208252.701 9     -1237.976 9        55.713 9  21162230.065 6         0.000 6      -964.657 6        37.977 6
G29  24278086.956 9 127582152.046 9     -3116.947 9        54.483 9  24278088.508 6         0.000 6     -2428.792 6        37.977 6
G27  22022092.819 9 115726851.758 9      2507.989 9        55.367 9  22022094.758 6         0.000 6      1954.278 6        37.977 6
G16  20501179.513 9 107734405.176 9       579.322 9        55.975 9  20501178.687 6         0.000 6       451.419 6        37.977 6
G26  20644313.361 9 108486576.723 9     -1462.257 9        55.877 9  20644316.174 6         0.000 6     -1139.421 6        37.977 6
G20  21961750.220 9 115409743.092 9      2581.629 9        55.309 9  21961750.551 6         0.000 6      2011.660 6        37.977 6
> 2019 07 03 12 00 24.0000000  0  8       0.000000000000
G07  25361887.771 9 133277573.560 9      2202.739 9        54.126 9  25361888.449 6         0.000 6      1716.421 6        37.977 6
G10  23833263.706 9 125244591.051 9      3534.156 9        54.661 9  23833267.456 6         0.000 6      2753.891 6        37.977 6
G21  21162466.394 9 111209490.855 9     -1238.339 9        55.713 9  21162465.678 6         0.000 6      -964.939 6        37.977 6
G29  24278680.100 9 127585269.026 9     -3117.033 9        54.482 9  24278681.652 6         0.000 6     -2428.860 6        37.977 6
G27  22021615.587 9 115724343.888 9      2507.753 9        55.368 9  22021617.526 6         0.000 6      1954.094 6        37.977 6
G16  20501069.330 9 107733826.158 9       578.707 9        55.975 9  20501068.503 6         0.000 6       450.941 6        37.977 6
G26  20644591.674 9 108488039.261 9     -1462.833 9        55.877 9  20644594.486 6         0.000 6     -1139.870 6        37.977 6
G20  21961258.993 9 115407161.683 9      2581.189 9        55.309 9  21961259.324 6         0.000 6      2011.318 6        37.977 6
> 2019 07 03 12 00 25.0000000  0  8       0.000000000000
G07  25361468.647 9 133275371.052 9      2202.283 9        54.127 9  25361469.325 6         0.000 6      1716.065 6        37.977 6
G10  23832591.191 9 125241056.972 9      3534.023 9        54.661 9  23832594.940 6         0.000 6      2753.787 6        37.977 6
G21  21162702.077 9 111210729.374 9     -1238.701 9        55.713 9  21162701.361 6         0.000 6      -965.222 6        37.977 6
G29  24279273.260 9 127588386.093 9     -3117.120 9        54.482 9  24279274.812 6         0.000 6     -2428.927 6        37.977 6
G27  22021138.400 9 115721836.255 9      2507.518 9        55.368 9  22021140.338 6         0.000 6      1953.911 6        37.977 6
G16  20500959.264 9 107733247.758 9       578.092 9        55.975 9  20500958.438 6         0.000 6       450.462 6        37.977 6
G26  20644870.096 9 108489502.380 9     -1463.409 9        55.877 9  20644872.909 6         0.000 6     -1140.319 6        37.977 6
G20  21960767.851 9 115404580.718 9      2580.750 9        55.309 9  21960768.182 6         0.000 6      2010.975 6        37.977 6
> 2019 07 03 12 00 26.0000000  0  8       0.000000000000
G07  25361049.611 9 133273169.007 9      2201.826 9        54.127 9  25361050.289 6         0.000 6      1715.710 6        37.977 6
G10  23831918.700 9 125237523.021 9      3533.889 9        54.661 9  23831922.449 6         0.000 6      2753.683 6        37.977 6
G21  21162937.827 9 111211968.251 9     -1239.064 9        55.713 9  21162937.112 6         0.000 6      -965.505 6        37.977 6
G29  24279866.435 9 127591503.240 9     -3117.206 9        54.482 9  24279867.988 6         0.000 6     -2428.994 6        37.977 6
G27  22020661.258 9 115719328.859 9      2507.282 9        55.368 9  22020663.196 6         0.000 6      1953.727 6        37.977 6
G16  20500849.315 9 107732669.972 9       577.478 9        55.975 9  20500848.488 6         0.000 6       449.983 6        37.977 6
G26  20645148.627 9 108490966.070 9     -1463.985 9        55.877 9  20645151.440 6         0.000 6     -1140.768 6        37.977 6
G20  21960276.791 9 115402000.186 9      2580.310 9        55.309 9  21960277.122 6         0.000 6      2010.632 6        37.977 6
> 2019 07 03 12 00 27.0000000  0  8       0.000000000000
G07  25360630.661 9 133270967.412 9      2201.370 9        54.127 9  25360631.338 6         0.000 6      1715.354 6        37.977 6
G10  23831246.236 9 125233989.209 9      3533.755 9        54.661 9  23831249.984 6         0.000 6      2753.578 6        37.977 6
G21  21163173.648 9 111213207.496 9     -1239.427 9        55.712 9  21163172.932 6         0.000 6      -965.787 6        37.977 6
G29  24280459.628 9 127594620.479 9     -3117.292 9        54.482 9  24280461.182 6         0.000 6     -2429.062 6        37.977 6
G27  22020184.160 9 115716821.697 9      2507.047 9        55.368 9  22020186.099 6         0.000 6      1953.544 6        37.977 6
G16  20500739.483 9 107732092.802 9       576.863 9        55.975 9  20500738.657 6         0.000 6       449.504 6        37.977 6
G26  20645427.269 9 108492430.341 9     -1464.561 9        55.877 9  20645430.082 6         0.000 6     -1141.217 6        37.977 6
G20  21959785.816 9 115399420.101 9      2579.870 9        55.309 9  21959786.147 6         0.000 6      2010.289 6        37.977 6
> 2019 07 03 12 00 28.0000000  0  8       0.000000000000
G07  25360211.798 9 133268766.278 9      2200.913 9        54.127 9  25360212.475 6         0.000 6      1714.998 6        37.977 6
G10  23830573.796 9 125230455.527 9      3533.622 9        54.662 9  23830577.544 6         0.000 6      2753.474 6        37.977 6
G21  21163409.537 9 111214447.101 9     -1239.790 9        55.712 9  21163408.822 6         0.000 6      -966.070 6        37.977 6
G29  24281052.837 9 127597737.804 9     -3117.379 9        54.482 9  24281054.392 6         0.000 6     -2429.129 6        37.977 6
G27  22019707.107 9 115714314.769 9      2506.811 9        55.368 9  22019709.045 6         0.000 6      1953.360 6        37.977 6
G16  20500629.768 9 107731516.243 9       576.248 9        55.975 9  20500628.941 6         0.000 6       449.024 6        37.977 6
G26  20645706.020 9 108493895.183 9     -1465.137 9        55.877 9  20645708.833 6         0.000 6     -1141.665 6        37.977 6
G20  21959294.924 9 115396840.452 9      2579.429 9        55.310 9  21959295.255 6         0.000 6      2009.946 6        37.977 6
> 2019 07 03 12 00 29.0000000  0  8       0.000000000000
G07  25359793.022 9 133266565.597 9      2200.456 9        54.127 9  25359793.699 6         0.000 6      1714.642 6        37.977 6
G10  23829901.383 9 125226921.983 9      3533.488 9        54.662 9  23829905.130 6         0.000 6      2753.370 6        37.977 6
G21  21163645.496 9 111215687.072 9     -1240.152 9        55.712 9  21163644.780 6         0.000 6      -966.352 6        37.977 6
G29  24281646.063 9 127600855.216 9     -3117.465 9        54.481 9  24281647.618 6         0.000 6     -2429.196 6        37.977 6
G27  22019230.099 9 115711808.078 9      2506.576 9        55.368 9  22019232.037 6         0.000 6      1953.176 6        37.977 6
G16  20500520.170 9 107730940.302 9       575.633 9        55.975 9  20500519.343 6         0.000 6       448.545 6        37.977 6
G26  20645984.881 9 108495360.606 9     -1465.712 9        55.877 9  20645987.694 6         0.000 6     -1142.114 6        37.977 6
G20  21958804.117 9 115394261.247 9      2578.989 9        55.310 9  21958804.447 6         0.000 6      2009.603 6        37.977 6
> 2019 07 03 12 00 30.0000000  0  8       0.000000000000
G07  25359374.333 9 133264365.375 9      2199.999 9        54.127 9  25359375.010 6         0.000 6      1714.286 6        37.977 6
G10  23829228.995 9 125223388.568 9      3533.354 9        54.662 9  23829232.741 6         0.000 6      2753.265 6        37.977 6
G21  21163881.523 9 111216927.402 9     -1240.515 9        55.712 9  21163880.807 6         0.000 6      -966.635 6        37.977 6
G29  24282239.305 9 127603972.714 9     -3117.551 9        54.481 9  24282240.860 6         0.000 6     -2429.263 6        37.977 6
G27  22018753.136 9 115709301.622 9      2506.340 9        55.369 9  22018755.074 6         0.000 6      1952.993 6        37.977 6
G16  20500410.688 9 107730364.973 9       575.018 9        55.975 9  20500409.862 6         0.000 6       448.066 6        37.977 6
G26  20646263.850 9 108496826.600 9     -1466.288 9        55.877 9  20646266.664 6         0.000 6     -1142.563 6        37.977 6
G20  21958313.393 9 115391682.478 9      2578.549 9        55.310 9  21958313.723 6         0.000 6      2009.260 6        37.977 6
> 2019 07 03 12 00 31.0000000  0  8       0.000000000000
G07  25358955.731 9 133262165.608 9      2199.542 9        54.127 9  25358956.407 6         0.000 6      1713.930 6        37.977 6
G10  23828556.633 9 125219855.292 9      3533.220 9        54.662 9  23828560.378 6         0.000 6      2753.161 6        37.977 6
G21  21164117.619 9 111218168.097 9     -1240.877 9        55.712 9  21164116.904 6         0.000 6      -966.917 6        37.977 6
G29  24282832.563 9 127607090.298 9     -3117.637 9        54.481 9  24282834.120 6         0.000 6     -2429.330 6        37.977 6
G27  22018276.218 9 115706795.402 9      2506.104 9        55.369 9  22018278.155 6         0.000 6      1952.809 6        37.977 6
G16  20500301.325 9 107729790.262 9       574.403 9        55.975 9  20500300.498 6         0.000 6       447.587 6        37.977 6
G26  20646542.931 9 108498293.175 9     -1466.864 9        55.876 9  20646545.744 6         0.000 6     -1143.011 6        37.977 6
G20  21957822.753 9 115389104.154 9      2578.108 9        55.310 9  21957823.083 6         0.000 6      2008.917 6        37.977 6
> 2019 07 03 12 00 32.0000000  0  8       0.000000000000
G07  25358537.215 9 133259966.298 9      2199.085 9        54.128 9  25358537.891 6         0.000 6      1713.574 6        37.977 6
G10  23827884.296 9 125216322.150 9      3533.086 9        54.663 9  23827888.041 6         0.000 6      2753.056 6        37.977 6
G21  21164353.785 9 111219409.155 9     -1241.240 9        55.712 9  21164353.070 6         0.000 6      -967.200 6        37.977 6
G29  24283425.838 9 127610207.969 9     -3117.724 9        54.481 9  24283427.395 6         0.000 6     -2429.398 6        37.977 6
G27  22017799.344 9 115704289.419 9      2505.868 9        55.369 9  22017801.282 6         0.000 6      1952.625 6        37.977 6
G16  20500192.078 9 107729216.166 9       573.789 9        55.975 9  20500191.251 6         0.000 6       447.108 6        37.977 6
G26  20646822.120 9 108499760.325 9     -1467.440 9        55.876 9  20646824.934 6         0.000 6     -1143.460 6        37.977 6
G20  21957332.198 9 115386526.271 9      2577.668 9        55.310 9  21957332.527 6         0.000 6      2008.573 6        37.977 6
> 2019 07 03 12 00 33.0000000  0  8       0.000000000000
G07  25358118.787 9 133257767.447 9      2198.628 9        54.128 9  25358119.463 6         0.000 6      1713.218 6        37.977 6
G10  23827211.984 9 125212789.138 9      3532.951 9        54.663 9  23827215.728 6         0.000 6      2752.952 6        37.977 6
G21  21164590.019 9 111220650.572 9     -1241.602 9        55.712 9  21164589.304 6         0.000 6      -967.482 6        37.977 6
G29  24284019.129 9 127613325.725 9     -3117.810 9        54.481 9  24284020.687 6         0.000 6     -2429.465 6        37.977 6
G27  22017322.515 9 115701783.669 9      2505.633 9        55.369 9  22017324.453 6         0.000 6      1952.442 6        37.977 6
G16  20500082.947 9 107728642.682 9       573.174 9        55.975 9  20500082.121 6         0.000 6       446.629 6        37.977 6
G26  20647101.419 9 108501228.046 9     -1468.016 9        55.876 9  20647104.232 6         0.000 6     -1143.909 6        37.977 6
G20  21956841.725 9 115383948.824 9      2577.227 9        55.311 9  21956842.054 6         0.000 6      2008.230 6        37.977 6
> 2019 07 03 12 00 34.0000000  0  8       0.000000000000
G07  25357700.446 9 133255569.054 9      2198.171 9        54.128 9  25357701.122 6         0.000 6      1712.862 6        37.977 6
G10  23826539.698 9 125209256.262 9      3532.817 9        54.663 9  23826543.442 6         0.000 6      2752.847 6        37.977 6
G21  21164826.322 9 111221892.353 9     -1241.964 9        55.712 9  21164825.607 6         0.000 6      -967.765 6        37.977 6
G29  24284612.436 9 127616443.563 9     -3117.896 9        54.480 9  24284613.994 6         0.000 6     -2429.532 6        37.977 6
G27  22016845.733 9 115699278.161 9      2505.397 9        55.369 9  22016847.670 6         0.000 6      1952.258 6        37.977 6
G16  20499973.935 9 107728069.818 9       572.559 9        55.975 9  20499973.108 6         0.000 6       446.150 6        37.977 6
G26  20647380.828 9 108502696.348 9     -1468.591 9        55.876 9  20647383.641 6         0.000 6     -1144.357 6        37.977 6
G20  21956351.336 9 115381371.818 9      2576.786 9        55.311 9  21956351.665 6         0.000 6      2007.887 6        37.977 6
> 2019 07 03 12 00 35.0000000  0  8       0.000000000000
G07  25357282.192 9 133253371.118 9      2197.714 9        54.128 9  25357282.868 6         0.000 6      1712.505 6        37.977 6
G10  23825867.438 9 125205723.519 9      3532.682 9        54.663 9  23825871.180 6         0.000 6      2752.742 6        37.977 6
G21  21165062.694 9 111223134.495 9     -1242.327 9        55.712 9  21165061.979 6         0.000 6      -968.047 6        37.977 6
G29  24285205.760 9 127619561.491 9     -3117.982 9        54.480 9  24285207.319 6         0.000 6     -2429.599 6        37.977 6
G27  22016368.994 9 115696772.883 9      2505.161 9        55.370 9  22016370.931 6         0.000 6      1952.074 6        37.977 6
G16  20499865.038 9 107727497.563 9       571.944 9        55.975 9  20499864.212 6         0.000 6       445.670 6        37.977 6
G26  20647660.345 9 108504165.220 9     -1469.167 9        55.876 9  20647663.159 6         0.000 6     -1144.806 6        37.977 6
G20  21955861.031 9 115378795.253 9      2576.346 9        55.311 9  21955861.359 6         0.000 6      2007.543 6        37.977 6
> 2019 07 03 12 00 36.0000000  0  8       0.000000000000
G07  25356864.024 9 133251173.636 9      2197.257 9        54.128 9  25356864.700 6         0.000 6      1712.149 6        37.977 6
G10  23825195.203 9 125202190.914 9      3532.548 9        54.664 9  23825198.945 6         0.000 6      2752.637 6        37.977 6
G21  21165299.136 9 111224377.002 9     -1242.689 9        55.712 9  21165298.420 6         0.000 6      -968.329 6        37.977 6
G29  24285799.100 9 127622679.507 9     -3118.068 9        54.480 9  24285800.660 6         0.000 6     -2429.666 6        37.977 6
G27  22015892.300 9 115694267.843 9      2504.925 9        55.370 9  22015894.237 6         0.000 6      1951.890 6        37.977 6
G16  20499756.260 9 107726925.927 9       571.328 9        55.976 9  20499755.433 6         0.000 6       445.191 6        37.977 6
G26  20647939.973 9 108505634.674 9     -1469.743 9        55.876 9  20647942.787 6         0.000 6     -1145.255 6        37.977 6
G20  21955370.811 9 115376219.132 9      2575.905 9        55.311 9  21955371.139 6         0.000 6      2007.200 6        37.977 6
> 2019 07 03 12 00 37.0000000  0  8       0.000000000000
G07  25356445.944 9 133248976.615 9      2196.799 9        54.128 9  25356446.620 6         0.000 6      1711.793 6        37.977 6
G10  23824522.994 9 125198658.440 9      3532.413 9        54.664 9  23824526.735 6         0.000 6      2752.532 6        37.977 6
G21  21165535.645 9 111225619.869 9     -1243.051 9        55.711 9  21165534.930 6         0.000 6      -968.611 6        37.977 6
G29  24286392.457 9 127625797.608 9     -3118.154 9        54.480 9  24286394.018 6         0.000 6     -2429.733 6        37.977 6
G27  22015415.650 9 115691763.037 9      2504.689 9        55.370 9  22015417.587 6         0.000 6      1951.706 6        37.977 6
G16  20499647.597 9 107726354.903 9       570.713 9        55.976 9  20499646.771 6         0.000 6       444.712 6        37.977 6
G26  20648219.710 9 108507104.698 9     -1470.318 9        55.876 9  20648222.524 6         0.000 6     -1145.703 6        37.977 6
G20  21954880.674 9 115373643.448 9      2575.464 9        55.311 9  21954881.001 6         0.000 6      2006.856 6        37.977 6
> 2019 07 03 12 00 38.0000000  0  8       0.000000000000
G07  25356027.951 9 133246780.048 9      2196.342 9        54.128 9  25356028.626 6         0.000 6      1711.436 6        37.977 6
G10  23823850.811 9 125195126.105 9      3532.278 9        54.664 9  23823854.552 6         0.000 6      2752.427 6        37.977 6
G21  21165772.225 9 111226863.100 9     -1243.413 9        55.711 9  21165771.509 6         0.000 6      -968.893 6        37.977 6
G29  24286985.830 9 127628915.795 9     -3118.240 9        54.479 9  24286987.391 6         0.000 6     -2429.800 6        37.977 6
G27  22014939.046 9 115689258.469 9      2504.453 9        55.370 9  22014940.983 6         0.000 6      1951.522 6        37.977 6
G16  20499539.053 9 107725784.498 9       570.098 9        55.976 9  20499538.226 6         0.000 6       444.232 6        37.977 6
G26  20648499.557 9 108508575.302 9     -1470.894 9        55.876 9  20648502.371 6         0.000 6     -1146.152 6        37.977 6
G20  21954390.621 9 115371068.210 9      2575.023 9        55.311 9  21954390.949 6         0.000 6      2006.512 6        37.977 6
> 2019 07 03 12 00 39.0000000  0  8       0.000000000000
G07  25355610.045 9 133244583.941 9      2195.884 9        54.129 9  25355610.720 6         0.000 6      1711.080 6        37.977 6
G10  23823178.653 9 125191593.901 9      3532.143 9        54.664 9  23823182.393 6         0.000 6      2752.322 6        37.977 6
G21  21166008.872 9 111228106.691 9     -1243.775 9        55.711 9  21166008.157 6         0.000 6      -969.176 6        37.977 6
G29  24287579.220 9 127632034.068 9     -3118.326 9        54.479 9  24287580.782 6         0.000 6     -2429.867 6        37.977 6
G27  22014462.487 9 115686754.134 9      2504.217 9        55.370 9  22014464.423 6         0.000 6      1951.339 6        37.977 6
G16  20499430.625 9 107725214.704 9       569.483 9        55.976 9  20499429.798 6         0.000 6       443.753 6        37.977 6
G26  20648779.512 9 108510046.477 9     -1471.469 9        55.875 9  20648782.327 6         0.000 6     -1146.600 6        37.977 6
G20  21953900.652 9 115368493.408 9      2574.581 9        55.312 9  21953900.979 6         0.000 6      2006.168 6        37.977 6
> 2019 07 03 12 00 40.0000000  0  8       0.000000000000
G07  25355192.226 9 133242388.290 9      2195.426 9        54.129 9  25355192.900 6         0.000 6      1710.723 6        37.977 6
G10  23822506.521 9 125188061.835 9      3532.008 9        54.665 9  23822510.260 6         0.000 6      2752.217 6        37.977 6
G21  21166245.589 9 111229350.647 9     -1244.137 9        55.711 9  21166244.874 6         0.000 6      -969.458 6        37.977 6
G29  24288172.626 9 127635152.427 9     -3118.413 9        54.479 9  24288174.188 6         0.000 6     -2429.934 6        37.977 6
G27  22013985.973 9 115684250.038 9      2503.981 9        55.371 9  22013987.909 6         0.000 6      1951.155 6        37.977 6
G16  20499322.314 9 107724645.529 9       568.868 9        55.976 9  20499321.488 6         0.000 6       443.273 6        37.977 6
G26  20649059.578 9 108511518.233 9     -1472.045 9        55.875 9  20649062.393 6         0.000 6     -1147.049 6        37.977 6
G20  21953410.767 9 115365919.052 9      2574.140 9        55.312 9  21953411.094 6         0.000 6      2005.825 6        37.977 6
> 2019 07 03 12 00 41.0000000  0  8       0.000000000000
G07  25354774.494 9 133240193.096 9      2194.969 9        54.129 9  25354775.168 6         0.000 6      1710.366 6        37.977 6
G10  23821834.415 9 125184529.905 9      3531.873 9        54.665 9  23821838.154 6         0.000 6      2752.112 6        37.977 6
G21  21166482.375 9 111230594.964 9     -1244.499 9        55.711 9  21166481.660 6         0.000 6      -969.740 6        37.977 6
G29  24288766.048 9 127638270.873 9     -3118.499 9        54.479 9  24288767.611 6         0.000 6     -2430.001 6        37.977 6
G27  22013509.504 9 115681746.178 9      2503.745 9        55.371 9  22013511.440 6         0.000 6      1950.971 6        37.977 6
G16  20499214.121 9 107724076.969 9       568.252 9        55.976 9  20499213.294 6         0.000 6       442.794 6        37.977 6
G26  20649339.754 9 108512990.564 9     -1472.620 9        55.875 9  20649342.568 6         0.000 6     -1147.497 6        37.977 6
G20  21952920.967 9 115363345.137 9      2573.699 9        55.312 9  21952921.293 6         0.000 6      2005.481 6        37.977 6
> 2019 07 03 12 00 42.0000000  0  8       0.000000000000
G07  25354356.850 9 133237998.365 9      2194.511 9        54.129 9  25354357.523 6         0.000 6      1710.010 6        37.977 6
G10  23821162.333 9 125180998.104 9      3531.738 9        54.665 9  23821166.071 6         0.000 6      2752.006 6        37.977 6
G21  21166719.229 9 111231839.639 9     -1244.861 9        55.711 9  21166718.514 6         0.000 6      -970.022 6        37.977 6
G29  24289359.486 9 127641389.399 9     -3118.584 9        54.479 9  24289361.050 6         0.000 6     -2430.068 6        37.977 6
G27  22013033.080 9 115679242.556 9      2503.509 9        55.371 9  22013035.015 6         0.000 6      1950.787 6        37.977 6
G16  20499106.044 9 107723509.023 9       567.637 9        55.976 9  20499105.218 6         0.000 6       442.315 6        37.977 6
G26  20649620.038 9 108514463.465 9     -1473.196 9        55.875 9  20649622.853 6         0.000 6     -1147.945 6        37.977 6
G20  21952431.249 9 115360771.656 9      2573.257 9        55.312 9  21952431.575 6         0.000 6      2005.137 6        37.977 6
> 2019 07 03 12 00 43.0000000  0  8       0.000000000000
G07  25353939.292 9 133235804.086 9      2194.053 9        54.129 9  25353939.965 6         0.000 6      1709.653 6        37.977 6
G10  23820490.279 9 125177466.444 9      3531.603 9        54.665 9  23820494.016 6         0.000 6      2751.901 6        37.977 6
G21  21166956.152 9 111233084.680 9     -1245.223 9        55.711 9  21166955.437 6         0.000 6      -970.304 6        37.977 6
G29  24289952.941 9 127644508.016 9     -3118.670 9        54.478 9  24289954.505 6         0.000 6     -2430.135 6        37.977 6
G27  22012556.700 9 115676739.168 9      2503.272 9        55.371 9  22012558.636 6         0.000 6      1950.603 6        37.977 6
G16  20498998.085 9 107722941.693 9       567.022 9        55.976 9  20498997.258 6         0.000 6       441.835 6        37.977 6
G26  20649900.433 9 108515936.947 9     -1473.771 9        55.875 9  20649903.247 6         0.000 6     -1148.394 6        37.977 6
G20  21951941.616 9 115358198.624 9      2572.816 9        55.312 9  21951941.942 6         0.000 6      2004.793 6        37.977 6
> 2019 07 03 12 00 44.0000000  0  8       0.000000000000
G07  25353521.821 9 133233610.268 9      2193.595 9        54.129 9  25353522.495 6         0.000 6      1709.296 6        37.977 6
G10  23819818.249 9 125173934.916 9      3531.467 9        54.666 9  23819821.986 6         0.000 6      2751.795 6        37.977 6
G21  21167193.144 9 111234330.080 9     -1245.584 9        55.711 9  21167192.429 6         0.000 6      -970.585 6        37.977 6
G29  24290546.413 9 127647626.719 9     -3118.756 9        54.478 9  24290547.977 6         0.000 6     -2430.202 6        37.977 6
G27  22012080.365 9 115674236.014 9      2503.036 9        55.371 9  22012082.301 6         0.000 6      1950.419 6        37.977 6
G16  20498890.243 9 107722374.976 9       566.406 9        55.976 9  20498889.416 6         0.000 6       441.355 6        37.977 6
G26  20650180.936 9 108517411.000 9     -1474.347 9        55.875 9  20650183.751 6         0.000 6     -1148.842 6        37.977 6
G20  21951452.067 9 115355626.030 9      2572.374 9        55.313 9  21951452.393 6         0.000 6      2004.448 6        37.977 6
> 2019 07 03 12 00 45.0000000  0  8       0.000000000000
G07  25353104.437 9 133231416.906 9      2193.137 9        54.129 9  25353105.111 6         0.000 6      1708.939 6        37.977 6
G10  23819146.246 9 125170403.527 9      3531.332 9        54.666 9  23819149.982 6         0.000 6      2751.690 6        37.977 6
G21  21167430.206 9 111235575.845 9     -1245.946 9        55.711 9  21167429.491 6         0.000 6      -970.867 6        37.977 6
G29  24291139.900 9 127650745.508 9     -3118.842 9        54.478 9  24291141.466 6         0.000 6     -2430.269 6        37.977 6
G27  22011604.076 9 115671733.099 9      2502.800 9        55.371 9  22011606.011 6         0.000 6      1950.234 6        37.977 6
G16  20498782.518 9 107721808.878 9       565.791 9        55.976 9  20498781.691 6         0.000 6       440.876 6        37.977 6
G26  20650461.550 9 108518885.632 9     -1474.922 9        55.875 9  20650464.364 6         0.000 6     -1149.290 6        37.977 6
G20  21950962.602 9 115353053.881 9      2571.932 9        55.313 9  21950962.928 6         0.000 6      2004.104 6        37.977 6
> 2019 07 03 12 00 46.0000000  0  8       0.000000000000
G07  25352687.141 9 133229224.004 9      2192.679 9        54.130 9  25352687.814 6         0.000 6      1708.582 6        37.977 6
G10  23818474.268 9 125166872.269 9      3531.196 9        54.666 9  23818478.004 6         0.000 6      2751.584 6        37.977 6
G21  21167667.335 9 111236821.969 9     -1246.308 9        55.711 9  21167666.620 6         0.000 6      -971.149 6        37.977 6
G29  24291733.405 9 127653864.383 9     -3118.928 9        54.478 9  24291734.970 6         0.000 6     -2430.336 6        37.977 6
G27  22011127.831 9 115669230.418 9      2502.564 9        55.372 9  22011129.766 6         0.000 6      1950.050 6        37.977 6
G16  20498674.909 9 107721243.392 9       565.175 9        55.976 9  20498674.082 6         0.000 6       440.396 6        37.977 6
G26  20650742.272 9 108520360.835 9     -1475.497 9        55.875 9  20650745.087 6         0.000 6     -1149.739 6        37.977 6
G20  21950473.221 9 115350482.170 9      2571.490 9        55.313 9  21950473.546 6         0.000 6      2003.760 6        37.977 6
> 2019 07 03 12 00 47.0000000  0  8       0.000000000000
G07  25352269.932 9 133227031.557 9      2192.221 9        54.130 9  25352270.605 6         0.000 6      1708.225 6        37.977 6
G10  23817802.317 9 125163341.152 9      3531.060 9        54.666 9  23817806.052 6         0.000 6      2751.478 6        37.977 6
G21  21167904.534 9 111238068.457 9     -1246.669 9        55.710 9  21167903.819 6         0.000 6      -971.431 6        37.977 6
G29  24292326.925 9 127656983.344 9     -3119.014 9        54.478 9  24292328.491 6         0.000 6     -2430.403 6        37.977 6
G27  22010651.631 9 115666727.975 9      2502.327 9        55.372 9  22010653.566 6         0.000 6      1949.866 6        37.977 6
G16  20498567.418 9 107720678.524 9       564.560 9        55.976 9  20498566.592 6         0.000 6       439.917 6        37.977 6
G26  20651023.104 9 108521836.619 9     -1476.073 9        55.875 9  20651025.919 6         0.000 6     -1150.187 6        37.977 6
G20  21949983.925 9 115347910.906 9      2571.048 9        55.313 9  21949984.250 6         0.000 6      2003.415 6        37.977 6
> 2019 07 03 12 00 48.0000000  0  8       0.000000000000
G07  25351852.810 9 133224839.572 9      2191.763 9        54.130 9  25351853.483 6         0.000 6      1707.868 6        37.977 6
G10  23817130.391 9 125159810.166 9      3530.924 9        54.667 9  23817134.125 6         0.000 6      2751.372 6        37.977 6
G21  21168141.801 9 111239315.304 9     -1247.031 9        55.710 9  21168141.087 6         0.000 6      -971.713 6        37.977 6
G29  24292920.462 9 127660102.391 9     -3119.100 9        54.477 9  24292922.029 6         0.000 6     -2430.470 6        37.977 6
G27  22010175.476 9 115664225.767 9      2502.091 9        55.372 9  22010177.411 6         0.000 6      1949.682 6        37.977 6
G16  20498460.044 9 107720114.269 9       563.944 9        55.976 9  20498459.217 6         0.000 6       439.437 6        37.977 6
G26  20651304.045 9 108523312.972 9     -1476.648 9        55.874 9  20651306.861 6         0.000 6     -1150.635 6        37.977 6
G20  21949494.712 9 115345340.079 9      2570.606 9        55.313 9  21949495.037 6         0.000 6      2003.071 6        37.977 6
> 2019 07 03 12 00 49.0000000  0  8       0.000000000000
G07  25351435.776 9 133222648.045 9      2191.304 9        54.130 9  25351436.448 6         0.000 6      1707.511 6        37.977 6
G10  23816458.491 9 125156279.318 9      3530.788 9        54.667 9  23816462.224 6         0.000 6      2751.266 6        37.977 6
G21  21168379.137 9 111240562.513 9     -1247.392 9        55.710 9  21168378.423 6         0.000 6      -971.994 6        37.977 6
G29  24293514.014 9 127663221.519 9     -3119.186 9        54.477 9  24293515.582 6         0.000 6     -2430.537 6        37.977 6
G27  22009699.368 9 115661723.800 9      2501.855 9        55.372 9  22009701.302 6         0.000 6      1949.498 6        37.977 6
G16  20498352.788 9 107719550.634 9       563.328 9        55.976 9  20498351.961 6         0.000 6       438.957 6        37.977 6
G26  20651585.097 9 108524789.906 9     -1477.223 9        55.874 9  20651587.912 6         0.000 6     -1151.083 6        37.977 6
G20  21949005.583 9 115342769.695 9      2570.164 9        55.314 9  21949005.908 6         0.000 6      2002.726 6        37.977 6
> 2019 07 03 12 00 50.0000000  0  8       0.000000000000
G07  25351018.829 9 133220456.976 9      2190.846 9        54.130 9  25351019.501 6         0.000 6      1707.154 6        37.977 6
G10  23815786.616 9 125152748.604 9      3530.652 9        54.667 9  23815790.349 6         0.000 6      2751.160 6        37.977 6
G21  21168616.542 9 111241810.083 9     -1247.754 9        55.710 9  21168615.828 6         0.000 6      -972.276 6        37.977 6
G29  24294107.583 9 127666340.737 9     -3119.271 9        54.477 9  24294109.152 6         0.000 6     -2430.604 6        37.977 6
G27  22009223.303 9 115659222.065 9      2501.618 9        55.372 9  22009225.237 6         0.000 6      1949.314 6        37.977 6
G16  20498245.648 9 107718987.611 9       562.713 9        55.976 9  20498244.821 6         0.000 6       438.478 6        37.977 6
G26  20651866.257 9 108526267.410 9     -1477.798 9        55.874 9  20651869.072 6         0.000 6     -1151.532 6        37.977 6
G20  21948516.539 9 115340199.752 9      2569.722 9        55.314 9  21948516.863 6         0.000 6      2002.382 6        37.977 6
> 2019 07 03 12 00 51.0000000  0  8       0.000000000000
G07  25350601.968 9 133218266.363 9      2190.387 9        54.130 9  25350602.640 6         0.000 6      1706.796 6        37.977 6
G10  23815114.768 9 125149218.030 9      3530.516 9        54.667 9  23815118.500 6         0.000 6      2751.054 6        37.977 6
G21  21168854.016 9 111243058.017 9     -1248.115 9        55.710 9  21168853.302 6         0.000 6      -972.558 6        37.977 6
G29  24294701.169 9 127669460.041 9     -3119.357 9        54.477 9  24294702.738 6         0.000 6     -2430.671 6        37.977 6
G27  22008747.283 9 115656720.567 9      2501.382 9        55.373 9  22008749.217 6         0.000 6      1949.129 6        37.977 6
G16  20498138.626 9 107718425.206 9       562.097 9        55.976 9  20498137.799 6         0.000 6       437.998 6        37.977 6
G26  20652147.527 9 108527745.494 9     -1478.373 9        55.874 9  20652150.343 6         0.000 6     -1151.980 6        37.977 6
G20  21948027.579 9 115337630.256 9      2569.280 9        55.314 9  21948027.903 6         0.000 6      2002.037 6        37.977 6
> 2019 07 03 12 00 52.0000000  0  8       0.000000000000
G07  25350185.195 9 133216076.208 9      2189.929 9        54.130 9  25350185.867 6         0.000 6      1706.439 6        37.977 6
G10  23814442.946 9 125145687.593 9      3530.380 9        54.668 9  23814446.678 6         0.000 6      2750.948 6        37.977 6
G21  21169091.559 9 111244306.312 9     -1248.477 9        55.710 9  21169090.845 6         0.000 6      -972.839 6        37.977 6
G29  24295294.771 9 127672579.431 9     -3119.443 9        54.476 9  24295296.341 6         0.000 6     -2430.737 6        37.977 6
G27  22008271.308 9 115654219.307 9      2501.145 9        55.373 9  22008273.243 6         0.000 6      1948.945 6        37.977 6
G16  20498031.721 9 107717863.417 9       561.481 9        55.976 9  20498030.894 6         0.000 6       437.518 6        37.977 6
G26  20652428.907 9 108529224.153 9     -1478.949 9        55.874 9  20652431.723 6         0.000 6     -1152.428 6        37.977 6
G20  21947538.703 9 115335061.202 9      2568.837 9        55.314 9  21947539.027 6         0.000 6      2001.692 6        37.977 6
> 2019 07 03 12 00 53.0000000  0  8       0.000000000000
G07  25349768.509 9 133213886.515 9      2189.470 9        54.131 9  25349769.181 6         0.000 6      1706.082 6        37.977 6
G10  23813771.149 9 125142157.288 9      3530.243 9        54.668 9  23813774.880 6         0.000 6      2750.842 6        37.977 6
G21  21169329.170 9 111245554.966 9     -1248.838 9        55.710 9  21169328.456 6         0.000 6      -973.121 6        37.977 6
G29  24295888.390 9 127675698.907 9     -3119.529 9        54.476 9  24295889.960 6         0.000 6     -2430.804 6        37.977 6
G27  22007795.378 9 115651718.281 9      2500.909 9        55.373 9  22007797.312 6         0.000 6      1948.761 6        37.977 6
G16  20497924.933 9 107717302.240 9       560.866 9        55.976 9  20497924.106 6         0.000 6       437.038 6        37.977 6
G26  20652710.396 9 108530703.383 9     -1479.524 9        55.874 9  20652713.211 6         0.000 6     -1152.876 6        37.977 6
G20  21947049.911 9 115332492.587 9      2568.395 9        55.314 9  21947050.234 6         0.000 6      2001.348 6        37.977 6
> 2019 07 03 12 00 54.0000000  0  8       0.000000000000
G07  25349351.911 9 133211697.277 9      2189.012 9        54.131 9  25349352.582 6         0.000 6      1705.724 6        37.977 6
G10  23813099.379 9 125138627.123 9      3530.107 9        54.668 9  23813103.110 6         0.000 6      2750.735 6        37.977 6
G21  21169566.851 9 111246803.984 9     -1249.199 9        55.710 9  21169566.136 6         0.000 6      -973.402 6        37.977 6
G29  24296482.024 9 127678818.468 9     -3119.614 9        54.476 9  24296483.595 6         0.000 6     -2430.871 6        37.977 6
G27  22007319.494 9 115649217.493 9      2500.672 9        55.373 9  22007321.428 6         0.000 6      1948.576 6        37.977 6
G16  20497818.262 9 107716741.682 9       560.250 9        55.976 9  20497817.435 6         0.000 6       436.558 6        37.977 6
G26  20652991.994 9 108532183.192 9     -1480.099 9        55.874 9  20652994.810 6         0.000 6     -1153.324 6        37.977 6
G20  21946561.204 9 115329924.418 9      2567.952 9        55.315 9  21946561.527 6         0.000 6      2001.003 6        37.977 6
> 2019 07 03 12 00 55.0000000  0  8       0.000000000000
G07  25348935.400 9 133209508.501 9      2188.553 9        54.131 9  25348936.071 6         0.000 6      1705.367 6        37.977 6
G10  23812427.635 9 125135097.091 9      3529.970 9        54.668 9  23812431.364 6         0.000 6      2750.629 6        37.977 6
G21  21169804.599 9 111248053.360 9     -1249.560 9        55.710 9  21169803.885 6         0.000 6      -973.683 6        37.977 6
G29  24297075.676 9 127681938.115 9     -3119.700 9        54.476 9  24297077.247 6         0.000 6     -2430.938 6        37.977 6
G27  22006843.654 9 115646716.940 9      2500.435 9        55.373 9  22006845.588 6         0.000 6      1948.392 6        37.977 6
G16  20497711.708 9 107716181.737 9       559.634 9        55.976 9  20497710.881 6         0.000 6       436.078 6        37.977 6
G26  20653273.701 9 108533663.572 9     -1480.674 9        55.874 9  20653276.517 6         0.000 6     -1153.772 6        37.977 6
G20  21946072.580 9 115327356.688 9      2567.509 9        55.315 9  21946072.903 6         0.000 6      2000.658 6        37.977 6
> 2019 07 03 12 00 56.0000000  0  8       0.000000000000
G07  25348518.976 9 133207320.182 9      2188.094 9        54.131 9  25348519.647 6         0.000 6      1705.009 6        37.977 6
G10  23811755.917 9 125131567.199 9      3529.834 9        54.669 9  23811759.645 6         0.000 6      2750.522 6        37.977 6
G21  21170042.417 9 111249303.100 9     -1249.921 9        55.710 9  21170041.702 6         0.000 6      -973.965 6        37.977 6
G29  24297669.343 9 127685057.848 9     -3119.786 9        54.476 9  24297670.915 6         0.000 6     -2431.005 6        37.977 6
G27  22006367.859 9 115644216.626 9      2500.199 9        55.374 9  22006369.793 6         0.000 6      1948.208 6        37.977 6
G16  20497605.272 9 107715622.411 9       559.018 9        55.976 9  20497604.445 6         0.000 6       435.598 6        37.977 6
G26  20653555.519 9 108535144.531 9     -1481.249 9        55.873 9  20653558.335 6         0.000 6     -1154.220 6        37.977 6
G20  21945584.042 9 115324789.404 9      2567.066 9        55.315 9  21945584.364 6         0.000 6      2000.313 6        37.977 6
> 2019 07 03 12 00 57.0000000  0  8       0.000000000000
G07  25348102.640 9 133205132.326 9      2187.635 9        54.131 9  25348103.311 6         0.000 6      1704.652 6        37.977 6
G10  23811084.223 9 125128037.438 9      3529.697 9        54.669 9  23811087.952 6         0.000 6      2750.416 6        37.977 6
G21  21170280.303 9 111250553.197 9     -1250.282 9        55.709 9  21170279.588 6         0.000 6      -974.246 6        37.977 6
G29  24298263.026 9 127688177.661 9     -3119.871 9        54.475 9  24298264.598 6         0.000 6     -2431.071 6        37.977 6
G27  22005892.110 9 115641716.550 9      2499.962 9        55.374 9  22005894.044 6         0.000 6      1948.023 6        37.977 6
G16  20497498.953 9 107715063.699 9       558.402 9        55.976 9  20497498.126 6         0.000 6       435.119 6        37.977 6
G26  20653837.445 9 108536626.061 9     -1481.824 9        55.873 9  20653840.261 6         0.000 6     -1154.668 6        37.977 6
G20  21945095.586 9 115322222.557 9      2566.624 9        55.315 9  21945095.908 6         0.000 6      1999.968 6        37.977 6
> 2019 07 03 12 00 58.0000000  0  8       0.000000000000
G07  25347686.391 9 133202944.924 9      2187.176 9        54.131 9  25347687.061 6         0.000 6      1704.294 6        37.977 6
G10  23810412.557 9 125124507.821 9      3529.560 9        54.669 9  23810416.285 6         0.000 6      2750.309 6        37.977 6
G21  21170518.258 9 111251803.659 9     -1250.643 9        55.709 9  21170517.543 6         0.000 6      -974.527 6        37.977 6
G29  24298856.725 9 127691297.565 9     -3119.957 9        54.475 9  24298858.299 6         0.000 6     -2431.138 6        37.977 6
G27  22005416.406 9 115639216.709 9      2499.725 9        55.374 9  22005418.339 6         0.000 6      1947.839 6        37.977 6
G16  20497392.751 9 107714505.605 9       557.786 9        55.977 9  20497391.924 6         0.000 6       434.639 6        37.977 6
G26  20654119.481 9 108538108.170 9     -1482.398 9        55.873 9  20654122.298 6         0.000 6     -1155.116 6        37.977 6
G20  21944607.216 9 115319656.159 9      2566.180 9        55.315 9  21944607.538 6         0.000 6      1999.622 6        37.977 6
> 2019 07 03 12 00 59.0000000  0  8       0.000000000000
G07  25347270.229 9 133200757.984 9      2186.717 9        54.131 9  25347270.899 6         0.000 6      1703.936 6        37.977 6
G10  23809740.917 9 125120978.335 9      3529.423 9        54.669 9  23809744.644 6         0.000 6      2750.202 6        37.977 6
G21  21170756.281 9 111253054.480 9     -1251.004 9        55.709 9  21170755.567 6         0.000 6      -974.809 6        37.977 6
G29  24299450.442 9 127694417.555 9     -3120.043 9        54.475 9  24299452.016 6         0.000 6     -2431.205 6        37.977 6
G27  22004940.746 9 115636717.102 9      2499.489 9        55.374 9  22004942.679 6         0.000 6      1947.654 6        37.977 6
G16  20497286.666 9 107713948.124 9       557.170 9        55.977 9  20497285.839 6         0.000 6       434.159 6        37.977 6
G26  20654401.626 9 108539590.849 9     -1482.973 9        55.873 9  20654404.442 6         0.000 6     -1155.564 6        37.977 6
G20  21944118.929 9 115317090.200 9      2565.737 9        55.316 9  21944119.251 6         0.000 6      1999.277 6        37.977 6
> 2019 07 03 12 01  0.0000000  0  8       0.000000000000
G07  25346854.154 9 133198571.501 9      2186.258 9        54.132 9  25346854.824 6         0.000 6      1703.578 6        37.977 6
G10  23809069.303 9 125117448.992 9      3529.286 9        54.669 9  23809073.029 6         0.000 6      2750.095 6        37.977 6
G21  21170994.374 9 111254305.664 9     -1251.365 9        55.709 9  21170993.659 6         0.000 6      -975.090 6        37.977 6
G29  24300044.174 9 127697537.630 9     -3120.128 9        54.475 9  24300045.749 6         0.000 6     -2431.271 6        37.977 6
G27  22004465.132 9 115634217.735 9      2499.252 9        55.374 9  22004467.065 6         0.000 6      1947.470 6        37.977 6
G16  20497180.698 9 107713391.262 9       556.554 9        55.977 9  20497179.872 6         0.000 6       433.678 6        37.977 6
G26  20654683.881 9 108541074.108 9     -1483.548 9        55.873 9  20654686.698 6         0.000 6     -1156.012 6        37.977 6
G20  21943630.728 9 115314524.689 9      2565.294 9        55.316 9  21943631.049 6         0.000 6      1998.932 6        37.977 6
> 2019 07 03 12 01  1.0000000  0  8       0.000000000000
G07  25346438.167 9 133196385.476 9      2185.798 9        54.132 9  25346438.837 6         0.000 6      1703.220 6        37.977 6
G10  23808397.715 9 125113919.785 9      3529.148 9        54.670 9  23808401.441 6         0.000 6      2749.989 6        37.977 6
G21  21171232.535 9 111255557.208 9     -1251.726 9        55.709 9  21171231.821 6         0.000 6      -975.371 6        37.977 6
G29  24300637.923 9 127700657.791 9     -3120.214 9        54.475 9  24300639.498 6         0.000 6     -2431.338 6        37.977 6
G27  22003989.562 9 115631718.604 9      2499.015 9        55.375 9  22003991.495 6         0.000 6      1947.285 6        37.977 6
G16  20497074.848 9 107712835.016 9       555.938 9        55.977 9  20497074.021 6         0.000 6       433.198 6        37.977 6
G26  20654966.246 9 108542557.942 9     -1484.123 9        55.873 9  20654969.062 6         0.000 6     -1156.460 6        37.977 6
G20  21943142.611 9 115311959.621 9      2564.851 9        55.316 9  21943142.932 6         0.000 6      1998.586 6        37.977 6
> 2019 07 03 12 01  2.0000000  0  8       0.000000000000
G07  25346022.268 9 133194199.914 9      2185.339 9        54.132 9  25346022.937 6         0.000 6      1702.863 6        37.977 6
G10  23807726.153 9 125110390.712 9      3529.011 9        54.670 9  23807729.878 6         0.000 6      2749.882 6        37.977 6
G21  21171470.764 9 111256809.111 9     -1252.087 9        55.709 9  21171470.050 6         0.000 6      -975.652 6        37.977 6
G29  24301231.688 9 127703778.037 9     -3120.299 9        54.474 9  24301233.264 6         0.000 6     -2431.405 6        37.977 6
G27  22003514.038 9 115629219.709 9      2498.778 9        55.375 9  22003515.970 6         0.000 6      1947.100 6        37.977 6
G16  20496969.115 9 107712279.383 9       555.322 9        55.977 9  20496968.288 6         0.000 6       432.718 6        37.977 6
G26  20655248.719 9 108544042.346 9     -1484.698 9        55.873 9  20655251.535 6         0.000 6     -1156.908 6        37.977 6
G20  21942654.577 9 115309394.992 9      2564.408 9        55.316 9  21942654.898 6         0.000 6      1998.241 6        37.977 6
> 2019 07 03 12 01  3.0000000  0  8       0.000000000000
G07  25345606.455 9 133192014.808 9      2184.880 9        54.132 9  25345607.124 6         0.000 6      1702.505 6        37.977 6
G10  23807054.617 9 125106861.780 9      3528.874 9        54.670 9  23807058.342 6         0.000 6      2749.774 6        37.977 6
G21  21171709.063 9 111258061.378 9     -1252.447 9        55.709 9  21171708.349 6         0.000 6      -975.933 6        37.977 6
G29  24301825.469 9 127706898.369 9     -3120.385 9        54.474 9  24301827.046 6         0.000 6     -2431.471 6        37.977 6
G27  22003038.559 9 115626721.052 9      2498.541 9        55.375 9  22003040.491 6         0.000 6      1946.916 6        37.977 6
G16  20496863.499 9 107711724.369 9       554.706 9        55.977 9  20496862.672 6         0.000 6       432.238 6        37.977 6
G26  20655531.302 9 108545527.329 9     -1485.272 9        55.873 9  20655534.119 6         0.000 6     -1157.356 6        37.977 6
G20  21942166.629 9 115306830.811 9      2563.964 9        55.316 9  21942166.950 6         0.000 6      1997.895 6        37.977 6
> 2019 07 03 12 01  4.0000000  0  8       0.000000000000
G07  25345190.731 9 133189830.164 9      2184.420 9        54.132 9  25345191.400 6         0.000 6      1702.147 6        37.977 6
G10  23806383.107 9 125103332.981 9      3528.736 9        54.670 9  23806386.831 6         0.000 6      2749.667 6        37.977 6
G21  21171947.429 9 111259314.002 9     -1252.808 9        55.709 9  21171946.715 6         0.000 6      -976.214 6        37.977 6
G29  24302419.267 9 127710018.786 9     -3120.470 9        54.474 9  24302420.844 6         0.000 6     -2431.538 6        37.977 6
G27  22002563.124 9 115624222.630 9      2498.304 9        55.375 9  22002565.057 6         0.000 6      1946.731 6        37.977 6
G16  20496758.000 9 107711169.968 9       554.089 9        55.977 9  20496757.173 6         0.000 6       431.758 6        37.977 6
G26  20655813.994 9 108547012.883 9     -1485.847 9        55.873 9  20655816.811 6         0.000 6     -1157.803 6        37.977 6
G20  21941678.764 9 115304267.069 9      2563.520 9        55.316 9  21941679.085 6         0.000 6      1997.550 6        37.977 6
> 2019 07 03 12 01  5.0000000  0  8       0.000000000000
G07  25344775.094 9 133187645.980 9      2183.961 9        54.132 9  25344775.762 6         0.000 6      1701.788 6        37.977 6
G10  23805711.624 9 125099804.322 9      3528.598 9        54.671 9  23805715.347 6         0.000 6      2749.560 6        37.977 6
G21  21172185.865 9 111260566.988 9     -1253.169 9        55.709 9  21172185.151 6         0.000 6      -976.495 6        37.977 6
G29  24303013.080 9 127713139.284 9     -3120.556 9        54.474 9  24303014.658 6         0.000 6     -2431.604 6        37.977 6
G27  22002087.736 9 115621724.451 9      2498.067 9        55.375 9  22002089.668 6         0.000 6      1946.547 6        37.977 6
G16  20496652.619 9 107710616.189 9       553.473 9        55.977 9  20496651.793 6         0.000 6       431.278 6        37.977 6
G26  20656096.796 9 108548499.015 9     -1486.422 9        55.872 9  20656099.613 6         0.000 6     -1158.251 6        37.977 6
G20  21941190.984 9 115301703.772 9      2563.077 9        55.317 9  21941191.304 6         0.000 6      1997.204 6        37.977 6
> 2019 07 03 12 01  6.0000000  0  8       0.000000000000
G07  25344359.544 9 133185462.255 9      2183.501 9        54.132 9  25344360.212 6         0.000 6      1701.430 6        37.977 6
G10  23805040.166 9 125096275.799 9      3528.461 9        54.671 9  23805043.888 6         0.000 6      2749.453 6        37.977 6
G21  21172424.369 9 111261820.334 9     -1253.529 9        55.709 9  21172423.655 6         0.000 6      -976.776 6        37.977 6
G29  24303606.910 9 127716259.872 9     -3120.641 9        54.474 9  24303608.488 6         0.000 6     -2431.671 6        37.977 6
G27  22001612.392 9 115619226.503 9      2497.830 9        55.375 9  22001614.324 6         0.000 6      1946.362 6        37.977 6
G16  20496547.355 9 107710063.020 9       552.857 9        55.977 9  20496546.528 6         0.000 6       430.798 6        37.977 6
G26  20656379.706 9 108549985.718 9     -1486.996 9        55.872 9  20656382.523 6         0.000 6     -1158.699 6        37.977 6
G20  21940703.288 9 115299140.917 9      2562.633 9        55.317 9  21940703.608 6         0.000 6      1996.858 6        37.977 6
> 2019 07 03 12 01  7.0000000  0  8       0.000000000000
G07  25343944.081 9 133183278.988 9      2183.041 9        54.133 9  25343944.750 6         0.000 6      1701.072 6        37.977 6
G10  23804368.735 9 125092747.418 9      3528.323 9        54.671 9  23804372.457 6         0.000 6      2749.345 6        37.977 6
G21  21172662.942 9 111263074.042 9     -1253.890 9        55.709 9  21172662.228 6         0.000 6      -977.057 6        37.977 6
G29  24304200.756 9 127719380.546 9     -3120.727 9        54.473 9  24304202.335 6         0.000 6     -2431.738 6        37.977 6
G27  22001137.093 9 115616728.794 9      2497.593 9        55.376 9  22001139.025 6         0.000 6      1946.177 6        37.977 6
G16  20496442.209 9 107709510.472 9       552.241 9        55.977 9  20496441.382 6         0.000 6       430.317 6        37.977 6
G26  20656662.727 9 108551473.000 9     -1487.571 9        55.872 9  20656665.544 6         0.000 6     -1159.147 6        37.977 6
G20  21940215.678 9 115296578.511 9      2562.189 9        55.317 9  21940215.997 6         0.000 6      1996.512 6        37.977 6
> 2019 07 03 12 01  8.0000000  0  8       0.000000000000
G07  25343528.706 9 133181096.183 9      2182.582 9        54.133 9  25343529.375 6         0.000 6      1700.714 6        37.977 6
G10  23803697.330 9 125089219.170 9      3528.185 9        54.671 9  23803701.051 6         0.000 6      2749.238 6        37.977 6
G21  21172901.583 9 111264328.109 9     -1254.250 9        55.708 9  21172900.869 6         0.000 6      -977.338 6        37.977 6
G29  24304794.619 9 127722501.305 9     -3120.812 9        54.473 9  24304796.199 6         0.000 6     -2431.804 6        37.977 6
G27  22000661.839 9 115614231.320 9      2497.356 9        55.376 9  22000663.771 6         0.000 6      1945.992 6        37.977 6
G16  20496337.179 9 107708958.536 9       551.624 9        55.977 9  20496336.352 6         0.000 6       429.837 6        37.977 6
G26  20656945.856 9 108552960.851 9     -1488.146 9        55.872 9  20656948.673 6         0.000 6     -1159.594 6        37.977 6
G20  21939728.151 9 115294016.544 9      2561.745 9        55.317 9  21939728.470 6         0.000 6      1996.166 6        37.977 6
> 2019 07 03 12 01  9.0000000  0  8       0.000000000000
G07  25343113.419 9 133178913.835 9      2182.122 9        54.133 9  25343114.087 6         0.000 6      1700.355 6        37.977 6
G10  23803025.952 9 125085691.065 9      3528.047 9        54.672 9  23803029.672 6         0.000 6      2749.130 6        37.977 6
G21  21173140.293 9 111265582.538 9     -1254.610 9        55.708 9  21173139.579 6         0.000 6      -977.619 6        37.977 6
G29  24305388.498 9 127725622.149 9     -3120.897 9        54.473 9  24305390.078 6         0.000 6     -2431.871 6        37.977 6
G27  22000186.631 9 115611734.086 9      2497.119 9        55.376 9  22000188.562 6         0.000 6      1945.808 6        37.977 6
G16  20496232.267 9 107708407.220 9       551.008 9        55.977 9  20496231.440 6         0.000 6       429.357 6        37.977 6
G26  20657229.095 9 108554449.282 9     -1488.720 9        55.872 9  20657231.913 6         0.000 6     -1160.042 6        37.977 6
G20  21939240.709 9 115291455.025 9      2561.301 9        55.317 9  21939241.028 6         0.000 6      1995.820 6        37.977 6
> 2019 07 03 12 01 10.0000000  0  8       0.000000000000
G07  25342698.219 9 133176731.947 9      2181.662 9        54.133 9  25342698.886 6         0.000 6      1699.997 6        37.977 6
G10  23802354.600 9 125082163.098 9      3527.909 9        54.672 9  23802358.320 6         0.000 6      2749.022 6        37.977 6
G21  21173379.071 9 111266837.328 9     -1254.971 9        55.708 9  21173378.358 6         0.000 6      -977.899 6        37.977 6
G29  24305982.393 9 127728743.079 9     -3120.983 9        54.473 9  24305983.974 6         0.000 6     -2431.937 6        37.977 6
G27  21999711.467 9 115609237.088 9      2496.882 9        55.376 9  21999713.399 6         0.000 6      1945.623 6        37.977 6
G16  20496127.472 9 107707856.521 9       550.391 9        55.977 9  20496126.645 6         0.000 6       428.876 6        37.977 6
G26  20657512.444 9 108555938.288 9     -1489.295 9        55.872 9  20657515.262 6         0.000 6     -1160.490 6        37.977 6
G20  21938753.352 9 115288893.950 9      2560.857 9        55.318 9  21938753.670 6         0.000 6      1995.474 6        37.977 6
> 2019 07 03 12 01 11.0000000  0  8       0.000000000000
G07  25342283.106 9 133174550.521 9      2181.202 9        54.133 9  25342283.774 6         0.000 6      1699.639 6        37.977 6
G10  23801683.274 9 125078635.264 9      3527.770 9        54.672 9  23801686.993 6         0.000 6      2748.915 6        37.977 6
G21  21173617.918 9 111268092.476 9     -1255.331 9        55.708 9  21173617.204 6         0.000 6      -978.180 6        37.977 6
G29  24306576.304 9 127731864.094 9     -3121.068 9        54.472 9  24306577.886 6         0.000 6     -2432.004 6        37.977 6
G27  21999236.349 9 115606740.326 9      2496.644 9        55.376 9  21999238.280 6         0.000 6      1945.438 6        37.977 6
G16  20496022.794 9 107707306.434 9       549.775 9        55.977 9  20496021.967 6         0.000 6       428.396 6        37.977 6
G26  20657795.901 9 108557427.863 9     -1489.869 9        55.872 9  20657798.719 6         0.000 6     -1160.937 6        37.977 6
G20  21938266.079 9 115286333.316 9      2560.413 9        55.318 9  21938266.397 6         0.000 6      1995.128 6        37.977 6
> 2019 07 03 12 01 12.0000000  0  8       0.000000000000
G07  25341868.081 9 133172369.553 9      2180.742 9        54.133 9  25341868.749 6         0.000 6      1699.280 6        37.977 6
G10  23801011.975 9 125075107.574 9      3527.632 9        54.672 9  23801015.693 6         0.000 6      2748.807 6        37.977 6
G21  21173856.834 9 111269347.986 9     -1255.691 9        55.708 9  21173856.120 6         0.000 6      -978.461 6        37.977 6
G29  24307170.232 9 127734985.194 9     -3121.153 9        54.472 9  24307171.814 6         0.000 6     -2432.070 6        37.977 6
G27  21998761.276 9 115604243.803 9      2496.407 9        55.377 9  21998763.207 6         0.000 6      1945.253 6        37.977 6
G16  20495918.234 9 107706756.968 9       549.158 9        55.977 9  20495917.407 6         0.000 6       427.916 6        37.977 6
G26  20658079.468 9 108558918.018 9     -1490.443 9        55.872 9  20658082.286 6         0.000 6     -1161.385 6        37.977 6
G20  21937778.891 9 115283773.130 9      2559.968 9        55.318 9  21937779.208 6         0.000 6      1994.782 6        37.977 6
> 2019 07 03 12 01 13.0000000  0  8       0.000000000000
G07  25341453.145 9 133170189.051 9      2180.281 9        54.133 9  25341453.812 6         0.000 6      1698.922 6        37.977 6
G10  23800340.700 9 125071580.015 9      3527.494 9        54.673 9  23800344.418 6         0.000 6      2748.699 6        37.977 6
G21  21174095.818 9 111270603.852 9     -1256.051 9        55.708 9  21174095.104 6         0.000 6      -978.741 6        37.977 6
G29  24307764.175 9 127738106.375 9     -3121.238 9        54.472 9  24307765.758 6         0.000 6     -2432.136 6        37.977 6
G27  21998286.248 9 115601747.519 9      2496.170 9        55.377 9  21998288.179 6         0.000 6      1945.068 6        37.977 6
G16  20495813.791 9 107706208.116 9       548.542 9        55.977 9  20495812.964 6         0.000 6       427.435 6        37.977 6
G26  20658363.144 9 108560408.742 9     -1491.018 9        55.871 9  20658365.962 6         0.000 6     -1161.833 6        37.977 6
G20  21937291.786 9 115281213.380 9      2559.524 9        55.318 9  21937292.103 6         0.000 6      1994.435 6        37.977 6
> 2019 07 03 12 01 14.0000000  0  8       0.000000000000
G07  25341038.295 9 133168009.003 9      2179.821 9        54.134 9  25341038.962 6         0.000 6      1698.563 6        37.977 6
G10  23799669.454 9 125068052.601 9      3527.355 9        54.673 9  23799673.171 6         0.000 6      2748.591 6        37.977 6
G21  21174334.870 9 111271860.083 9     -1256.411 9        55.708 9  21174334.157 6         0.000 6      -979.022 6        37.977 6
G29  24308358.135 9 127741227.646 9     -3121.324 9        54.472 9  24308359.718 6         0.000 6     -2432.203 6        37.977 6
G27  21997811.266 9 115599251.471 9      2495.932 9        55.377 9  21997813.196 6         0.000 6      1944.883 6        37.977 6
G16  20495709.466 9 107705659.882 9       547.925 9        55.977 9  20495708.639 6         0.000 6       426.955 6        37.977 6
G26  20658646.930 9 108561900.045 9     -1491.592 9        55.871 9  20658649.748 6         0.000 6     -1162.280 6        37.977 6
G20  21936804.767 9 115278654.083 9      2559.080 9        55.318 9  21936805.084 6         0.000 6      1994.089 6        37.977 6
> 2019 07 03 12 01 15.0000000  0  8       0.000000000000
G07  25340623.533 9 133165829.418 9      2179.361 9        54.134 9  25340624.200 6         0.000 6      1698.204 6        37.977 6
G10  23798998.233 9 125064525.322 9      3527.216 9        54.673 9  23799001.950 6         0.000 6      2748.483 6        37.977 6
G21  21174573.991 9 111273116.671 9     -1256.771 9        55.708 9  21174573.278 6         0.000 6      -979.303 6        37.977 6
G29  24308952.111 9 127744349.002 9     -3121.409 9        54.472 9  24308953.695 6         0.000 6     -2432.269 6        37.977 6
G27  21997336.328 9 115596755.658 9      2495.695 9        55.377 9  21997338.258 6         0.000 6      1944.698 6        37.977 6
G16  20495605.257 9 107705112.262 9       547.309 9        55.977 9  20495604.430 6         0.000 6       426.474 6        37.977 6
G26  20658930.824 9 108563391.918 9     -1492.167 9        55.871 9  20658933.642 6         0.000 6     -1162.728 6        37.977 6
G20  21936317.832 9 115276095.226 9      2558.635 9        55.319 9  21936318.149 6         0.000 6      1993.743 6        37.977 6
> 2019 07 03 12 01 16.0000000  0  8       0.000000000000
G07  25340208.858 9 133163650.291 9      2178.900 9        54.134 9  25340209.525 6         0.000 6      1697.845 6        37.977 6
G10  23798327.039 9 125060998.186 9      3527.077 9        54.673 9  23798330.755 6         0.000 6      2748.375 6        37.977 6
G21  21174813.181 9 111274373.622 9     -1257.131 9        55.708 9  21174812.468 6         0.000 6      -979.583 6        37.977 6
G29  24309546.104 9 127747470.443 9     -3121.494 9        54.471 9  24309547.688 6         0.000 6     -2432.336 6        37.977 6
G27  21996861.435 9 115594260.084 9      2495.458 9        55.377 9  21996863.365 6         0.000 6      1944.513 6        37.977 6
G16  20495501.166 9 107704565.262 9       546.692 9        55.977 9  20495500.340 6         0.000 6       425.994 6        37.977 6
G26  20659214.829 9 108564884.370 9     -1492.741 9        55.871 9  20659217.647 6         0.000 6     -1163.175 6        37.977 6
G20  21935830.982 9 115273536.818 9      2558.190 9        55.319 9  21935831.299 6         0.000 6      1993.396 6        37.977 6
> 2019 07 03 12 01 17.0000000  0  8       0.000000000000
G07  25339794.272 9 133161471.628 9      2178.440 9        54.134 9  25339794.938 6         0.000 6      1697.487 6        37.977 6
G10  23797655.871 9 125057471.184 9      3526.938 9        54.674 9  23797659.586 6         0.000 6      2748.266 6        37.977 6
G21  21175052.439 9 111275630.930 9     -1257.491 9        55.708 9  21175051.726 6         0.000 6      -979.864 6        37.977 6
G29  24310140.112 9 127750591.970 9     -3121.579 9        54.471 9  24310141.698 6         0.000 6     -2432.402 6        37.977 6
G27  21996386.588 9 115591764.746 9      2495.220 9        55.378 9  21996388.518 6         0.000 6      1944.328 6        37.977 6
G16  20495397.192 9 107704018.876 9       546.075 9        55.977 9  20495396.366 6         0.000 6       425.513 6        37.977 6
G26  20659498.942 9 108566377.391 9     -1493.315 9        55.871 9  20659501.760 6         0.000 6     -1163.623 6        37.977 6
G20  21935344.216 9 115270978.851 9      2557.745 9        55.319 9  21935344.532 6         0.000 6      1993.050 6        37.977 6
> 2019 07 03 12 01 18.0000000  0  8       0.000000000000
G07  25339379.772 9 133159293.421 9      2177.979 9        54.134 9  25339380.438 6         0.000 6      1697.128 6        37.977 6
G10  23796984.730 9 125053944.326 9      3526.799 9        54.674 9  23796988.445 6         0.000 6      2748.158 6        37.977 6
G21  21175291.766 9 111276888.601 9     -1257.851 9        55.707 9  21175291.053 6         0.000 6      -980.144 6        37.977 6
G29  24310734.137 9 127753713.581 9     -3121.665 9        54.471 9  24310735.723 6         0.000 6     -2432.468 6        37.977 6
G27  21995911.786 9 115589269.647 9      2494.983 9        55.378 9  21995913.716 6         0.000 6      1944.143 6        37.977 6
G16  20495293.337 9 107703473.109 9       545.458 9        55.977 9  20495292.510 6         0.000 6       425.032 6        37.977 6
G26  20659783.165 9 108567870.991 9     -1493.889 9        55.871 9  20659785.983 6         0.000 6     -1164.070 6        37.977 6
G20  21934857.535 9 115268421.332 9      2557.301 9        55.319 9  21934857.852 6         0.000 6      1992.703 6        37.977 6
> 2019 07 03 12 01 19.0000000  0  8       0.000000000000
G07  25338965.361 9 133157115.679 9      2177.519 9        54.134 9  25338966.027 6         0.000 6      1696.769 6        37.977 6
G10  23796313.615 9 125050417.602 9      3526.660 9        54.674 9  23796317.329 6         0.000 6      2748.050 6        37.977 6
G21  21175531.161 9 111278146.629 9     -1258.211 9        55.707 9  21175530.448 6         0.000 6      -980.424 6        37.977 6
G29  24311328.178 9 127756835.278 9     -3121.750 9        54.471 9  24311329.765 6         0.000 6     -2432.535 6        37.977 6
G27  21995437.028 9 115586774.784 9      2494.745 9        55.378 9  21995438.958 6         0.000 6      1943.958 6        37.977 6
G16  20495189.597 9 107702927.956 9       544.842 9        55.977 9  20495188.770 6         0.000 6       424.552 6        37.977 6
G26  20660067.496 9 108569365.161 9     -1494.463 9        55.871 9  20660070.315 6         0.000 6     -1164.517 6        37.977 6
G20  21934370.939 9 115265864.254 9      2556.856 9        55.319 9  21934371.255 6         0.000 6      1992.356 6        37.977 6
> 2019 07 03 12 01 20.0000000  0  8       0.000000000000
G07  25338551.037 9 133154938.394 9      2177.058 9        54.134 9  25338551.702 6         0.000 6      1696.410 6        37.977 6
G10  23795642.527 9 125046891.022 9      3526.521 9        54.674 9  23795646.240 6         0.000 6      2747.941 6        37.977 6
G21  21175770.625 9 111279405.019 9     -1258.571 9        55.707 9  21175769.911 6         0.000 6      -980.705 6        37.977 6
G29  24311922.236 9 127759957.060 9     -3121.835 9        54.471 9  24311923.823 6         0.000 6     -2432.601 6        37.977 6
G27  21994962.317 9 115584280.160 9      2494.508 9        55.378 9  21994964.246 6         0.000 6      1943.773 6        37.977 6
G16  20495085.976 9 107702383.423 9       544.225 9        55.977 9  20495085.149 6         0.000 6       424.071 6        37.977 6
G26  20660351.938 9 108570859.910 9     -1495.038 9        55.871 9  20660354.756 6         0.000 6     -1164.965 6        37.977 6
G20  21933884.428 9 115263307.626 9      2556.410 9        55.320 9  21933884.744 6         0.000 6      1992.009 6        37.977 6
> 2019 07 03 12 01 21.0000000  0  8       0.000000000000
G07  25338136.801 9 133152761.573 9      2176.597 9        54.135 9  25338137.466 6         0.000 6      1696.051 6        37.977 6
G10  23794971.465 9 125043364.579 9      3526.382 9        54.675 9  23794975.178 6         0.000 6      2747.833 6        37.977 6
G21  21176010.157 9 111280663.766 9     -1258.930 9        55.707 9  21176009.443 6         0.000 6      -980.985 6        37.977 6
G29  24312516.308 9 127763078.922 9     -3121.920 9        54.470 9  24312517.896 6         0.000 6     -2432.667 6        37.977 6
G27  21994487.651 9 115581785.778 9      2494.270 9        55.378 9  21994489.580 6         0.000 6      1943.588 6        37.977 6
G16  20494982.473 9 107701839.508 9       543.608 9        55.978 9  20494981.646 6         0.000 6       423.591 6        37.977 6
G26  20660636.488 9 108572355.232 9     -1495.612 9        55.870 9  20660639.307 6         0.000 6     -1165.412 6        37.977 6
G20  21933398.001 9 115260751.439 9      2555.965 9        55.320 9  21933398.316 6         0.000 6      1991.662 6        37.977 6
> 2019 07 03 12 01 22.0000000  0  8       0.000000000000
G07  25337722.652 9 133150585.212 9      2176.136 9        54.135 9  25337723.317 6         0.000 6      1695.692 6        37.977 6
G10  23794300.430 9 125039838.273 9      3526.242 9        54.675 9  23794304.142 6         0.000 6      2747.724 6        37.977 6
G21  21176249.757 9 111281922.874 9     -1259.290 9        55.707 9  21176249.044 6         0.000 6      -981.265 6        37.977 6
G29  24313110.398 9 127766200.874 9     -3122.005 9        54.470 9  24313111.986 6         0.000 6     -2432.734 6        37.977 6
G27  21994013.030 9 115579291.627 9      2494.032 9        55.378 9  21994014.959 6         0.000 6      1943.403 6        37.977 6
G16  20494879.086 9 107701296.205 9       542.991 9        55.978 9  20494878.259 6         0.000 6       423.110 6        37.977 6
G26  20660921.147 9 108573851.124 9     -1496.186 9        55.870 9  20660923.966 6         0.000 6     -1165.859 6        37.977 6
G20  21932911.658 9 115258195.697 9      2555.520 9        55.320 9  21932911.974 6         0.000 6      1991.315 6        37.977 6
> 2019 07 03 12 01 23.0000000  0  8       0.000000000000
G07  25337308.591 9 133148409.310 9      2175.675 9        54.135 9  25337309.256 6         0.000 6      1695.332 6        37.977 6
G10  23793629.421 9 125036312.111 9      3526.103 9        54.675 9  23793633.133 6         0.000 6      2747.615 6        37.977 6
G21  21176489.426 9 111283182.343 9     -1259.650 9        55.707 9  21176488.713 6         0.000 6      -981.545 6        37.977 6
G29  24313704.504 9 127769322.911 9     -3122.090 9        54.470 9  24313706.093 6         0.000 6     -2432.800 6        37.977 6
G27  21993538.454 9 115576797.716 9      2493.795 9        55.379 9  21993540.383 6         0.000 6      1943.217 6        37.977 6
G16  20494775.816 9 107700753.523 9       542.374 9        55.978 9  20494774.990 6         0.000 6       422.629 6        37.977 6
G26  20661205.917 9 108575347.595 9     -1496.760 9        55.870 9  20661208.736 6         0.000 6     -1166.307 6        37.977 6
G20  21932425.401 9 115255640.404 9      2555.075 9        55.320 9  21932425.716 6         0.000 6      1990.968 6        37.977 6
> 2019 07 03 12 01 24.0000000  0  8       0.000000000000
G07  25336894.618 9 133146233.872 9      2175.214 9        54.135 9  25336895.283 6         0.000 6      1694.973 6        37.977 6
G10  23792958.439 9 125032786.085 9      3525.963 9        54.675 9  23792962.149 6         0.000 6      2747.506 6        37.977 6
G21  21176729.163 9 111284442.169 9     -1260.009 9        55.707 9  21176728.450 6         0.000 6      -981.825 6        37.977 6
G29  24314298.626 9 127772445.033 9     -3122.175 9        54.470 9  24314300.216 6         0.000 6     -2432.866 6        37.977 6
G27  21993063.922 9 115574304.041 9      2493.557 9        55.379 9  21993065.851 6         0.000 6      1943.032 6        37.977 6
G16  20494672.664 9 107700211.454 9       541.757 9        55.978 9  20494671.837 6         0.000 6       422.148 6        37.977 6
G26  20661490.794 9 108576844.636 9     -1497.334 9        55.870 9  20661493.613 6         0.000 6     -1166.754 6        37.977 6
G20  21931939.229 9 115253085.553 9      2554.629 9        55.320 9  21931939.543 6         0.000 6      1990.621 6        37.977 6
> 2019 07 03 12 01 25.0000000  0  8       0.000000000000
G07  25336480.733 9 133144058.891 9      2174.753 9        54.135 9  25336481.397 6         0.000 6      1694.614 6        37.977 6
G10  23792287.484 9 125029260.202 9      3525.823 9        54.676 9  23792291.194 6         0.000 6      2747.397 6        37.977 6
G21  21176968.969 9 111285702.357 9     -1260.369 9        55.707 9  21176968.256 6         0.000 6      -982.106 6        37.977 6
G29  24314892.764 9 127775567.241 9     -3122.260 9        54.469 9  24314894.354 6         0.000 6     -2432.932 6        37.977 6
G27  21992589.437 9 115571810.606 9      2493.319 9        55.379 9  21992591.366 6         0.000 6      1942.847 6        37.977 6
G16  20494569.630 9 107699670.006 9       541.140 9        55.978 9  20494568.803 6         0.000 6       421.667 6        37.977 6
G26  20661775.782 9 108578342.255 9     -1497.908 9        55.870 9  20661778.601 6         0.000 6     -1167.201 6        37.977 6
G20  21931453.141 9 115250531.151 9      2554.184 9        55.320 9  21931453.455 6         0.000 6      1990.274 6        37.977 6
> 2019 07 03 12 01 26.0000000  0  8       0.000000000000
G07  25336066.935 9 133141884.375 9      2174.292 9        54.135 9  25336067.600 6         0.000 6      1694.254 6        37.977 6
G10  23791616.554 9 125025734.455 9      3525.683 9        54.676 9  23791620.264 6         0.000 6      2747.289 6        37.977 6
G21  21177208.843 9 111286962.902 9     -1260.728 9        55.707 9  21177208.130 6         0.000 6      -982.386 6        37.977 6
G29  24315486.918 9 127778689.533 9     -3122.345 9        54.469 9  24315488.509 6         0.000 6     -2432.999 6        37.977 6
G27  21992114.996 9 115569317.406 9      2493.082 9        55.379 9  21992116.925 6         0.000 6      1942.662 6        37.977 6
G16  20494466.713 9 107699129.171 9       540.523 9        55.978 9  20494465.886 6         0.000 6       421.187 6        37.977 6
G26  20662060.878 9 108579840.443 9     -1498.482 9        55.870 9  20662063.697 6         0.000 6     -1167.648 6        37.977 6
G20  21930967.138 9 115247977.190 9      2553.738 9        55.321 9  21930967.452 6         0.000 6      1989.927 6        37.977 6
> 2019 07 03 12 01 27.0000000  0  8       0.000000000000
G07  25335653.225 9 133139710.317 9      2173.831 9        54.135 9  25335653.889 6         0.000 6      1693.895 6        37.977 6
G10  23790945.652 9 125022208.852 9      3525.543 9        54.676 9  23790949.361 6         0.000 6      2747.179 6        37.977 6
G21  21177448.786 9 111288223.809 9     -1261.087 9        55.707 9  21177448.073 6         0.000 6      -982.666 6        37.977 6
G29  24316081.089 9 127781811.910 9     -3122.430 9        54.469 9  24316082.681 6         0.000 6     -2433.065 6        37.977 6
G27  21991640.601 9 115566824.446 9      2492.844 9        55.379 9  21991642.530 6         0.000 6      1942.476 6        37.977 6
G16  20494363.913 9 107698588.957 9       539.906 9        55.978 9  20494363.086 6         0.000 6       420.706 6        37.977 6
G26  20662346.084 9 108581339.209 9     -1499.056 9        55.870 9  20662348.904 6         0.000 6     -1168.096 6        37.977 6
G20  21930481.220 9 115245423.680 9      2553.292 9        55.321 9  21930481.534 6         0.000 6      1989.579 6        37.977 6
> 2019 07 03 12 01 28.0000000  0  8       0.000000000000
G07  25335239.604 9 133137536.726 9      2173.369 9        54.136 9  25335240.268 6         0.000 6      1693.536 6        37.977 6
G10  23790274.776 9 125018683.382 9      3525.403 9        54.676 9  23790278.484 6         0.000 6      2747.070 6        37.977 6
G21  21177688.796 9 111289485.071 9     -1261.447 9        55.706 9  21177688.083 6         0.000 6      -982.946 6        37.977 6
G29  24316675.275 9 127784934.367 9     -3122.515 9        54.469 9  24316676.867 6         0.000 6     -2433.131 6        37.977 6
G27  21991166.252 9 115564331.726 9      2492.606 9        55.380 9  21991168.180 6         0.000 6      1942.291 6        37.977 6
G16  20494261.231 9 107698049.358 9       539.289 9        55.978 9  20494260.404 6         0.000 6       420.225 6        37.977 6
G26  20662631.399 9 108582838.545 9     -1499.629 9        55.870 9  20662634.218 6         0.000 6     -1168.543 6        37.977 6
G20  21929995.386 9 115242870.607 9      2552.846 9        55.321 9  21929995.699 6         0.000 6      1989.232 6        37.977 6
> 2019 07 03 12 01 29.0000000  0  8       0.000000000000
G07  25334826.069 9 133135363.591 9      2172.908 9        54.136 9  25334826.733 6         0.000 6      1693.176 6        37.977 6
G10  23789603.927 9 125015158.060 9      3525.263 9        54.677 9  23789607.634 6         0.000 6      2746.961 6        37.977 6
G21  21177928.876 9 111290746.697 9     -1261.806 9        55.706 9  21177928.163 6         0.000 6      -983.226 6        37.977 6
G29  24317269.478 9 127788056.914 9     -3122.600 9        54.469 9  24317271.071 6         0.000 6     -2433.197 6        37.977 6
G27  21990691.947 9 115561839.242 9      2492.368 9        55.380 9  21990693.875 6         0.000 6      1942.106 6        37.977 6
G16  20494158.666 9 107697510.378 9       538.671 9        55.978 9  20494157.840 6         0.000 6       419.744 6        37.977 6
G26  20662916.823 9 108584338.460 9     -1500.203 9        55.870 9  20662919.643 6         0.000 6     -1168.990 6        37.977 6
G20  21929509.638 9 115240317.989 9      2552.400 9        55.321 9  21929509.951 6         0.000 6      1988.885 6        37.977 6
> 2019 07 03 12 01 30.0000000  0  8       0.000000000000
G07  25334412.623 9 133133190.917 9      2172.446 9        54.136 9  25334413.286 6         0.000 6      1692.816 6        37.977 6
G10  23788933.105 9 125011632.877 9      3525.123 9        54.677 9  23788936.812 6         0.000 6      2746.852 6        37.977 6
G21  21178169.023 9 111292008.681 9     -1262.165 9        55.706 9  21178168.310 6         0.000 6      -983.505 6        37.977 6
G29  24317863.697 9 127791179.546 9     -3122.685 9        54.468 9  24317865.290 6         0.000 6     -2433.263 6        37.977 6
G27  21990217.688 9 115559346.996 9      2492.130 9        55.380 9  21990219.616 6         0.000 6      1941.920 6        37.977 6
G16  20494056.219 9 107696972.015 9       538.054 9        55.978 9  20494055.393 6         0.000 6       419.263 6        37.977 6
G26  20663202.357 9 108585838.948 9     -1500.777 9        55.869 9  20663205.177 6         0.000 6     -1169.437 6        37.977 6
G20  21929023.974 9 115237765.816 9      2551.954 9        55.321 9  21929024.287 6         0.000 6      1988.537 6        37.977 6
> 2019 07 03 12 01 31.0000000  0  8       0.000000000000
G07  25333999.264 9 133131018.708 9      2171.985 9        54.136 9  25333999.927 6         0.000 6      1692.457 6        37.977 6
G10  23788262.309 9 125008107.830 9      3524.983 9        54.677 9  23788266.015 6         0.000 6      2746.742 6        37.977 6
G21  21178409.239 9 111293271.023 9     -1262.524 9        55.706 9  21178408.526 6         0.000 6      -983.785 6        37.977 6
G29  24318457.932 9 127794302.262 9     -3122.769 9        54.468 9  24318459.526 6         0.000 6     -2433.329 6        37.977 6
G27  21989743.474 9 115556854.985 9      2491.892 9        55.380 9  21989745.402 6         0.000 6      1941.735 6        37.977 6
G16  20493953.889 9 107696434.266 9       537.437 9        55.978 9  20493953.062 6         0.000 6       418.782 6        37.977 6
G26  20663487.999 9 108587340.005 9     -1501.351 9        55.869 9  20663490.819 6         0.000 6     -1169.884 6        37.977 6
G20  21928538.395 9 115235214.085 9      2551.508 9        55.322 9  21928538.708 6         0.000 6      1988.189 6        37.977 6
> 2019 07 03 12 01 32.0000000  0  8       0.000000000000
G07  25333585.993 9 133128846.957 9      2171.523 9        54.136 9  25333586.656 6         0.000 6      1692.097 6        37.977 6
G10  23787591.540 9 125004582.929 9      3524.842 9        54.677 9  23787595.246 6         0.000 6      2746.633 6        37.977 6
G21  21178649.524 9 111294533.726 9     -1262.883 9        55.706 9  21178648.811 6         0.000 6      -984.065 6        37.977 6
G29  24319052.183 9 127797425.064 9     -3122.854 9        54.468 9  24319053.778 6         0.000 6     -2433.396 6        37.977 6
G27  21989269.305 9 115554363.215 9      2491.654 9        55.380 9  21989271.233 6         0.000 6      1941.549 6        37.977 6
G16  20493851.677 9 107695897.138 9       536.820 9        55.978 9  20493850.850 6         0.000 6       418.301 6        37.977 6
G26  20663773.751 9 108588841.641 9     -1501.925 9        55.869 9  20663776.571 6         0.000 6     -1170.331 6        37.977 6
G20  21928052.902 9 115232662.804 9      2551.062 9        55.322 9  21928053.214 6         0.000 6      1987.842 6        37.977 6
> 2019 07 03 12 01 33.0000000  0  8       0.000000000000
G07  25333172.810 9 133126675.671 9      2171.062 9        54.136 9  25333173.473 6         0.000 6      1691.737 6        37.977 6
G10  23786920.798 9 125001058.163 9      3524.702 9        54.678 9  23786924.503 6         0.000 6      2746.523 6        37.977 6
G21  21178889.876 9 111295796.786 9     -1263.242 9        55.706 9  21178889.163 6         0.000 6      -984.345 6        37.977 6
G29  24319646.451 9 127800547.950 9     -3122.939 9        54.468 9  24319648.046 6         0.000 6     -2433.462 6        37.977 6
G27  21988795.182 9 115551871.681 9      2491.416 9        55.381 9  21988797.109 6         0.000 6      1941.364 6        37.977 6
G16  20493749.582 9 107695360.624 9       536.202 9        55.978 9  20493748.755 6         0.000 6       417.820 6        37.977 6
G26  20664059.612 9 108590343.846 9     -1502.498 9        55.869 9  20664062.432 6         0.000 6     -1170.778 6        37.977 6
G20  21927567.493 9 115230111.965 9      2550.616 9        55.322 9  21927567.805 6         0.000 6      1987.494 6        37.977 6
> 2019 07 03 12 01 34.0000000  0  8       0.000000000000
G07  25332759.715 9 133124504.844 9      2170.600 9        54.136 9  25332760.378 6         0.000 6      1691.377 6        37.977 6
G10  23786250.083 9 124997533.542 9      3524.561 9        54.678 9  23786253.787 6         0.000 6      2746.414 6        37.977 6
G21  21179130.297 9 111297060.207 9     -1263.601 9        55.706 9  21179129.584 6         0.000 6      -984.625 6        37.977 6
G29  24320240.734 9 127803670.921 9     -3123.024 9        54.468 9  24320242.330 6         0.000 6     -2433.528 6        37.977 6
G27  21988321.104 9 115549380.387 9      2491.178 9        55.381 9  21988323.031 6         0.000 6      1941.178 6        37.977 6
G16  20493647.605 9 107694824.730 9       535.585 9        55.978 9  20493646.778 6         0.000 6       417.339 6        37.977 6
G26  20664345.582 9 108591846.629 9     -1503.072 9        55.869 9  20664348.402 6         0.000 6     -1171.225 6        37.977 6
G20  21927082.169 9 115227561.577 9      2550.169 9        55.322 9  21927082.481 6         0.000 6      1987.146 6        37.977 6
> 2019 07 03 12 01 35.0000000  0  8       0.000000000000
G07  25332346.708 9 133122334.481 9      2170.138 9        54.137 9  25332347.370 6         0.000 6      1691.017 6        37.977 6
G10  23785579.394 9 124994009.058 9      3524.420 9        54.678 9  23785583.097 6         0.000 6      2746.304 6        37.977 6
G21  21179370.786 9 111298323.985 9     -1263.960 9        55.706 9  21179370.074 6         0.000 6      -984.904 6        37.977 6
G29  24320835.034 9 127806793.977 9     -3123.109 9        54.467 9  24320836.631 6         0.000 6     -2433.594 6        37.977 6
G27  21987847.071 9 115546889.329 9      2490.940 9        55.381 9  21987848.998 6         0.000 6      1940.993 6        37.977 6
G16  20493545.744 9 107694289.451 9       534.967 9        55.978 9  20493544.918 6         0.000 6       416.858 6        37.977 6
G26  20664631.661 9 108593349.981 9     -1503.645 9        55.869 9  20664634.481 6         0.000 6     -1171.672 6        37.977 6
G20  21926596.930 9 115225011.631 9      2549.723 9        55.322 9  21926597.241 6         0.000 6      1986.798 6        37.977 6
> 2019 07 03 12 01 36.0000000  0  8       0.000000000000
G07  25331933.789 9 133120164.581 9      2169.676 9        54.137 9  25331934.451 6         0.000 6      1690.657 6        37.977 6
G10  23784908.732 9 124990484.717 9      3524.279 9        54.678 9  23784912.435 6         0.000 6      2746.194 6        37.977 6
G21  21179611.344 9 111299588.121 9     -1264.319 9        55.706 9  21179610.631 6         0.000 6      -985.184 6        37.977 6
G29  24321429.349 9 127809917.113 9     -3123.193 9        54.467 9  24321430.946 6         0.000 6     -2433.660 6        37.977 6
G27  21987373.084 9 115544398.515 9      2490.702 9        55.381 9  21987375.011 6         0.000 6      1940.807 6        37.977 6
G16  20493444.003 9 107693754.794 9       534.350 9        55.978 9  20493443.176 6         0.000 6       416.377 6        37.977 6
G26  20664917.850 9 108594853.912 9     -1504.219 9        55.869 9  20664920.670 6         0.000 6     -1172.119 6        37.977 6
G20  21926111.775 9 115222462.133 9      2549.276 9        55.323 9  21926112.087 6         0.000 6      1986.450 6        37.977 6
> 2019 07 03 12 01 37.0000000  0  8       0.000000000000
G07  25331520.958 9 133117995.142 9      2169.214 9        54.137 9  25331521.620 6         0.000 6      1690.298 6        37.977 6
G10  23784238.097 9 124986960.515 9      3524.138 9        54.679 9  23784241.799 6         0.000 6      2746.084 6        37.977 6
G21  21179851.969 9 111300852.617 9     -1264.678 9        55.706 9  21179851.257 6         0.000 6      -985.463 6        37.977 6
G29  24322023.681 9 127813040.338 9     -3123.278 9        54.467 9  24322025.279 6         0.000 6     -2433.726 6        37.977 6
G27  21986899.141 9 115541907.933 9      2490.463 9        55.381 9  21986901.068 6         0.000 6      1940.621 6        37.977 6
G16  20493342.377 9 107693220.749 9       533.732 9        55.978 9  20493341.550 6         0.000 6       415.895 6        37.977 6
G26  20665204.147 9 108596358.411 9     -1504.793 9        55.869 9  20665206.967 6         0.000 6     -1172.566 6        37.977 6
G20  21925626.706 9 115219913.080 9      2548.830 9        55.323 9  21925627.017 6         0.000 6      1986.102 6        37.977 6
> 2019 07 03 12 01 38.0000000  0  8       0.000000000000
G07  25331108.214 9 133115826.163 9      2168.752 9        54.137 9  25331108.876 6         0.000 6      1689.937 6        37.977 6
G10  23783567.489 9 124983436.458 9      3523.997 9        54.679 9  23783571.190 6         0.000 6      2745.974 6        37.977 6
G21  21180092.664 9 111302117.473 9     -1265.037 9        55.705 9  21180091.951 6         0.000 6      -985.743 6        37.977 6
G29  24322618.029 9 127816163.649 9     -3123.363 9        54.467 9  24322619.628 6         0.000 6     -2433.792 6        37.977 6
G27  21986425.245 9 115539417.591 9      2490.225 9        55.381 9  21986427.171 6         0.000 6      1940.436 6        37.977 6
G16  20493240.870 9 107692687.326 9       533.115 9        55.978 9  20493240.043 6         0.000 6       415.414 6        37.977 6
G26  20665490.554 9 108597863.488 9     -1505.366 9        55.868 9  20665493.374 6         0.000 6     -1173.013 6        37.977 6
G20  21925141.722 9 115217364.479 9      2548.383 9        55.323 9  21925142.033 6         0.000 6      1985.754 6        37.977 6
> 2019 07 03 12 01 39.0000000  0  8       0.000000000000
G07  25330695.559 9 133113657.648 9      2168.290 9        54.137 9  25330696.220 6         0.000 6      1689.577 6        37.977 6
G10  23782896.907 9 124979912.537 9      3523.856 9        54.679 9  23782900.608 6         0.000 6      2745.864 6        37.977 6
G21  21180333.426 9 111303382.686 9     -1265.395 9        55.705 9  21180332.713 6         0.000 6      -986.022 6        37.977 6
G29  24323212.393 9 127819287.043 9     -3123.447 9        54.467 9  24323213.992 6         0.000 6     -2433.858 6        37.977 6
G27  21985951.393 9 115536927.486 9      2489.987 9        55.382 9  21985953.319 6         0.000 6      1940.250 6        37.977 6
G16  20493139.480 9 107692154.516 9       532.497 9        55.978 9  20493138.653 6         0.000 6       414.933 6        37.977 6
G26  20665777.069 9 108599369.134 9     -1505.940 9        55.868 9  20665779.890 6         0.000 6     -1173.460 6        37.977 6
G20  21924656.823 9 115214816.320 9      2547.936 9        55.323 9  21924657.133 6         0.000 6      1985.406 6        37.977 6
> 2019 07 03 12 01 40.0000000  0  8       0.000000000000
G07  25330282.991 9 133111489.593 9      2167.827 9        54.137 9  25330283.652 6         0.000 6      1689.217 6        37.977 6
G10  23782226.353 9 124976388.763 9      3523.714 9        54.679 9  23782230.053 6         0.000 6      2745.754 6        37.977 6
G21  21180574.257 9 111304648.260 9     -1265.754 9        55.705 9  21180573.544 6         0.000 6      -986.302 6        37.977 6
G29  24323806.774 9 127822410.523 9     -3123.532 9        54.466 9  24323808.373 6         0.000 6     -2433.924 6        37.977 6
G27  21985477.587 9 115534437.621 9      2489.749 9        55.382 9  21985479.513 6         0.000 6      1940.064 6        37.977 6
G16  20493038.208 9 107691622.328 9       531.880 9        55.978 9  20493037.381 6         0.000 6       414.452 6        37.977 6
G26  20666063.694 9 108600875.359 9     -1506.513 9        55.868 9  20666066.515 6         0.000 6     -1173.907 6        37.977 6
G20  21924172.009 9 115212268.612 9      2547.489 9        55.323 9  21924172.319 6         0.000 6      1985.057 6        37.977 6
> 2019 07 03 12 01 41.0000000  0  8       0.000000000000
G07  25329870.511 9 133109322.001 9      2167.365 9        54.137 9  25329871.172 6         0.000 6      1688.857 6        37.977 6
G10  23781555.826 9 124972865.130 9      3523.573 9        54.680 9  23781559.526 6         0.000 6      2745.644 6        37.977 6
G21  21180815.156 9 111305914.192 9     -1266.112 9        55.705 9  21180814.443 6         0.000 6      -986.581 6        37.977 6
G29  24324401.170 9 127825534.087 9     -3123.617 9        54.466 9  24324402.771 6         0.000 6     -2433.990 6        37.977 6
G27  21985003.826 9 115531947.995 9      2489.510 9        55.382 9  21985005.752 6         0.000 6      1939.879 6        37.977 6
G16  20492937.053 9 107691090.757 9       531.262 9        55.978 9  20492936.226 6         0.000 6       413.970 6        37.977 6
G26  20666350.429 9 108602382.157 9     -1507.086 9        55.868 9  20666353.250 6         0.000 6     -1174.353 6        37.977 6
G20  21923687.281 9 115209721.351 9      2547.042 9        55.324 9  21923687.591 6         0.000 6      1984.709 6        37.977 6
> 2019 07 03 12 01 42.0000000  0  8       0.000000000000
G07  25329458.120 9 133107154.873 9      2166.903 9        54.138 9  25329458.781 6         0.000 6      1688.496 6        37.977 6
G10  23780885.325 9 124969341.634 9      3523.431 9        54.680 9  23780889.024 6         0.000 6      2745.534 6        37.977 6
G21  21181056.123 9 111307180.481 9     -1266.471 9        55.705 9  21181055.410 6         0.000 6      -986.861 6        37.977 6
G29  24324995.583 9 127828657.736 9     -3123.701 9        54.466 9  24324997.184 6         0.000 6     -2434.056 6        37.977 6
G27  21984530.110 9 115529458.604 9      2489.272 9        55.382 9  21984532.036 6         0.000 6      1939.693 6        37.977 6
G16  20492836.016 9 107690559.800 9       530.644 9        55.978 9  20492835.189 6         0.000 6       413.489 6        37.977 6
G26  20666637.272 9 108603889.523 9     -1507.660 9        55.868 9  20666640.093 6         0.000 6     -1174.800 6        37.977 6
G20  21923202.637 9 115207174.533 9      2546.595 9        55.324 9  21923202.946 6         0.000 6      1984.361 6        37.977 6
> 2019 07 03 12 01 43.0000000  0  8       0.000000000000
G07  25329045.816 9 133104988.205 9      2166.440 9        54.138 9  25329046.477 6         0.000 6      1688.136 6        37.977 6
G10  23780214.852 9 124965818.284 9      3523.290 9        54.680 9  23780218.550 6         0.000 6      2745.423 6        37.977 6
G21  21181297.158 9 111308447.130 9     -1266.829 9        55.705 9  21181296.446 6         0.000 6      -987.140 6        37.977 6
G29  24325590.011 9 127831781.469 9     -3123.786 9        54.466 9  24325591.613 6         0.000 6     -2434.122 6        37.977 6
G27  21984056.440 9 115526969.455 9      2489.033 9        55.382 9  21984058.366 6         0.000 6      1939.507 6        37.977 6
G16  20492735.096 9 107690029.465 9       530.027 9        55.978 9  20492734.269 6         0.000 6       413.008 6        37.977 6
G26  20666924.224 9 108605397.468 9     -1508.233 9        55.868 9  20666927.045 6         0.000 6     -1175.247 6        37.977 6
G20  21922718.078 9 115204628.166 9      2546.147 9        55.324 9  21922718.388 6         0.000 6      1984.012 6        37.977 6
> 2019 07 03 12 01 44.0000000  0  8       0.000000000000
G07  25328633.601 9 133102822.005 9      2165.978 9        54.138 9  25328634.262 6         0.000 6      1687.776 6        37.977 6
G10  23779544.404 9 124962295.069 9      3523.148 9        54.680 9  23779548.102 6         0.000 6      2745.313 6        37.977 6
G21  21181538.261 9 111309714.134 9     -1267.188 9        55.705 9  21181537.549 6         0.000 6      -987.419 6        37.977 6
G29  24326184.455 9 127834905.282 9     -3123.870 9        54.465 9  24326186.057 6         0.000 6     -2434.187 6        37.977 6
G27  21983582.816 9 115524480.545 9      2488.795 9        55.383 9  21983584.742 6         0.000 6      1939.321 6        37.977 6
G16  20492634.294 9 107689499.745 9       529.409 9        55.979 9  20492633.467 6         0.000 6       412.526 6        37.977 6
G26  20667211.285 9 108606905.981 9     -1508.806 9        55.868 9  20667214.106 6         0.000 6     -1175.694 6        37.977 6
G20  21922233.604 9 115202082.239 9      2545.700 9        55.324 9  21922233.913 6         0.000 6      1983.664 6        37.977 6
> 2019 07 03 12 01 45.0000000  0  8       0.000000000000
G07  25328221.474 9 133100656.263 9      2165.515 9        54.138 9  25328222.134 6         0.000 6      1687.415 6        37.977 6
G10  23778873.985 9 124958772.002 9      3523.006 9        54.681 9  23778877.682 6         0.000 6      2745.202 6        37.977 6
G21  21181779.433 9 111310981.500 9     -1267.546 9        55.705 9  21181778.721 6         0.000 6      -987.699 6        37.977 6
G29  24326778.916 9 127838029.184 9     -3123.955 9        54.465 9  24326780.519 6         0.000 6     -2434.253 6        37.977 6
G27  21983109.237 9 115521991.872 9      2488.556 9        55.383 9  21983111.162 6         0.000 6      1939.136 6        37.977 6
G16  20492533.609 9 107688970.645 9       528.791 9        55.979 9  20492532.782 6         0.000 6       412.045 6        37.977 6
G26  20667498.456 9 108608415.072 9     -1509.380 9        55.868 9  20667501.277 6         0.000 6     -1176.140 6        37.977 6
G20  21921749.216 9 115199536.767 9      2545.253 9        55.324 9  21921749.524 6         0.000 6      1983.315 6        37.977 6
> 2019 07 03 12 01 46.0000000  0  8       0.000000000000
G07  25327809.434 9 133098490.985 9      2165.052 9        54.138 9  25327810.094 6         0.000 6      1687.055 6        37.977 6
G10  23778203.592 9 124955249.073 9      3522.864 9        54.681 9  23778207.288 6         0.000 6      2745.092 6        37.977 6
G21  21182020.672 9 111312249.222 9     -1267.904 9        55.705 9  21182019.960 6         0.000 6      -987.978 6        37.977 6
G29  24327373.393 9 127841153.171 9     -3124.040 9        54.465 9  24327374.996 6         0.000 6     -2434.319 6        37.977 6
G27  21982635.703 9 115519503.436 9      2488.318 9        55.383 9  21982637.628 6         0.000 6      1938.950 6        37.977 6
G16  20492433.042 9 107688442.160 9       528.173 9        55.979 9  20492432.215 6         0.000 6       411.564 6        37.977 6
G26  20667785.735 9 108609924.732 9     -1509.953 9        55.867 9  20667788.556 6         0.000 6     -1176.587 6        37.977 6
G20  21921264.912 9 115196991.739 9      2544.805 9        55.325 9  21921265.220 6         0.000 6      1982.966 6        37.977 6
> 2019 07 03 12 01 47.0000000  0  8       0.000000000000
G07  25327397.483 9 133096326.168 9      2164.589 9        54.138 9  25327398.142 6         0.000 6      1686.694 6        37.977 6
G10  23777533.227 9 124951726.291 9      3522.722 9        54.681 9  23777536.922 6         0.000 6      2744.981 6        37.977 6
G21  21182261.981 9 111313517.305 9     -1268.263 9        55.705 9  21182261.269 6         0.000 6      -988.257 6        37.977 6
G29  24327967.886 9 127844277.243 9     -3124.124 9        54.465 9  24327969.490 6         0.000 6     -2434.385 6        37.977 6
G27  21982162.214 9 115517015.240 9      2488.079 9        55.383 9  21982164.139 6         0.000 6      1938.764 6        37.977 6
G16  20492332.593 9 107687914.296 9       527.555 9        55.979 9  20492331.766 6         0.000 6       411.082 6        37.977 6
G26  20668073.124 9 108611434.969 9     -1510.526 9        55.867 9  20668075.945 6         0.000 6     -1177.034 6        37.977 6
G20  21920780.694 9 115194447.162 9      2544.358 9        55.325 9  21920781.002 6         0.000 6      1982.617 6        37.977 6
> 2019 07 03 12 01 48.0000000  0  8       0.000000000000
G07  25326985.619 9 133094161.816 9      2164.127 9        54.138 9  25326986.279 6         0.000 6      1686.333 6        37.977 6
G10  23776862.888 9 124948203.646 9      3522.580 9        54.681 9  23776866.583 6         0.000 6      2744.870 6        37.977 6
G21  21182503.357 9 111314785.744 9     -1268.621 9        55.704 9  21182502.645 6         0.000 6      -988.536 6        37.977 6
G29  24328562.395 9 127847401.399 9     -3124.208 9        54.465 9  24328564.000 6         0.000 6     -2434.451 6        37.977 6
G27  21981688.771 9 115514527.281 9      2487.841 9        55.383 9  21981690.696 6         0.000 6      1938.578 6        37.977 6
G16  20492232.260 9 107687387.046 9       526.937 9        55.979 9  20492231.434 6         0.000 6       410.601 6        37.977 6
G26  20668360.621 9 108612945.775 9     -1511.099 9        55.867 9  20668363.443 6         0.000 6     -1177.480 6        37.977 6
G20  21920296.561 9 115191903.028 9      2543.910 9        55.325 9  21920296.869 6         0.000 6      1982.269 6        37.977 6
> 2019 07 03 12 01 49.0000000  0  8       0.000000000000
G07  25326573.844 9 133091997.925 9      2163.664 9        54.139 9  25326574.503 6         0.000 6      1685.972 6        37.977 6
G10  23776192.576 9 124944681.148 9      3522.438 9        54.681 9  23776196.271 6         0.000 6      2744.759 6        37.977 6
G21  21182744.801 9 111316054.543 9     -1268.979 9        55.704 9  21182744.089 6         0.000 6      -988.815 6        37.977 6
G29  24329156.920 9 127850525.639 9     -3124.293 9        54.464 9  24329158.526 6         0.000 6     -2434.517 6        37.977 6
G27  21981215.373 9 115512039.562 9      2487.602 9        55.384 9  21981217.298 6         0.000 6      1938.392 6        37.977 6
G16  20492132.046 9 107686860.418 9       526.319 9        55.979 9  20492131.220 6         0.000 6       410.119 6        37.977 6
G26  20668648.228 9 108614457.159 9     -1511.672 9        55.867 9  20668651.050 6         0.000 6     -1177.927 6        37.977 6
G20  21919812.514 9 115189359.347 9      2543.462 9        55.325 9  21919812.821 6         0.000 6      1981.920 6        37.977 6
> 2019 07 03 12 01 50.0000000  0  8       0.000000000000
G07  25326162.157 9 133089834.496 9      2163.201 9        54.139 9  25326162.815 6         0.000 6      1685.612 6        37.977 6
G10  23775522.292 9 124941158.792 9      3522.295 9        54.682 9  23775525.986 6         0.000 6      2744.648 6        37.977 6
G21  21182986.314 9 111317323.700 9     -1269.337 9        55.704 9  21182985.602 6         0.000 6      -989.094 6        37.977 6
G29  24329751.461 9 127853649.964 9     -3124.377 9        54.464 9  24329753.067 6         0.000 6     -2434.582 6        37.977 6
G27  21980742.021 9 115509552.082 9      2487.363 9        55.384 9  21980743.946 6         0.000 6      1938.206 6        37.977 6
G16  20492031.950 9 107686334.407 9       525.701 9        55.979 9  20492031.123 6         0.000 6       409.637 6        37.977 6
G26  20668935.944 9 108615969.117 9     -1512.245 9        55.867 9  20668938.766 6         0.000 6     -1178.374 6        37.977 6
G20  21919328.551 9 115186816.113 9      2543.014 9        55.325 9  21919328.859 6         0.000 6      1981.571 6        37.977 6
> 2019 07 03 12 01 51.0000000  0  8       0.000000000000
G07  25325750.558 9 133087671.534 9      2162.738 9        54.139 9  25325751.216 6         0.000 6      1685.251 6        37.977 6
G10  23774852.035 9 124937636.574 9      3522.153 9        54.682 9  23774855.728 6         0.000 6      2744.537 6        37.977 6
G21  21183227.895 9 111318593.213 9     -1269.695 9        55.704 9  21183227.182 6         0.000 6      -989.373 6        37.977 6
G29  24330346.018 9 127856774.373 9     -3124.462 9        54.464 9  24330347.625 6         0.000 6     -2434.648 6        37.977 6
G27  21980268.714 9 115507064.839 9      2487.125 9        55.384 9  21980270.638 6         0.000 6      1938.020 6        37.977 6
G16  20491931.970 9 107685809.011 9       525.083 9        55.979 9  20491931.144 6         0.000 6       409.156 6        37.977 6
G26  20669223.769 9 108617481.642 9     -1512.818 9        55.867 9  20669226.591 6         0.000 6     -1178.820 6        37.977 6
G20  21918844.674 9 115184273.323 9      2542.566 9        55.325 9  21918844.981 6         0.000 6      1981.221 6        37.977 6
> 2019 07 03 12 01 52.0000000  0  8       0.000000000000
G07  25325339.047 9 133085509.034 9      2162.274 9        54.139 9  25325339.706 6         0.000 6      1684.890 6        37.977 6
G10  23774181.804 9 124934114.501 9      3522.010 9        54.682 9  23774185.497 6         0.000 6      2744.426 6        37.977 6
G21  21183469.543 9 111319863.085 9     -1270.053 9        55.704 9  21183468.831 6         0.000 6      -989.652 6        37.977 6
G29  24330940.591 9 127859898.861 9     -3124.546 9        54.464 9  24330942.198 6         0.000 6     -2434.714 6        37.977 6
G27  21979795.453 9 115504577.840 9      2486.886 9        55.384 9  21979797.377 6         0.000 6      1937.834 6        37.977 6
G16  20491832.109 9 107685284.238 9       524.465 9        55.979 9  20491831.283 6         0.000 6       408.674 6        37.977 6
G26  20669511.703 9 108618994.745 9     -1513.391 9        55.867 9  20669514.525 6         0.000 6     -1179.267 6        37.977 6
G20  21918360.882 9 115181730.983 9      2542.118 9        55.326 9  21918361.188 6         0.000 6      1980.872 6        37.977 6
> 2019 07 03 12 01 53.0000000  0  8       0.000000000000
G07  25324927.625 9 133083346.998 9      2161.811 9        54.139 9  25324928.283 6         0.000 6      1684.529 6        37.977 6
G10  23773511.601 9 124930592.568 9      3521.867 9        54.682 9  23773515.293 6         0.000 6      2744.315 6        37.977 6
G21  21183711.260 9 111321133.313 9     -1270.411 9        55.704 9  21183710.548 6         0.000 6      -989.931 6        37.977 6
G29  24331535.180 9 127863023.439 9     -3124.630 9        54.464 9  24331536.788 6         0.000 6     -2434.780 6        37.977 6
G27  21979322.237 9 115502091.074 9      2486.647 9        55.384 9  21979324.161 6         0.000 6      1937.648 6        37.977 6
G16  20491732.365 9 107684760.079 9       523.847 9        55.979 9  20491731.538 6         0.000 6       408.193 6        37.977 6
G26  20669799.745 9 108620508.416 9     -1513.964 9        55.867 9  20669802.568 6         0.000 6     -1179.713 6        37.977 6
G20  21917877.174 9 115179189.089 9      2541.670 9        55.326 9  21917877.481 6         0.000 6      1980.523 6        37.977 6
> 2019 07 03 12 01 54.0000000  0  8       0.000000000000
G07  25324516.290 9 133081185.422 9      2161.348 9        54.139 9  25324516.948 6         0.000 6      1684.168 6        37.977 6
G10  23772841.425 9 124927070.783 9      3521.725 9        54.683 9  23772845.117 6         0.000 6      2744.204 6        37.977 6
G21  21183953.045 9 111322403.903 9     -1270.769 9        55.704 9  21183952.333 6         0.000 6      -990.210 6        37.977 6
G29  24332129.786 9 127866148.102 9     -3124.715 9        54.463 9  24332131.394 6         0.000 6     -2434.845 6        37.977 6
G27  21978849.066 9 115499604.549 9      2486.408 9        55.384 9  21978850.990 6         0.000 6      1937.462 6        37.977 6
G16  20491632.739 9 107684236.541 9       523.229 9        55.979 9  20491631.912 6         0.000 6       407.711 6        37.977 6
G26  20670087.898 9 108622022.665 9     -1514.537 9        55.867 9  20670090.720 6         0.000 6     -1180.159 6        37.977 6
G20  21917393.553 9 115176647.648 9      2541.221 9        55.326 9  21917393.860 6         0.000 6      1980.174 6        37.977 6
> 2019 07 03 12 01 55.0000000  0  8       0.000000000000
G07  25324105.043 9 133079024.312 9      2160.884 9        54.139 9  25324105.701 6         0.000 6      1683.807 6        37.977 6
G10  23772171.276 9 124923549.135 9      3521.582 9        54.683 9  23772174.967 6         0.000 6      2744.092 6        37.977 6
G21  21184194.898 9 111323674.847 9     -1271.127 9        55.704 9  21184194.186 6         0.000 6      -990.488 6        37.977 6
G29  24332724.407 9 127869272.848 9     -3124.799 9        54.463 9  24332726.016 6         0.000 6     -2434.911 6        37.977 6
G27  21978375.941 9 115497118.261 9      2486.169 9        55.385 9  21978377.865 6         0.000 6      1937.275 6        37.977 6
G16  20491533.230 9 107683713.618 9       522.611 9        55.979 9  20491532.403 6         0.000 6       407.229 6        37.977 6
G26  20670376.158 9 108623537.483 9     -1515.110 9        55.866 9  20670378.981 6         0.000 6     -1180.606 6        37.977 6
G20  21916910.017 9 115174106.651 9      2540.773 9        55.326 9  21916910.323 6         0.000 6      1979.824 6        37.977 6
> 2019 07 03 12 01 56.0000000  0  8       0.000000000000
G07  25323693.885 9 133076863.663 9      2160.421 9        54.140 9  25323694.543 6         0.000 6      1683.446 6        37.977 6
G10  23771501.155 9 124920027.636 9      3521.439 9        54.683 9  23771504.845 6         0.000 6      2743.981 6        37.977 6
G21  21184436.819 9 111324946.152 9     -1271.484 9        55.704 9  21184436.107 6         0.000 6      -990.767 6        37.977 6
G29  24333319.045 9 127872397.679 9     -3124.883 9        54.463 9  24333320.655 6         0.000 6     -2434.977 6        37.977 6
G27  21977902.862 9 115494632.214 9      2485.930 9        55.385 9  21977904.785 6         0.000 6      1937.089 6        37.977 6
G16  20491433.840 9 107683191.316 9       521.993 9        55.979 9  20491433.013 6         0.000 6       406.747 6        37.977 6
G26  20670664.529 9 108625052.878 9     -1515.683 9        55.866 9  20670667.351 6         0.000 6     -1181.052 6        37.977 6
G20  21916426.567 9 115171566.106 9      2540.325 9        55.326 9  21916426.872 6         0.000 6      1979.475 6        37.977 6
> 2019 07 03 12 01 57.0000000  0  8       0.000000000000
G07  25323282.815 9 133074703.480 9      2159.957 9        54.140 9  25323283.473 6         0.000 6      1683.084 6        37.977 6
G10  23770831.060 9 124916506.275 9      3521.296 9        54.683 9  23770834.750 6         0.000 6      2743.869 6        37.977 6
G21  21184678.808 9 111326217.812 9     -1271.842 9        55.704 9  21184678.096 6         0.000 6      -991.046 6        37.977 6
G29  24333913.698 9 127875522.595 9     -3124.968 9        54.463 9  24333915.309 6         0.000 6     -2435.042 6        37.977 6
G27  21977429.827 9 115492146.404 9      2485.691 9        55.385 9  21977431.750 6         0.000 6      1936.903 6        37.977 6
G16  20491334.566 9 107682669.629 9       521.374 9        55.979 9  20491333.739 6         0.000 6       406.266 6        37.977 6
G26  20670953.007 9 108626568.840 9     -1516.256 9        55.866 9  20670955.830 6         0.000 6     -1181.499 6        37.977 6
G20  21915943.201 9 115169026.006 9      2539.876 9        55.327 9  21915943.506 6         0.000 6      1979.125 6        37.977 6
> 2019 07 03 12 01 58.0000000  0  8       0.000000000000
G07  25322871.833 9 133072543.758 9      2159.494 9        54.140 9  25322872.490 6         0.000 6      1682.723 6        37.977 6
G10  23770160.994 9 124912985.061 9      3521.152 9        54.684 9  23770164.682 6         0.000 6      2743.758 6        37.977 6
G21  21184920.866 9 111327489.832 9     -1272.200 9        55.703 9  21184920.154 6         0.000 6      -991.325 6        37.977 6
G29  24334508.368 9 127878647.594 9     -3125.052 9        54.463 9  24334509.979 6         0.000 6     -2435.108 6        37.977 6
G27  21976956.838 9 115489660.835 9      2485.452 9        55.385 9  21976958.762 6         0.000 6      1936.717 6        37.977 6
G16  20491235.410 9 107682148.564 9       520.756 9        55.979 9  20491234.584 6         0.000 6       405.784 6        37.977 6
G26  20671241.596 9 108628085.381 9     -1516.829 9        55.866 9  20671244.418 6         0.000 6     -1181.945 6        37.977 6
G20  21915459.921 9 115166486.359 9      2539.427 9        55.327 9  21915460.226 6         0.000 6      1978.776 6        37.977 6
> 2019 07 03 12 01 59.0000000  0  8       0.000000000000
G07  25322460.939 9 133070384.500 9      2159.030 9        54.140 9  25322461.596 6         0.000 6      1682.362 6        37.977 6
G10  23769490.954 9 124909463.991 9      3521.009 9        54.684 9  23769494.642 6         0.000 6      2743.646 6        37.977 6
G21  21185162.991 9 111328762.209 9     -1272.557 9        55.703 9  21185162.280 6         0.000 6      -991.603 6        37.977 6
G29  24335103.053 9 127881772.678 9     -3125.136 9        54.462 9  24335104.665 6         0.000 6     -2435.174 6        37.977 6
G27  21976483.895 9 115487175.505 9      2485.213 9        55.385 9  21976485.818 6         0.000 6      1936.531 6        37.977 6
G16  20491136.373 9 107681628.117 9       520.138 9        55.979 9  20491135.546 6         0.000 6       405.302 6        37.977 6
G26  20671530.293 9 108629602.494 9     -1517.402 9        55.866 9  20671533.116 6         0.000 6     -1182.391 6        37.977 6
G20  21914976.727 9 115163947.160 9      2538.979 9        55.327 9  21914977.032 6         0.000 6      1978.426 6        37.977 6
> 2019 07 03 12 02  0.0000000  0  8       0.000000000000
G07  25322050.134 9 133068225.710 9      2158.566 9        54.140 9  25322050.791 6         0.000 6      1682.000 6        37.977 6
G10  23768820.941 9 124905943.058 9      3520.866 9        54.684 9  23768824.628 6         0.000 6      2743.534 6        37.977 6
G21  21185405.184 9 111330034.941 9     -1272.915 9        55.703 9  21185404.473 6         0.000 6      -991.882 6        37.977 6
G29  24335697.755 9 127884897.844 9     -3125.220 9        54.462 9  24335699.367 6         0.000 6     -2435.239 6        37.977 6
G27  21976010.997 9 115484690.412 9      2484.974 9        55.386 9  21976012.920 6         0.000 6      1936.344 6        37.977 6
G16  20491037.452 9 107681108.285 9       519.519 9        55.979 9  20491036.625 6         0.000 6       404.820 6        37.977 6
G26  20671819.098 9 108631120.175 9     -1517.974 9        55.866 9  20671821.921 6         0.000 6     -1182.838 6        37.977 6
G20  21914493.617 9 115161408.405 9      2538.530 9        55.327 9  21914493.922 6         0.000 6      1978.076 6        37.977 6
