     3.00           Observation Data    M (Mixed)           RINEX VERSION / TYPE
SimGEN V6.06.00     Spirent             03-Jul-19 12:00     PGM / RUN BY / DATE 
                                                            MARKER NAME         
1                                                           MARKER NUMBER       
GROUND_CRAFT                                                MARKER TYPE         
jin4hi              Spirent                                 OBSERVER / AGENCY   
rec_num             rec_type            rec_vers            REC # / TYPE / VERS 
1                   ant_type                                ANT # / TYPE        
  1000.000                                                  INTERVAL            
  2019     7     3    12     0    1.0000000     GPS         TIME OF FIRST OBS   
  4162675.2200   664402.7840  4770530.1970                  APPROX POSITION XYZ 
        0.0000        0.0000        0.0000                  ANTENNA: DELTA H/E/N
G    8 C1C L1C D1C S1C C2C L2C D2C S2C                      SYS / # / OBS TYPES 
        0.0000        0.0000        0.0000                  ANTENNA: DELTA X/Y/Z
DBHZ                                                        SIGNAL STRENGTH UNIT
                                                            END OF HEADER       
> 2019 07 03 12 00  1.0000000  0  8       0.000000000000
G07  25371600.039 9 133328611.788 9      2213.149 9        54.123 9  25371600.722 6         0.000 6      1724.531 6        37.977 6
G10  23848697.010 9 125325693.367 9      3537.176 9        54.655 9  23848700.775 6         0.000 6      2756.241 6        37.977 6
G21  21157052.460 9 111181040.455 9     -1229.970 9        55.715 9  21157051.743 6         0.000 6      -958.418 6        37.977 6
G29  24264992.940 9 127513342.748 9     -3114.995 9        54.487 9  24264994.478 6         0.000 6     -2427.269 6        37.977 6
G27  22032647.551 9 115782317.184 9      2513.172 9        55.363 9  22032649.493 6         0.000 6      1958.316 6        37.977 6
G16  20503653.283 9 107747404.919 9       592.867 9        55.974 9  20503652.456 6         0.000 6       461.974 6        37.977 6
G26  20638211.100 9 108454509.161 9     -1449.543 9        55.880 9  20638213.910 6         0.000 6     -1129.514 6        37.977 6
G20  21972536.184 9 115466423.616 9      2591.263 9        55.304 9  21972536.522 6         0.000 6      2019.166 6        37.977 6
> 2019 07 03 12 00  2.0000000  0  8       0.000000000000
G07  25371178.924 9 133326398.815 9      2212.749 9        54.123 9  25371179.607 6         0.000 6      1724.221 6        37.977 6
G10  23848023.917 9 125322156.248 9      3537.064 9        54.655 9  23848027.681 6         0.000 6      2756.156 6        37.977 6
G21  21157286.551 9 111182270.607 9     -1230.335 9        55.715 9  21157285.834 6         0.000 6      -958.703 6        37.977 6
G29  24265585.717 9 127516457.803 9     -3115.109 9        54.487 9  24265587.255 6         0.000 6     -2427.360 6        37.977 6
G27  22032169.331 9 115779804.128 9      2512.941 9        55.363 9  22032171.274 6         0.000 6      1958.137 6        37.977 6
G16  20503540.522 9 107746812.359 9       592.253 9        55.974 9  20503539.696 6         0.000 6       461.496 6        37.977 6
G26  20638486.994 9 108455958.992 9     -1450.121 9        55.880 9  20638489.804 6         0.000 6     -1129.965 6        37.977 6
G20  21972043.123 9 115463832.571 9      2590.831 9        55.305 9  21972043.461 6         0.000 6      2018.830 6        37.977 6
> 2019 07 03 12 00  3.0000000  0  8       0.000000000000
G07  25370757.895 9 133324186.300 9      2212.294 9        54.123 9  25370758.578 6         0.000 6      1723.867 6        37.977 6
G10  23847350.848 9 125318619.256 9      3536.933 9        54.656 9  23847354.612 6         0.000 6      2756.054 6        37.977 6
G21  21157520.710 9 111183501.120 9     -1230.699 9        55.715 9  21157519.993 6         0.000 6      -958.986 6        37.977 6
G29  24266178.511 9 127519572.946 9     -3115.196 9        54.487 9  24266180.050 6         0.000 6     -2427.428 6        37.977 6
G27  22031691.156 9 115777291.304 9      2512.707 9        55.364 9  22031693.099 6         0.000 6      1957.954 6        37.977 6
G16  20503427.878 9 107746220.409 9       591.640 9        55.974 9  20503427.051 6         0.000 6       461.018 6        37.977 6
G26  20638762.997 9 108457409.395 9     -1450.698 9        55.880 9  20638765.807 6         0.000 6     -1130.415 6        37.977 6
G20  21971550.146 9 115461241.959 9      2590.393 9        55.305 9  21971550.483 6         0.000 6      2018.489 6        37.977 6
> 2019 07 03 12 00  4.0000000  0  8       0.000000000000
G07  25370336.953 9 133321974.236 9      2211.839 9        54.124 9  25370337.635 6         0.000 6      1723.512 6        37.977 6
G10  23846677.804 9 125315082.400 9      3536.801 9        54.656 9  23846681.567 6         0.000 6      2755.952 6        37.977 6
G21  21157754.938 9 111184732.001 9     -1231.063 9        55.715 9  21157754.222 6         0.000 6      -959.270 6        37.977 6
G29  24266771.321 9 127522688.175 9     -3115.283 9        54.487 9  24266772.861 6         0.000 6     -2427.496 6        37.977 6
G27  22031213.027 9 115774778.718 9      2512.472 9        55.364 9  22031214.969 6         0.000 6      1957.771 6        37.977 6
G16  20503315.351 9 107745629.077 9       591.026 9        55.974 9  20503314.524 6         0.000 6       460.540 6        37.977 6
G26  20639039.110 9 108458860.380 9     -1451.275 9        55.880 9  20639041.921 6         0.000 6     -1130.864 6        37.977 6
G20  21971057.252 9 115458651.790 9      2589.955 9        55.305 9  21971057.589 6         0.000 6      2018.148 6        37.977 6
> 2019 07 03 12 00  5.0000000  0  8       0.000000000000
G07  25369916.098 9 133319762.631 9      2211.385 9        54.124 9  25369916.780 6         0.000 6      1723.158 6        37.977 6
G10  23846004.785 9 125311545.671 9      3536.670 9        54.656 9  23846008.548 6         0.000 6      2755.850 6        37.977 6
G21  21157989.236 9 111185963.242 9     -1231.427 9        55.715 9  21157988.519 6         0.000 6      -959.553 6        37.977 6
G29  24267364.148 9 127525803.491 9     -3115.370 9        54.486 9  24267365.688 6         0.000 6     -2427.563 6        37.977 6
G27  22030734.941 9 115772266.364 9      2512.237 9        55.364 9  22030736.883 6         0.000 6      1957.588 6        37.977 6
G16  20503202.940 9 107745038.354 9       590.412 9        55.974 9  20503202.114 6         0.000 6       460.061 6        37.977 6
G26  20639315.333 9 108460311.937 9     -1451.852 9        55.879 9  20639318.143 6         0.000 6     -1131.313 6        37.977 6
G20  21970564.441 9 115456062.054 9      2589.517 9        55.305 9  21970564.777 6         0.000 6      2017.807 6        37.977 6
> 2019 07 03 12 00  6.0000000  0  8       0.000000000000
G07  25369495.329 9 133317551.480 9      2210.930 9        54.124 9  25369496.011 6         0.000 6      1722.803 6        37.977 6
G10  23845331.791 9 125308009.075 9      3536.539 9        54.656 9  23845335.553 6         0.000 6      2755.747 6        37.977 6
G21  21158223.603 9 111187194.848 9     -1231.791 9        55.714 9  21158222.886 6         0.000 6      -959.837 6        37.977 6
G29  24267956.990 9 127528918.889 9     -3115.456 9        54.486 9  24267958.531 6         0.000 6     -2427.631 6        37.977 6
G27  22030256.901 9 115769754.251 9      2512.002 9        55.364 9  22030258.843 6         0.000 6      1957.405 6        37.977 6
G16  20503090.647 9 107744448.251 9       589.798 9        55.974 9  20503089.821 6         0.000 6       459.583 6        37.977 6
G26  20639591.666 9 108461764.074 9     -1452.428 9        55.879 9  20639594.477 6         0.000 6     -1131.763 6        37.977 6
G20  21970071.713 9 115453472.758 9      2589.079 9        55.305 9  21970072.049 6         0.000 6      2017.465 6        37.977 6
> 2019 07 03 12 00  7.0000000  0  8       0.000000000000
G07  25369074.646 9 133315340.782 9      2210.475 9        54.124 9  25369075.328 6         0.000 6      1722.449 6        37.977 6
G10  23844658.823 9 125304472.613 9      3536.407 9        54.657 9  23844662.584 6         0.000 6      2755.645 6        37.977 6
G21  21158458.040 9 111188426.820 9     -1232.154 9        55.714 9  21158457.323 6         0.000 6      -960.121 6        37.977 6
G29  24268549.850 9 127532034.378 9     -3115.543 9        54.486 9  24268551.392 6         0.000 6     -2427.699 6        37.977 6
G27  22029778.905 9 115767242.368 9      2511.768 9        55.364 9  22029780.847 6         0.000 6      1957.222 6        37.977 6
G16  20502978.471 9 107743858.760 9       589.184 9        55.974 9  20502977.644 6         0.000 6       459.105 6        37.977 6
G26  20639868.109 9 108463216.789 9     -1453.005 9        55.879 9  20639870.919 6         0.000 6     -1132.212 6        37.977 6
G20  21969579.069 9 115450883.902 9      2588.641 9        55.306 9  21969579.406 6         0.000 6      2017.124 6        37.977 6
> 2019 07 03 12 00  8.0000000  0  8       0.000000000000
G07  25368654.051 9 133313130.541 9      2210.019 9        54.124 9  25368654.732 6         0.000 6      1722.094 6        37.977 6
G10  23843985.878 9 125300936.278 9      3536.275 9        54.657 9  23843989.639 6         0.000 6      2755.542 6        37.977 6
G21  21158692.545 9 111189659.153 9     -1232.518 9        55.714 9  21158691.828 6         0.000 6      -960.404 6        37.977 6
G29  24269142.727 9 127535149.955 9     -3115.630 9        54.486 9  24269144.269 6         0.000 6     -2427.766 6        37.977 6
G27  22029300.954 9 115764730.719 9      2511.533 9        55.365 9  22029302.896 6         0.000 6      1957.039 6        37.977 6
G16  20502866.411 9 107743269.879 9       588.570 9        55.974 9  20502865.584 6         0.000 6       458.626 6        37.977 6
G26  20640144.660 9 108464670.076 9     -1453.581 9        55.879 9  20640147.471 6         0.000 6     -1132.661 6        37.977 6
G20  21969086.508 9 115448295.481 9      2588.203 9        55.306 9  21969086.844 6         0.000 6      2016.782 6        37.977 6
> 2019 07 03 12 00  9.0000000  0  8       0.000000000000
G07  25368233.542 9 133310920.753 9      2209.564 9        54.124 9  25368234.223 6         0.000 6      1721.739 6        37.977 6
G10  23843312.960 9 125297400.079 9      3536.144 9        54.657 9  23843316.720 6         0.000 6      2755.439 6        37.977 6
G21  21158927.120 9 111190891.852 9     -1232.882 9        55.714 9  21158926.403 6         0.000 6      -960.687 6        37.977 6
G29  24269735.620 9 127538265.618 9     -3115.717 9        54.486 9  24269737.162 6         0.000 6     -2427.834 6        37.977 6
G27  22028823.047 9 115762219.306 9      2511.298 9        55.365 9  22028824.989 6         0.000 6      1956.856 6        37.977 6
G16  20502754.468 9 107742681.616 9       587.956 9        55.974 9  20502753.641 6         0.000 6       458.148 6        37.977 6
G26  20640421.322 9 108466123.944 9     -1454.158 9        55.879 9  20640424.133 6         0.000 6     -1133.111 6        37.977 6
G20  21968594.032 9 115445707.502 9      2587.764 9        55.306 9  21968594.367 6         0.000 6      2016.441 6        37.977 6
> 2019 07 03 12 00 10.0000000  0  8       0.000000000000
G07  25367813.119 9 133308711.423 9      2209.109 9        54.124 9  25367813.800 6         0.000 6      1721.385 6        37.977 6
G10  23842640.066 9 125293864.008 9      3536.012 9        54.657 9  23842643.825 6         0.000 6      2755.337 6        37.977 6
G21  21159161.764 9 111192124.913 9     -1233.246 9        55.714 9  21159161.047 6         0.000 6      -960.971 6        37.977 6
G29  24270328.529 9 127541381.368 9     -3115.803 9        54.485 9  24270330.072 6         0.000 6     -2427.901 6        37.977 6
G27  22028345.185 9 115759708.127 9      2511.063 9        55.365 9  22028347.127 6         0.000 6      1956.673 6        37.977 6
G16  20502642.641 9 107742093.964 9       587.342 9        55.974 9  20502641.815 6         0.000 6       457.669 6        37.977 6
G26  20640698.093 9 108467578.384 9     -1454.734 9        55.879 9  20640700.904 6         0.000 6     -1133.560 6        37.977 6
G20  21968101.637 9 115443119.958 9      2587.326 9        55.306 9  21968101.973 6         0.000 6      2016.099 6        37.977 6
> 2019 07 03 12 00 11.0000000  0  8       0.000000000000
G07  25367392.783 9 133306502.545 9      2208.653 9        54.125 9  25367393.464 6         0.000 6      1721.030 6        37.977 6
G10  23841967.198 9 125290328.073 9      3535.880 9        54.657 9  23841970.957 6         0.000 6      2755.234 6        37.977 6
G21  21159396.477 9 111193358.340 9     -1233.609 9        55.714 9  21159395.761 6         0.000 6      -961.254 6        37.977 6
G29  24270921.455 9 127544497.205 9     -3115.890 9        54.485 9  24270922.999 6         0.000 6     -2427.969 6        37.977 6
G27  22027867.368 9 115757197.184 9      2510.828 9        55.365 9  22027869.309 6         0.000 6      1956.490 6        37.977 6
G16  20502530.932 9 107741506.929 9       586.728 9        55.974 9  20502530.106 6         0.000 6       457.191 6        37.977 6
G26  20640974.975 9 108469033.405 9     -1455.311 9        55.879 9  20640977.786 6         0.000 6     -1134.009 6        37.977 6
G20  21967609.327 9 115440532.856 9      2586.887 9        55.306 9  21967609.662 6         0.000 6      2015.757 6        37.977 6
> 2019 07 03 12 00 12.0000000  0  8       0.000000000000
G07  25366972.534 9 133304294.126 9      2208.198 9        54.125 9  25366973.215 6         0.000 6      1720.675 6        37.977 6
G10  23841294.354 9 125286792.265 9      3535.748 9        54.658 9  23841298.112 6         0.000 6      2755.131 6        37.977 6
G21  21159631.259 9 111194592.128 9     -1233.973 9        55.714 9  21159630.543 6         0.000 6      -961.537 6        37.977 6
G29  24271514.397 9 127547613.128 9     -3115.977 9        54.485 9  24271515.942 6         0.000 6     -2428.036 6        37.977 6
G27  22027389.596 9 115754686.475 9      2510.593 9        55.365 9  22027391.537 6         0.000 6      1956.307 6        37.977 6
G16  20502419.340 9 107740920.504 9       586.114 9        55.974 9  20502418.513 6         0.000 6       456.712 6        37.977 6
G26  20641251.965 9 108470488.997 9     -1455.887 9        55.879 9  20641254.777 6         0.000 6     -1134.458 6        37.977 6
G20  21967117.100 9 115437946.188 9      2586.449 9        55.306 9  21967117.435 6         0.000 6      2015.416 6        37.977 6
> 2019 07 03 12 00 13.0000000  0  8       0.000000000000
G07  25366552.371 9 133302086.159 9      2207.743 9        54.125 9  25366553.052 6         0.000 6      1720.320 6        37.977 6
G10  23840621.536 9 125283256.594 9      3535.615 9        54.658 9  23840625.294 6         0.000 6      2755.028 6        37.977 6
G21  21159866.111 9 111195826.281 9     -1234.336 9        55.714 9  21159865.395 6         0.000 6      -961.821 6        37.977 6
G29  24272107.356 9 127550729.138 9     -3116.063 9        54.485 9  24272108.902 6         0.000 6     -2428.104 6        37.977 6
G27  22026911.868 9 115752176.002 9      2510.358 9        55.365 9  22026913.809 6         0.000 6      1956.124 6        37.977 6
G16  20502307.864 9 107740334.698 9       585.500 9        55.974 9  20502307.037 6         0.000 6       456.234 6        37.977 6
G26  20641529.066 9 108471945.171 9     -1456.464 9        55.879 9  20641531.878 6         0.000 6     -1134.907 6        37.977 6
G20  21966624.957 9 115435359.964 9      2586.010 9        55.307 9  21966625.291 6         0.000 6      2015.074 6        37.977 6
> 2019 07 03 12 00 14.0000000  0  8       0.000000000000
G07  25366132.296 9 133299878.653 9      2207.287 9        54.125 9  25366132.977 6         0.000 6      1719.965 6        37.977 6
G10  23839948.742 9 125279721.049 9      3535.483 9        54.658 9  23839952.499 6         0.000 6      2754.925 6        37.977 6
G21  21160101.031 9 111197060.794 9     -1234.700 9        55.714 9  21160100.315 6         0.000 6      -962.104 6        37.977 6
G29  24272700.331 9 127553845.229 9     -3116.150 9        54.485 9  24272701.877 6         0.000 6     -2428.171 6        37.977 6
G27  22026434.186 9 115749665.766 9      2510.123 9        55.366 9  22026436.126 6         0.000 6      1955.941 6        37.977 6
G16  20502196.505 9 107739749.503 9       584.886 9        55.974 9  20502195.679 6         0.000 6       455.755 6        37.977 6
G26  20641806.276 9 108473401.917 9     -1457.040 9        55.878 9  20641809.088 6         0.000 6     -1135.356 6        37.977 6
G20  21966132.896 9 115432774.171 9      2585.571 9        55.307 9  21966133.230 6         0.000 6      2014.732 6        37.977 6
> 2019 07 03 12 00 15.0000000  0  8       0.000000000000
G07  25365712.307 9 133297671.598 9      2206.831 9        54.125 9  25365712.987 6         0.000 6      1719.610 6        37.977 6
G10  23839275.975 9 125276185.643 9      3535.351 9        54.658 9  23839279.731 6         0.000 6      2754.822 6        37.977 6
G21  21160336.021 9 111198295.675 9     -1235.063 9        55.714 9  21160335.305 6         0.000 6      -962.387 6        37.977 6
G29  24273293.323 9 127556961.413 9     -3116.237 9        54.484 9  24273294.869 6         0.000 6     -2428.239 6        37.977 6
G27  22025956.547 9 115747155.764 9      2509.888 9        55.366 9  22025958.488 6         0.000 6      1955.757 6        37.977 6
G16  20502085.264 9 107739164.925 9       584.271 9        55.975 9  20502084.437 6         0.000 6       455.276 6        37.977 6
G26  20642083.597 9 108474859.243 9     -1457.617 9        55.878 9  20642086.408 6         0.000 6     -1135.806 6        37.977 6
G20  21965640.920 9 115430188.824 9      2585.132 9        55.307 9  21965641.254 6         0.000 6      2014.390 6        37.977 6
> 2019 07 03 12 00 16.0000000  0  8       0.000000000000
G07  25365292.405 9 133295465.001 9      2206.376 9        54.125 9  25365293.085 6         0.000 6      1719.255 6        37.977 6
G10  23838603.232 9 125272650.365 9      3535.218 9        54.659 9  23838606.987 6         0.000 6      2754.718 6        37.977 6
G21  21160571.080 9 111199530.916 9     -1235.426 9        55.713 9  21160570.364 6         0.000 6      -962.670 6        37.977 6
G29  24273886.331 9 127560077.683 9     -3116.323 9        54.484 9  24273887.878 6         0.000 6     -2428.306 6        37.977 6
G27  22025478.954 9 115744645.994 9      2509.653 9        55.366 9  22025480.894 6         0.000 6      1955.574 6        37.977 6
G16  20501974.138 9 107738580.958 9       583.657 9        55.975 9  20501973.312 6         0.000 6       454.798 6        37.977 6
G26  20642361.026 9 108476317.142 9     -1458.193 9        55.878 9  20642363.837 6         0.000 6     -1136.255 6        37.977 6
G20  21965149.027 9 115427603.911 9      2584.693 9        55.307 9  21965149.360 6         0.000 6      2014.048 6        37.977 6
> 2019 07 03 12 00 17.0000000  0  8       0.000000000000
G07  25364872.589 9 133293258.857 9      2205.920 9        54.125 9  25364873.268 6         0.000 6      1718.899 6        37.977 6
G10  23837930.515 9 125269115.224 9      3535.086 9        54.659 9  23837934.269 6         0.000 6      2754.615 6        37.977 6
G21  21160806.208 9 111200766.524 9     -1235.790 9        55.713 9  21160805.492 6         0.000 6      -962.953 6        37.977 6
G29  24274479.356 9 127563194.039 9     -3116.410 9        54.484 9  24274480.904 6         0.000 6     -2428.374 6        37.977 6
G27  22025001.405 9 115742136.462 9      2509.417 9        55.366 9  22025003.345 6         0.000 6      1955.391 6        37.977 6
G16  20501863.131 9 107737997.608 9       583.043 9        55.975 9  20501862.304 6         0.000 6       454.319 6        37.977 6
G26  20642638.565 9 108477775.621 9     -1458.769 9        55.878 9  20642641.377 6         0.000 6     -1136.704 6        37.977 6
G20  21964657.218 9 115425019.442 9      2584.254 9        55.307 9  21964657.551 6         0.000 6      2013.706 6        37.977 6
> 2019 07 03 12 00 18.0000000  0  8       0.000000000000
G07  25364452.860 9 133291053.169 9      2205.464 9        54.126 9  25364453.539 6         0.000 6      1718.544 6        37.977 6
G10  23837257.823 9 125265580.215 9      3534.953 9        54.659 9  23837261.577 6         0.000 6      2754.511 6        37.977 6
G21  21161041.406 9 111202002.494 9     -1236.153 9        55.713 9  21161040.690 6         0.000 6      -963.236 6        37.977 6
G29  24275072.397 9 127566310.482 9     -3116.496 9        54.484 9  24275073.945 6         0.000 6     -2428.441 6        37.977 6
G27  22024523.901 9 115739627.165 9      2509.182 9        55.366 9  22024525.841 6         0.000 6      1955.208 6        37.977 6
G16  20501752.240 9 107737414.872 9       582.428 9        55.975 9  20501751.413 6         0.000 6       453.840 6        37.977 6
G26  20642916.215 9 108479234.677 9     -1459.346 9        55.878 9  20642919.027 6         0.000 6     -1137.153 6        37.977 6
G20  21964165.492 9 115422435.413 9      2583.815 9        55.308 9  21964165.825 6         0.000 6      2013.363 6        37.977 6
> 2019 07 03 12 00 19.0000000  0  8       0.000000000000
G07  25364033.218 9 133288847.939 9      2205.008 9        54.126 9  25364033.897 6         0.000 6      1718.189 6        37.977 6
G10  23836585.155 9 125262045.335 9      3534.820 9        54.659 9  23836588.909 6         0.000 6      2754.408 6        37.977 6
G21  21161276.672 9 111203238.826 9     -1236.516 9        55.713 9  21161275.956 6         0.000 6      -963.519 6        37.977 6
G29  24275665.455 9 127569427.011 9     -3116.583 9        54.483 9  24275667.004 6         0.000 6     -2428.509 6        37.977 6
G27  22024046.442 9 115737118.102 9      2508.947 9        55.367 9  22024048.382 6         0.000 6      1955.024 6        37.977 6
G16  20501641.465 9 107736832.748 9       581.814 9        55.975 9  20501640.639 6         0.000 6       453.361 6        37.977 6
G26  20643193.973 9 108480694.304 9     -1459.922 9        55.878 9  20643196.785 6         0.000 6     -1137.602 6        37.977 6
G20  21963673.850 9 115419851.818 9      2583.375 9        55.308 9  21963674.182 6         0.000 6      2013.021 6        37.977 6
> 2019 07 03 12 00 20.0000000  0  8       0.000000000000
G07  25363613.662 9 133286643.163 9      2204.552 9        54.126 9  25363614.341 6         0.000 6      1717.833 6        37.977 6
G10  23835912.514 9 125258510.592 9      3534.687 9        54.660 9  23835916.267 6         0.000 6      2754.304 6        37.977 6
G21  21161512.008 9 111204475.523 9     -1236.879 9        55.713 9  21161511.292 6         0.000 6      -963.802 6        37.977 6
G29  24276258.529 9 127572543.628 9     -3116.669 9        54.483 9  24276260.079 6         0.000 6     -2428.576 6        37.977 6
G27  22023569.027 9 115734609.275 9      2508.712 9        55.367 9  22023570.967 6         0.000 6      1954.841 6        37.977 6
G16  20501530.808 9 107736251.241 9       581.199 9        55.975 9  20501529.982 6         0.000 6       452.883 6        37.977 6
G26  20643471.842 9 108482154.512 9     -1460.498 9        55.878 9  20643474.654 6         0.000 6     -1138.051 6        37.977 6
G20  21963182.291 9 115417268.667 9      2582.936 9        55.308 9  21963182.624 6         0.000 6      2012.679 6        37.977 6
> 2019 07 03 12 00 21.0000000  0  8       0.000000000000
G07  25363194.194 9 133284438.846 9      2204.096 9        54.126 9  25363194.873 6         0.000 6      1717.478 6        37.977 6
G10  23835239.897 9 125254975.978 9      3534.554 9        54.660 9  23835243.649 6         0.000 6      2754.201 6        37.977 6
G21  21161747.412 9 111205712.580 9     -1237.242 9        55.713 9  21161746.696 6         0.000 6      -964.085 6        37.977 6
G29  24276851.620 9 127575660.330 9     -3116.756 9        54.483 9  24276853.170 6         0.000 6     -2428.643 6        37.977 6
G27  22023091.658 9 115732100.682 9      2508.476 9        55.367 9  22023093.597 6         0.000 6      1954.657 6        37.977 6
G16  20501420.267 9 107735670.346 9       580.585 9        55.975 9  20501419.441 6         0.000 6       452.404 6        37.977 6
G26  20643749.819 9 108483615.291 9     -1461.074 9        55.878 9  20643752.631 6         0.000 6     -1138.500 6        37.977 6
G20  21962690.816 9 115414685.951 9      2582.497 9        55.308 9  21962691.148 6         0.000 6      2012.336 6        37.977 6
> 2019 07 03 12 00 22.0000000  0  8       0.000000000000
G07  25362774.812 9 133282234.985 9      2203.639 9        54.126 9  25362775.491 6         0.000 6      1717.122 6        37.977 6
G10  23834567.306 9 125251441.498 9      3534.421 9        54.660 9  23834571.058 6         0.000 6      2754.097 6        37.977 6
G21  21161982.886 9 111206950.001 9     -1237.605 9        55.713 9  21161982.170 6         0.000 6      -964.368 6        37.977 6
G29  24277444.726 9 127578777.114 9     -3116.842 9        54.483 9  24277446.277 6         0.000 6     -2428.711 6        37.977 6
G27  22022614.334 9 115729592.330 9      2508.241 9        55.367 9  22022616.273 6         0.000 6      1954.474 6        37.977 6
G16  20501309.845 9 107735090.070 9       579.970 9        55.975 9  20501309.018 6         0.000 6       451.925 6        37.977 6
G26  20644027.907 9 108485076.652 9     -1461.650 9        55.877 9  20644030.719 6         0.000 6     -1138.949 6        37.977 6
G20  21962199.425 9 115412103.676 9      2582.057 9        55.308 9  21962199.756 6         0.000 6      2011.994 6        37.977 6
> 2019 07 03 12 00 23.0000000  0  8       0.000000000000
G07  25362355.518 9 133280031.580 9      2203.183 9        54.126 9  25362356.196 6         0.000 6      1716.767 6        37.977 6
G10  23833894.740 9 125247907.150 9      3534.288 9        54.660 9  23833898.491 6         0.000 6      2753.993 6        37.977 6
G21  21162218.428 9 111208187.784 9     -1237.968 9        55.713 9  21162217.712 6         0.000 6      -964.651 6        37.977 6
G29  24278037.849 9 127581893.989 9     -3116.929 9        54.483 9  24278039.401 6         0.000 6     -2428.778 6        37.977 6
G27  22022137.053 9 115727084.208 9      2508.005 9        55.367 9  22022138.992 6         0.000 6      1954.291 6        37.977 6
G16  20501199.538 9 107734510.404 9       579.356 9        55.975 9  20501198.711 6         0.000 6       451.446 6        37.977 6
G26  20644306.104 9 108486538.583 9     -1462.226 9        55.877 9  20644308.916 6         0.000 6     -1139.398 6        37.977 6
G20  21961708.117 9 115409521.839 9      2581.617 9        55.309 9  21961708.448 6         0.000 6      2011.651 6        37.977 6
> 2019 07 03 12 00 24.0000000  0  8       0.000000000000
G07  25361936.309 9 133277828.629 9      2202.727 9        54.126 9  25361936.987 6         0.000 6      1716.411 6        37.977 6
G10  23833222.200 9 125244372.940 9      3534.154 9        54.661 9  23833225.950 6         0.000 6      2753.889 6        37.977 6
G21  21162454.040 9 111209425.933 9     -1238.331 9        55.713 9  21162453.324 6         0.000 6      -964.933 6        37.977 6
G29  24278630.990 9 127585010.951 9     -3117.015 9        54.482 9  24278632.542 6         0.000 6     -2428.846 6        37.977 6
G27  22021659.818 9 115724576.323 9      2507.770 9        55.368 9  22021661.757 6         0.000 6      1954.107 6        37.977 6
G16  20501089.348 9 107733931.355 9       578.741 9        55.975 9  20501088.522 6         0.000 6       450.967 6        37.977 6
G26  20644584.411 9 108488001.096 9     -1462.802 9        55.877 9  20644587.224 6         0.000 6     -1139.846 6        37.977 6
G20  21961216.893 9 115406940.446 9      2581.177 9        55.309 9  21961217.224 6         0.000 6      2011.308 6        37.977 6
> 2019 07 03 12 00 25.0000000  0  8       0.000000000000
G07  25361517.188 9 133275626.137 9      2202.270 9        54.127 9  25361517.866 6         0.000 6      1716.056 6        37.977 6
G10  23832549.685 9 125240838.859 9      3534.021 9        54.661 9  23832553.434 6         0.000 6      2753.785 6        37.977 6
G21  21162689.721 9 111210664.443 9     -1238.694 9        55.713 9  21162689.005 6         0.000 6      -965.216 6        37.977 6
G29  24279224.146 9 127588127.999 9     -3117.101 9        54.482 9  24279225.699 6         0.000 6     -2428.913 6        37.977 6
G27  22021182.627 9 115722068.672 9      2507.534 9        55.368 9  22021184.566 6         0.000 6      1953.924 6        37.977 6
G16  20500979.276 9 107733352.918 9       578.127 9        55.975 9  20500978.449 6         0.000 6       450.488 6        37.977 6
G26  20644862.827 9 108489464.180 9     -1463.378 9        55.877 9  20644865.640 6         0.000 6     -1140.295 6        37.977 6
G20  21960725.752 9 115404359.489 9      2580.738 9        55.309 9  21960726.083 6         0.000 6      2010.966 6        37.977 6
> 2019 07 03 12 00 26.0000000  0  8       0.000000000000
G07  25361098.154 9 133273424.099 9      2201.814 9        54.127 9  25361098.831 6         0.000 6      1715.700 6        37.977 6
G10  23831877.196 9 125237304.915 9      3533.887 9        54.661 9  23831880.945 6         0.000 6      2753.681 6        37.977 6
G21  21162925.471 9 111211903.317 9     -1239.057 9        55.713 9  21162924.755 6         0.000 6      -965.499 6        37.977 6
G29  24279817.319 9 127591245.134 9     -3117.188 9        54.482 9  24279818.872 6         0.000 6     -2428.980 6        37.977 6
G27  22020705.482 9 115719561.258 9      2507.299 9        55.368 9  22020707.420 6         0.000 6      1953.740 6        37.977 6
G16  20500869.320 9 107732775.099 9       577.512 9        55.975 9  20500868.494 6         0.000 6       450.009 6        37.977 6
G26  20645141.353 9 108490927.845 9     -1463.954 9        55.877 9  20645144.166 6         0.000 6     -1140.744 6        37.977 6
G20  21960234.696 9 115401778.976 9      2580.298 9        55.309 9  21960235.027 6         0.000 6      2010.623 6        37.977 6
> 2019 07 03 12 00 27.0000000  0  8       0.000000000000
G07  25360679.206 9 133271222.517 9      2201.357 9        54.127 9  25360679.883 6         0.000 6      1715.344 6        37.977 6
G10  23831204.732 9 125233771.105 9      3533.754 9        54.661 9  23831208.480 6         0.000 6      2753.577 6        37.977 6
G21  21163161.290 9 111213142.554 9     -1239.419 9        55.712 9  21163160.574 6         0.000 6      -965.781 6        37.977 6
G29  24280410.508 9 127594362.354 9     -3117.274 9        54.482 9  24280412.062 6         0.000 6     -2429.047 6        37.977 6
G27  22020228.381 9 115717054.079 9      2507.063 9        55.368 9  22020230.320 6         0.000 6      1953.557 6        37.977 6
G16  20500759.482 9 107732197.894 9       576.897 9        55.975 9  20500758.655 6         0.000 6       449.530 6        37.977 6
G26  20645419.989 9 108492392.085 9     -1464.530 9        55.877 9  20645422.802 6         0.000 6     -1141.193 6        37.977 6
G20  21959743.724 9 115399198.903 9      2579.858 9        55.309 9  21959744.054 6         0.000 6      2010.280 6        37.977 6
> 2019 07 03 12 00 28.0000000  0  8       0.000000000000
G07  25360260.346 9 133269021.395 9      2200.900 9        54.127 9  25360261.023 6         0.000 6      1714.988 6        37.977 6
G10  23830532.293 9 125230237.425 9      3533.620 9        54.662 9  23830536.040 6         0.000 6      2753.473 6        37.977 6
G21  21163397.178 9 111214382.152 9     -1239.782 9        55.712 9  21163396.462 6         0.000 6      -966.064 6        37.977 6
G29  24281003.714 9 127597479.662 9     -3117.360 9        54.482 9  24281005.269 6         0.000 6     -2429.115 6        37.977 6
G27  22019751.325 9 115714547.135 9      2506.828 9        55.368 9  22019753.263 6         0.000 6      1953.373 6        37.977 6
G16  20500649.760 9 107731621.302 9       576.282 9        55.975 9  20500648.933 6         0.000 6       449.051 6        37.977 6
G26  20645698.734 9 108493856.897 9     -1465.106 9        55.877 9  20645701.547 6         0.000 6     -1141.642 6        37.977 6
G20  21959252.834 9 115396619.266 9      2579.417 9        55.310 9  21959253.164 6         0.000 6      2009.937 6        37.977 6
> 2019 07 03 12 00 29.0000000  0  8       0.000000000000
G07  25359841.572 9 133266820.726 9      2200.444 9        54.127 9  25359842.248 6         0.000 6      1714.632 6        37.977 6
G10  23829859.880 9 125226703.882 9      3533.486 9        54.662 9  23829863.627 6         0.000 6      2753.368 6        37.977 6
G21  21163633.135 9 111215622.114 9     -1240.145 9        55.712 9  21163632.419 6         0.000 6      -966.347 6        37.977 6
G29  24281596.936 9 127600597.055 9     -3117.447 9        54.481 9  24281598.491 6         0.000 6     -2429.182 6        37.977 6
G27  22019274.314 9 115712040.427 9      2506.592 9        55.368 9  22019276.252 6         0.000 6      1953.189 6        37.977 6
G16  20500540.156 9 107731045.327 9       575.667 9        55.975 9  20500539.329 6         0.000 6       448.572 6        37.977 6
G26  20645977.589 9 108495322.290 9     -1465.682 9        55.877 9  20645980.403 6         0.000 6     -1142.090 6        37.977 6
G20  21958762.029 9 115394040.073 9      2578.977 9        55.310 9  21958762.359 6         0.000 6      2009.594 6        37.977 6
> 2019 07 03 12 00 30.0000000  0  8       0.000000000000
G07  25359422.886 9 133264620.520 9      2199.987 9        54.127 9  25359423.562 6         0.000 6      1714.276 6        37.977 6
G10  23829187.492 9 125223170.467 9      3533.352 9        54.662 9  23829191.238 6         0.000 6      2753.264 6        37.977 6
G21  21163869.160 9 111216862.435 9     -1240.507 9        55.712 9  21163868.445 6         0.000 6      -966.629 6        37.977 6
G29  24282190.174 9 127603714.530 9     -3117.533 9        54.481 9  24282191.730 6         0.000 6     -2429.249 6        37.977 6
G27  22018797.348 9 115709533.958 9      2506.356 9        55.369 9  22018799.286 6         0.000 6      1953.006 6        37.977 6
G16  20500430.668 9 107730469.965 9       575.053 9        55.975 9  20500429.841 6         0.000 6       448.093 6        37.977 6
G26  20646256.553 9 108496788.253 9     -1466.258 9        55.877 9  20646259.367 6         0.000 6     -1142.539 6        37.977 6
G20  21958271.307 9 115391461.314 9      2578.537 9        55.310 9  21958271.636 6         0.000 6      2009.251 6        37.977 6
> 2019 07 03 12 00 31.0000000  0  8       0.000000000000
G07  25359004.286 9 133262420.766 9      2199.530 9        54.127 9  25359004.962 6         0.000 6      1713.920 6        37.977 6
G10  23828515.130 9 125219637.193 9      3533.218 9        54.662 9  23828518.875 6         0.000 6      2753.160 6        37.977 6
G21  21164105.255 9 111218103.123 9     -1240.870 9        55.712 9  21164104.540 6         0.000 6      -966.912 6        37.977 6
G29  24282783.429 9 127606832.096 9     -3117.619 9        54.481 9  24282784.985 6         0.000 6     -2429.316 6        37.977 6
G27  22018320.427 9 115707027.722 9      2506.121 9        55.369 9  22018322.364 6         0.000 6      1952.822 6        37.977 6
G16  20500321.297 9 107729895.220 9       574.438 9        55.975 9  20500320.471 6         0.000 6       447.614 6        37.977 6
G26  20646535.628 9 108498254.797 9     -1466.834 9        55.876 9  20646538.441 6         0.000 6     -1142.988 6        37.977 6
G20  21957780.669 9 115388883.002 9      2578.096 9        55.310 9  21957780.999 6         0.000 6      2008.907 6        37.977 6
> 2019 07 03 12 00 32.0000000  0  8       0.000000000000
G07  25358585.773 9 133260221.471 9      2199.073 9        54.128 9  25358586.449 6         0.000 6      1713.564 6        37.977 6
G10  23827842.793 9 125216104.048 9      3533.084 9        54.663 9  23827846.538 6         0.000 6      2753.055 6        37.977 6
G21  21164341.419 9 111219344.170 9     -1241.232 9        55.712 9  21164340.703 6         0.000 6      -967.194 6        37.977 6
G29  24283376.700 9 127609949.748 9     -3117.705 9        54.481 9  24283378.257 6         0.000 6     -2429.383 6        37.977 6
G27  22017843.550 9 115704521.720 9      2505.885 9        55.369 9  22017845.487 6         0.000 6      1952.638 6        37.977 6
G16  20500212.043 9 107729321.086 9       573.823 9        55.975 9  20500211.217 6         0.000 6       447.135 6        37.977 6
G26  20646814.811 9 108499721.912 9     -1467.410 9        55.876 9  20646817.624 6         0.000 6     -1143.437 6        37.977 6
G20  21957290.115 9 115386305.126 9      2577.656 9        55.310 9  21957290.444 6         0.000 6      2008.564 6        37.977 6
> 2019 07 03 12 00 33.0000000  0  8       0.000000000000
G07  25358167.347 9 133258022.630 9      2198.616 9        54.128 9  25358168.023 6         0.000 6      1713.208 6        37.977 6
G10  23827170.482 9 125212571.043 9      3532.950 9        54.663 9  23827174.226 6         0.000 6      2752.950 6        37.977 6
G21  21164577.652 9 111220585.583 9     -1241.594 9        55.712 9  21164576.937 6         0.000 6      -967.476 6        37.977 6
G29  24283969.988 9 127613067.486 9     -3117.792 9        54.481 9  24283971.546 6         0.000 6     -2429.451 6        37.977 6
G27  22017366.718 9 115702015.956 9      2505.649 9        55.369 9  22017368.656 6         0.000 6      1952.455 6        37.977 6
G16  20500102.907 9 107728747.571 9       573.208 9        55.975 9  20500102.080 6         0.000 6       446.655 6        37.977 6
G26  20647094.104 9 108501189.608 9     -1467.985 9        55.876 9  20647096.918 6         0.000 6     -1143.885 6        37.977 6
G20  21956799.645 9 115383727.695 9      2577.215 9        55.311 9  21956799.974 6         0.000 6      2008.221 6        37.977 6
> 2019 07 03 12 00 34.0000000  0  8       0.000000000000
G07  25357749.008 9 133255824.249 9      2198.159 9        54.128 9  25357749.684 6         0.000 6      1712.852 6        37.977 6
G10  23826498.196 9 125209038.166 9      3532.815 9        54.663 9  23826501.940 6         0.000 6      2752.846 6        37.977 6
G21  21164813.954 9 111221827.355 9     -1241.957 9        55.712 9  21164813.238 6         0.000 6      -967.759 6        37.977 6
G29  24284563.292 9 127616185.311 9     -3117.878 9        54.480 9  24284564.851 6         0.000 6     -2429.518 6        37.977 6
G27  22016889.931 9 115699510.425 9      2505.413 9        55.369 9  22016891.868 6         0.000 6      1952.271 6        37.977 6
G16  20499993.887 9 107728174.668 9       572.593 9        55.975 9  20499993.060 6         0.000 6       446.176 6        37.977 6
G26  20647373.507 9 108502657.875 9     -1468.561 9        55.876 9  20647376.320 6         0.000 6     -1144.334 6        37.977 6
G20  21956309.259 9 115381150.701 9      2576.774 9        55.311 9  21956309.587 6         0.000 6      2007.877 6        37.977 6
> 2019 07 03 12 00 35.0000000  0  8       0.000000000000
G07  25357330.756 9 133253626.323 9      2197.701 9        54.128 9  25357331.432 6         0.000 6      1712.495 6        37.977 6
G10  23825825.937 9 125205505.429 9      3532.681 9        54.663 9  23825829.679 6         0.000 6      2752.741 6        37.977 6
G21  21165050.325 9 111223069.492 9     -1242.319 9        55.712 9  21165049.609 6         0.000 6      -968.041 6        37.977 6
G29  24285156.613 9 127619303.222 9     -3117.964 9        54.480 9  24285158.172 6         0.000 6     -2429.585 6        37.977 6
G27  22016413.189 9 115697005.133 9      2505.177 9        55.370 9  22016415.126 6         0.000 6      1952.087 6        37.977 6
G16  20499884.985 9 107727602.382 9       571.978 9        55.975 9  20499884.158 6         0.000 6       445.697 6        37.977 6
G26  20647653.019 9 108504126.722 9     -1469.137 9        55.876 9  20647655.833 6         0.000 6     -1144.782 6        37.977 6
G20  21955818.957 9 115378574.151 9      2576.334 9        55.311 9  21955819.285 6         0.000 6      2007.534 6        37.977 6
> 2019 07 03 12 00 36.0000000  0  8       0.000000000000
G07  25356912.591 9 133251428.854 9      2197.244 9        54.128 9  25356913.266 6         0.000 6      1712.139 6        37.977 6
G10  23825153.703 9 125201972.827 9      3532.546 9        54.664 9  23825157.445 6         0.000 6      2752.636 6        37.977 6
G21  21165286.764 9 111224311.992 9     -1242.681 9        55.712 9  21165286.049 6         0.000 6      -968.323 6        37.977 6
G29  24285749.950 9 127622421.219 9     -3118.050 9        54.480 9  24285751.510 6         0.000 6     -2429.652 6        37.977 6
G27  22015936.492 9 115694500.076 9      2504.941 9        55.370 9  22015938.429 6         0.000 6      1951.903 6        37.977 6
G16  20499776.200 9 107727030.712 9       571.363 9        55.975 9  20499775.373 6         0.000 6       445.218 6        37.977 6
G26  20647932.641 9 108505596.145 9     -1469.713 9        55.876 9  20647935.455 6         0.000 6     -1145.231 6        37.977 6
G20  21955328.739 9 115375998.043 9      2575.893 9        55.311 9  21955329.067 6         0.000 6      2007.190 6        37.977 6
> 2019 07 03 12 00 37.0000000  0  8       0.000000000000
G07  25356494.513 9 133249231.845 9      2196.787 9        54.128 9  25356495.188 6         0.000 6      1711.783 6        37.977 6
G10  23824481.493 9 125198440.354 9      3532.411 9        54.664 9  23824485.235 6         0.000 6      2752.531 6        37.977 6
G21  21165523.273 9 111225554.851 9     -1243.043 9        55.711 9  21165522.558 6         0.000 6      -968.605 6        37.977 6
G29  24286343.303 9 127625539.302 9     -3118.136 9        54.480 9  24286344.864 6         0.000 6     -2429.719 6        37.977 6
G27  22015459.840 9 115691995.253 9      2504.706 9        55.370 9  22015461.777 6         0.000 6      1951.719 6        37.977 6
G16  20499667.531 9 107726459.654 9       570.747 9        55.976 9  20499666.704 6         0.000 6       444.738 6        37.977 6
G26  20648212.372 9 108507066.139 9     -1470.288 9        55.876 9  20648215.186 6         0.000 6     -1145.679 6        37.977 6
G20  21954838.604 9 115373422.371 9      2575.452 9        55.311 9  21954838.932 6         0.000 6      2006.847 6        37.977 6
> 2019 07 03 12 00 38.0000000  0  8       0.000000000000
G07  25356076.523 9 133247035.293 9      2196.329 9        54.128 9  25356077.198 6         0.000 6      1711.426 6        37.977 6
G10  23823809.310 9 125194908.019 9      3532.276 9        54.664 9  23823813.051 6         0.000 6      2752.426 6        37.977 6
G21  21165759.850 9 111226798.072 9     -1243.405 9        55.711 9  21165759.135 6         0.000 6      -968.888 6        37.977 6
G29  24286936.672 9 127628657.466 9     -3118.222 9        54.479 9  24286938.233 6         0.000 6     -2429.786 6        37.977 6
G27  22014983.233 9 115689490.672 9      2504.470 9        55.370 9  22014985.170 6         0.000 6      1951.535 6        37.977 6
G16  20499558.980 9 107725889.215 9       570.132 9        55.976 9  20499558.153 6         0.000 6       444.259 6        37.977 6
G26  20648492.213 9 108508536.713 9     -1470.864 9        55.876 9  20648495.028 6         0.000 6     -1146.128 6        37.977 6
G20  21954348.553 9 115370847.141 9      2575.011 9        55.312 9  21954348.881 6         0.000 6      2006.503 6        37.977 6
> 2019 07 03 12 00 39.0000000  0  8       0.000000000000
G07  25355658.619 9 133244839.199 9      2195.872 9        54.129 9  25355659.294 6         0.000 6      1711.070 6        37.977 6
G10  23823137.152 9 125191375.816 9      3532.142 9        54.664 9  23823140.893 6         0.000 6      2752.321 6        37.977 6
G21  21165996.496 9 111228041.656 9     -1243.767 9        55.711 9  21165995.781 6         0.000 6      -969.170 6        37.977 6
G29  24287530.058 9 127631775.721 9     -3118.308 9        54.479 9  24287531.620 6         0.000 6     -2429.853 6        37.977 6
G27  22014506.671 9 115686986.322 9      2504.234 9        55.370 9  22014508.607 6         0.000 6      1951.352 6        37.977 6
G16  20499450.545 9 107725319.388 9       569.517 9        55.976 9  20499449.719 6         0.000 6       443.780 6        37.977 6
G26  20648772.163 9 108510007.858 9     -1471.439 9        55.875 9  20648774.978 6         0.000 6     -1146.576 6        37.977 6
G20  21953858.586 9 115368272.352 9      2574.569 9        55.312 9  21953858.913 6         0.000 6      2006.159 6        37.977 6
> 2019 07 03 12 00 40.0000000  0  8       0.000000000000
G07  25355240.802 9 133242643.560 9      2195.414 9        54.129 9  25355241.477 6         0.000 6      1710.713 6        37.977 6
G10  23822465.021 9 125187843.753 9      3532.007 9        54.665 9  23822468.761 6         0.000 6      2752.216 6        37.977 6
G21  21166233.212 9 111229285.603 9     -1244.129 9        55.711 9  21166232.497 6         0.000 6      -969.452 6        37.977 6
G29  24288123.461 9 127634894.062 9     -3118.394 9        54.479 9  24288125.023 6         0.000 6     -2429.920 6        37.977 6
G27  22014030.154 9 115684482.209 9      2503.997 9        55.371 9  22014032.090 6         0.000 6      1951.168 6        37.977 6
G16  20499342.228 9 107724750.178 9       568.902 9        55.976 9  20499341.402 6         0.000 6       443.300 6        37.977 6
G26  20649052.224 9 108511479.583 9     -1472.015 9        55.875 9  20649055.038 6         0.000 6     -1147.025 6        37.977 6
G20  21953368.704 9 115365698.007 9      2574.128 9        55.312 9  21953369.031 6         0.000 6      2005.815 6        37.977 6
> 2019 07 03 12 00 41.0000000  0  8       0.000000000000
G07  25354823.073 9 133240448.382 9      2194.956 9        54.129 9  25354823.747 6         0.000 6      1710.356 6        37.977 6
G10  23821792.915 9 125184311.820 9      3531.871 9        54.665 9  23821796.653 6         0.000 6      2752.110 6        37.977 6
G21  21166469.996 9 111230529.911 9     -1244.491 9        55.711 9  21166469.281 6         0.000 6      -969.734 6        37.977 6
G29  24288716.880 9 127638012.489 9     -3118.480 9        54.479 9  24288718.442 6         0.000 6     -2429.987 6        37.977 6
G27  22013553.681 9 115681978.330 9      2503.761 9        55.371 9  22013555.617 6         0.000 6      1950.984 6        37.977 6
G16  20499234.028 9 107724181.581 9       568.287 9        55.976 9  20499233.201 6         0.000 6       442.821 6        37.977 6
G26  20649332.393 9 108512951.879 9     -1472.590 9        55.875 9  20649335.207 6         0.000 6     -1147.473 6        37.977 6
G20  21952878.905 9 115363124.101 9      2573.687 9        55.312 9  21952879.231 6         0.000 6      2005.471 6        37.977 6
> 2019 07 03 12 00 42.0000000  0  8       0.000000000000
G07  25354405.430 9 133238253.658 9      2194.498 9        54.129 9  25354406.104 6         0.000 6      1710.000 6        37.977 6
G10  23821120.835 9 125180780.027 9      3531.736 9        54.665 9  23821124.573 6         0.000 6      2752.005 6        37.977 6
G21  21166706.849 9 111231774.582 9     -1244.853 9        55.711 9  21166706.134 6         0.000 6      -970.016 6        37.977 6
G29  24289310.315 9 127641131.002 9     -3118.566 9        54.479 9  24289311.878 6         0.000 6     -2430.054 6        37.977 6
G27  22013077.253 9 115679474.690 9      2503.525 9        55.371 9  22013079.189 6         0.000 6      1950.800 6        37.977 6
G16  20499125.945 9 107723613.602 9       567.671 9        55.976 9  20499125.118 6         0.000 6       442.341 6        37.977 6
G26  20649612.672 9 108514424.755 9     -1473.166 9        55.875 9  20649615.487 6         0.000 6     -1147.922 6        37.977 6
G20  21952389.191 9 115360550.639 9      2573.245 9        55.312 9  21952389.517 6         0.000 6      2005.127 6        37.977 6
> 2019 07 03 12 00 43.0000000  0  8       0.000000000000
G07  25353987.875 9 133236059.395 9      2194.041 9        54.129 9  25353988.549 6         0.000 6      1709.643 6        37.977 6
G10  23820448.780 9 125177248.365 9      3531.601 9        54.665 9  23820452.517 6         0.000 6      2751.899 6        37.977 6
G21  21166943.771 9 111233019.613 9     -1245.215 9        55.711 9  21166943.056 6         0.000 6      -970.298 6        37.977 6
G29  24289903.767 9 127644249.602 9     -3118.652 9        54.478 9  24289905.331 6         0.000 6     -2430.121 6        37.977 6
G27  22012600.870 9 115676971.283 9      2503.289 9        55.371 9  22012602.806 6         0.000 6      1950.616 6        37.977 6
G16  20499017.979 9 107723046.235 9       567.056 9        55.976 9  20499017.152 6         0.000 6       441.862 6        37.977 6
G26  20649893.060 9 108515898.202 9     -1473.741 9        55.875 9  20649895.875 6         0.000 6     -1148.370 6        37.977 6
G20  21951899.560 9 115357977.615 9      2572.804 9        55.312 9  21951899.886 6         0.000 6      2004.783 6        37.977 6
> 2019 07 03 12 00 44.0000000  0  8       0.000000000000
G07  25353570.407 9 133233865.587 9      2193.583 9        54.129 9  25353571.080 6         0.000 6      1709.286 6        37.977 6
G10  23819776.751 9 125173716.842 9      3531.465 9        54.666 9  23819780.488 6         0.000 6      2751.794 6        37.977 6
G21  21167180.762 9 111234265.009 9     -1245.577 9        55.711 9  21167180.047 6         0.000 6      -970.580 6        37.977 6
G29  24290497.235 9 127647368.287 9     -3118.738 9        54.478 9  24290498.799 6         0.000 6     -2430.188 6        37.977 6
G27  22012124.533 9 115674468.115 9      2503.053 9        55.371 9  22012126.468 6         0.000 6      1950.432 6        37.977 6
G16  20498910.130 9 107722479.487 9       566.440 9        55.976 9  20498909.304 6         0.000 6       441.382 6        37.977 6
G26  20650173.558 9 108517372.229 9     -1474.317 9        55.875 9  20650176.373 6         0.000 6     -1148.819 6        37.977 6
G20  21951410.013 9 115355405.037 9      2572.362 9        55.313 9  21951410.339 6         0.000 6      2004.439 6        37.977 6
> 2019 07 03 12 00 45.0000000  0  8       0.000000000000
G07  25353153.026 9 133231672.242 9      2193.125 9        54.129 9  25353153.700 6         0.000 6      1708.929 6        37.977 6
G10  23819104.747 9 125170185.449 9      3531.330 9        54.666 9  23819108.484 6         0.000 6      2751.688 6        37.977 6
G21  21167417.821 9 111235510.761 9     -1245.939 9        55.711 9  21167417.106 6         0.000 6      -970.861 6        37.977 6
G29  24291090.718 9 127650487.053 9     -3118.824 9        54.478 9  24291092.283 6         0.000 6     -2430.255 6        37.977 6
G27  22011648.240 9 115671965.185 9      2502.817 9        55.371 9  22011650.176 6         0.000 6      1950.247 6        37.977 6
G16  20498802.399 9 107721913.353 9       565.825 9        55.976 9  20498801.572 6         0.000 6       440.903 6        37.977 6
G26  20650454.165 9 108518846.827 9     -1474.892 9        55.875 9  20650456.980 6         0.000 6     -1149.267 6        37.977 6
G20  21950920.550 9 115352832.893 9      2571.920 9        55.313 9  21950920.875 6         0.000 6      2004.095 6        37.977 6
> 2019 07 03 12 00 46.0000000  0  8       0.000000000000
G07  25352735.732 9 133229479.350 9      2192.667 9        54.130 9  25352736.405 6         0.000 6      1708.572 6        37.977 6
G10  23818432.771 9 125166654.198 9      3531.194 9        54.666 9  23818436.506 6         0.000 6      2751.583 6        37.977 6
G21  21167654.949 9 111236756.880 9     -1246.300 9        55.711 9  21167654.234 6         0.000 6      -971.143 6        37.977 6
G29  24291684.219 9 127653605.910 9     -3118.910 9        54.478 9  24291685.784 6         0.000 6     -2430.322 6        37.977 6
G27  22011171.993 9 115669462.489 9      2502.580 9        55.372 9  22011173.928 6         0.000 6      1950.063 6        37.977 6
G16  20498694.784 9 107721347.836 9       565.209 9        55.976 9  20498693.957 6         0.000 6       440.423 6        37.977 6
G26  20650734.883 9 108520322.004 9     -1475.467 9        55.875 9  20650737.698 6         0.000 6     -1149.715 6        37.977 6
G20  21950431.172 9 115350261.199 9      2571.478 9        55.313 9  21950431.497 6         0.000 6      2003.750 6        37.977 6
> 2019 07 03 12 00 47.0000000  0  8       0.000000000000
G07  25352318.525 9 133227286.916 9      2192.208 9        54.130 9  25352319.198 6         0.000 6      1708.215 6        37.977 6
G10  23817760.820 9 125163123.082 9      3531.058 9        54.666 9  23817764.554 6         0.000 6      2751.477 6        37.977 6
G21  21167892.147 9 111238003.360 9     -1246.662 9        55.710 9  21167891.432 6         0.000 6      -971.425 6        37.977 6
G29  24292277.736 9 127656724.852 9     -3118.996 9        54.478 9  24292279.302 6         0.000 6     -2430.389 6        37.977 6
G27  22010695.790 9 115666960.029 9      2502.344 9        55.372 9  22010697.725 6         0.000 6      1949.879 6        37.977 6
G16  20498587.287 9 107720782.934 9       564.594 9        55.976 9  20498586.460 6         0.000 6       439.943 6        37.977 6
G26  20651015.709 9 108521797.758 9     -1476.042 9        55.875 9  20651018.524 6         0.000 6     -1150.163 6        37.977 6
G20  21949941.878 9 115347689.946 9      2571.036 9        55.313 9  21949942.203 6         0.000 6      2003.406 6        37.977 6
> 2019 07 03 12 00 48.0000000  0  8       0.000000000000
G07  25351901.406 9 133225094.943 9      2191.750 9        54.130 9  25351902.079 6         0.000 6      1707.858 6        37.977 6
G10  23817088.894 9 125159592.098 9      3530.923 9        54.667 9  23817092.628 6         0.000 6      2751.371 6        37.977 6
G21  21168129.412 9 111239250.199 9     -1247.023 9        55.710 9  21168128.698 6         0.000 6      -971.707 6        37.977 6
G29  24292871.269 9 127659843.881 9     -3119.082 9        54.477 9  24292872.836 6         0.000 6     -2430.456 6        37.977 6
G27  22010219.632 9 115664457.804 9      2502.108 9        55.372 9  22010221.567 6         0.000 6      1949.695 6        37.977 6
G16  20498479.906 9 107720218.645 9       563.978 9        55.976 9  20498479.079 6         0.000 6       439.464 6        37.977 6
G26  20651296.645 9 108523274.081 9     -1476.618 9        55.874 9  20651299.460 6         0.000 6     -1150.612 6        37.977 6
G20  21949452.667 9 115345119.131 9      2570.594 9        55.313 9  21949452.992 6         0.000 6      2003.062 6        37.977 6
> 2019 07 03 12 00 49.0000000  0  8       0.000000000000
G07  25351484.373 9 133222903.426 9      2191.292 9        54.130 9  25351485.046 6         0.000 6      1707.501 6        37.977 6
G10  23816416.994 9 125156061.254 9      3530.786 9        54.667 9  23816420.728 6         0.000 6      2751.265 6        37.977 6
G21  21168366.748 9 111240497.403 9     -1247.385 9        55.710 9  21168366.033 6         0.000 6      -971.988 6        37.977 6
G29  24293464.819 9 127662962.996 9     -3119.168 9        54.477 9  24293466.386 6         0.000 6     -2430.523 6        37.977 6
G27  22009743.519 9 115661955.818 9      2501.871 9        55.372 9  22009745.454 6         0.000 6      1949.511 6        37.977 6
G16  20498372.643 9 107719654.974 9       563.363 9        55.976 9  20498371.817 6         0.000 6       438.984 6        37.977 6
G26  20651577.690 9 108524750.985 9     -1477.193 9        55.874 9  20651580.506 6         0.000 6     -1151.060 6        37.977 6
G20  21948963.541 9 115342548.763 9      2570.152 9        55.314 9  21948963.866 6         0.000 6      2002.717 6        37.977 6
> 2019 07 03 12 00 50.0000000  0  8       0.000000000000
G07  25351067.429 9 133220712.369 9      2190.833 9        54.130 9  25351068.101 6         0.000 6      1707.144 6        37.977 6
G10  23815745.120 9 125152530.542 9      3530.650 9        54.667 9  23815748.853 6         0.000 6      2751.159 6        37.977 6
G21  21168604.151 9 111241744.965 9     -1247.746 9        55.710 9  21168603.436 6         0.000 6      -972.270 6        37.977 6
G29  24294058.385 9 127666082.196 9     -3119.253 9        54.477 9  24294059.953 6         0.000 6     -2430.590 6        37.977 6
G27  22009267.451 9 115659454.065 9      2501.635 9        55.372 9  22009269.386 6         0.000 6      1949.327 6        37.977 6
G16  20498265.497 9 107719091.916 9       562.747 9        55.976 9  20498264.670 6         0.000 6       438.504 6        37.977 6
G26  20651858.845 9 108526228.459 9     -1477.768 9        55.874 9  20651861.660 6         0.000 6     -1151.508 6        37.977 6
G20  21948474.499 9 115339978.832 9      2569.710 9        55.314 9  21948474.823 6         0.000 6      2002.372 6        37.977 6
> 2019 07 03 12 00 51.0000000  0  8       0.000000000000
G07  25350650.570 9 133218521.769 9      2190.375 9        54.130 9  25350651.242 6         0.000 6      1706.787 6        37.977 6
G10  23815073.273 9 125148999.970 9      3530.514 9        54.667 9  23815077.005 6         0.000 6      2751.053 6        37.977 6
G21  21168841.623 9 111242992.891 9     -1248.108 9        55.710 9  21168840.909 6         0.000 6      -972.552 6        37.977 6
G29  24294651.967 9 127669201.482 9     -3119.339 9        54.477 9  24294653.536 6         0.000 6     -2430.657 6        37.977 6
G27  22008791.428 9 115656952.551 9      2501.398 9        55.373 9  22008793.363 6         0.000 6      1949.142 6        37.977 6
G16  20498158.468 9 107718529.477 9       562.131 9        55.976 9  20498157.642 6         0.000 6       438.024 6        37.977 6
G26  20652140.109 9 108527706.513 9     -1478.343 9        55.874 9  20652142.925 6         0.000 6     -1151.956 6        37.977 6
G20  21947985.542 9 115337409.348 9      2569.267 9        55.314 9  21947985.865 6         0.000 6      2002.028 6        37.977 6
> 2019 07 03 12 00 52.0000000  0  8       0.000000000000
G07  25350233.800 9 133216331.629 9      2189.916 9        54.130 9  25350234.472 6         0.000 6      1706.429 6        37.977 6
G10  23814401.450 9 125145469.530 9      3530.378 9        54.668 9  23814405.182 6         0.000 6      2750.947 6        37.977 6
G21  21169079.164 9 111244241.176 9     -1248.469 9        55.710 9  21169078.450 6         0.000 6      -972.833 6        37.977 6
G29  24295245.566 9 127672320.854 9     -3119.425 9        54.477 9  24295247.135 6         0.000 6     -2430.723 6        37.977 6
G27  22008315.450 9 115654451.272 9      2501.162 9        55.373 9  22008317.384 6         0.000 6      1948.958 6        37.977 6
G16  20498051.556 9 107717967.650 9       561.516 9        55.976 9  20498050.729 6         0.000 6       437.545 6        37.977 6
G26  20652421.483 9 108529185.137 9     -1478.918 9        55.874 9  20652424.298 6         0.000 6     -1152.404 6        37.977 6
G20  21947496.668 9 115334840.302 9      2568.825 9        55.314 9  21947496.991 6         0.000 6      2001.683 6        37.977 6
> 2019 07 03 12 00 53.0000000  0  8       0.000000000000
G07  25349817.117 9 133214141.949 9      2189.458 9        54.131 9  25349817.789 6         0.000 6      1706.072 6        37.977 6
G10  23813729.654 9 125141939.229 9      3530.242 9        54.668 9  23813733.385 6         0.000 6      2750.840 6        37.977 6
G21  21169316.774 9 111245489.823 9     -1248.830 9        55.710 9  21169316.060 6         0.000 6      -973.115 6        37.977 6
G29  24295839.180 9 127675440.306 9     -3119.511 9        54.476 9  24295840.750 6         0.000 6     -2430.790 6        37.977 6
G27  22007839.518 9 115651950.235 9      2500.925 9        55.373 9  22007841.452 6         0.000 6      1948.774 6        37.977 6
G16  20497944.762 9 107717406.444 9       560.900 9        55.976 9  20497943.935 6         0.000 6       437.065 6        37.977 6
G26  20652702.966 9 108530664.341 9     -1479.493 9        55.874 9  20652705.782 6         0.000 6     -1152.852 6        37.977 6
G20  21947007.878 9 115332271.700 9      2568.382 9        55.314 9  21947008.201 6         0.000 6      2001.338 6        37.977 6
> 2019 07 03 12 00 54.0000000  0  8       0.000000000000
G07  25349400.521 9 133211952.727 9      2188.999 9        54.131 9  25349401.193 6         0.000 6      1705.715 6        37.977 6
G10  23813057.884 9 125138409.062 9      3530.105 9        54.668 9  23813061.614 6         0.000 6      2750.734 6        37.977 6
G21  21169554.452 9 111246738.831 9     -1249.191 9        55.710 9  21169553.738 6         0.000 6      -973.396 6        37.977 6
G29  24296432.811 9 127678559.850 9     -3119.596 9        54.476 9  24296434.382 6         0.000 6     -2430.857 6        37.977 6
G27  22007363.630 9 115649449.429 9      2500.689 9        55.373 9  22007365.564 6         0.000 6      1948.589 6        37.977 6
G16  20497838.085 9 107716845.849 9       560.284 9        55.976 9  20497837.258 6         0.000 6       436.585 6        37.977 6
G26  20652984.558 9 108532144.115 9     -1480.068 9        55.874 9  20652987.374 6         0.000 6     -1153.301 6        37.977 6
G20  21946519.172 9 115329703.539 9      2567.940 9        55.315 9  21946519.495 6         0.000 6      2000.993 6        37.977 6
> 2019 07 03 12 00 55.0000000  0  8       0.000000000000
G07  25348984.012 9 133209763.961 9      2188.540 9        54.131 9  25348984.683 6         0.000 6      1705.357 6        37.977 6
G10  23812386.140 9 125134879.036 9      3529.968 9        54.668 9  23812389.870 6         0.000 6      2750.627 6        37.977 6
G21  21169792.200 9 111247988.202 9     -1249.552 9        55.710 9  21169791.486 6         0.000 6      -973.677 6        37.977 6
G29  24297026.459 9 127681679.479 9     -3119.682 9        54.476 9  24297028.030 6         0.000 6     -2430.924 6        37.977 6
G27  22006887.787 9 115646948.861 9      2500.452 9        55.373 9  22006889.721 6         0.000 6      1948.405 6        37.977 6
G16  20497731.525 9 107716285.873 9       559.668 9        55.976 9  20497730.698 6         0.000 6       436.105 6        37.977 6
G26  20653266.260 9 108533624.469 9     -1480.643 9        55.874 9  20653269.076 6         0.000 6     -1153.749 6        37.977 6
G20  21946030.552 9 115327135.825 9      2567.497 9        55.315 9  21946030.874 6         0.000 6      2000.648 6        37.977 6
> 2019 07 03 12 00 56.0000000  0  8       0.000000000000
G07  25348567.591 9 133207575.653 9      2188.081 9        54.131 9  25348568.261 6         0.000 6      1704.999 6        37.977 6
G10  23811714.422 9 125131349.146 9      3529.832 9        54.669 9  23811718.151 6         0.000 6      2750.521 6        37.977 6
G21  21170030.016 9 111249237.934 9     -1249.914 9        55.710 9  21170029.302 6         0.000 6      -973.959 6        37.977 6
G29  24297620.123 9 127684799.194 9     -3119.768 9        54.476 9  24297621.695 6         0.000 6     -2430.990 6        37.977 6
G27  22006411.989 9 115644448.530 9      2500.215 9        55.374 9  22006413.923 6         0.000 6      1948.221 6        37.977 6
G16  20497625.082 9 107715726.513 9       559.052 9        55.976 9  20497624.255 6         0.000 6       435.625 6        37.977 6
G26  20653548.072 9 108535105.399 9     -1481.218 9        55.873 9  20653550.888 6         0.000 6     -1154.197 6        37.977 6
G20  21945542.015 9 115324568.554 9      2567.054 9        55.315 9  21945542.338 6         0.000 6      2000.303 6        37.977 6
> 2019 07 03 12 00 57.0000000  0  8       0.000000000000
G07  25348151.257 9 133205387.808 9      2187.623 9        54.131 9  25348151.927 6         0.000 6      1704.642 6        37.977 6
G10  23811042.730 9 125127819.389 9      3529.695 9        54.669 9  23811046.458 6         0.000 6      2750.414 6        37.977 6
G21  21170267.901 9 111250488.025 9     -1250.275 9        55.709 9  21170267.186 6         0.000 6      -974.240 6        37.977 6
G29  24298213.803 9 127687918.994 9     -3119.853 9        54.475 9  24298215.376 6         0.000 6     -2431.057 6        37.977 6
G27  22005936.236 9 115641948.433 9      2499.979 9        55.374 9  22005938.170 6         0.000 6      1948.036 6        37.977 6
G16  20497518.756 9 107715167.765 9       558.436 9        55.976 9  20497517.929 6         0.000 6       435.145 6        37.977 6
G26  20653829.993 9 108536586.898 9     -1481.793 9        55.873 9  20653832.809 6         0.000 6     -1154.645 6        37.977 6
G20  21945053.563 9 115322001.721 9      2566.611 9        55.315 9  21945053.885 6         0.000 6      1999.958 6        37.977 6
> 2019 07 03 12 00 58.0000000  0  8       0.000000000000
G07  25347735.010 9 133203200.418 9      2187.163 9        54.131 9  25347735.680 6         0.000 6      1704.284 6        37.977 6
G10  23810371.064 9 125124289.774 9      3529.558 9        54.669 9  23810374.792 6         0.000 6      2750.308 6        37.977 6
G21  21170505.855 9 111251738.480 9     -1250.636 9        55.709 9  21170505.140 6         0.000 6      -974.521 6        37.977 6
G29  24298807.499 9 127691038.880 9     -3119.939 9        54.475 9  24298809.073 6         0.000 6     -2431.124 6        37.977 6
G27  22005460.529 9 115639448.576 9      2499.742 9        55.374 9  22005462.462 6         0.000 6      1947.852 6        37.977 6
G16  20497412.548 9 107714609.637 9       557.820 9        55.976 9  20497411.721 6         0.000 6       434.665 6        37.977 6
G26  20654112.023 9 108538068.977 9     -1482.368 9        55.873 9  20654114.839 6         0.000 6     -1155.093 6        37.977 6
G20  21944565.195 9 115319435.336 9      2566.168 9        55.315 9  21944565.517 6         0.000 6      1999.613 6        37.977 6
> 2019 07 03 12 00 59.0000000  0  8       0.000000000000
G07  25347318.850 9 133201013.491 9      2186.704 9        54.131 9  25347319.521 6         0.000 6      1703.926 6        37.977 6
G10  23809699.424 9 125120760.290 9      3529.421 9        54.669 9  23809703.151 6         0.000 6      2750.201 6        37.977 6
G21  21170743.876 9 111252989.293 9     -1250.997 9        55.709 9  21170743.162 6         0.000 6      -974.803 6        37.977 6
G29  24299401.212 9 127694158.852 9     -3120.025 9        54.475 9  24299402.786 6         0.000 6     -2431.191 6        37.977 6
G27  22004984.866 9 115636948.953 9      2499.505 9        55.374 9  22004986.799 6         0.000 6      1947.667 6        37.977 6
G16  20497306.456 9 107714052.121 9       557.204 9        55.977 9  20497305.629 6         0.000 6       434.185 6        37.977 6
G26  20654394.162 9 108539551.626 9     -1482.943 9        55.873 9  20654396.979 6         0.000 6     -1155.541 6        37.977 6
G20  21944076.911 9 115316869.390 9      2565.725 9        55.316 9  21944077.232 6         0.000 6      1999.268 6        37.977 6
> 2019 07 03 12 01  0.0000000  0  8       0.000000000000
G07  25346902.778 9 133198827.020 9      2186.245 9        54.132 9  25346903.448 6         0.000 6      1703.569 6        37.977 6
G10  23809027.811 9 125117230.949 9      3529.284 9        54.670 9  23809031.537 6         0.000 6      2750.094 6        37.977 6
G21  21170981.968 9 111254240.469 9     -1251.357 9        55.709 9  21170981.253 6         0.000 6      -975.084 6        37.977 6
G29  24299994.941 9 127697278.909 9     -3120.110 9        54.475 9  24299996.516 6         0.000 6     -2431.257 6        37.977 6
G27  22004509.248 9 115634449.569 9      2499.268 9        55.374 9  22004511.181 6         0.000 6      1947.483 6        37.977 6
G16  20497200.482 9 107713495.225 9       556.588 9        55.977 9  20497199.655 6         0.000 6       433.705 6        37.977 6
G26  20654676.412 9 108541034.855 9     -1483.518 9        55.873 9  20654679.228 6         0.000 6     -1155.989 6        37.977 6
G20  21943588.711 9 115314303.891 9      2565.282 9        55.316 9  21943589.033 6         0.000 6      1998.922 6        37.977 6
> 2019 07 03 12 01  1.0000000  0  8       0.000000000000
G07  25346486.794 9 133196641.013 9      2185.786 9        54.132 9  25346487.464 6         0.000 6      1703.211 6        37.977 6
G10  23808356.222 9 125113701.737 9      3529.147 9        54.670 9  23808359.948 6         0.000 6      2749.987 6        37.977 6
G21  21171220.126 9 111255492.001 9     -1251.718 9        55.709 9  21171219.412 6         0.000 6      -975.365 6        37.977 6
G29  24300588.686 9 127700399.046 9     -3120.196 9        54.475 9  24300590.261 6         0.000 6     -2431.324 6        37.977 6
G27  22004033.676 9 115631950.423 9      2499.032 9        55.374 9  22004035.609 6         0.000 6      1947.298 6        37.977 6
G16  20497094.625 9 107712938.943 9       555.972 9        55.977 9  20497093.798 6         0.000 6       433.225 6        37.977 6
G26  20654958.770 9 108542518.654 9     -1484.093 9        55.873 9  20654961.586 6         0.000 6     -1156.436 6        37.977 6
G20  21943100.595 9 115311738.827 9      2564.839 9        55.316 9  21943100.916 6         0.000 6      1998.577 6        37.977 6
> 2019 07 03 12 01  2.0000000  0  8       0.000000000000
G07  25346070.897 9 133194455.461 9      2185.327 9        54.132 9  25346071.566 6         0.000 6      1702.853 6        37.977 6
G10  23807684.661 9 125110172.670 9      3529.009 9        54.670 9  23807688.386 6         0.000 6      2749.880 6        37.977 6
G21  21171458.355 9 111256743.899 9     -1252.079 9        55.709 9  21171457.641 6         0.000 6      -975.646 6        37.977 6
G29  24301182.447 9 127703519.275 9     -3120.281 9        54.474 9  24301184.023 6         0.000 6     -2431.391 6        37.977 6
G27  22003558.149 9 115629451.513 9      2498.795 9        55.375 9  22003560.081 6         0.000 6      1947.113 6        37.977 6
G16  20496988.886 9 107712383.279 9       555.356 9        55.977 9  20496988.059 6         0.000 6       432.745 6        37.977 6
G26  20655241.238 9 108544003.032 9     -1484.668 9        55.873 9  20655244.054 6         0.000 6     -1156.884 6        37.977 6
G20  21942612.565 9 115309174.215 9      2564.395 9        55.316 9  21942612.886 6         0.000 6      1998.231 6        37.977 6
> 2019 07 03 12 01  3.0000000  0  8       0.000000000000
G07  25345655.087 9 133192270.370 9      2184.867 9        54.132 9  25345655.756 6         0.000 6      1702.495 6        37.977 6
G10  23807013.125 9 125106643.736 9      3528.872 9        54.670 9  23807016.849 6         0.000 6      2749.773 6        37.977 6
G21  21171696.651 9 111257996.155 9     -1252.440 9        55.709 9  21171695.937 6         0.000 6      -975.927 6        37.977 6
G29  24301776.225 9 127706639.589 9     -3120.367 9        54.474 9  24301777.802 6         0.000 6     -2431.457 6        37.977 6
G27  22003082.666 9 115626952.837 9      2498.558 9        55.375 9  22003084.599 6         0.000 6      1946.929 6        37.977 6
G16  20496883.263 9 107711828.228 9       554.740 9        55.977 9  20496882.436 6         0.000 6       432.265 6        37.977 6
G26  20655523.814 9 108545487.981 9     -1485.242 9        55.873 9  20655526.631 6         0.000 6     -1157.332 6        37.977 6
G20  21942124.618 9 115306610.041 9      2563.952 9        55.316 9  21942124.938 6         0.000 6      1997.886 6        37.977 6
> 2019 07 03 12 01  4.0000000  0  8       0.000000000000
G07  25345239.364 9 133190085.736 9      2184.408 9        54.132 9  25345240.034 6         0.000 6      1702.137 6        37.977 6
G10  23806341.616 9 125103114.943 9      3528.734 9        54.670 9  23806345.340 6         0.000 6      2749.666 6        37.977 6
G21  21171935.017 9 111259248.775 9     -1252.800 9        55.709 9  21171934.303 6         0.000 6      -976.208 6        37.977 6
G29  24302370.019 9 127709759.988 9     -3120.452 9        54.474 9  24302371.596 6         0.000 6     -2431.524 6        37.977 6
G27  22002607.229 9 115624454.400 9      2498.321 9        55.375 9  22002609.161 6         0.000 6      1946.744 6        37.977 6
G16  20496777.758 9 107711273.796 9       554.124 9        55.977 9  20496776.931 6         0.000 6       431.785 6        37.977 6
G26  20655806.501 9 108546973.508 9     -1485.817 9        55.873 9  20655809.318 6         0.000 6     -1157.780 6        37.977 6
G20  21941636.756 9 115304046.316 9      2563.508 9        55.316 9  21941637.077 6         0.000 6      1997.540 6        37.977 6
> 2019 07 03 12 01  5.0000000  0  8       0.000000000000
G07  25344823.730 9 133187901.565 9      2183.948 9        54.132 9  25344824.399 6         0.000 6      1701.779 6        37.977 6
G10  23805670.132 9 125099586.284 9      3528.597 9        54.671 9  23805673.856 6         0.000 6      2749.558 6        37.977 6
G21  21172173.451 9 111260501.752 9     -1253.161 9        55.709 9  21172172.737 6         0.000 6      -976.489 6        37.977 6
G29  24302963.830 9 127712880.473 9     -3120.538 9        54.474 9  24302965.408 6         0.000 6     -2431.590 6        37.977 6
G27  22002131.836 9 115621956.199 9      2498.084 9        55.375 9  22002133.769 6         0.000 6      1946.560 6        37.977 6
G16  20496672.370 9 107710719.977 9       553.507 9        55.977 9  20496671.543 6         0.000 6       431.304 6        37.977 6
G26  20656089.297 9 108548459.606 9     -1486.392 9        55.872 9  20656092.114 6         0.000 6     -1158.228 6        37.977 6
G20  21941148.978 9 115301483.030 9      2563.065 9        55.317 9  21941149.298 6         0.000 6      1997.194 6        37.977 6
> 2019 07 03 12 01  6.0000000  0  8       0.000000000000
G07  25344408.182 9 133185717.850 9      2183.488 9        54.132 9  25344408.851 6         0.000 6      1701.420 6        37.977 6
G10  23804998.676 9 125096057.767 9      3528.459 9        54.671 9  23805002.398 6         0.000 6      2749.451 6        37.977 6
G21  21172411.954 9 111261755.093 9     -1253.521 9        55.709 9  21172411.240 6         0.000 6      -976.770 6        37.977 6
G29  24303557.656 9 127716001.043 9     -3120.623 9        54.474 9  24303559.235 6         0.000 6     -2431.657 6        37.977 6
G27  22001656.489 9 115619458.236 9      2497.847 9        55.375 9  22001658.421 6         0.000 6      1946.375 6        37.977 6
G16  20496567.100 9 107710166.778 9       552.891 9        55.977 9  20496566.273 6         0.000 6       430.824 6        37.977 6
G26  20656372.202 9 108549946.283 9     -1486.966 9        55.872 9  20656375.019 6         0.000 6     -1158.675 6        37.977 6
G20  21940661.286 9 115298920.191 9      2562.621 9        55.317 9  21940661.605 6         0.000 6      1996.849 6        37.977 6
> 2019 07 03 12 01  7.0000000  0  8       0.000000000000
G07  25343992.722 9 133183534.595 9      2183.029 9        54.133 9  25343993.390 6         0.000 6      1701.062 6        37.977 6
G10  23804327.246 9 125092529.388 9      3528.321 9        54.671 9  23804330.967 6         0.000 6      2749.344 6        37.977 6
G21  21172650.525 9 111263008.794 9     -1253.882 9        55.709 9  21172649.811 6         0.000 6      -977.051 6        37.977 6
G29  24304151.499 9 127719121.698 9     -3120.709 9        54.473 9  24304153.078 6         0.000 6     -2431.724 6        37.977 6
G27  22001181.188 9 115616960.511 9      2497.610 9        55.376 9  22001183.119 6         0.000 6      1946.190 6        37.977 6
G16  20496461.946 9 107709614.195 9       552.275 9        55.977 9  20496461.120 6         0.000 6       430.344 6        37.977 6
G26  20656655.217 9 108551433.535 9     -1487.541 9        55.872 9  20656658.034 6         0.000 6     -1159.123 6        37.977 6
G20  21940173.677 9 115296357.797 9      2562.177 9        55.317 9  21940173.997 6         0.000 6      1996.503 6        37.977 6
> 2019 07 03 12 01  8.0000000  0  8       0.000000000000
G07  25343577.349 9 133181351.802 9      2182.569 9        54.133 9  25343578.018 6         0.000 6      1700.704 6        37.977 6
G10  23803655.841 9 125089001.142 9      3528.183 9        54.671 9  23803659.562 6         0.000 6      2749.236 6        37.977 6
G21  21172889.165 9 111264262.852 9     -1254.242 9        55.708 9  21172888.451 6         0.000 6      -977.332 6        37.977 6
G29  24304745.359 9 127722242.439 9     -3120.794 9        54.473 9  24304746.938 6         0.000 6     -2431.790 6        37.977 6
G27  22000705.930 9 115614463.020 9      2497.373 9        55.376 9  22000707.862 6         0.000 6      1946.005 6        37.977 6
G16  20496356.910 9 107709062.225 9       551.658 9        55.977 9  20496356.083 6         0.000 6       429.864 6        37.977 6
G26  20656938.340 9 108552921.357 9     -1488.115 9        55.872 9  20656941.158 6         0.000 6     -1159.571 6        37.977 6
G20  21939686.153 9 115293795.842 9      2561.733 9        55.317 9  21939686.472 6         0.000 6      1996.157 6        37.977 6
> 2019 07 03 12 01  9.0000000  0  8       0.000000000000
G07  25343162.065 9 133179169.470 9      2182.109 9        54.133 9  25343162.733 6         0.000 6      1700.346 6        37.977 6
G10  23802984.463 9 125085473.037 9      3528.045 9        54.672 9  23802988.183 6         0.000 6      2749.129 6        37.977 6
G21  21173127.873 9 111265517.272 9     -1254.603 9        55.708 9  21173127.159 6         0.000 6      -977.613 6        37.977 6
G29  24305339.233 9 127725363.261 9     -3120.879 9        54.473 9  24305340.813 6         0.000 6     -2431.857 6        37.977 6
G27  22000230.719 9 115611965.772 9      2497.136 9        55.376 9  22000232.651 6         0.000 6      1945.821 6        37.977 6
G16  20496251.992 9 107708510.876 9       551.042 9        55.977 9  20496251.165 6         0.000 6       429.383 6        37.977 6
G26  20657221.574 9 108554409.758 9     -1488.690 9        55.872 9  20657224.391 6         0.000 6     -1160.019 6        37.977 6
G20  21939198.713 9 115291234.333 9      2561.289 9        55.317 9  21939199.032 6         0.000 6      1995.811 6        37.977 6
> 2019 07 03 12 01 10.0000000  0  8       0.000000000000
G07  25342746.867 9 133176987.597 9      2181.649 9        54.133 9  25342747.535 6         0.000 6      1699.987 6        37.977 6
G10  23802313.110 9 125081945.067 9      3527.907 9        54.672 9  23802316.830 6         0.000 6      2749.021 6        37.977 6
G21  21173366.650 9 111266772.052 9     -1254.963 9        55.708 9  21173365.936 6         0.000 6      -977.893 6        37.977 6
G29  24305933.125 9 127728484.172 9     -3120.965 9        54.473 9  24305934.706 6         0.000 6     -2431.923 6        37.977 6
G27  21999755.553 9 115609468.756 9      2496.898 9        55.376 9  21999757.484 6         0.000 6      1945.636 6        37.977 6
G16  20496147.190 9 107707960.139 9       550.426 9        55.977 9  20496146.363 6         0.000 6       428.903 6        37.977 6
G26  20657504.916 9 108555898.728 9     -1489.264 9        55.872 9  20657507.734 6         0.000 6     -1160.466 6        37.977 6
G20  21938711.357 9 115288673.266 9      2560.845 9        55.318 9  21938711.676 6         0.000 6      1995.465 6        37.977 6
> 2019 07 03 12 01 11.0000000  0  8       0.000000000000
G07  25342331.757 9 133174806.181 9      2181.189 9        54.133 9  25342332.425 6         0.000 6      1699.629 6        37.977 6
G10  23801641.785 9 125078417.240 9      3527.768 9        54.672 9  23801645.504 6         0.000 6      2748.913 6        37.977 6
G21  21173605.496 9 111268027.194 9     -1255.323 9        55.708 9  21173604.782 6         0.000 6      -978.174 6        37.977 6
G29  24306527.033 9 127731605.170 9     -3121.050 9        54.472 9  24306528.614 6         0.000 6     -2431.990 6        37.977 6
G27  21999280.431 9 115606971.979 9      2496.661 9        55.376 9  21999282.362 6         0.000 6      1945.451 6        37.977 6
G16  20496042.506 9 107707410.022 9       549.809 9        55.977 9  20496041.679 6         0.000 6       428.423 6        37.977 6
G26  20657788.368 9 108557388.278 9     -1489.839 9        55.872 9  20657791.186 6         0.000 6     -1160.914 6        37.977 6
G20  21938224.087 9 115286112.648 9      2560.401 9        55.318 9  21938224.405 6         0.000 6      1995.119 6        37.977 6
> 2019 07 03 12 01 12.0000000  0  8       0.000000000000
G07  25341916.735 9 133172625.228 9      2180.729 9        54.133 9  25341917.402 6         0.000 6      1699.270 6        37.977 6
G10  23800970.485 9 125074889.547 9      3527.630 9        54.672 9  23800974.204 6         0.000 6      2748.805 6        37.977 6
G21  21173844.409 9 111269282.694 9     -1255.683 9        55.708 9  21173843.696 6         0.000 6      -978.455 6        37.977 6
G29  24307120.957 9 127734726.252 9     -3121.135 9        54.472 9  24307122.539 6         0.000 6     -2432.056 6        37.977 6
G27  21998805.355 9 115604475.437 9      2496.424 9        55.377 9  21998807.285 6         0.000 6      1945.266 6        37.977 6
G16  20495937.939 9 107706860.518 9       549.193 9        55.977 9  20495937.112 6         0.000 6       427.942 6        37.977 6
G26  20658071.929 9 108558878.398 9     -1490.413 9        55.872 9  20658074.747 6         0.000 6     -1161.361 6        37.977 6
G20  21937736.900 9 115283552.470 9      2559.956 9        55.318 9  21937737.218 6         0.000 6      1994.772 6        37.977 6
> 2019 07 03 12 01 13.0000000  0  8       0.000000000000
G07  25341501.800 9 133170444.733 9      2180.269 9        54.133 9  25341502.467 6         0.000 6      1698.912 6        37.977 6
G10  23800299.213 9 125071361.997 9      3527.492 9        54.673 9  23800302.931 6         0.000 6      2748.697 6        37.977 6
G21  21174083.392 9 111270538.557 9     -1256.044 9        55.708 9  21174082.679 6         0.000 6      -978.735 6        37.977 6
G29  24307714.897 9 127737847.420 9     -3121.221 9        54.472 9  24307716.480 6         0.000 6     -2432.123 6        37.977 6
G27  21998330.323 9 115601979.135 9      2496.187 9        55.377 9  21998332.254 6         0.000 6      1945.081 6        37.977 6
G16  20495833.490 9 107706311.634 9       548.576 9        55.977 9  20495832.663 6         0.000 6       427.462 6        37.977 6
G26  20658355.600 9 108560369.097 9     -1490.988 9        55.871 9  20658358.418 6         0.000 6     -1161.809 6        37.977 6
G20  21937249.799 9 115280992.740 9      2559.512 9        55.318 9  21937250.117 6         0.000 6      1994.426 6        37.977 6
> 2019 07 03 12 01 14.0000000  0  8       0.000000000000
G07  25341086.953 9 133168264.701 9      2179.809 9        54.134 9  25341087.620 6         0.000 6      1698.553 6        37.977 6
G10  23799627.966 9 125067834.581 9      3527.353 9        54.673 9  23799631.683 6         0.000 6      2748.589 6        37.977 6
G21  21174322.443 9 111271794.778 9     -1256.404 9        55.708 9  21174321.730 6         0.000 6      -979.016 6        37.977 6
G29  24308308.854 9 127740968.672 9     -3121.306 9        54.472 9  24308310.437 6         0.000 6     -2432.189 6        37.977 6
G27  21997855.337 9 115599483.068 9      2495.949 9        55.377 9  21997857.268 6         0.000 6      1944.896 6        37.977 6
G16  20495729.157 9 107705763.363 9       547.959 9        55.977 9  20495728.331 6         0.000 6       426.981 6        37.977 6
G26  20658639.379 9 108561860.365 9     -1491.562 9        55.871 9  20658642.197 6         0.000 6     -1162.257 6        37.977 6
G20  21936762.782 9 115278433.451 9      2559.067 9        55.318 9  21936763.099 6         0.000 6      1994.080 6        37.977 6
> 2019 07 03 12 01 15.0000000  0  8       0.000000000000
G07  25340672.193 9 133166085.126 9      2179.348 9        54.134 9  25340672.859 6         0.000 6      1698.194 6        37.977 6
G10  23798956.746 9 125064307.308 9      3527.214 9        54.673 9  23798960.463 6         0.000 6      2748.481 6        37.977 6
G21  21174561.563 9 111273051.360 9     -1256.764 9        55.708 9  21174560.850 6         0.000 6      -979.297 6        37.977 6
G29  24308902.827 9 127744090.011 9     -3121.391 9        54.472 9  24308904.411 6         0.000 6     -2432.255 6        37.977 6
G27  21997380.396 9 115596987.240 9      2495.712 9        55.377 9  21997382.327 6         0.000 6      1944.711 6        37.977 6
G16  20495624.943 9 107705215.712 9       547.343 9        55.977 9  20495624.116 6         0.000 6       426.501 6        37.977 6
G26  20658923.269 9 108563352.212 9     -1492.136 9        55.871 9  20658926.087 6         0.000 6     -1162.704 6        37.977 6
G20  21936275.850 9 115275874.610 9      2558.623 9        55.319 9  21936276.167 6         0.000 6      1993.733 6        37.977 6
> 2019 07 03 12 01 16.0000000  0  8       0.000000000000
G07  25340257.521 9 133163906.014 9      2178.888 9        54.134 9  25340258.187 6         0.000 6      1697.836 6        37.977 6
G10  23798285.552 9 125060780.171 9      3527.075 9        54.673 9  23798289.268 6         0.000 6      2748.373 6        37.977 6
G21  21174800.751 9 111274308.301 9     -1257.124 9        55.708 9  21174800.038 6         0.000 6      -979.577 6        37.977 6
G29  24309496.815 9 127747211.429 9     -3121.476 9        54.471 9  24309498.400 6         0.000 6     -2432.322 6        37.977 6
G27  21996905.502 9 115594491.653 9      2495.474 9        55.377 9  21996907.432 6         0.000 6      1944.526 6        37.977 6
G16  20495520.846 9 107704668.679 9       546.726 9        55.977 9  20495520.019 6         0.000 6       426.020 6        37.977 6
G26  20659207.267 9 108564844.634 9     -1492.711 9        55.871 9  20659210.086 6         0.000 6     -1163.152 6        37.977 6
G20  21935789.002 9 115273316.211 9      2558.178 9        55.319 9  21935789.318 6         0.000 6      1993.387 6        37.977 6
> 2019 07 03 12 01 17.0000000  0  8       0.000000000000
G07  25339842.937 9 133161727.363 9      2178.427 9        54.134 9  25339843.603 6         0.000 6      1697.477 6        37.977 6
G10  23797614.385 9 125057253.172 9      3526.937 9        54.674 9  23797618.100 6         0.000 6      2748.265 6        37.977 6
G21  21175040.008 9 111275565.602 9     -1257.483 9        55.708 9  21175039.294 6         0.000 6      -979.857 6        37.977 6
G29  24310090.820 9 127750332.937 9     -3121.561 9        54.471 9  24310092.406 6         0.000 6     -2432.388 6        37.977 6
G27  21996430.651 9 115591996.298 9      2495.237 9        55.378 9  21996432.581 6         0.000 6      1944.341 6        37.977 6
G16  20495416.866 9 107704122.258 9       546.109 9        55.977 9  20495416.039 6         0.000 6       425.540 6        37.977 6
G26  20659491.374 9 108566337.625 9     -1493.285 9        55.871 9  20659494.193 6         0.000 6     -1163.599 6        37.977 6
G20  21935302.238 9 115270758.256 9      2557.733 9        55.319 9  21935302.555 6         0.000 6      1993.040 6        37.977 6
> 2019 07 03 12 01 18.0000000  0  8       0.000000000000
G07  25339428.439 9 133159549.169 9      2177.967 9        54.134 9  25339429.105 6         0.000 6      1697.118 6        37.977 6
G10  23796943.244 9 125053726.315 9      3526.797 9        54.674 9  23796946.959 6         0.000 6      2748.157 6        37.977 6
G21  21175279.333 9 111276823.264 9     -1257.843 9        55.707 9  21175278.620 6         0.000 6      -980.138 6        37.977 6
G29  24310684.842 9 127753454.531 9     -3121.647 9        54.471 9  24310686.428 6         0.000 6     -2432.454 6        37.977 6
G27  21995955.845 9 115589501.182 9      2495.000 9        55.378 9  21995957.775 6         0.000 6      1944.156 6        37.977 6
G16  20495313.003 9 107703576.457 9       545.493 9        55.977 9  20495312.176 6         0.000 6       425.059 6        37.977 6
G26  20659775.592 9 108567831.195 9     -1493.859 9        55.871 9  20659778.410 6         0.000 6     -1164.047 6        37.977 6
G20  21934815.560 9 115268200.749 9      2557.288 9        55.319 9  21934815.876 6         0.000 6      1992.693 6        37.977 6
> 2019 07 03 12 01 19.0000000  0  8       0.000000000000
G07  25339014.031 9 133157371.439 9      2177.506 9        54.134 9  25339014.696 6         0.000 6      1696.759 6        37.977 6
G10  23796272.129 9 125050199.594 9      3526.658 9        54.674 9  23796275.843 6         0.000 6      2748.048 6        37.977 6
G21  21175518.726 9 111278081.285 9     -1258.203 9        55.707 9  21175518.013 6         0.000 6      -980.418 6        37.977 6
G29  24311278.879 9 127756576.210 9     -3121.732 9        54.471 9  24311280.466 6         0.000 6     -2432.521 6        37.977 6
G27  21995481.085 9 115587006.302 9      2494.762 9        55.378 9  21995483.015 6         0.000 6      1943.971 6        37.977 6
G16  20495209.257 9 107703031.270 9       544.876 9        55.977 9  20495208.431 6         0.000 6       424.579 6        37.977 6
G26  20660059.917 9 108569325.335 9     -1494.433 9        55.871 9  20660062.736 6         0.000 6     -1164.494 6        37.977 6
G20  21934328.966 9 115265643.684 9      2556.843 9        55.319 9  21934329.282 6         0.000 6      1992.347 6        37.977 6
> 2019 07 03 12 01 20.0000000  0  8       0.000000000000
G07  25338599.709 9 133155194.167 9      2177.045 9        54.134 9  25338600.374 6         0.000 6      1696.400 6        37.977 6
G10  23795601.042 9 125046673.015 9      3526.519 9        54.674 9  23795604.755 6         0.000 6      2747.940 6        37.977 6
G21  21175758.189 9 111279339.667 9     -1258.563 9        55.707 9  21175757.475 6         0.000 6      -980.699 6        37.977 6
G29  24311872.933 9 127759697.974 9     -3121.817 9        54.471 9  24311874.521 6         0.000 6     -2432.587 6        37.977 6
G27  21995006.370 9 115584511.662 9      2494.525 9        55.378 9  21995008.300 6         0.000 6      1943.786 6        37.977 6
G16  20495105.630 9 107702486.702 9       544.259 9        55.977 9  20495104.803 6         0.000 6       424.098 6        37.977 6
G26  20660344.353 9 108570820.054 9     -1495.007 9        55.871 9  20660347.172 6         0.000 6     -1164.941 6        37.977 6
G20  21933842.457 9 115263087.068 9      2556.398 9        55.320 9  21933842.773 6         0.000 6      1992.000 6        37.977 6
> 2019 07 03 12 01 21.0000000  0  8       0.000000000000
G07  25338185.475 9 133153017.358 9      2176.585 9        54.135 9  25338186.140 6         0.000 6      1696.041 6        37.977 6
G10  23794929.980 9 125043146.572 9      3526.380 9        54.675 9  23794933.693 6         0.000 6      2747.831 6        37.977 6
G21  21175997.719 9 111280598.406 9     -1258.923 9        55.707 9  21175997.006 6         0.000 6      -980.979 6        37.977 6
G29  24312467.003 9 127762819.823 9     -3121.902 9        54.470 9  24312468.591 6         0.000 6     -2432.653 6        37.977 6
G27  21994531.700 9 115582017.257 9      2494.287 9        55.378 9  21994533.630 6         0.000 6      1943.601 6        37.977 6
G16  20495002.119 9 107701942.749 9       543.642 9        55.978 9  20495001.292 6         0.000 6       423.617 6        37.977 6
G26  20660628.897 9 108572315.342 9     -1495.582 9        55.870 9  20660631.716 6         0.000 6     -1165.389 6        37.977 6
G20  21933356.032 9 115260530.892 9      2555.953 9        55.320 9  21933356.348 6         0.000 6      1991.653 6        37.977 6
> 2019 07 03 12 01 22.0000000  0  8       0.000000000000
G07  25337771.329 9 133150841.008 9      2176.124 9        54.135 9  25337771.994 6         0.000 6      1695.682 6        37.977 6
G10  23794258.946 9 125039620.273 9      3526.240 9        54.675 9  23794262.657 6         0.000 6      2747.722 6        37.977 6
G21  21176237.318 9 111281857.508 9     -1259.282 9        55.707 9  21176236.605 6         0.000 6      -981.259 6        37.977 6
G29  24313061.090 9 127765941.757 9     -3121.987 9        54.470 9  24313062.678 6         0.000 6     -2432.720 6        37.977 6
G27  21994057.076 9 115579523.091 9      2494.049 9        55.378 9  21994059.005 6         0.000 6      1943.416 6        37.977 6
G16  20494898.726 9 107701399.415 9       543.025 9        55.978 9  20494897.899 6         0.000 6       423.136 6        37.977 6
G26  20660913.552 9 108573811.209 9     -1496.156 9        55.870 9  20660916.371 6         0.000 6     -1165.836 6        37.977 6
G20  21932869.693 9 115257975.166 9      2555.508 9        55.320 9  21932870.008 6         0.000 6      1991.306 6        37.977 6
> 2019 07 03 12 01 23.0000000  0  8       0.000000000000
G07  25337357.270 9 133148665.121 9      2175.663 9        54.135 9  25337357.935 6         0.000 6      1695.323 6        37.977 6
G10  23793587.937 9 125036094.108 9      3526.101 9        54.675 9  23793591.648 6         0.000 6      2747.614 6        37.977 6
G21  21176476.986 9 111283116.967 9     -1259.642 9        55.707 9  21176476.272 6         0.000 6      -981.539 6        37.977 6
G29  24313655.192 9 127769063.777 9     -3122.072 9        54.470 9  24313656.781 6         0.000 6     -2432.786 6        37.977 6
G27  21993582.496 9 115577029.162 9      2493.812 9        55.379 9  21993584.425 6         0.000 6      1943.231 6        37.977 6
G16  20494795.450 9 107700856.695 9       542.408 9        55.978 9  20494794.623 6         0.000 6       422.656 6        37.977 6
G26  20661198.314 9 108575307.645 9     -1496.730 9        55.870 9  20661201.133 6         0.000 6     -1166.283 6        37.977 6
G20  21932383.437 9 115255419.882 9      2555.062 9        55.320 9  21932383.752 6         0.000 6      1990.959 6        37.977 6
> 2019 07 03 12 01 24.0000000  0  8       0.000000000000
G07  25336943.300 9 133146489.695 9      2175.202 9        54.135 9  25336943.965 6         0.000 6      1694.963 6        37.977 6
G10  23792916.955 9 125032568.086 9      3525.961 9        54.675 9  23792920.666 6         0.000 6      2747.505 6        37.977 6
G21  21176716.721 9 111284376.786 9     -1260.001 9        55.707 9  21176716.008 6         0.000 6      -981.819 6        37.977 6
G29  24314249.310 9 127772185.876 9     -3122.157 9        54.470 9  24314250.899 6         0.000 6     -2432.852 6        37.977 6
G27  21993107.963 9 115574535.475 9      2493.574 9        55.379 9  21993109.892 6         0.000 6      1943.045 6        37.977 6
G16  20494692.292 9 107700314.597 9       541.791 9        55.978 9  20494691.465 6         0.000 6       422.175 6        37.977 6
G26  20661483.187 9 108576804.659 9     -1497.304 9        55.870 9  20661486.006 6         0.000 6     -1166.731 6        37.977 6
G20  21931897.267 9 115252865.043 9      2554.617 9        55.320 9  21931897.582 6         0.000 6      1990.612 6        37.977 6
> 2019 07 03 12 01 25.0000000  0  8       0.000000000000
G07  25336529.417 9 133144314.727 9      2174.741 9        54.135 9  25336530.081 6         0.000 6      1694.604 6        37.977 6
G10  23792246.000 9 125029042.205 9      3525.821 9        54.676 9  23792249.710 6         0.000 6      2747.396 6        37.977 6
G21  21176956.526 9 111285636.966 9     -1260.361 9        55.707 9  21176955.813 6         0.000 6      -982.099 6        37.977 6
G29  24314843.445 9 127775308.065 9     -3122.242 9        54.470 9  24314845.035 6         0.000 6     -2432.918 6        37.977 6
G27  21992633.474 9 115572042.023 9      2493.336 9        55.379 9  21992635.403 6         0.000 6      1942.860 6        37.977 6
G16  20494589.251 9 107699773.114 9       541.174 9        55.978 9  20494588.424 6         0.000 6       421.694 6        37.977 6
G26  20661768.169 9 108578302.248 9     -1497.878 9        55.870 9  20661770.988 6         0.000 6     -1167.178 6        37.977 6
G20  21931411.182 9 115250310.654 9      2554.171 9        55.321 9  21931411.496 6         0.000 6      1990.265 6        37.977 6
> 2019 07 03 12 01 26.0000000  0  8       0.000000000000
G07  25336115.622 9 133142140.223 9      2174.280 9        54.135 9  25336116.286 6         0.000 6      1694.245 6        37.977 6
G10  23791575.071 9 125025516.460 9      3525.681 9        54.676 9  23791578.780 6         0.000 6      2747.287 6        37.977 6
G21  21177196.398 9 111286897.504 9     -1260.720 9        55.707 9  21177195.685 6         0.000 6      -982.380 6        37.977 6
G29  24315437.596 9 127778430.339 9     -3122.327 9        54.469 9  24315439.187 6         0.000 6     -2432.985 6        37.977 6
G27  21992159.031 9 115569548.807 9      2493.098 9        55.379 9  21992160.959 6         0.000 6      1942.675 6        37.977 6
G16  20494486.327 9 107699232.245 9       540.557 9        55.978 9  20494485.500 6         0.000 6       421.213 6        37.977 6
G26  20662053.260 9 108579800.406 9     -1498.452 9        55.870 9  20662056.079 6         0.000 6     -1167.625 6        37.977 6
G20  21930925.181 9 115247756.705 9      2553.726 9        55.321 9  21930925.495 6         0.000 6      1989.917 6        37.977 6
> 2019 07 03 12 01 27.0000000  0  8       0.000000000000
G07  25335701.914 9 133139966.178 9      2173.818 9        54.135 9  25335702.578 6         0.000 6      1693.885 6        37.977 6
G10  23790904.170 9 125021990.859 9      3525.541 9        54.676 9  23790907.878 6         0.000 6      2747.178 6        37.977 6
G21  21177436.339 9 111288158.403 9     -1261.080 9        55.707 9  21177435.626 6         0.000 6      -982.660 6        37.977 6
G29  24316031.763 9 127781552.698 9     -3122.412 9        54.469 9  24316033.354 6         0.000 6     -2433.051 6        37.977 6
G27  21991684.632 9 115567055.830 9      2492.861 9        55.379 9  21991686.561 6         0.000 6      1942.489 6        37.977 6
G16  20494383.521 9 107698691.997 9       539.940 9        55.978 9  20494382.694 6         0.000 6       420.732 6        37.977 6
G26  20662338.460 9 108581299.143 9     -1499.025 9        55.870 9  20662341.279 6         0.000 6     -1168.072 6        37.977 6
G20  21930439.265 9 115245203.207 9      2553.280 9        55.321 9  21930439.579 6         0.000 6      1989.570 6        37.977 6
> 2019 07 03 12 01 28.0000000  0  8       0.000000000000
G07  25335288.295 9 133137792.597 9      2173.357 9        54.136 9  25335288.958 6         0.000 6      1693.526 6        37.977 6
G10  23790233.294 9 125018465.394 9      3525.401 9        54.676 9  23790237.002 6         0.000 6      2747.069 6        37.977 6
G21  21177676.349 9 111289419.659 9     -1261.439 9        55.706 9  21177675.636 6         0.000 6      -982.940 6        37.977 6
G29  24316625.946 9 127784675.143 9     -3122.497 9        54.469 9  24316627.538 6         0.000 6     -2433.117 6        37.977 6
G27  21991210.279 9 115564563.089 9      2492.623 9        55.380 9  21991212.207 6         0.000 6      1942.304 6        37.977 6
G16  20494280.832 9 107698152.362 9       539.323 9        55.978 9  20494280.005 6         0.000 6       420.252 6        37.977 6
G26  20662623.769 9 108582798.449 9     -1499.599 9        55.870 9  20662626.588 6         0.000 6     -1168.519 6        37.977 6
G20  21929953.434 9 115242650.150 9      2552.834 9        55.321 9  21929953.748 6         0.000 6      1989.223 6        37.977 6
> 2019 07 03 12 01 29.0000000  0  8       0.000000000000
G07  25334874.762 9 133135619.474 9      2172.895 9        54.136 9  25334875.426 6         0.000 6      1693.166 6        37.977 6
G10  23789562.446 9 125014940.073 9      3525.261 9        54.677 9  23789566.153 6         0.000 6      2746.959 6        37.977 6
G21  21177916.427 9 111290681.277 9     -1261.798 9        55.706 9  21177915.714 6         0.000 6      -983.219 6        37.977 6
G29  24317220.145 9 127787797.672 9     -3122.582 9        54.469 9  24317221.738 6         0.000 6     -2433.183 6        37.977 6
G27  21990735.971 9 115562070.588 9      2492.385 9        55.380 9  21990737.899 6         0.000 6      1942.119 6        37.977 6
G16  20494178.261 9 107697613.348 9       538.706 9        55.978 9  20494177.434 6         0.000 6       419.771 6        37.977 6
G26  20662909.188 9 108584298.333 9     -1500.173 9        55.870 9  20662912.007 6         0.000 6     -1168.967 6        37.977 6
G20  21929467.688 9 115240097.543 9      2552.388 9        55.321 9  21929468.002 6         0.000 6      1988.875 6        37.977 6
> 2019 07 03 12 01 30.0000000  0  8       0.000000000000
G07  25334461.319 9 133133446.816 9      2172.434 9        54.136 9  25334461.982 6         0.000 6      1692.807 6        37.977 6
G10  23788891.623 9 125011414.888 9      3525.121 9        54.677 9  23788895.330 6         0.000 6      2746.850 6        37.977 6
G21  21178156.572 9 111291943.251 9     -1262.157 9        55.706 9  21178155.860 6         0.000 6      -983.499 6        37.977 6
G29  24317814.361 9 127790920.286 9     -3122.667 9        54.468 9  24317815.955 6         0.000 6     -2433.249 6        37.977 6
G27  21990261.708 9 115559578.323 9      2492.147 9        55.380 9  21990263.636 6         0.000 6      1941.933 6        37.977 6
G16  20494075.807 9 107697074.948 9       538.088 9        55.978 9  20494074.980 6         0.000 6       419.290 6        37.977 6
G26  20663194.715 9 108585798.787 9     -1500.747 9        55.869 9  20663197.535 6         0.000 6     -1169.414 6        37.977 6
G20  21928982.027 9 115237545.379 9      2551.942 9        55.321 9  21928982.340 6         0.000 6      1988.528 6        37.977 6
> 2019 07 03 12 01 31.0000000  0  8       0.000000000000
G07  25334047.962 9 133131274.616 9      2171.972 9        54.136 9  25334048.625 6         0.000 6      1692.447 6        37.977 6
G10  23788220.828 9 125007889.848 9      3524.981 9        54.677 9  23788224.534 6         0.000 6      2746.741 6        37.977 6
G21  21178396.787 9 111293205.587 9     -1262.516 9        55.706 9  21178396.074 6         0.000 6      -983.779 6        37.977 6
G29  24318408.593 9 127794042.984 9     -3122.752 9        54.468 9  24318410.187 6         0.000 6     -2433.316 6        37.977 6
G27  21989787.491 9 115557086.298 9      2491.909 9        55.380 9  21989789.419 6         0.000 6      1941.748 6        37.977 6
G16  20493973.471 9 107696537.168 9       537.471 9        55.978 9  20493972.644 6         0.000 6       418.809 6        37.977 6
G26  20663480.352 9 108587299.819 9     -1501.321 9        55.869 9  20663483.172 6         0.000 6     -1169.861 6        37.977 6
G20  21928496.451 9 115234993.664 9      2551.496 9        55.322 9  21928496.763 6         0.000 6      1988.180 6        37.977 6
> 2019 07 03 12 01 32.0000000  0  8       0.000000000000
G07  25333634.694 9 133129102.883 9      2171.511 9        54.136 9  25333635.357 6         0.000 6      1692.087 6        37.977 6
G10  23787550.059 9 125004364.942 9      3524.840 9        54.677 9  23787553.764 6         0.000 6      2746.631 6        37.977 6
G21  21178637.069 9 111294468.278 9     -1262.875 9        55.706 9  21178636.357 6         0.000 6      -984.059 6        37.977 6
G29  24319002.840 9 127797165.763 9     -3122.836 9        54.468 9  24319004.435 6         0.000 6     -2433.382 6        37.977 6
G27  21989313.320 9 115554594.512 9      2491.671 9        55.380 9  21989315.247 6         0.000 6      1941.562 6        37.977 6
G16  20493871.252 9 107696000.004 9       536.854 9        55.978 9  20493870.425 6         0.000 6       418.328 6        37.977 6
G26  20663766.097 9 108588801.420 9     -1501.894 9        55.869 9  20663768.917 6         0.000 6     -1170.308 6        37.977 6
G20  21928010.958 9 115232442.388 9      2551.050 9        55.322 9  21928011.271 6         0.000 6      1987.832 6        37.977 6
> 2019 07 03 12 01 33.0000000  0  8       0.000000000000
G07  25333221.514 9 133126931.607 9      2171.049 9        54.136 9  25333222.176 6         0.000 6      1691.727 6        37.977 6
G10  23786879.318 9 125000840.182 9      3524.699 9        54.678 9  23786883.022 6         0.000 6      2746.522 6        37.977 6
G21  21178877.421 9 111295731.332 9     -1263.234 9        55.706 9  21178876.708 6         0.000 6      -984.339 6        37.977 6
G29  24319597.104 9 127800288.631 9     -3122.921 9        54.468 9  24319598.699 6         0.000 6     -2433.448 6        37.977 6
G27  21988839.193 9 115552102.963 9      2491.433 9        55.381 9  21988841.121 6         0.000 6      1941.377 6        37.977 6
G16  20493769.151 9 107695463.459 9       536.236 9        55.978 9  20493768.324 6         0.000 6       417.847 6        37.977 6
G26  20664051.953 9 108590303.599 9     -1502.468 9        55.869 9  20664054.773 6         0.000 6     -1170.755 6        37.977 6
G20  21927525.552 9 115229891.566 9      2550.604 9        55.322 9  21927525.864 6         0.000 6      1987.484 6        37.977 6
> 2019 07 03 12 01 34.0000000  0  8       0.000000000000
G07  25332808.421 9 133124760.795 9      2170.587 9        54.136 9  25332809.084 6         0.000 6      1691.368 6        37.977 6
G10  23786208.602 9 124997315.559 9      3524.559 9        54.678 9  23786212.306 6         0.000 6      2746.412 6        37.977 6
G21  21179117.840 9 111296994.743 9     -1263.593 9        55.706 9  21179117.127 6         0.000 6      -984.618 6        37.977 6
G29  24320191.384 9 127803411.585 9     -3123.006 9        54.468 9  24320192.980 6         0.000 6     -2433.514 6        37.977 6
G27  21988365.112 9 115549611.650 9      2491.195 9        55.381 9  21988367.039 6         0.000 6      1941.191 6        37.977 6
G16  20493667.167 9 107694927.528 9       535.619 9        55.978 9  20493666.340 6         0.000 6       417.366 6        37.977 6
G26  20664337.917 9 108591806.348 9     -1503.042 9        55.869 9  20664340.737 6         0.000 6     -1171.202 6        37.977 6
G20  21927040.230 9 115227341.186 9      2550.157 9        55.322 9  21927040.542 6         0.000 6      1987.137 6        37.977 6
> 2019 07 03 12 01 35.0000000  0  8       0.000000000000
G07  25332395.416 9 133122590.443 9      2170.125 9        54.137 9  25332396.078 6         0.000 6      1691.008 6        37.977 6
G10  23785537.914 9 124993791.082 9      3524.418 9        54.678 9  23785541.618 6         0.000 6      2746.302 6        37.977 6
G21  21179358.328 9 111298258.515 9     -1263.952 9        55.706 9  21179357.615 6         0.000 6      -984.898 6        37.977 6
G29  24320785.680 9 127806534.623 9     -3123.091 9        54.467 9  24320787.277 6         0.000 6     -2433.580 6        37.977 6
G27  21987891.076 9 115547120.577 9      2490.957 9        55.381 9  21987893.003 6         0.000 6      1941.006 6        37.977 6
G16  20493565.300 9 107694392.217 9       535.002 9        55.978 9  20493564.474 6         0.000 6       416.884 6        37.977 6
G26  20664623.991 9 108593309.674 9     -1503.615 9        55.869 9  20664626.811 6         0.000 6     -1171.649 6        37.977 6
G20  21926554.994 9 115224791.256 9      2549.711 9        55.322 9  21926555.305 6         0.000 6      1986.789 6        37.977 6
> 2019 07 03 12 01 36.0000000  0  8       0.000000000000
G07  25331982.499 9 133120420.552 9      2169.663 9        54.137 9  25331983.161 6         0.000 6      1690.648 6        37.977 6
G10  23784867.253 9 124990266.745 9      3524.277 9        54.678 9  23784870.956 6         0.000 6      2746.193 6        37.977 6
G21  21179598.884 9 111299522.646 9     -1264.311 9        55.706 9  21179598.172 6         0.000 6      -985.178 6        37.977 6
G29  24321379.993 9 127809657.746 9     -3123.176 9        54.467 9  24321381.590 6         0.000 6     -2433.646 6        37.977 6
G27  21987417.085 9 115544629.742 9      2490.718 9        55.381 9  21987419.012 6         0.000 6      1940.820 6        37.977 6
G16  20493463.552 9 107693857.524 9       534.384 9        55.978 9  20493462.725 6         0.000 6       416.403 6        37.977 6
G26  20664910.174 9 108594813.575 9     -1504.189 9        55.869 9  20664912.994 6         0.000 6     -1172.096 6        37.977 6
G20  21926069.842 9 115222241.774 9      2549.264 9        55.323 9  21926070.154 6         0.000 6      1986.441 6        37.977 6
> 2019 07 03 12 01 37.0000000  0  8       0.000000000000
G07  25331569.670 9 133118251.126 9      2169.201 9        54.137 9  25331570.332 6         0.000 6      1690.288 6        37.977 6
G10  23784196.618 9 124986742.544 9      3524.136 9        54.679 9  23784200.320 6         0.000 6      2746.083 6        37.977 6
G21  21179839.508 9 111300787.134 9     -1264.670 9        55.706 9  21179838.796 6         0.000 6      -985.457 6        37.977 6
G29  24321974.322 9 127812780.953 9     -3123.260 9        54.467 9  24321975.920 6         0.000 6     -2433.712 6        37.977 6
G27  21986943.139 9 115542139.144 9      2490.480 9        55.381 9  21986945.066 6         0.000 6      1940.635 6        37.977 6
G16  20493361.920 9 107693323.446 9       533.767 9        55.978 9  20493361.093 6         0.000 6       415.922 6        37.977 6
G26  20665196.465 9 108596318.044 9     -1504.763 9        55.869 9  20665199.286 6         0.000 6     -1172.543 6        37.977 6
G20  21925584.775 9 115219692.733 9      2548.817 9        55.323 9  21925585.086 6         0.000 6      1986.093 6        37.977 6
> 2019 07 03 12 01 38.0000000  0  8       0.000000000000
G07  25331156.929 9 133116082.159 9      2168.739 9        54.137 9  25331157.590 6         0.000 6      1689.928 6        37.977 6
G10  23783526.011 9 124983218.489 9      3523.995 9        54.679 9  23783529.712 6         0.000 6      2745.973 6        37.977 6
G21  21180080.201 9 111302051.982 9     -1265.029 9        55.705 9  21180079.489 6         0.000 6      -985.737 6        37.977 6
G29  24322568.666 9 127815904.246 9     -3123.345 9        54.467 9  24322570.265 6         0.000 6     -2433.778 6        37.977 6
G27  21986469.239 9 115539648.785 9      2490.242 9        55.381 9  21986471.166 6         0.000 6      1940.449 6        37.977 6
G16  20493260.406 9 107692789.988 9       533.149 9        55.978 9  20493259.579 6         0.000 6       415.441 6        37.977 6
G26  20665482.867 9 108597823.091 9     -1505.336 9        55.868 9  20665485.687 6         0.000 6     -1172.990 6        37.977 6
G20  21925099.794 9 115217144.144 9      2548.371 9        55.323 9  21925100.105 6         0.000 6      1985.744 6        37.977 6
> 2019 07 03 12 01 39.0000000  0  8       0.000000000000
G07  25330744.276 9 133113913.657 9      2168.277 9        54.137 9  25330744.937 6         0.000 6      1689.568 6        37.977 6
G10  23782855.429 9 124979694.571 9      3523.854 9        54.679 9  23782859.130 6         0.000 6      2745.863 6        37.977 6
G21  21180320.962 9 111303317.187 9     -1265.387 9        55.705 9  21180320.249 6         0.000 6      -986.016 6        37.977 6
G29  24323163.027 9 127819027.623 9     -3123.430 9        54.467 9  24323164.626 6         0.000 6     -2433.844 6        37.977 6
G27  21985995.384 9 115537158.663 9      2490.004 9        55.382 9  21985997.311 6         0.000 6      1940.263 6        37.977 6
G16  20493159.009 9 107692257.144 9       532.532 9        55.978 9  20493158.183 6         0.000 6       414.960 6        37.977 6
G26  20665769.376 9 108599328.708 9     -1505.910 9        55.868 9  20665772.197 6         0.000 6     -1173.436 6        37.977 6
G20  21924614.897 9 115214595.997 9      2547.924 9        55.323 9  21924615.207 6         0.000 6      1985.396 6        37.977 6
> 2019 07 03 12 01 40.0000000  0  8       0.000000000000
G07  25330331.711 9 133111745.617 9      2167.815 9        54.137 9  25330332.372 6         0.000 6      1689.207 6        37.977 6
G10  23782184.875 9 124976170.797 9      3523.712 9        54.679 9  23782188.576 6         0.000 6      2745.752 6        37.977 6
G21  21180561.791 9 111304582.751 9     -1265.746 9        55.705 9  21180561.078 6         0.000 6      -986.296 6        37.977 6
G29  24323757.403 9 127822151.079 9     -3123.514 9        54.466 9  24323759.003 6         0.000 6     -2433.910 6        37.977 6
G27  21985521.576 9 115534668.785 9      2489.765 9        55.382 9  21985523.502 6         0.000 6      1940.078 6        37.977 6
G16  20493057.731 9 107691724.923 9       531.914 9        55.978 9  20493056.904 6         0.000 6       414.478 6        37.977 6
G26  20666055.996 9 108600834.902 9     -1506.483 9        55.868 9  20666058.817 6         0.000 6     -1173.883 6        37.977 6
G20  21924130.085 9 115212048.298 9      2547.477 9        55.323 9  21924130.395 6         0.000 6      1985.048 6        37.977 6
> 2019 07 03 12 01 41.0000000  0  8       0.000000000000
G07  25329919.234 9 133109578.040 9      2167.353 9        54.137 9  25329919.895 6         0.000 6      1688.847 6        37.977 6
G10  23781514.348 9 124972647.161 9      3523.571 9        54.680 9  23781518.047 6         0.000 6      2745.642 6        37.977 6
G21  21180802.688 9 111305848.673 9     -1266.105 9        55.705 9  21180801.975 6         0.000 6      -986.575 6        37.977 6
G29  24324351.796 9 127825274.625 9     -3123.599 9        54.466 9  24324353.397 6         0.000 6     -2433.976 6        37.977 6
G27  21985047.812 9 115532179.139 9      2489.527 9        55.382 9  21985049.738 6         0.000 6      1939.892 6        37.977 6
G16  20492956.569 9 107691193.315 9       531.296 9        55.978 9  20492955.743 6         0.000 6       413.997 6        37.977 6
G26  20666342.724 9 108602341.665 9     -1507.056 9        55.868 9  20666345.545 6         0.000 6     -1174.330 6        37.977 6
G20  21923645.358 9 115209501.045 9      2547.030 9        55.324 9  21923645.668 6         0.000 6      1984.700 6        37.977 6
> 2019 07 03 12 01 42.0000000  0  8       0.000000000000
G07  25329506.845 9 133107410.922 9      2166.890 9        54.138 9  25329507.505 6         0.000 6      1688.487 6        37.977 6
G10  23780843.848 9 124969123.672 9      3523.429 9        54.680 9  23780847.547 6         0.000 6      2745.532 6        37.977 6
G21  21181043.654 9 111307114.956 9     -1266.463 9        55.705 9  21181042.941 6         0.000 6      -986.855 6        37.977 6
G29  24324946.205 9 127828398.256 9     -3123.684 9        54.466 9  24324947.806 6         0.000 6     -2434.042 6        37.977 6
G27  21984574.093 9 115529689.734 9      2489.289 9        55.382 9  21984576.019 6         0.000 6      1939.706 6        37.977 6
G16  20492855.526 9 107690662.327 9       530.679 9        55.978 9  20492854.699 6         0.000 6       413.516 6        37.977 6
G26  20666629.561 9 108603849.006 9     -1507.630 9        55.868 9  20666632.382 6         0.000 6     -1174.777 6        37.977 6
G20  21923160.717 9 115206954.244 9      2546.582 9        55.324 9  21923161.027 6         0.000 6      1984.351 6        37.977 6
> 2019 07 03 12 01 43.0000000  0  8       0.000000000000
G07  25329094.544 9 133105244.269 9      2166.428 9        54.138 9  25329095.204 6         0.000 6      1688.126 6        37.977 6
G10  23780173.374 9 124965600.319 9      3523.288 9        54.680 9  23780177.073 6         0.000 6      2745.422 6        37.977 6
G21  21181284.687 9 111308381.596 9     -1266.822 9        55.705 9  21181283.975 6         0.000 6      -987.134 6        37.977 6
G29  24325540.631 9 127831521.972 9     -3123.768 9        54.466 9  24325542.232 6         0.000 6     -2434.108 6        37.977 6
G27  21984100.419 9 115527200.565 9      2489.050 9        55.382 9  21984102.345 6         0.000 6      1939.520 6        37.977 6
G16  20492754.599 9 107690131.954 9       530.061 9        55.978 9  20492753.772 6         0.000 6       413.034 6        37.977 6
G26  20666916.507 9 108605356.916 9     -1508.203 9        55.868 9  20666919.329 6         0.000 6     -1175.224 6        37.977 6
G20  21922676.160 9 115204407.885 9      2546.135 9        55.324 9  21922676.470 6         0.000 6      1984.003 6        37.977 6
> 2019 07 03 12 01 44.0000000  0  8       0.000000000000
G07  25328682.330 9 133103078.077 9      2165.965 9        54.138 9  25328682.990 6         0.000 6      1687.766 6        37.977 6
G10  23779502.929 9 124962077.113 9      3523.146 9        54.680 9  23779506.626 6         0.000 6      2745.311 6        37.977 6
G21  21181525.789 9 111309648.596 9     -1267.180 9        55.705 9  21181525.077 6         0.000 6      -987.413 6        37.977 6
G29  24326135.072 9 127834645.772 9     -3123.853 9        54.465 9  24326136.674 6         0.000 6     -2434.174 6        37.977 6
G27  21983626.792 9 115524711.637 9      2488.812 9        55.383 9  21983628.717 6         0.000 6      1939.335 6        37.977 6
G16  20492653.791 9 107689602.202 9       529.443 9        55.979 9  20492652.964 6         0.000 6       412.553 6        37.977 6
G26  20667203.564 9 108606865.404 9     -1508.776 9        55.868 9  20667206.385 6         0.000 6     -1175.670 6        37.977 6
G20  21922191.689 9 115201861.978 9      2545.688 9        55.324 9  21922191.998 6         0.000 6      1983.654 6        37.977 6
> 2019 07 03 12 01 45.0000000  0  8       0.000000000000
G07  25328270.205 9 133100912.346 9      2165.502 9        54.138 9  25328270.865 6         0.000 6      1687.405 6        37.977 6
G10  23778832.510 9 124958554.049 9      3523.004 9        54.681 9  23778836.207 6         0.000 6      2745.201 6        37.977 6
G21  21181766.960 9 111310915.954 9     -1267.538 9        55.705 9  21181766.248 6         0.000 6      -987.692 6        37.977 6
G29  24326729.529 9 127837769.656 9     -3123.937 9        54.465 9  24326731.132 6         0.000 6     -2434.239 6        37.977 6
G27  21983153.209 9 115522222.947 9      2488.573 9        55.383 9  21983155.134 6         0.000 6      1939.149 6        37.977 6
G16  20492553.100 9 107689073.068 9       528.825 9        55.979 9  20492552.273 6         0.000 6       412.072 6        37.977 6
G26  20667490.729 9 108608374.465 9     -1509.350 9        55.868 9  20667493.550 6         0.000 6     -1176.117 6        37.977 6
G20  21921707.304 9 115199316.518 9      2545.240 9        55.324 9  21921707.612 6         0.000 6      1983.305 6        37.977 6
> 2019 07 03 12 01 46.0000000  0  8       0.000000000000
G07  25327858.168 9 133098747.082 9      2165.040 9        54.138 9  25327858.828 6         0.000 6      1687.045 6        37.977 6
G10  23778162.117 9 124955031.122 9      3522.862 9        54.681 9  23778165.813 6         0.000 6      2745.090 6        37.977 6
G21  21182008.198 9 111312183.668 9     -1267.897 9        55.705 9  21182007.486 6         0.000 6      -987.972 6        37.977 6
G29  24327324.003 9 127840893.625 9     -3124.022 9        54.465 9  24327325.607 6         0.000 6     -2434.305 6        37.977 6
G27  21982679.672 9 115519734.493 9      2488.335 9        55.383 9  21982681.597 6         0.000 6      1938.963 6        37.977 6
G16  20492452.526 9 107688544.548 9       528.207 9        55.979 9  20492451.699 6         0.000 6       411.590 6        37.977 6
G26  20667778.002 9 108609884.095 9     -1509.923 9        55.868 9  20667780.823 6         0.000 6     -1176.564 6        37.977 6
G20  21921223.002 9 115196771.502 9      2544.793 9        55.325 9  21921223.311 6         0.000 6      1982.957 6        37.977 6
> 2019 07 03 12 01 47.0000000  0  8       0.000000000000
G07  25327446.219 9 133096582.280 9      2164.577 9        54.138 9  25327446.879 6         0.000 6      1686.684 6        37.977 6
G10  23777491.752 9 124951508.339 9      3522.720 9        54.681 9  23777495.447 6         0.000 6      2744.979 6        37.977 6
G21  21182249.504 9 111313451.741 9     -1268.255 9        55.705 9  21182248.792 6         0.000 6      -988.251 6        37.977 6
G29  24327918.491 9 127844017.674 9     -3124.106 9        54.465 9  24327920.096 6         0.000 6     -2434.371 6        37.977 6
G27  21982206.181 9 115517246.284 9      2488.096 9        55.383 9  21982208.106 6         0.000 6      1938.777 6        37.977 6
G16  20492352.070 9 107688016.651 9       527.590 9        55.979 9  20492351.244 6         0.000 6       411.109 6        37.977 6
G26  20668065.385 9 108611394.302 9     -1510.496 9        55.867 9  20668068.207 6         0.000 6     -1177.010 6        37.977 6
G20  21920738.786 9 115194226.934 9      2544.345 9        55.325 9  21920739.095 6         0.000 6      1982.608 6        37.977 6
> 2019 07 03 12 01 48.0000000  0  8       0.000000000000
G07  25327034.358 9 133094417.940 9      2164.114 9        54.138 9  25327035.018 6         0.000 6      1686.324 6        37.977 6
G10  23776821.413 9 124947985.696 9      3522.578 9        54.681 9  23776825.108 6         0.000 6      2744.868 6        37.977 6
G21  21182490.879 9 111314720.172 9     -1268.613 9        55.704 9  21182490.167 6         0.000 6      -988.530 6        37.977 6
G29  24328512.997 9 127847141.812 9     -3124.191 9        54.465 9  24328514.602 6         0.000 6     -2434.437 6        37.977 6
G27  21981732.734 9 115514758.308 9      2487.858 9        55.383 9  21981734.659 6         0.000 6      1938.591 6        37.977 6
G16  20492251.732 9 107687489.367 9       526.972 9        55.979 9  20492250.905 6         0.000 6       410.627 6        37.977 6
G26  20668352.877 9 108612905.078 9     -1511.069 9        55.867 9  20668355.698 6         0.000 6     -1177.457 6        37.977 6
G20  21920254.655 9 115191682.813 9      2543.898 9        55.325 9  21920254.963 6         0.000 6      1982.259 6        37.977 6
> 2019 07 03 12 01 49.0000000  0  8       0.000000000000
G07  25326622.585 9 133092254.061 9      2163.651 9        54.139 9  25326623.244 6         0.000 6      1685.963 6        37.977 6
G10  23776151.102 9 124944463.200 9      3522.436 9        54.682 9  23776154.797 6         0.000 6      2744.758 6        37.977 6
G21  21182732.322 9 111315988.963 9     -1268.971 9        55.704 9  21182731.610 6         0.000 6      -988.809 6        37.977 6
G29  24329107.519 9 127850266.035 9     -3124.275 9        54.464 9  24329109.125 6         0.000 6     -2434.503 6        37.977 6
G27  21981259.333 9 115512270.572 9      2487.619 9        55.384 9  21981261.258 6         0.000 6      1938.405 6        37.977 6
G16  20492151.511 9 107686962.705 9       526.354 9        55.979 9  20492150.684 6         0.000 6       410.146 6        37.977 6
G26  20668640.478 9 108614416.432 9     -1511.642 9        55.867 9  20668643.300 6         0.000 6     -1177.904 6        37.977 6
G20  21919770.610 9 115189139.144 9      2543.450 9        55.325 9  21919770.918 6         0.000 6      1981.910 6        37.977 6
> 2019 07 03 12 01 50.0000000  0  8       0.000000000000
G07  25326210.901 9 133090090.648 9      2163.188 9        54.139 9  25326211.560 6         0.000 6      1685.602 6        37.977 6
G10  23775480.818 9 124940940.842 9      3522.293 9        54.682 9  23775484.512 6         0.000 6      2744.647 6        37.977 6
G21  21182973.833 9 111317258.110 9     -1269.329 9        55.704 9  21182973.121 6         0.000 6      -989.088 6        37.977 6
G29  24329702.057 9 127853390.342 9     -3124.360 9        54.464 9  24329703.663 6         0.000 6     -2434.568 6        37.977 6
G27  21980785.977 9 115509783.073 9      2487.380 9        55.384 9  21980787.902 6         0.000 6      1938.219 6        37.977 6
G16  20492051.407 9 107686436.657 9       525.736 9        55.979 9  20492050.581 6         0.000 6       409.664 6        37.977 6
G26  20668928.188 9 108615928.355 9     -1512.215 9        55.867 9  20668931.010 6         0.000 6     -1178.350 6        37.977 6
G20  21919286.650 9 115186595.918 9      2543.002 9        55.325 9  21919286.957 6         0.000 6      1981.561 6        37.977 6
> 2019 07 03 12 01 51.0000000  0  8       0.000000000000
G07  25325799.304 9 133087927.695 9      2162.725 9        54.139 9  25325799.963 6         0.000 6      1685.241 6        37.977 6
G10  23774810.561 9 124937418.631 9      3522.151 9        54.682 9  23774814.254 6         0.000 6      2744.536 6        37.977 6
G21  21183215.412 9 111318527.618 9     -1269.687 9        55.704 9  21183214.700 6         0.000 6      -989.367 6        37.977 6
G29  24330296.611 9 127856514.733 9     -3124.444 9        54.464 9  24330298.217 6         0.000 6     -2434.634 6        37.977 6
G27  21980312.667 9 115507295.815 9      2487.142 9        55.384 9  21980314.592 6         0.000 6      1938.033 6        37.977 6
G16  20491951.422 9 107685911.230 9       525.118 9        55.979 9  20491950.595 6         0.000 6       409.183 6        37.977 6
G26  20669216.007 9 108617440.855 9     -1512.788 9        55.867 9  20669218.829 6         0.000 6     -1178.797 6        37.977 6
G20  21918802.775 9 115184053.145 9      2542.554 9        55.325 9  21918803.082 6         0.000 6      1981.212 6        37.977 6
> 2019 07 03 12 01 52.0000000  0  8       0.000000000000
G07  25325387.795 9 133085765.208 9      2162.262 9        54.139 9  25325388.454 6         0.000 6      1684.880 6        37.977 6
G10  23774140.331 9 124933896.557 9      3522.008 9        54.682 9  23774144.024 6         0.000 6      2744.425 6        37.977 6
G21  21183457.059 9 111319797.481 9     -1270.045 9        55.704 9  21183456.347 6         0.000 6      -989.646 6        37.977 6
G29  24330891.181 9 127859639.209 9     -3124.528 9        54.464 9  24330892.788 6         0.000 6     -2434.700 6        37.977 6
G27  21979839.402 9 115504808.794 9      2486.903 9        55.384 9  21979841.327 6         0.000 6      1937.847 6        37.977 6
G16  20491851.554 9 107685386.418 9       524.500 9        55.979 9  20491850.727 6         0.000 6       408.701 6        37.977 6
G26  20669503.935 9 108618953.923 9     -1513.362 9        55.867 9  20669506.757 6         0.000 6     -1179.243 6        37.977 6
G20  21918318.985 9 115181510.816 9      2542.106 9        55.326 9  21918319.292 6         0.000 6      1980.863 6        37.977 6
> 2019 07 03 12 01 53.0000000  0  8       0.000000000000
G07  25324976.375 9 133083603.182 9      2161.798 9        54.139 9  25324977.033 6         0.000 6      1684.519 6        37.977 6
G10  23773470.129 9 124930374.631 9      3521.865 9        54.682 9  23773473.821 6         0.000 6      2744.313 6        37.977 6
G21  21183698.775 9 111321067.704 9     -1270.403 9        55.704 9  21183698.063 6         0.000 6      -989.925 6        37.977 6
G29  24331485.767 9 127862763.769 9     -3124.613 9        54.464 9  24331487.375 6         0.000 6     -2434.766 6        37.977 6
G27  21979366.183 9 115502322.013 9      2486.664 9        55.384 9  21979368.107 6         0.000 6      1937.661 6        37.977 6
G16  20491751.804 9 107684862.228 9       523.881 9        55.979 9  20491750.977 6         0.000 6       408.219 6        37.977 6
G26  20669791.973 9 108620467.569 9     -1513.934 9        55.867 9  20669794.795 6         0.000 6     -1179.690 6        37.977 6
G20  21917835.281 9 115178968.939 9      2541.657 9        55.326 9  21917835.588 6         0.000 6      1980.513 6        37.977 6
> 2019 07 03 12 01 54.0000000  0  8       0.000000000000
G07  25324565.043 9 133081441.621 9      2161.335 9        54.139 9  25324565.701 6         0.000 6      1684.158 6        37.977 6
G10  23772799.953 9 124926852.843 9      3521.723 9        54.683 9  23772803.644 6         0.000 6      2744.202 6        37.977 6
G21  21183940.558 9 111322338.283 9     -1270.761 9        55.704 9  21183939.846 6         0.000 6      -990.203 6        37.977 6
G29  24332080.369 9 127865888.414 9     -3124.697 9        54.463 9  24332081.977 6         0.000 6     -2434.831 6        37.977 6
G27  21978893.009 9 115499835.469 9      2486.425 9        55.384 9  21978894.933 6         0.000 6      1937.475 6        37.977 6
G16  20491652.170 9 107684338.652 9       523.263 9        55.979 9  20491651.344 6         0.000 6       407.738 6        37.977 6
G26  20670080.118 9 108621981.784 9     -1514.507 9        55.867 9  20670082.941 6         0.000 6     -1180.136 6        37.977 6
G20  21917351.662 9 115176427.505 9      2541.209 9        55.326 9  21917351.968 6         0.000 6      1980.164 6        37.977 6
> 2019 07 03 12 01 55.0000000  0  8       0.000000000000
G07  25324153.799 9 133079280.524 9      2160.872 9        54.139 9  25324154.457 6         0.000 6      1683.797 6        37.977 6
G10  23772129.805 9 124923331.200 9      3521.580 9        54.683 9  23772133.495 6         0.000 6      2744.091 6        37.977 6
G21  21184182.409 9 111323609.220 9     -1271.119 9        55.704 9  21184181.698 6         0.000 6      -990.482 6        37.977 6
G29  24332674.986 9 127869013.137 9     -3124.781 9        54.463 9  24332676.595 6         0.000 6     -2434.897 6        37.977 6
G27  21978419.882 9 115497349.170 9      2486.186 9        55.385 9  21978421.805 6         0.000 6      1937.289 6        37.977 6
G16  20491552.656 9 107683815.699 9       522.645 9        55.979 9  20491551.829 6         0.000 6       407.256 6        37.977 6
G26  20670368.374 9 108623496.576 9     -1515.080 9        55.866 9  20670371.197 6         0.000 6     -1180.583 6        37.977 6
G20  21916868.128 9 115173886.522 9      2540.761 9        55.326 9  21916868.434 6         0.000 6      1979.815 6        37.977 6
> 2019 07 03 12 01 56.0000000  0  8       0.000000000000
G07  25323742.643 9 133077119.887 9      2160.408 9        54.139 9  25323743.301 6         0.000 6      1683.436 6        37.977 6
G10  23771459.684 9 124919809.703 9      3521.437 9        54.683 9  23771463.374 6         0.000 6      2743.979 6        37.977 6
G21  21184424.329 9 111324880.516 9     -1271.476 9        55.704 9  21184423.617 6         0.000 6      -990.761 6        37.977 6
G29  24333269.620 9 127872137.950 9     -3124.866 9        54.463 9  24333271.230 6         0.000 6     -2434.963 6        37.977 6
G27  21977946.799 9 115494863.105 9      2485.947 9        55.385 9  21977948.722 6         0.000 6      1937.103 6        37.977 6
G16  20491453.259 9 107683293.363 9       522.027 9        55.979 9  20491452.432 6         0.000 6       406.774 6        37.977 6
G26  20670656.739 9 108625011.941 9     -1515.653 9        55.866 9  20670659.561 6         0.000 6     -1181.029 6        37.977 6
G20  21916384.680 9 115171345.990 9      2540.312 9        55.326 9  21916384.986 6         0.000 6      1979.465 6        37.977 6
> 2019 07 03 12 01 57.0000000  0  8       0.000000000000
G07  25323331.576 9 133074959.717 9      2159.945 9        54.140 9  25323332.233 6         0.000 6      1683.075 6        37.977 6
G10  23770789.590 9 124916288.344 9      3521.293 9        54.683 9  23770793.279 6         0.000 6      2743.868 6        37.977 6
G21  21184666.317 9 111326152.168 9     -1271.834 9        55.704 9  21184665.605 6         0.000 6      -991.040 6        37.977 6
G29  24333864.270 9 127875262.848 9     -3124.950 9        54.463 9  24333865.881 6         0.000 6     -2435.028 6        37.977 6
G27  21977473.761 9 115492377.278 9      2485.709 9        55.385 9  21977475.684 6         0.000 6      1936.916 6        37.977 6
G16  20491353.978 9 107682771.642 9       521.409 9        55.979 9  20491353.152 6         0.000 6       406.292 6        37.977 6
G26  20670945.212 9 108626527.874 9     -1516.226 9        55.866 9  20670948.034 6         0.000 6     -1181.475 6        37.977 6
G20  21915901.316 9 115168805.902 9      2539.864 9        55.327 9  21915901.622 6         0.000 6      1979.116 6        37.977 6
> 2019 07 03 12 01 58.0000000  0  8       0.000000000000
G07  25322920.596 9 133072800.008 9      2159.481 9        54.140 9  25322921.253 6         0.000 6      1682.713 6        37.977 6
G10  23770119.523 9 124912767.133 9      3521.150 9        54.684 9  23770123.212 6         0.000 6      2743.756 6        37.977 6
G21  21184908.373 9 111327424.181 9     -1272.192 9        55.703 9  21184907.661 6         0.000 6      -991.318 6        37.977 6
G29  24334458.936 9 127878387.830 9     -3125.034 9        54.463 9  24334460.548 6         0.000 6     -2435.094 6        37.977 6
G27  21977000.769 9 115489891.692 9      2485.469 9        55.385 9  21977002.692 6         0.000 6      1936.730 6        37.977 6
G16  20491254.816 9 107682250.543 9       520.790 9        55.979 9  20491253.990 6         0.000 6       405.811 6        37.977 6
G26  20671233.794 9 108628044.384 9     -1516.799 9        55.866 9  20671236.617 6         0.000 6     -1181.922 6        37.977 6
G20  21915418.039 9 115166266.267 9      2539.415 9        55.327 9  21915418.344 6         0.000 6      1978.766 6        37.977 6
> 2019 07 03 12 01 59.0000000  0  8       0.000000000000
G07  25322509.705 9 133070640.765 9      2159.017 9        54.140 9  25322510.362 6         0.000 6      1682.352 6        37.977 6
G10  23769449.483 9 124909246.060 9      3521.007 9        54.684 9  23769453.171 6         0.000 6      2743.644 6        37.977 6
G21  21185150.496 9 111328696.548 9     -1272.549 9        55.703 9  21185149.785 6         0.000 6      -991.597 6        37.977 6
G29  24335053.618 9 127881512.895 9     -3125.118 9        54.462 9  24335055.230 6         0.000 6     -2435.160 6        37.977 6
G27  21976527.822 9 115487406.343 9      2485.230 9        55.385 9  21976529.746 6         0.000 6      1936.544 6        37.977 6
G16  20491155.772 9 107681730.059 9       520.172 9        55.979 9  20491154.945 6         0.000 6       405.329 6        37.977 6
G26  20671522.485 9 108629561.463 9     -1517.372 9        55.866 9  20671525.308 6         0.000 6     -1182.368 6        37.977 6
G20  21914934.846 9 115163727.076 9      2538.966 9        55.327 9  21914935.151 6         0.000 6      1978.416 6        37.977 6
> 2019 07 03 12 02  0.0000000  0  8       0.000000000000
G07  25322098.902 9 133068481.984 9      2158.554 9        54.140 9  25322099.559 6         0.000 6      1681.991 6        37.977 6
G10  23768779.471 9 124905725.134 9      3520.863 9        54.684 9  23768783.159 6         0.000 6      2743.533 6        37.977 6
G21  21185392.688 9 111329969.274 9     -1272.907 9        55.703 9  21185391.977 6         0.000 6      -991.876 6        37.977 6
G29  24335648.316 9 127884638.044 9     -3125.203 9        54.462 9  24335649.929 6         0.000 6     -2435.225 6        37.977 6
G27  21976054.922 9 115484921.235 9      2484.991 9        55.386 9  21976056.845 6         0.000 6      1936.358 6        37.977 6
G16  20491056.845 9 107681210.196 9       519.554 9        55.979 9  20491056.018 6         0.000 6       404.847 6        37.977 6
G26  20671811.286 9 108631079.118 9     -1517.944 9        55.866 9  20671814.109 6         0.000 6     -1182.814 6        37.977 6
G20  21914451.739 9 115161188.337 9      2538.517 9        55.327 9  21914452.044 6         0.000 6      1978.067 6        37.977 6
