     3.00           Observation Data    M (Mixed)           RINEX VERSION / TYPE
SimGEN V6.06.00     Spirent             03-Jul-19 12:00     PGM / RUN BY / DATE 
                                                            MARKER NAME         
1                                                           MARKER NUMBER       
GROUND_CRAFT                                                MARKER TYPE         
jin4hi              Spirent                                 OBSERVER / AGENCY   
rec_num             rec_type            rec_vers            REC # / TYPE / VERS 
1                   ant_type                                ANT # / TYPE        
  1000.000                                                  INTERVAL            
  2019     7     3    12     0    1.0000000     GPS         TIME OF FIRST OBS   
  4162649.8030   664418.9810  4770549.9870                  APPROX POSITION XYZ 
        0.0000        0.0000        0.0000                  ANTENNA: DELTA H/E/N
G    8 C1C L1C D1C S1C C2C L2C D2C S2C                      SYS / # / OBS TYPES 
        0.0000        0.0000        0.0000                  ANTENNA: DELTA X/Y/Z
DBHZ                                                        SIGNAL STRENGTH UNIT
                                                            END OF HEADER       
> 2019 07 03 12 00  1.0000000  0  8       0.000000000000
G07  25371581.851 9 133328516.208 9      2213.134 9        54.123 9  25371582.534 6         0.000 6      1724.520 6        37.977 6
G10  23848718.081 9 125325804.097 9      3537.187 9        54.655 9  23848721.847 6         0.000 6      2756.249 6        37.977 6
G21  21157042.088 9 111180985.947 9     -1229.947 9        55.715 9  21157041.371 6         0.000 6      -958.401 6        37.977 6
G29  24264973.941 9 127513242.909 9     -3115.005 9        54.487 9  24264975.479 6         0.000 6     -2427.277 6        37.977 6
G27  22032656.118 9 115782362.206 9      2513.187 9        55.363 9  22032658.061 6         0.000 6      1958.328 6        37.977 6
G16  20503658.274 9 107747431.151 9       592.853 9        55.974 9  20503657.448 6         0.000 6       461.963 6        37.977 6
G26  20638225.404 9 108454584.331 9     -1449.559 9        55.880 9  20638228.215 6         0.000 6     -1129.527 6        37.977 6
G20  21972545.100 9 115466470.469 9      2591.281 9        55.304 9  21972545.437 6         0.000 6      2019.180 6        37.977 6
> 2019 07 03 12 00  2.0000000  0  8       0.000000000000
G07  25371160.738 9 133326303.250 9      2212.734 9        54.123 9  25371161.421 6         0.000 6      1724.210 6        37.977 6
G10  23848044.986 9 125322266.968 9      3537.074 9        54.655 9  23848048.751 6         0.000 6      2756.165 6        37.977 6
G21  21157276.174 9 111182216.077 9     -1230.312 9        55.715 9  21157275.457 6         0.000 6      -958.685 6        37.977 6
G29  24265566.720 9 127516357.974 9     -3115.119 9        54.487 9  24265568.259 6         0.000 6     -2427.368 6        37.977 6
G27  22032177.896 9 115779849.134 9      2512.957 9        55.363 9  22032179.838 6         0.000 6      1958.149 6        37.977 6
G16  20503545.517 9 107746838.604 9       592.239 9        55.974 9  20503544.690 6         0.000 6       461.485 6        37.977 6
G26  20638501.302 9 108456034.179 9     -1450.138 9        55.880 9  20638504.112 6         0.000 6     -1129.978 6        37.977 6
G20  21972052.036 9 115463879.406 9      2590.849 9        55.305 9  21972052.373 6         0.000 6      2018.844 6        37.977 6
> 2019 07 03 12 00  3.0000000  0  8       0.000000000000
G07  25370739.712 9 133324090.747 9      2212.280 9        54.123 9  25370740.395 6         0.000 6      1723.855 6        37.977 6
G10  23847371.916 9 125318729.970 9      3536.943 9        54.656 9  23847375.680 6         0.000 6      2756.062 6        37.977 6
G21  21157510.329 9 111183446.571 9     -1230.677 9        55.715 9  21157509.612 6         0.000 6      -958.969 6        37.977 6
G29  24266159.516 9 127519473.127 9     -3115.206 9        54.487 9  24266161.055 6         0.000 6     -2427.436 6        37.977 6
G27  22031699.718 9 115777336.297 9      2512.722 9        55.364 9  22031701.661 6         0.000 6      1957.966 6        37.977 6
G16  20503432.876 9 107746246.672 9       591.626 9        55.974 9  20503432.049 6         0.000 6       461.007 6        37.977 6
G26  20638777.309 9 108457484.603 9     -1450.714 9        55.880 9  20638780.119 6         0.000 6     -1130.427 6        37.977 6
G20  21971559.055 9 115461288.780 9      2590.411 9        55.305 9  21971559.393 6         0.000 6      2018.503 6        37.977 6
> 2019 07 03 12 00  4.0000000  0  8       0.000000000000
G07  25370318.773 9 133321878.701 9      2211.825 9        54.124 9  25370319.456 6         0.000 6      1723.501 6        37.977 6
G10  23846698.869 9 125315193.098 9      3536.812 9        54.656 9  23846702.633 6         0.000 6      2755.960 6        37.977 6
G21  21157744.553 9 111184677.426 9     -1231.041 9        55.715 9  21157743.837 6         0.000 6      -959.253 6        37.977 6
G29  24266752.328 9 127522588.366 9     -3115.293 9        54.487 9  24266753.868 6         0.000 6     -2427.503 6        37.977 6
G27  22031221.585 9 115774823.693 9      2512.488 9        55.364 9  22031223.527 6         0.000 6      1957.783 6        37.977 6
G16  20503320.351 9 107745655.350 9       591.012 9        55.974 9  20503319.524 6         0.000 6       460.529 6        37.977 6
G26  20639053.424 9 108458935.599 9     -1451.291 9        55.880 9  20639056.235 6         0.000 6     -1130.877 6        37.977 6
G20  21971066.157 9 115458698.589 9      2589.973 9        55.305 9  21971066.494 6         0.000 6      2018.162 6        37.977 6
> 2019 07 03 12 00  5.0000000  0  8       0.000000000000
G07  25369897.920 9 133319667.107 9      2211.370 9        54.124 9  25369898.602 6         0.000 6      1723.146 6        37.977 6
G10  23846025.849 9 125311656.363 9      3536.681 9        54.656 9  23846029.612 6         0.000 6      2755.858 6        37.977 6
G21  21157978.847 9 111185908.648 9     -1231.404 9        55.715 9  21157978.130 6         0.000 6      -959.536 6        37.977 6
G29  24267345.157 9 127525703.692 9     -3115.379 9        54.486 9  24267346.697 6         0.000 6     -2427.571 6        37.977 6
G27  22030743.497 9 115772311.326 9      2512.253 9        55.364 9  22030745.439 6         0.000 6      1957.600 6        37.977 6
G16  20503207.943 9 107745064.645 9       590.398 9        55.974 9  20503207.117 6         0.000 6       460.050 6        37.977 6
G26  20639329.651 9 108460387.177 9     -1451.868 9        55.879 9  20639332.461 6         0.000 6     -1131.326 6        37.977 6
G20  21970573.344 9 115456108.839 9      2589.535 9        55.305 9  21970573.680 6         0.000 6      2017.821 6        37.977 6
> 2019 07 03 12 00  6.0000000  0  8       0.000000000000
G07  25369477.154 9 133317455.971 9      2210.915 9        54.124 9  25369477.836 6         0.000 6      1722.792 6        37.977 6
G10  23845352.853 9 125308119.754 9      3536.549 9        54.656 9  23845356.615 6         0.000 6      2755.755 6        37.977 6
G21  21158213.210 9 111187140.231 9     -1231.768 9        55.714 9  21158212.493 6         0.000 6      -959.820 6        37.977 6
G29  24267938.002 9 127528819.104 9     -3115.466 9        54.486 9  24267939.543 6         0.000 6     -2427.639 6        37.977 6
G27  22030265.453 9 115769799.191 9      2512.018 9        55.364 9  22030267.395 6         0.000 6      1957.417 6        37.977 6
G16  20503095.652 9 107744474.551 9       589.784 9        55.974 9  20503094.825 6         0.000 6       459.572 6        37.977 6
G26  20639605.986 9 108461839.327 9     -1452.444 9        55.879 9  20639608.797 6         0.000 6     -1131.775 6        37.977 6
G20  21970080.612 9 115453519.523 9      2589.097 9        55.305 9  21970080.949 6         0.000 6      2017.480 6        37.977 6
> 2019 07 03 12 00  7.0000000  0  8       0.000000000000
G07  25369056.474 9 133315245.287 9      2210.460 9        54.124 9  25369057.156 6         0.000 6      1722.437 6        37.977 6
G10  23844679.882 9 125304583.281 9      3536.418 9        54.657 9  23844683.643 6         0.000 6      2755.653 6        37.977 6
G21  21158447.642 9 111188372.181 9     -1232.132 9        55.714 9  21158446.926 6         0.000 6      -960.103 6        37.977 6
G29  24268530.864 9 127531934.604 9     -3115.553 9        54.486 9  24268532.405 6         0.000 6     -2427.706 6        37.977 6
G27  22029787.454 9 115767287.293 9      2511.783 9        55.364 9  22029789.396 6         0.000 6      1957.234 6        37.977 6
G16  20502983.478 9 107743885.074 9       589.170 9        55.974 9  20502982.652 6         0.000 6       459.094 6        37.977 6
G26  20639882.432 9 108463292.058 9     -1453.021 9        55.879 9  20639885.242 6         0.000 6     -1132.225 6        37.977 6
G20  21969587.965 9 115450930.650 9      2588.659 9        55.306 9  21969588.301 6         0.000 6      2017.138 6        37.977 6
> 2019 07 03 12 00  8.0000000  0  8       0.000000000000
G07  25368635.882 9 133313035.061 9      2210.005 9        54.124 9  25368636.563 6         0.000 6      1722.083 6        37.977 6
G10  23844006.936 9 125301046.936 9      3536.286 9        54.657 9  23844010.697 6         0.000 6      2755.550 6        37.977 6
G21  21158682.143 9 111189604.492 9     -1232.496 9        55.714 9  21158681.427 6         0.000 6      -960.387 6        37.977 6
G29  24269123.742 9 127535050.190 9     -3115.640 9        54.486 9  24269125.284 6         0.000 6     -2427.774 6        37.977 6
G27  22029309.500 9 115764775.628 9      2511.548 9        55.364 9  22029311.441 6         0.000 6      1957.051 6        37.977 6
G16  20502871.421 9 107743296.208 9       588.556 9        55.974 9  20502870.594 6         0.000 6       458.615 6        37.977 6
G26  20640158.986 9 108464745.361 9     -1453.598 9        55.879 9  20640161.797 6         0.000 6     -1132.674 6        37.977 6
G20  21969095.401 9 115448342.210 9      2588.221 9        55.306 9  21969095.736 6         0.000 6      2016.797 6        37.977 6
> 2019 07 03 12 00  9.0000000  0  8       0.000000000000
G07  25368215.376 9 133310825.290 9      2209.550 9        54.124 9  25368216.057 6         0.000 6      1721.728 6        37.977 6
G10  23843334.015 9 125297510.724 9      3536.154 9        54.657 9  23843337.775 6         0.000 6      2755.448 6        37.977 6
G21  21158916.714 9 111190837.167 9     -1232.860 9        55.714 9  21158915.997 6         0.000 6      -960.670 6        37.977 6
G29  24269716.636 9 127538165.858 9     -3115.727 9        54.486 9  24269718.179 6         0.000 6     -2427.841 6        37.977 6
G27  22028831.591 9 115762264.204 9      2511.313 9        55.365 9  22028833.533 6         0.000 6      1956.868 6        37.977 6
G16  20502759.481 9 107742707.960 9       587.942 9        55.974 9  20502758.654 6         0.000 6       458.137 6        37.977 6
G26  20640435.652 9 108466199.245 9     -1454.174 9        55.879 9  20640438.463 6         0.000 6     -1133.123 6        37.977 6
G20  21968602.920 9 115445754.210 9      2587.782 9        55.306 9  21968603.255 6         0.000 6      2016.455 6        37.977 6
> 2019 07 03 12 00 10.0000000  0  8       0.000000000000
G07  25367794.956 9 133308615.975 9      2209.094 9        54.124 9  25367795.637 6         0.000 6      1721.373 6        37.977 6
G10  23842661.119 9 125293974.642 9      3536.022 9        54.657 9  23842664.878 6         0.000 6      2755.345 6        37.977 6
G21  21159151.353 9 111192070.205 9     -1233.223 9        55.714 9  21159150.637 6         0.000 6      -960.953 6        37.977 6
G29  24270309.547 9 127541281.618 9     -3115.813 9        54.485 9  24270311.090 6         0.000 6     -2427.909 6        37.977 6
G27  22028353.726 9 115759753.009 9      2511.079 9        55.365 9  22028355.667 6         0.000 6      1956.685 6        37.977 6
G16  20502647.657 9 107742120.322 9       587.328 9        55.974 9  20502646.830 6         0.000 6       457.658 6        37.977 6
G26  20640712.426 9 108467653.701 9     -1454.751 9        55.879 9  20640715.237 6         0.000 6     -1133.572 6        37.977 6
G20  21968110.522 9 115443166.647 9      2587.344 9        55.306 9  21968110.857 6         0.000 6      2016.113 6        37.977 6
> 2019 07 03 12 00 11.0000000  0  8       0.000000000000
G07  25367374.623 9 133306407.112 9      2208.639 9        54.125 9  25367375.304 6         0.000 6      1721.018 6        37.977 6
G10  23841988.249 9 125290438.696 9      3535.890 9        54.657 9  23841992.008 6         0.000 6      2755.242 6        37.977 6
G21  21159386.062 9 111193303.610 9     -1233.587 9        55.714 9  21159385.346 6         0.000 6      -961.237 6        37.977 6
G29  24270902.475 9 127544397.464 9     -3115.900 9        54.485 9  24270904.019 6         0.000 6     -2427.977 6        37.977 6
G27  22027875.906 9 115757242.051 9      2510.844 9        55.365 9  22027877.847 6         0.000 6      1956.502 6        37.977 6
G16  20502535.951 9 107741533.301 9       586.714 9        55.974 9  20502535.124 6         0.000 6       457.180 6        37.977 6
G26  20640989.310 9 108469108.738 9     -1455.327 9        55.879 9  20640992.122 6         0.000 6     -1134.022 6        37.977 6
G20  21967618.208 9 115440579.527 9      2586.905 9        55.306 9  21967618.543 6         0.000 6      2015.772 6        37.977 6
> 2019 07 03 12 00 12.0000000  0  8       0.000000000000
G07  25366954.377 9 133304198.707 9      2208.184 9        54.125 9  25366955.057 6         0.000 6      1720.663 6        37.977 6
G10  23841315.403 9 125286902.878 9      3535.758 9        54.658 9  23841319.161 6         0.000 6      2755.139 6        37.977 6
G21  21159620.840 9 111194537.376 9     -1233.951 9        55.714 9  21159620.124 6         0.000 6      -961.520 6        37.977 6
G29  24271495.419 9 127547513.398 9     -3115.987 9        54.485 9  24271496.964 6         0.000 6     -2428.044 6        37.977 6
G27  22027398.130 9 115754731.325 9      2510.609 9        55.365 9  22027400.071 6         0.000 6      1956.319 6        37.977 6
G16  20502424.361 9 107740946.891 9       586.100 9        55.974 9  20502423.534 6         0.000 6       456.701 6        37.977 6
G26  20641266.304 9 108470564.347 9     -1455.904 9        55.879 9  20641269.115 6         0.000 6     -1134.471 6        37.977 6
G20  21967125.978 9 115437992.841 9      2586.467 9        55.306 9  21967126.312 6         0.000 6      2015.430 6        37.977 6
> 2019 07 03 12 00 13.0000000  0  8       0.000000000000
G07  25366534.217 9 133301990.755 9      2207.728 9        54.125 9  25366534.897 6         0.000 6      1720.308 6        37.977 6
G10  23840642.583 9 125283367.197 9      3535.626 9        54.658 9  23840646.341 6         0.000 6      2755.036 6        37.977 6
G21  21159855.688 9 111195771.507 9     -1234.314 9        55.714 9  21159854.972 6         0.000 6      -961.803 6        37.977 6
G29  24272088.380 9 127550629.417 9     -3116.073 9        54.485 9  24272089.925 6         0.000 6     -2428.112 6        37.977 6
G27  22026920.400 9 115752220.837 9      2510.373 9        55.365 9  22026922.341 6         0.000 6      1956.136 6        37.977 6
G16  20502312.888 9 107740361.098 9       585.486 9        55.974 9  20502312.061 6         0.000 6       456.223 6        37.977 6
G26  20641543.408 9 108472020.537 9     -1456.480 9        55.878 9  20641546.219 6         0.000 6     -1134.920 6        37.977 6
G20  21966633.831 9 115435406.598 9      2586.028 9        55.307 9  21966634.166 6         0.000 6      2015.088 6        37.977 6
> 2019 07 03 12 00 14.0000000  0  8       0.000000000000
G07  25366114.143 9 133299783.259 9      2207.272 9        54.125 9  25366114.824 6         0.000 6      1719.953 6        37.977 6
G10  23839969.789 9 125279831.648 9      3535.494 9        54.658 9  23839973.545 6         0.000 6      2754.933 6        37.977 6
G21  21160090.605 9 111197006.002 9     -1234.677 9        55.714 9  21160089.888 6         0.000 6      -962.087 6        37.977 6
G29  24272681.357 9 127553745.524 9     -3116.160 9        54.485 9  24272682.903 6         0.000 6     -2428.179 6        37.977 6
G27  22026442.714 9 115749710.584 9      2510.138 9        55.366 9  22026444.655 6         0.000 6      1955.953 6        37.977 6
G16  20502201.532 9 107739775.919 9       584.871 9        55.974 9  20502200.705 6         0.000 6       455.744 6        37.977 6
G26  20641820.622 9 108473477.304 9     -1457.057 9        55.878 9  20641823.433 6         0.000 6     -1135.369 6        37.977 6
G20  21966141.768 9 115432820.794 9      2585.589 9        55.307 9  21966142.102 6         0.000 6      2014.746 6        37.977 6
> 2019 07 03 12 00 15.0000000  0  8       0.000000000000
G07  25365694.157 9 133297576.221 9      2206.817 9        54.125 9  25365694.837 6         0.000 6      1719.598 6        37.977 6
G10  23839297.018 9 125276296.226 9      3535.361 9        54.658 9  23839300.774 6         0.000 6      2754.830 6        37.977 6
G21  21160325.590 9 111198240.858 9     -1235.041 9        55.714 9  21160324.874 6         0.000 6      -962.370 6        37.977 6
G29  24273274.351 9 127556861.717 9     -3116.247 9        54.484 9  24273275.898 6         0.000 6     -2428.247 6        37.977 6
G27  22025965.073 9 115747200.564 9      2509.903 9        55.366 9  22025967.013 6         0.000 6      1955.769 6        37.977 6
G16  20502090.293 9 107739191.352 9       584.257 9        55.975 9  20502089.466 6         0.000 6       455.265 6        37.977 6
G26  20642097.944 9 108474934.642 9     -1457.633 9        55.878 9  20642100.756 6         0.000 6     -1135.818 6        37.977 6
G20  21965649.788 9 115430235.425 9      2585.150 9        55.307 9  21965650.122 6         0.000 6      2014.404 6        37.977 6
> 2019 07 03 12 00 16.0000000  0  8       0.000000000000
G07  25365274.257 9 133295369.635 9      2206.361 9        54.125 9  25365274.937 6         0.000 6      1719.243 6        37.977 6
G10  23838624.274 9 125272760.942 9      3535.229 9        54.659 9  23838628.029 6         0.000 6      2754.727 6        37.977 6
G21  21160560.645 9 111199476.080 9     -1235.404 9        55.713 9  21160559.929 6         0.000 6      -962.653 6        37.977 6
G29  24273867.361 9 127559977.997 9     -3116.333 9        54.484 9  24273868.908 6         0.000 6     -2428.314 6        37.977 6
G27  22025487.476 9 115744690.781 9      2509.668 9        55.366 9  22025489.417 6         0.000 6      1955.586 6        37.977 6
G16  20501979.171 9 107738607.402 9       583.643 9        55.975 9  20501978.344 6         0.000 6       454.787 6        37.977 6
G26  20642375.378 9 108476392.561 9     -1458.209 9        55.878 9  20642378.189 6         0.000 6     -1136.267 6        37.977 6
G20  21965157.892 9 115427650.499 9      2584.711 9        55.307 9  21965158.225 6         0.000 6      2014.062 6        37.977 6
> 2019 07 03 12 00 17.0000000  0  8       0.000000000000
G07  25364854.445 9 133293163.512 9      2205.905 9        54.125 9  25364855.125 6         0.000 6      1718.888 6        37.977 6
G10  23837951.554 9 125269225.783 9      3535.096 9        54.659 9  23837955.308 6         0.000 6      2754.623 6        37.977 6
G21  21160795.768 9 111200711.661 9     -1235.767 9        55.713 9  21160795.052 6         0.000 6      -962.936 6        37.977 6
G29  24274460.387 9 127563094.358 9     -3116.420 9        54.484 9  24274461.935 6         0.000 6     -2428.382 6        37.977 6
G27  22025009.925 9 115742181.235 9      2509.433 9        55.366 9  22025011.865 6         0.000 6      1955.403 6        37.977 6
G16  20501868.165 9 107738024.064 9       583.029 9        55.975 9  20501867.338 6         0.000 6       454.308 6        37.977 6
G26  20642652.919 9 108477851.052 9     -1458.786 9        55.878 9  20642655.731 6         0.000 6     -1136.716 6        37.977 6
G20  21964666.078 9 115425066.004 9      2584.272 9        55.307 9  21964666.411 6         0.000 6      2013.720 6        37.977 6
> 2019 07 03 12 00 18.0000000  0  8       0.000000000000
G07  25364434.719 9 133290957.838 9      2205.449 9        54.126 9  25364435.398 6         0.000 6      1718.533 6        37.977 6
G10  23837278.860 9 125265690.764 9      3534.964 9        54.659 9  23837282.614 6         0.000 6      2754.520 6        37.977 6
G21  21161030.962 9 111201947.609 9     -1236.131 9        55.713 9  21161030.245 6         0.000 6      -963.219 6        37.977 6
G29  24275053.430 9 127566210.811 9     -3116.506 9        54.484 9  24275054.979 6         0.000 6     -2428.449 6        37.977 6
G27  22024532.418 9 115739671.922 9      2509.198 9        55.366 9  22024534.358 6         0.000 6      1955.220 6        37.977 6
G16  20501757.277 9 107737441.343 9       582.414 9        55.975 9  20501756.450 6         0.000 6       453.829 6        37.977 6
G26  20642930.572 9 108479310.124 9     -1459.362 9        55.878 9  20642933.384 6         0.000 6     -1137.165 6        37.977 6
G20  21964174.349 9 115422481.956 9      2583.833 9        55.308 9  21964174.682 6         0.000 6      2013.377 6        37.977 6
> 2019 07 03 12 00 19.0000000  0  8       0.000000000000
G07  25364015.080 9 133288752.623 9      2204.993 9        54.126 9  25364015.759 6         0.000 6      1718.177 6        37.977 6
G10  23836606.190 9 125262155.873 9      3534.831 9        54.659 9  23836609.944 6         0.000 6      2754.416 6        37.977 6
G21  21161266.223 9 111203183.918 9     -1236.494 9        55.713 9  21161265.507 6         0.000 6      -963.502 6        37.977 6
G29  24275646.490 9 127569327.350 9     -3116.593 9        54.484 9  24275648.039 6         0.000 6     -2428.516 6        37.977 6
G27  22024054.956 9 115737162.843 9      2508.962 9        55.367 9  22024056.896 6         0.000 6      1955.036 6        37.977 6
G16  20501646.505 9 107736859.233 9       581.800 9        55.975 9  20501645.678 6         0.000 6       453.350 6        37.977 6
G26  20643208.333 9 108480769.767 9     -1459.938 9        55.878 9  20643211.145 6         0.000 6     -1137.614 6        37.977 6
G20  21963682.703 9 115419898.343 9      2583.394 9        55.308 9  21963683.036 6         0.000 6      2013.035 6        37.977 6
> 2019 07 03 12 00 20.0000000  0  8       0.000000000000
G07  25363595.527 9 133286547.862 9      2204.537 9        54.126 9  25363596.206 6         0.000 6      1717.822 6        37.977 6
G10  23835933.547 9 125258621.120 9      3534.698 9        54.660 9  23835937.300 6         0.000 6      2754.313 6        37.977 6
G21  21161501.555 9 111204420.593 9     -1236.857 9        55.713 9  21161500.839 6         0.000 6      -963.785 6        37.977 6
G29  24276239.566 9 127572443.976 9     -3116.679 9        54.483 9  24276241.116 6         0.000 6     -2428.584 6        37.977 6
G27  22023577.538 9 115734654.001 9      2508.727 9        55.367 9  22023579.478 6         0.000 6      1954.853 6        37.977 6
G16  20501535.851 9 107736277.740 9       581.185 9        55.975 9  20501535.024 6         0.000 6       452.872 6        37.977 6
G26  20643486.205 9 108482229.991 9     -1460.514 9        55.878 9  20643489.017 6         0.000 6     -1138.063 6        37.977 6
G20  21963191.141 9 115417315.174 9      2582.954 9        55.308 9  21963191.474 6         0.000 6      2012.693 6        37.977 6
> 2019 07 03 12 00 21.0000000  0  8       0.000000000000
G07  25363176.061 9 133284343.559 9      2204.081 9        54.126 9  25363176.740 6         0.000 6      1717.467 6        37.977 6
G10  23835260.928 9 125255086.495 9      3534.565 9        54.660 9  23835264.680 6         0.000 6      2754.209 6        37.977 6
G21  21161736.955 9 111205657.628 9     -1237.220 9        55.713 9  21161736.239 6         0.000 6      -964.068 6        37.977 6
G29  24276832.658 9 127575560.688 9     -3116.766 9        54.483 9  24276834.209 6         0.000 6     -2428.651 6        37.977 6
G27  22023100.166 9 115732145.393 9      2508.492 9        55.367 9  22023102.105 6         0.000 6      1954.670 6        37.977 6
G16  20501425.313 9 107735696.859 9       580.571 9        55.975 9  20501424.486 6         0.000 6       452.393 6        37.977 6
G26  20643764.185 9 108483690.787 9     -1461.090 9        55.878 9  20643766.998 6         0.000 6     -1138.512 6        37.977 6
G20  21962699.663 9 115414732.440 9      2582.515 9        55.308 9  21962699.995 6         0.000 6      2012.350 6        37.977 6
> 2019 07 03 12 00 22.0000000  0  8       0.000000000000
G07  25362756.682 9 133282139.710 9      2203.625 9        54.126 9  25362757.361 6         0.000 6      1717.111 6        37.977 6
G10  23834588.336 9 125251552.007 9      3534.432 9        54.660 9  23834592.087 6         0.000 6      2754.105 6        37.977 6
G21  21161972.425 9 111206895.029 9     -1237.583 9        55.713 9  21161971.709 6         0.000 6      -964.351 6        37.977 6
G29  24277425.767 9 127578677.487 9     -3116.852 9        54.483 9  24277427.318 6         0.000 6     -2428.719 6        37.977 6
G27  22022622.838 9 115729637.021 9      2508.256 9        55.367 9  22022624.777 6         0.000 6      1954.486 6        37.977 6
G16  20501314.892 9 107735116.596 9       579.956 9        55.975 9  20501314.066 6         0.000 6       451.914 6        37.977 6
G26  20644042.276 9 108485152.164 9     -1461.666 9        55.877 9  20644045.089 6         0.000 6     -1138.961 6        37.977 6
G20  21962208.268 9 115412150.149 9      2582.075 9        55.308 9  21962208.600 6         0.000 6      2012.008 6        37.977 6
> 2019 07 03 12 00 23.0000000  0  8       0.000000000000
G07  25362337.390 9 133279936.317 9      2203.168 9        54.126 9  25362338.068 6         0.000 6      1716.755 6        37.977 6
G10  23833915.768 9 125248017.653 9      3534.298 9        54.660 9  23833919.519 6         0.000 6      2754.001 6        37.977 6
G21  21162207.964 9 111208132.793 9     -1237.946 9        55.713 9  21162207.248 6         0.000 6      -964.633 6        37.977 6
G29  24278018.893 9 127581794.373 9     -3116.939 9        54.483 9  24278020.444 6         0.000 6     -2428.786 6        37.977 6
G27  22022145.555 9 115727128.885 9      2508.021 9        55.367 9  22022147.494 6         0.000 6      1954.303 6        37.977 6
G16  20501204.589 9 107734536.947 9       579.342 9        55.975 9  20501203.762 6         0.000 6       451.435 6        37.977 6
G26  20644320.477 9 108486614.117 9     -1462.243 9        55.877 9  20644323.290 6         0.000 6     -1139.410 6        37.977 6
G20  21961716.958 9 115409568.299 9      2581.635 9        55.309 9  21961717.289 6         0.000 6      2011.665 6        37.977 6
> 2019 07 03 12 00 24.0000000  0  8       0.000000000000
G07  25361918.185 9 133277733.386 9      2202.712 9        54.126 9  25361918.863 6         0.000 6      1716.400 6        37.977 6
G10  23833243.225 9 125244483.425 9      3534.165 9        54.661 9  23833246.975 6         0.000 6      2753.898 6        37.977 6
G21  21162443.570 9 111209370.915 9     -1238.309 9        55.713 9  21162442.855 6         0.000 6      -964.916 6        37.977 6
G29  24278612.034 9 127584911.339 9     -3117.025 9        54.482 9  24278613.586 6         0.000 6     -2428.853 6        37.977 6
G27  22021668.317 9 115724620.987 9      2507.786 9        55.368 9  22021670.256 6         0.000 6      1954.119 6        37.977 6
G16  20501094.402 9 107733957.910 9       578.727 9        55.975 9  20501093.575 6         0.000 6       450.956 6        37.977 6
G26  20644598.787 9 108488076.641 9     -1462.819 9        55.877 9  20644601.599 6         0.000 6     -1139.859 6        37.977 6
G20  21961225.729 9 115406986.880 9      2581.196 9        55.309 9  21961226.060 6         0.000 6      2011.322 6        37.977 6
> 2019 07 03 12 00 25.0000000  0  8       0.000000000000
G07  25361499.066 9 133275530.906 9      2202.255 9        54.127 9  25361499.744 6         0.000 6      1716.044 6        37.977 6
G10  23832570.708 9 125240949.337 9      3534.032 9        54.661 9  23832574.458 6         0.000 6      2753.794 6        37.977 6
G21  21162679.247 9 111210609.404 9     -1238.672 9        55.713 9  21162678.532 6         0.000 6      -965.199 6        37.977 6
G29  24279205.192 9 127588028.397 9     -3117.111 9        54.482 9  24279206.745 6         0.000 6     -2428.921 6        37.977 6
G27  22021191.124 9 115722113.322 9      2507.550 9        55.368 9  22021193.063 6         0.000 6      1953.936 6        37.977 6
G16  20500984.332 9 107733379.491 9       578.112 9        55.975 9  20500983.505 6         0.000 6       450.477 6        37.977 6
G26  20644877.206 9 108489539.745 9     -1463.395 9        55.877 9  20644880.019 6         0.000 6     -1140.308 6        37.977 6
G20  21960734.586 9 115404405.909 9      2580.756 9        55.309 9  21960734.917 6         0.000 6      2010.980 6        37.977 6
> 2019 07 03 12 00 26.0000000  0  8       0.000000000000
G07  25361080.035 9 133273328.885 9      2201.799 9        54.127 9  25361080.713 6         0.000 6      1715.688 6        37.977 6
G10  23831898.216 9 125237415.379 9      3533.898 9        54.661 9  23831901.965 6         0.000 6      2753.690 6        37.977 6
G21  21162914.993 9 111211848.254 9     -1239.034 9        55.713 9  21162914.277 6         0.000 6      -965.482 6        37.977 6
G29  24279798.367 9 127591145.541 9     -3117.198 9        54.482 9  24279799.920 6         0.000 6     -2428.988 6        37.977 6
G27  22020713.975 9 115719605.890 9      2507.314 9        55.368 9  22020715.914 6         0.000 6      1953.752 6        37.977 6
G16  20500874.379 9 107732801.683 9       577.498 9        55.975 9  20500873.552 6         0.000 6       449.998 6        37.977 6
G26  20645155.735 9 108491003.422 9     -1463.971 9        55.877 9  20645158.548 6         0.000 6     -1140.757 6        37.977 6
G20  21960243.525 9 115401825.374 9      2580.316 9        55.309 9  21960243.856 6         0.000 6      2010.637 6        37.977 6
> 2019 07 03 12 00 27.0000000  0  8       0.000000000000
G07  25360661.090 9 133271127.318 9      2201.342 9        54.127 9  25360661.768 6         0.000 6      1715.333 6        37.977 6
G10  23831225.751 9 125233881.558 9      3533.764 9        54.661 9  23831229.499 6         0.000 6      2753.585 6        37.977 6
G21  21163150.808 9 111213087.469 9     -1239.397 9        55.712 9  21163150.092 6         0.000 6      -965.764 6        37.977 6
G29  24280391.558 9 127594262.772 9     -3117.284 9        54.482 9  24280393.112 6         0.000 6     -2429.055 6        37.977 6
G27  22020236.871 9 115717098.696 9      2507.079 9        55.368 9  22020238.810 6         0.000 6      1953.569 6        37.977 6
G16  20500764.543 9 107732224.492 9       576.883 9        55.975 9  20500763.717 6         0.000 6       449.519 6        37.977 6
G26  20645434.374 9 108492467.679 9     -1464.547 9        55.877 9  20645437.187 6         0.000 6     -1141.206 6        37.977 6
G20  21959752.549 9 115399245.282 9      2579.876 9        55.309 9  21959752.880 6         0.000 6      2010.294 6        37.977 6
> 2019 07 03 12 00 28.0000000  0  8       0.000000000000
G07  25360242.233 9 133268926.211 9      2200.886 9        54.127 9  25360242.910 6         0.000 6      1714.977 6        37.977 6
G10  23830553.310 9 125230347.867 9      3533.631 9        54.662 9  23830557.057 6         0.000 6      2753.481 6        37.977 6
G21  21163386.691 9 111214327.045 9     -1239.760 9        55.712 9  21163385.975 6         0.000 6      -966.047 6        37.977 6
G29  24280984.766 9 127597380.089 9     -3117.370 9        54.482 9  24280986.320 6         0.000 6     -2429.122 6        37.977 6
G27  22019759.812 9 115714591.736 9      2506.843 9        55.368 9  22019761.750 6         0.000 6      1953.385 6        37.977 6
G16  20500654.824 9 107731647.913 9       576.268 9        55.975 9  20500653.997 6         0.000 6       449.040 6        37.977 6
G26  20645713.122 9 108493932.507 9     -1465.123 9        55.877 9  20645715.935 6         0.000 6     -1141.654 6        37.977 6
G20  21959261.656 9 115396665.627 9      2579.436 9        55.310 9  21959261.987 6         0.000 6      2009.951 6        37.977 6
> 2019 07 03 12 00 29.0000000  0  8       0.000000000000
G07  25359823.461 9 133266725.557 9      2200.429 9        54.127 9  25359824.138 6         0.000 6      1714.621 6        37.977 6
G10  23829880.895 9 125226814.314 9      3533.497 9        54.662 9  23829884.642 6         0.000 6      2753.377 6        37.977 6
G21  21163622.644 9 111215566.985 9     -1240.122 9        55.712 9  21163621.928 6         0.000 6      -966.329 6        37.977 6
G29  24281577.990 9 127600497.493 9     -3117.457 9        54.481 9  24281579.545 6         0.000 6     -2429.190 6        37.977 6
G27  22019282.798 9 115712085.013 9      2506.608 9        55.368 9  22019284.736 6         0.000 6      1953.201 6        37.977 6
G16  20500545.222 9 107731071.953 9       575.653 9        55.975 9  20500544.396 6         0.000 6       448.561 6        37.977 6
G26  20645991.980 9 108495397.915 9     -1465.698 9        55.877 9  20645994.794 6         0.000 6     -1142.103 6        37.977 6
G20  21958770.848 9 115394086.416 9      2578.995 9        55.310 9  21958771.178 6         0.000 6      2009.608 6        37.977 6
> 2019 07 03 12 00 30.0000000  0  8       0.000000000000
G07  25359404.778 9 133264525.363 9      2199.972 9        54.127 9  25359405.454 6         0.000 6      1714.265 6        37.977 6
G10  23829208.505 9 125223280.891 9      3533.363 9        54.662 9  23829212.251 6         0.000 6      2753.272 6        37.977 6
G21  21163858.666 9 111216807.285 9     -1240.485 9        55.712 9  21163857.950 6         0.000 6      -966.612 6        37.977 6
G29  24282171.230 9 127603614.982 9     -3117.543 9        54.481 9  24282172.786 6         0.000 6     -2429.257 6        37.977 6
G27  22018805.829 9 115709578.524 9      2506.372 9        55.369 9  22018807.767 6         0.000 6      1953.018 6        37.977 6
G16  20500435.737 9 107730496.604 9       575.039 9        55.975 9  20500434.910 6         0.000 6       448.082 6        37.977 6
G26  20646270.947 9 108496863.895 9     -1466.274 9        55.877 9  20646273.761 6         0.000 6     -1142.552 6        37.977 6
G20  21958280.123 9 115391507.641 9      2578.555 9        55.310 9  21958280.452 6         0.000 6      2009.265 6        37.977 6
> 2019 07 03 12 00 31.0000000  0  8       0.000000000000
G07  25358986.181 9 133262325.623 9      2199.515 9        54.127 9  25358986.857 6         0.000 6      1713.909 6        37.977 6
G10  23828536.141 9 125219747.606 9      3533.229 9        54.662 9  23828539.886 6         0.000 6      2753.168 6        37.977 6
G21  21164094.756 9 111218047.951 9     -1240.847 9        55.712 9  21164094.041 6         0.000 6      -966.894 6        37.977 6
G29  24282764.487 9 127606732.558 9     -3117.629 9        54.481 9  24282766.044 6         0.000 6     -2429.324 6        37.977 6
G27  22018328.904 9 115707072.273 9      2506.136 9        55.369 9  22018330.842 6         0.000 6      1952.834 6        37.977 6
G16  20500326.369 9 107729921.873 9       574.424 9        55.975 9  20500325.543 6         0.000 6       447.603 6        37.977 6
G26  20646550.025 9 108498330.456 9     -1466.850 9        55.876 9  20646552.838 6         0.000 6     -1143.001 6        37.977 6
G20  21957789.482 9 115388929.311 9      2578.115 9        55.310 9  21957789.811 6         0.000 6      2008.922 6        37.977 6
> 2019 07 03 12 00 32.0000000  0  8       0.000000000000
G07  25358567.671 9 133260126.343 9      2199.058 9        54.128 9  25358568.347 6         0.000 6      1713.553 6        37.977 6
G10  23827863.802 9 125216214.453 9      3533.095 9        54.663 9  23827867.547 6         0.000 6      2753.063 6        37.977 6
G21  21164330.916 9 111219288.977 9     -1241.210 9        55.712 9  21164330.200 6         0.000 6      -967.177 6        37.977 6
G29  24283357.760 9 127609850.215 9     -3117.715 9        54.481 9  24283359.317 6         0.000 6     -2429.391 6        37.977 6
G27  22017852.026 9 115704566.261 9      2505.900 9        55.369 9  22017853.963 6         0.000 6      1952.650 6        37.977 6
G16  20500217.119 9 107729347.758 9       573.809 9        55.975 9  20500216.292 6         0.000 6       447.124 6        37.977 6
G26  20646829.212 9 108499797.592 9     -1467.426 9        55.876 9  20646832.025 6         0.000 6     -1143.449 6        37.977 6
G20  21957298.924 9 115386351.418 9      2577.674 9        55.310 9  21957299.253 6         0.000 6      2008.578 6        37.977 6
> 2019 07 03 12 00 33.0000000  0  8       0.000000000000
G07  25358149.248 9 133257927.520 9      2198.601 9        54.128 9  25358149.924 6         0.000 6      1713.197 6        37.977 6
G10  23827191.488 9 125212681.431 9      3532.960 9        54.663 9  23827195.233 6         0.000 6      2752.959 6        37.977 6
G21  21164567.144 9 111220530.365 9     -1241.572 9        55.712 9  21164566.429 6         0.000 6      -967.459 6        37.977 6
G29  24283951.049 9 127612967.964 9     -3117.802 9        54.481 9  24283952.607 6         0.000 6     -2429.458 6        37.977 6
G27  22017375.191 9 115702060.479 9      2505.665 9        55.369 9  22017377.128 6         0.000 6      1952.467 6        37.977 6
G16  20500107.985 9 107728774.254 9       573.194 9        55.975 9  20500107.158 6         0.000 6       446.644 6        37.977 6
G26  20647108.508 9 108501265.299 9     -1468.002 9        55.876 9  20647111.321 6         0.000 6     -1143.898 6        37.977 6
G20  21956808.450 9 115383773.965 9      2577.233 9        55.311 9  21956808.779 6         0.000 6      2008.235 6        37.977 6
> 2019 07 03 12 00 34.0000000  0  8       0.000000000000
G07  25357730.912 9 133255729.151 9      2198.144 9        54.128 9  25357731.587 6         0.000 6      1712.840 6        37.977 6
G10  23826519.201 9 125209148.549 9      3532.826 9        54.663 9  23826522.945 6         0.000 6      2752.854 6        37.977 6
G21  21164803.442 9 111221772.117 9     -1241.935 9        55.712 9  21164802.727 6         0.000 6      -967.741 6        37.977 6
G29  24284544.355 9 127616085.798 9     -3117.888 9        54.480 9  24284545.914 6         0.000 6     -2429.526 6        37.977 6
G27  22016898.401 9 115699554.935 9      2505.429 9        55.369 9  22016900.338 6         0.000 6      1952.283 6        37.977 6
G16  20499998.968 9 107728201.367 9       572.579 9        55.975 9  20499998.141 6         0.000 6       446.165 6        37.977 6
G26  20647387.914 9 108502733.587 9     -1468.577 9        55.876 9  20647390.728 6         0.000 6     -1144.346 6        37.977 6
G20  21956318.061 9 115381196.956 9      2576.793 9        55.311 9  21956318.390 6         0.000 6      2007.892 6        37.977 6
> 2019 07 03 12 00 35.0000000  0  8       0.000000000000
G07  25357312.663 9 133253531.242 9      2197.687 9        54.128 9  25357313.338 6         0.000 6      1712.484 6        37.977 6
G10  23825846.939 9 125205615.797 9      3532.691 9        54.663 9  23825850.682 6         0.000 6      2752.749 6        37.977 6
G21  21165039.808 9 111223014.230 9     -1242.297 9        55.712 9  21165039.093 6         0.000 6      -968.024 6        37.977 6
G29  24285137.678 9 127619203.719 9     -3117.974 9        54.480 9  24285139.237 6         0.000 6     -2429.593 6        37.977 6
G27  22016421.656 9 115697049.625 9      2505.193 9        55.370 9  22016423.593 6         0.000 6      1952.099 6        37.977 6
G16  20499890.068 9 107727629.093 9       571.964 9        55.975 9  20499889.241 6         0.000 6       445.686 6        37.977 6
G26  20647667.429 9 108504202.446 9     -1469.153 9        55.876 9  20647670.243 6         0.000 6     -1144.795 6        37.977 6
G20  21955827.755 9 115378620.384 9      2576.352 9        55.311 9  21955828.083 6         0.000 6      2007.548 6        37.977 6
> 2019 07 03 12 00 36.0000000  0  8       0.000000000000
G07  25356894.500 9 133251333.788 9      2197.229 9        54.128 9  25356895.176 6         0.000 6      1712.128 6        37.977 6
G10  23825174.703 9 125202083.184 9      3532.557 9        54.664 9  23825178.445 6         0.000 6      2752.644 6        37.977 6
G21  21165276.244 9 111224256.707 9     -1242.659 9        55.712 9  21165275.529 6         0.000 6      -968.306 6        37.977 6
G29  24285731.017 9 127622321.726 9     -3118.060 9        54.480 9  24285732.576 6         0.000 6     -2429.660 6        37.977 6
G27  22015944.956 9 115694544.553 9      2504.957 9        55.370 9  22015946.893 6         0.000 6      1951.915 6        37.977 6
G16  20499781.285 9 107727057.437 9       571.348 9        55.975 9  20499780.459 6         0.000 6       445.207 6        37.977 6
G26  20647947.054 9 108505671.885 9     -1469.729 9        55.876 9  20647949.868 6         0.000 6     -1145.244 6        37.977 6
G20  21955337.533 9 115376044.258 9      2575.911 9        55.311 9  21955337.861 6         0.000 6      2007.204 6        37.977 6
> 2019 07 03 12 00 37.0000000  0  8       0.000000000000
G07  25356476.426 9 133249136.794 9      2196.772 9        54.128 9  25356477.101 6         0.000 6      1711.771 6        37.977 6
G10  23824502.492 9 125198550.701 9      3532.422 9        54.664 9  23824506.233 6         0.000 6      2752.539 6        37.977 6
G21  21165512.748 9 111225499.544 9     -1243.021 9        55.711 9  21165512.033 6         0.000 6      -968.588 6        37.977 6
G29  24286324.372 9 127625439.818 9     -3118.146 9        54.480 9  24286325.932 6         0.000 6     -2429.727 6        37.977 6
G27  22015468.301 9 115692039.715 9      2504.721 9        55.370 9  22015470.237 6         0.000 6      1951.731 6        37.977 6
G16  20499672.619 9 107726486.393 9       570.733 9        55.976 9  20499671.792 6         0.000 6       444.727 6        37.977 6
G26  20648226.788 9 108507141.895 9     -1470.304 9        55.876 9  20648229.602 6         0.000 6     -1145.692 6        37.977 6
G20  21954847.395 9 115373468.567 9      2575.470 9        55.311 9  21954847.723 6         0.000 6      2006.861 6        37.977 6
> 2019 07 03 12 00 38.0000000  0  8       0.000000000000
G07  25356058.437 9 133246940.254 9      2196.314 9        54.128 9  25356059.112 6         0.000 6      1711.415 6        37.977 6
G10  23823830.307 9 125195018.357 9      3532.287 9        54.664 9  23823834.048 6         0.000 6      2752.434 6        37.977 6
G21  21165749.322 9 111226742.746 9     -1243.383 9        55.711 9  21165748.607 6         0.000 6      -968.870 6        37.977 6
G29  24286917.744 9 127628557.997 9     -3118.232 9        54.479 9  24286919.305 6         0.000 6     -2429.794 6        37.977 6
G27  22014991.690 9 115689535.114 9      2504.485 9        55.370 9  22014993.627 6         0.000 6      1951.548 6        37.977 6
G16  20499564.071 9 107725915.967 9       570.118 9        55.976 9  20499563.244 6         0.000 6       444.248 6        37.977 6
G26  20648506.632 9 108508612.485 9     -1470.880 9        55.876 9  20648509.447 6         0.000 6     -1146.141 6        37.977 6
G20  21954357.341 9 115370893.323 9      2575.029 9        55.311 9  21954357.669 6         0.000 6      2006.517 6        37.977 6
> 2019 07 03 12 00 39.0000000  0  8       0.000000000000
G07  25355640.537 9 133244744.175 9      2195.857 9        54.129 9  25355641.211 6         0.000 6      1711.058 6        37.977 6
G10  23823158.147 9 125191486.143 9      3532.152 9        54.664 9  23823161.887 6         0.000 6      2752.329 6        37.977 6
G21  21165985.964 9 111227986.307 9     -1243.745 9        55.711 9  21165985.249 6         0.000 6      -969.152 6        37.977 6
G29  24287511.132 9 127631676.263 9     -3118.318 9        54.479 9  24287512.693 6         0.000 6     -2429.861 6        37.977 6
G27  22014515.125 9 115687030.748 9      2504.249 9        55.370 9  22014517.061 6         0.000 6      1951.364 6        37.977 6
G16  20499455.639 9 107725346.154 9       569.503 9        55.976 9  20499454.812 6         0.000 6       443.769 6        37.977 6
G26  20648786.585 9 108510083.646 9     -1471.456 9        55.875 9  20648789.400 6         0.000 6     -1146.589 6        37.977 6
G20  21953867.371 9 115368318.515 9      2574.588 9        55.312 9  21953867.698 6         0.000 6      2006.173 6        37.977 6
> 2019 07 03 12 00 40.0000000  0  8       0.000000000000
G07  25355222.723 9 133242548.553 9      2195.399 9        54.129 9  25355223.397 6         0.000 6      1710.702 6        37.977 6
G10  23822486.013 9 125187954.067 9      3532.017 9        54.665 9  23822489.753 6         0.000 6      2752.224 6        37.977 6
G21  21166222.675 9 111229230.230 9     -1244.107 9        55.711 9  21166221.960 6         0.000 6      -969.434 6        37.977 6
G29  24288104.535 9 127634794.608 9     -3118.404 9        54.479 9  24288106.097 6         0.000 6     -2429.928 6        37.977 6
G27  22014038.605 9 115684526.623 9      2504.013 9        55.371 9  22014040.542 6         0.000 6      1951.180 6        37.977 6
G16  20499347.325 9 107724776.960 9       568.888 9        55.976 9  20499346.498 6         0.000 6       443.289 6        37.977 6
G26  20649066.649 9 108511555.388 9     -1472.031 9        55.875 9  20649069.463 6         0.000 6     -1147.038 6        37.977 6
G20  21953377.484 9 115365744.149 9      2574.146 9        55.312 9  21953377.811 6         0.000 6      2005.829 6        37.977 6
> 2019 07 03 12 00 41.0000000  0  8       0.000000000000
G07  25354804.996 9 133240353.389 9      2194.942 9        54.129 9  25354805.671 6         0.000 6      1710.345 6        37.977 6
G10  23821813.905 9 125184422.124 9      3531.882 9        54.665 9  23821817.643 6         0.000 6      2752.119 6        37.977 6
G21  21166459.454 9 111230474.515 9     -1244.469 9        55.711 9  21166458.739 6         0.000 6      -969.716 6        37.977 6
G29  24288697.956 9 127637913.046 9     -3118.490 9        54.479 9  24288699.519 6         0.000 6     -2429.995 6        37.977 6
G27  22013562.130 9 115682022.729 9      2503.777 9        55.371 9  22013564.066 6         0.000 6      1950.996 6        37.977 6
G16  20499239.127 9 107724208.377 9       568.272 9        55.976 9  20499238.300 6         0.000 6       442.810 6        37.977 6
G26  20649346.821 9 108513027.700 9     -1472.607 9        55.875 9  20649349.635 6         0.000 6     -1147.486 6        37.977 6
G20  21952887.682 9 115363170.224 9      2573.705 9        55.312 9  21952888.008 6         0.000 6      2005.485 6        37.977 6
> 2019 07 03 12 00 42.0000000  0  8       0.000000000000
G07  25354387.357 9 133238158.680 9      2194.484 9        54.129 9  25354388.031 6         0.000 6      1709.988 6        37.977 6
G10  23821141.823 9 125180890.320 9      3531.747 9        54.665 9  23821145.561 6         0.000 6      2752.013 6        37.977 6
G21  21166696.303 9 111231719.165 9     -1244.831 9        55.711 9  21166695.588 6         0.000 6      -969.998 6        37.977 6
G29  24289291.393 9 127641031.569 9     -3118.576 9        54.479 9  24289292.957 6         0.000 6     -2430.062 6        37.977 6
G27  22013085.699 9 115679519.073 9      2503.541 9        55.371 9  22013087.635 6         0.000 6      1950.812 6        37.977 6
G16  20499131.047 9 107723640.412 9       567.657 9        55.976 9  20499130.220 6         0.000 6       442.330 6        37.977 6
G26  20649627.103 9 108514500.592 9     -1473.182 9        55.875 9  20649629.918 6         0.000 6     -1147.934 6        37.977 6
G20  21952397.964 9 115360596.744 9      2573.263 9        55.312 9  21952398.290 6         0.000 6      2005.141 6        37.977 6
> 2019 07 03 12 00 43.0000000  0  8       0.000000000000
G07  25353969.804 9 133235964.429 9      2194.026 9        54.129 9  25353970.478 6         0.000 6      1709.631 6        37.977 6
G10  23820469.766 9 125177358.651 9      3531.611 9        54.665 9  23820473.504 6         0.000 6      2751.908 6        37.977 6
G21  21166933.221 9 111232964.176 9     -1245.193 9        55.711 9  21166932.506 6         0.000 6      -970.280 6        37.977 6
G29  24289884.847 9 127644150.178 9     -3118.662 9        54.478 9  24289886.411 6         0.000 6     -2430.129 6        37.977 6
G27  22012609.314 9 115677015.653 9      2503.305 9        55.371 9  22012611.249 6         0.000 6      1950.628 6        37.977 6
G16  20499023.084 9 107723073.063 9       567.042 9        55.976 9  20499022.257 6         0.000 6       441.851 6        37.977 6
G26  20649907.495 9 108515974.060 9     -1473.757 9        55.875 9  20649910.310 6         0.000 6     -1148.383 6        37.977 6
G20  21951908.330 9 115358023.706 9      2572.822 9        55.312 9  21951908.656 6         0.000 6      2004.797 6        37.977 6
> 2019 07 03 12 00 44.0000000  0  8       0.000000000000
G07  25353552.339 9 133233770.638 9      2193.568 9        54.129 9  25353553.012 6         0.000 6      1709.275 6        37.977 6
G10  23819797.735 9 125173827.114 9      3531.476 9        54.666 9  23819801.472 6         0.000 6      2751.802 6        37.977 6
G21  21167170.208 9 111234209.547 9     -1245.555 9        55.711 9  21167169.493 6         0.000 6      -970.562 6        37.977 6
G29  24290478.317 9 127647268.873 9     -3118.748 9        54.478 9  24290479.881 6         0.000 6     -2430.196 6        37.977 6
G27  22012132.973 9 115674512.467 9      2503.068 9        55.371 9  22012134.908 6         0.000 6      1950.444 6        37.977 6
G16  20498915.237 9 107722506.326 9       566.426 9        55.976 9  20498914.411 6         0.000 6       441.371 6        37.977 6
G26  20650187.996 9 108517448.099 9     -1474.333 9        55.875 9  20650190.811 6         0.000 6     -1148.831 6        37.977 6
G20  21951418.780 9 115355451.106 9      2572.380 9        55.313 9  21951419.106 6         0.000 6      2004.453 6        37.977 6
> 2019 07 03 12 00 45.0000000  0  8       0.000000000000
G07  25353134.960 9 133231577.303 9      2193.110 9        54.129 9  25353135.633 6         0.000 6      1708.918 6        37.977 6
G10  23819125.731 9 125170295.716 9      3531.340 9        54.666 9  23819129.467 6         0.000 6      2751.697 6        37.977 6
G21  21167407.263 9 111235455.282 9     -1245.916 9        55.711 9  21167406.548 6         0.000 6      -970.844 6        37.977 6
G29  24291071.803 9 127650387.654 9     -3118.834 9        54.478 9  24291073.368 6         0.000 6     -2430.263 6        37.977 6
G27  22011656.677 9 115672009.520 9      2502.832 9        55.371 9  22011658.612 6         0.000 6      1950.260 6        37.977 6
G16  20498807.509 9 107721940.207 9       565.811 9        55.976 9  20498806.682 6         0.000 6       440.892 6        37.977 6
G26  20650468.607 9 108518922.718 9     -1474.908 9        55.875 9  20650471.422 6         0.000 6     -1149.280 6        37.977 6
G20  21950929.314 9 115352878.951 9      2571.938 9        55.313 9  21950929.640 6         0.000 6      2004.109 6        37.977 6
> 2019 07 03 12 00 46.0000000  0  8       0.000000000000
G07  25352717.669 9 133229384.428 9      2192.652 9        54.130 9  25352718.342 6         0.000 6      1708.561 6        37.977 6
G10  23818453.751 9 125166764.450 9      3531.205 9        54.666 9  23818457.486 6         0.000 6      2751.591 6        37.977 6
G21  21167644.387 9 111236701.376 9     -1246.278 9        55.711 9  21167643.672 6         0.000 6      -971.126 6        37.977 6
G29  24291665.305 9 127653506.521 9     -3118.920 9        54.478 9  24291666.871 6         0.000 6     -2430.330 6        37.977 6
G27  22011180.426 9 115669506.806 9      2502.596 9        55.372 9  22011182.361 6         0.000 6      1950.075 6        37.977 6
G16  20498699.896 9 107721374.701 9       565.195 9        55.976 9  20498699.070 6         0.000 6       440.412 6        37.977 6
G26  20650749.326 9 108520397.907 9     -1475.483 9        55.875 9  20650752.141 6         0.000 6     -1149.728 6        37.977 6
G20  21950439.932 9 115350307.234 9      2571.497 9        55.313 9  21950440.257 6         0.000 6      2003.765 6        37.977 6
> 2019 07 03 12 00 47.0000000  0  8       0.000000000000
G07  25352300.465 9 133227192.009 9      2192.194 9        54.130 9  25352301.138 6         0.000 6      1708.204 6        37.977 6
G10  23817781.798 9 125163233.323 9      3531.069 9        54.666 9  23817785.533 6         0.000 6      2751.485 6        37.977 6
G21  21167881.580 9 111237947.834 9     -1246.640 9        55.710 9  21167880.866 6         0.000 6      -971.408 6        37.977 6
G29  24292258.824 9 127656625.474 9     -3119.006 9        54.478 9  24292260.391 6         0.000 6     -2430.397 6        37.977 6
G27  22010704.220 9 115667004.331 9      2502.360 9        55.372 9  22010706.155 6         0.000 6      1949.891 6        37.977 6
G16  20498592.402 9 107720809.813 9       564.580 9        55.976 9  20498591.575 6         0.000 6       439.932 6        37.977 6
G26  20651030.156 9 108521873.676 9     -1476.059 9        55.875 9  20651032.971 6         0.000 6     -1150.176 6        37.977 6
G20  21949950.634 9 115347735.963 9      2571.055 9        55.313 9  21949950.959 6         0.000 6      2003.420 6        37.977 6
> 2019 07 03 12 00 48.0000000  0  8       0.000000000000
G07  25351883.349 9 133225000.054 9      2191.735 9        54.130 9  25351884.022 6         0.000 6      1707.847 6        37.977 6
G10  23817109.869 9 125159702.326 9      3530.933 9        54.667 9  23817113.604 6         0.000 6      2751.379 6        37.977 6
G21  21168118.842 9 111239194.649 9     -1247.001 9        55.710 9  21168118.127 6         0.000 6      -971.689 6        37.977 6
G29  24292852.359 9 127659744.507 9     -3119.092 9        54.477 9  24292853.926 6         0.000 6     -2430.464 6        37.977 6
G27  22010228.060 9 115664502.094 9      2502.123 9        55.372 9  22010229.995 6         0.000 6      1949.707 6        37.977 6
G16  20498485.024 9 107720245.540 9       563.964 9        55.976 9  20498484.197 6         0.000 6       439.453 6        37.977 6
G26  20651311.095 9 108523350.016 9     -1476.634 9        55.874 9  20651313.910 6         0.000 6     -1150.624 6        37.977 6
G20  21949461.420 9 115345165.127 9      2570.612 9        55.313 9  21949461.744 6         0.000 6      2003.076 6        37.977 6
> 2019 07 03 12 00 49.0000000  0  8       0.000000000000
G07  25351466.319 9 133222808.551 9      2191.277 9        54.130 9  25351466.992 6         0.000 6      1707.490 6        37.977 6
G10  23816437.968 9 125156171.472 9      3530.797 9        54.667 9  23816441.702 6         0.000 6      2751.273 6        37.977 6
G21  21168356.172 9 111240441.830 9     -1247.363 9        55.710 9  21168355.458 6         0.000 6      -971.971 6        37.977 6
G29  24293445.910 9 127662863.632 9     -3119.178 9        54.477 9  24293447.478 6         0.000 6     -2430.531 6        37.977 6
G27  22009751.944 9 115662000.092 9      2501.887 9        55.372 9  22009753.879 6         0.000 6      1949.523 6        37.977 6
G16  20498377.764 9 107719681.883 9       563.349 9        55.976 9  20498376.937 6         0.000 6       438.973 6        37.977 6
G26  20651592.143 9 108524826.936 9     -1477.209 9        55.874 9  20651594.959 6         0.000 6     -1151.073 6        37.977 6
G20  21948972.291 9 115342594.740 9      2570.170 9        55.314 9  21948972.615 6         0.000 6      2002.731 6        37.977 6
> 2019 07 03 12 00 50.0000000  0  8       0.000000000000
G07  25351049.377 9 133220617.510 9      2190.819 9        54.130 9  25351050.050 6         0.000 6      1707.132 6        37.977 6
G10  23815766.092 9 125152640.749 9      3530.661 9        54.667 9  23815769.825 6         0.000 6      2751.167 6        37.977 6
G21  21168593.572 9 111241689.371 9     -1247.724 9        55.710 9  21168592.857 6         0.000 6      -972.253 6        37.977 6
G29  24294039.478 9 127665982.842 9     -3119.263 9        54.477 9  24294041.046 6         0.000 6     -2430.597 6        37.977 6
G27  22009275.873 9 115659498.324 9      2501.650 9        55.372 9  22009277.808 6         0.000 6      1949.339 6        37.977 6
G16  20498270.620 9 107719118.840 9       562.733 9        55.976 9  20498269.793 6         0.000 6       438.493 6        37.977 6
G26  20651873.301 9 108526304.426 9     -1477.784 9        55.874 9  20651876.116 6         0.000 6     -1151.521 6        37.977 6
G20  21948483.245 9 115340024.791 9      2569.728 9        55.314 9  21948483.569 6         0.000 6      2002.387 6        37.977 6
> 2019 07 03 12 00 51.0000000  0  8       0.000000000000
G07  25350632.522 9 133218426.924 9      2190.360 9        54.130 9  25350633.194 6         0.000 6      1706.775 6        37.977 6
G10  23815094.242 9 125149110.166 9      3530.525 9        54.667 9  23815097.975 6         0.000 6      2751.061 6        37.977 6
G21  21168831.040 9 111242937.275 9     -1248.085 9        55.710 9  21168830.325 6         0.000 6      -972.534 6        37.977 6
G29  24294633.062 9 127669102.138 9     -3119.349 9        54.477 9  24294634.631 6         0.000 6     -2430.664 6        37.977 6
G27  22008799.847 9 115656996.795 9      2501.414 9        55.373 9  22008801.782 6         0.000 6      1949.154 6        37.977 6
G16  20498163.594 9 107718556.415 9       562.117 9        55.976 9  20498162.768 6         0.000 6       438.013 6        37.977 6
G26  20652154.569 9 108527782.496 9     -1478.360 9        55.874 9  20652157.384 6         0.000 6     -1151.969 6        37.977 6
G20  21947994.284 9 115337455.289 9      2569.286 9        55.314 9  21947994.607 6         0.000 6      2002.042 6        37.977 6
> 2019 07 03 12 00 52.0000000  0  8       0.000000000000
G07  25350215.754 9 133216236.797 9      2189.902 9        54.130 9  25350216.426 6         0.000 6      1706.418 6        37.977 6
G10  23814422.419 9 125145579.720 9      3530.389 9        54.668 9  23814426.150 6         0.000 6      2750.955 6        37.977 6
G21  21169068.577 9 111244185.540 9     -1248.447 9        55.710 9  21169067.862 6         0.000 6      -972.816 6        37.977 6
G29  24295226.663 9 127672221.520 9     -3119.435 9        54.477 9  24295228.233 6         0.000 6     -2430.731 6        37.977 6
G27  22008323.867 9 115654495.502 9      2501.177 9        55.373 9  22008325.801 6         0.000 6      1948.970 6        37.977 6
G16  20498056.686 9 107717994.605 9       561.501 9        55.976 9  20498055.859 6         0.000 6       437.534 6        37.977 6
G26  20652435.946 9 108529261.141 9     -1478.935 9        55.874 9  20652438.761 6         0.000 6     -1152.417 6        37.977 6
G20  21947505.407 9 115334886.229 9      2568.843 9        55.314 9  21947505.730 6         0.000 6      2001.697 6        37.977 6
> 2019 07 03 12 00 53.0000000  0  8       0.000000000000
G07  25349799.074 9 133214047.131 9      2189.443 9        54.131 9  25349799.745 6         0.000 6      1706.060 6        37.977 6
G10  23813750.620 9 125142049.406 9      3530.252 9        54.668 9  23813754.351 6         0.000 6      2750.849 6        37.977 6
G21  21169306.183 9 111245434.164 9     -1248.808 9        55.710 9  21169305.468 6         0.000 6      -973.097 6        37.977 6
G29  24295820.280 9 127675340.987 9     -3119.521 9        54.476 9  24295821.850 6         0.000 6     -2430.798 6        37.977 6
G27  22007847.931 9 115651994.444 9      2500.941 9        55.373 9  22007849.865 6         0.000 6      1948.786 6        37.977 6
G16  20497949.893 9 107717433.409 9       560.886 9        55.976 9  20497949.067 6         0.000 6       437.054 6        37.977 6
G26  20652717.431 9 108530740.357 9     -1479.510 9        55.874 9  20652720.247 6         0.000 6     -1152.865 6        37.977 6
G20  21947016.614 9 115332317.607 9      2568.401 9        55.314 9  21947016.937 6         0.000 6      2001.352 6        37.977 6
> 2019 07 03 12 00 54.0000000  0  8       0.000000000000
G07  25349382.480 9 133211857.921 9      2188.984 9        54.131 9  25349383.152 6         0.000 6      1705.703 6        37.977 6
G10  23813078.849 9 125138519.233 9      3530.116 9        54.668 9  23813082.579 6         0.000 6      2750.742 6        37.977 6
G21  21169543.857 9 111246683.152 9     -1249.169 9        55.710 9  21169543.143 6         0.000 6      -973.379 6        37.977 6
G29  24296413.913 9 127678460.541 9     -3119.606 9        54.476 9  24296415.484 6         0.000 6     -2430.865 6        37.977 6
G27  22007372.040 9 115649493.624 9      2500.704 9        55.373 9  22007373.974 6         0.000 6      1948.601 6        37.977 6
G16  20497843.219 9 107716872.831 9       560.270 9        55.976 9  20497842.392 6         0.000 6       436.574 6        37.977 6
G26  20652999.028 9 108532220.152 9     -1480.085 9        55.874 9  20653001.843 6         0.000 6     -1153.313 6        37.977 6
G20  21946527.905 9 115329749.432 9      2567.958 9        55.315 9  21946528.228 6         0.000 6      2001.007 6        37.977 6
> 2019 07 03 12 00 55.0000000  0  8       0.000000000000
G07  25348965.975 9 133209669.172 9      2188.526 9        54.131 9  25348966.646 6         0.000 6      1705.345 6        37.977 6
G10  23812407.102 9 125134989.191 9      3529.979 9        54.668 9  23812410.832 6         0.000 6      2750.636 6        37.977 6
G21  21169781.600 9 111247932.499 9     -1249.530 9        55.710 9  21169780.886 6         0.000 6      -973.660 6        37.977 6
G29  24297007.563 9 127681580.180 9     -3119.692 9        54.476 9  24297009.134 6         0.000 6     -2430.931 6        37.977 6
G27  22006896.194 9 115646993.038 9      2500.468 9        55.373 9  22006898.128 6         0.000 6      1948.417 6        37.977 6
G16  20497736.661 9 107716312.866 9       559.654 9        55.976 9  20497735.834 6         0.000 6       436.094 6        37.977 6
G26  20653280.732 9 108533700.518 9     -1480.660 9        55.874 9  20653283.548 6         0.000 6     -1153.761 6        37.977 6
G20  21946039.281 9 115327181.696 9      2567.515 9        55.315 9  21946039.603 6         0.000 6      2000.663 6        37.977 6
> 2019 07 03 12 00 56.0000000  0  8       0.000000000000
G07  25348549.556 9 133207480.882 9      2188.067 9        54.131 9  25348550.227 6         0.000 6      1704.988 6        37.977 6
G10  23811735.382 9 125131459.289 9      3529.842 9        54.669 9  23811739.111 6         0.000 6      2750.529 6        37.977 6
G21  21170019.412 9 111249182.207 9     -1249.891 9        55.710 9  21170018.697 6         0.000 6      -973.942 6        37.977 6
G29  24297601.227 9 127684699.899 9     -3119.778 9        54.476 9  24297602.799 6         0.000 6     -2430.998 6        37.977 6
G27  22006420.394 9 115644492.696 9      2500.231 9        55.374 9  22006422.327 6         0.000 6      1948.233 6        37.977 6
G16  20497630.221 9 107715753.521 9       559.038 9        55.976 9  20497629.395 6         0.000 6       435.614 6        37.977 6
G26  20653562.547 9 108535181.463 9     -1481.235 9        55.873 9  20653565.363 6         0.000 6     -1154.209 6        37.977 6
G20  21945550.740 9 115324614.403 9      2567.073 9        55.315 9  21945551.062 6         0.000 6      2000.317 6        37.977 6
> 2019 07 03 12 00 57.0000000  0  8       0.000000000000
G07  25348133.225 9 133205293.051 9      2187.608 9        54.131 9  25348133.896 6         0.000 6      1704.630 6        37.977 6
G10  23811063.687 9 125127929.521 9      3529.706 9        54.669 9  23811067.416 6         0.000 6      2750.423 6        37.977 6
G21  21170257.292 9 111250432.276 9     -1250.252 9        55.709 9  21170256.578 6         0.000 6      -974.223 6        37.977 6
G29  24298194.909 9 127687819.710 9     -3119.863 9        54.475 9  24298196.482 6         0.000 6     -2431.065 6        37.977 6
G27  22005944.638 9 115641992.584 9      2499.994 9        55.374 9  22005946.571 6         0.000 6      1948.048 6        37.977 6
G16  20497523.898 9 107715194.788 9       558.422 9        55.976 9  20497523.071 6         0.000 6       435.134 6        37.977 6
G26  20653844.470 9 108536662.979 9     -1481.810 9        55.873 9  20653847.286 6         0.000 6     -1154.657 6        37.977 6
G20  21945062.284 9 115322047.552 9      2566.630 9        55.315 9  21945062.606 6         0.000 6      1999.972 6        37.977 6
> 2019 07 03 12 00 58.0000000  0  8       0.000000000000
G07  25347716.981 9 133203105.677 9      2187.149 9        54.131 9  25347717.651 6         0.000 6      1704.273 6        37.977 6
G10  23810392.020 9 125124399.895 9      3529.569 9        54.669 9  23810395.747 6         0.000 6      2750.316 6        37.977 6
G21  21170495.242 9 111251682.708 9     -1250.613 9        55.709 9  21170494.527 6         0.000 6      -974.504 6        37.977 6
G29  24298788.608 9 127690939.606 9     -3119.949 9        54.475 9  24298790.181 6         0.000 6     -2431.132 6        37.977 6
G27  22005468.927 9 115639492.710 9      2499.758 9        55.374 9  22005470.860 6         0.000 6      1947.864 6        37.977 6
G16  20497417.692 9 107714636.674 9       557.806 9        55.976 9  20497416.866 6         0.000 6       434.654 6        37.977 6
G26  20654126.504 9 108538145.074 9     -1482.385 9        55.873 9  20654129.320 6         0.000 6     -1155.105 6        37.977 6
G20  21944573.913 9 115319481.148 9      2566.187 9        55.315 9  21944574.234 6         0.000 6      1999.627 6        37.977 6
> 2019 07 03 12 00 59.0000000  0  8       0.000000000000
G07  25347300.825 9 133200918.764 9      2186.690 9        54.131 9  25347301.495 6         0.000 6      1703.915 6        37.977 6
G10  23809720.377 9 125120870.401 9      3529.432 9        54.669 9  23809724.104 6         0.000 6      2750.209 6        37.977 6
G21  21170733.259 9 111252933.499 9     -1250.974 9        55.709 9  21170732.545 6         0.000 6      -974.785 6        37.977 6
G29  24299382.323 9 127694059.587 9     -3120.035 9        54.475 9  24299383.897 6         0.000 6     -2431.198 6        37.977 6
G27  22004993.261 9 115636993.072 9      2499.521 9        55.374 9  22004995.194 6         0.000 6      1947.679 6        37.977 6
G16  20497311.603 9 107714079.173 9       557.190 9        55.977 9  20497310.777 6         0.000 6       434.174 6        37.977 6
G26  20654408.646 9 108539627.740 9     -1482.959 9        55.873 9  20654411.463 6         0.000 6     -1155.553 6        37.977 6
G20  21944085.625 9 115316915.184 9      2565.744 9        55.316 9  21944085.946 6         0.000 6      1999.282 6        37.977 6
> 2019 07 03 12 01  0.0000000  0  8       0.000000000000
G07  25346884.755 9 133198732.308 9      2186.230 9        54.132 9  25346885.425 6         0.000 6      1703.557 6        37.977 6
G10  23809048.762 9 125117341.048 9      3529.295 9        54.669 9  23809052.488 6         0.000 6      2750.102 6        37.977 6
G21  21170971.346 9 111254184.653 9     -1251.335 9        55.709 9  21170970.632 6         0.000 6      -975.067 6        37.977 6
G29  24299976.054 9 127697179.654 9     -3120.120 9        54.475 9  24299977.628 6         0.000 6     -2431.265 6        37.977 6
G27  22004517.641 9 115634493.672 9      2499.284 9        55.374 9  22004519.574 6         0.000 6      1947.495 6        37.977 6
G16  20497205.632 9 107713522.291 9       556.574 9        55.977 9  20497204.806 6         0.000 6       433.694 6        37.977 6
G26  20654690.899 9 108541110.985 9     -1483.534 9        55.873 9  20654693.715 6         0.000 6     -1156.001 6        37.977 6
G20  21943597.422 9 115314349.666 9      2565.300 9        55.316 9  21943597.743 6         0.000 6      1998.936 6        37.977 6
> 2019 07 03 12 01  1.0000000  0  8       0.000000000000
G07  25346468.773 9 133196546.313 9      2185.771 9        54.132 9  25346469.443 6         0.000 6      1703.199 6        37.977 6
G10  23808377.172 9 125113811.828 9      3529.157 9        54.670 9  23808380.897 6         0.000 6      2749.995 6        37.977 6
G21  21171209.501 9 111255436.166 9     -1251.696 9        55.709 9  21171208.787 6         0.000 6      -975.348 6        37.977 6
G29  24300569.801 9 127700299.807 9     -3120.206 9        54.475 9  24300571.376 6         0.000 6     -2431.332 6        37.977 6
G27  22004042.065 9 115631994.507 9      2499.047 9        55.374 9  22004043.998 6         0.000 6      1947.310 6        37.977 6
G16  20497099.778 9 107712966.021 9       555.958 9        55.977 9  20497098.951 6         0.000 6       433.214 6        37.977 6
G26  20654973.260 9 108542594.800 9     -1484.109 9        55.873 9  20654976.076 6         0.000 6     -1156.449 6        37.977 6
G20  21943109.303 9 115311784.588 9      2564.857 9        55.316 9  21943109.624 6         0.000 6      1998.591 6        37.977 6
> 2019 07 03 12 01  2.0000000  0  8       0.000000000000
G07  25346052.879 9 133194360.775 9      2185.312 9        54.132 9  25346053.548 6         0.000 6      1702.841 6        37.977 6
G10  23807705.608 9 125110282.750 9      3529.020 9        54.670 9  23807709.333 6         0.000 6      2749.888 6        37.977 6
G21  21171447.725 9 111256688.041 9     -1252.057 9        55.709 9  21171447.011 6         0.000 6      -975.629 6        37.977 6
G29  24301163.564 9 127703420.045 9     -3120.291 9        54.474 9  24301165.140 6         0.000 6     -2431.398 6        37.977 6
G27  22003566.535 9 115629495.581 9      2498.810 9        55.375 9  22003568.467 6         0.000 6      1947.126 6        37.977 6
G16  20496994.041 9 107712410.372 9       555.342 9        55.977 9  20496993.214 6         0.000 6       432.734 6        37.977 6
G26  20655255.731 9 108544079.195 9     -1484.684 9        55.873 9  20655258.548 6         0.000 6     -1156.897 6        37.977 6
G20  21942621.269 9 115309219.957 9      2564.414 9        55.316 9  21942621.590 6         0.000 6      1998.246 6        37.977 6
> 2019 07 03 12 01  3.0000000  0  8       0.000000000000
G07  25345637.072 9 133192175.700 9      2184.852 9        54.132 9  25345637.741 6         0.000 6      1702.483 6        37.977 6
G10  23807034.071 9 125106753.808 9      3528.883 9        54.670 9  23807037.795 6         0.000 6      2749.781 6        37.977 6
G21  21171686.018 9 111257940.276 9     -1252.418 9        55.709 9  21171685.304 6         0.000 6      -975.910 6        37.977 6
G29  24301757.343 9 127706540.364 9     -3120.377 9        54.474 9  24301758.920 6         0.000 6     -2431.465 6        37.977 6
G27  22003091.050 9 115626996.896 9      2498.573 9        55.375 9  22003092.983 6         0.000 6      1946.941 6        37.977 6
G16  20496888.422 9 107711855.339 9       554.726 9        55.977 9  20496887.595 6         0.000 6       432.254 6        37.977 6
G26  20655538.311 9 108545564.164 9     -1485.259 9        55.873 9  20655541.128 6         0.000 6     -1157.345 6        37.977 6
G20  21942133.319 9 115306655.766 9      2563.970 9        55.316 9  21942133.640 6         0.000 6      1997.900 6        37.977 6
> 2019 07 03 12 01  4.0000000  0  8       0.000000000000
G07  25345221.353 9 133189991.083 9      2184.393 9        54.132 9  25345222.022 6         0.000 6      1702.125 6        37.977 6
G10  23806362.559 9 125103225.000 9      3528.745 9        54.670 9  23806366.283 6         0.000 6      2749.674 6        37.977 6
G21  21171924.379 9 111259192.871 9     -1252.778 9        55.709 9  21171923.665 6         0.000 6      -976.191 6        37.977 6
G29  24302351.139 9 127709660.773 9     -3120.462 9        54.474 9  24302352.716 6         0.000 6     -2431.532 6        37.977 6
G27  22002615.610 9 115624498.442 9      2498.336 9        55.375 9  22002617.542 6         0.000 6      1946.756 6        37.977 6
G16  20496782.919 9 107711300.918 9       554.109 9        55.977 9  20496782.092 6         0.000 6       431.774 6        37.977 6
G26  20655821.001 9 108547049.703 9     -1485.833 9        55.873 9  20655823.817 6         0.000 6     -1157.793 6        37.977 6
G20  21941645.453 9 115304092.018 9      2563.527 9        55.316 9  21941645.773 6         0.000 6      1997.554 6        37.977 6
> 2019 07 03 12 01  5.0000000  0  8       0.000000000000
G07  25344805.720 9 133187806.924 9      2183.933 9        54.132 9  25344806.389 6         0.000 6      1701.767 6        37.977 6
G10  23805691.074 9 125099696.334 9      3528.607 9        54.671 9  23805694.797 6         0.000 6      2749.567 6        37.977 6
G21  21172162.809 9 111260445.828 9     -1253.139 9        55.709 9  21172162.095 6         0.000 6      -976.472 6        37.977 6
G29  24302944.952 9 127712781.268 9     -3120.548 9        54.474 9  24302946.529 6         0.000 6     -2431.598 6        37.977 6
G27  22002140.215 9 115622000.227 9      2498.099 9        55.375 9  22002142.147 6         0.000 6      1946.572 6        37.977 6
G16  20496677.534 9 107710747.117 9       553.493 9        55.977 9  20496676.708 6         0.000 6       431.293 6        37.977 6
G26  20656103.800 9 108548535.822 9     -1486.408 9        55.872 9  20656106.617 6         0.000 6     -1158.240 6        37.977 6
G20  21941157.673 9 115301528.718 9      2563.083 9        55.317 9  21941157.992 6         0.000 6      1997.209 6        37.977 6
> 2019 07 03 12 01  6.0000000  0  8       0.000000000000
G07  25344390.176 9 133185623.227 9      2183.474 9        54.132 9  25344390.844 6         0.000 6      1701.409 6        37.977 6
G10  23805019.615 9 125096167.802 9      3528.470 9        54.671 9  23805023.337 6         0.000 6      2749.460 6        37.977 6
G21  21172401.307 9 111261699.144 9     -1253.499 9        55.709 9  21172400.593 6         0.000 6      -976.753 6        37.977 6
G29  24303538.780 9 127715901.848 9     -3120.633 9        54.474 9  24303540.359 6         0.000 6     -2431.665 6        37.977 6
G27  22001664.864 9 115619502.247 9      2497.862 9        55.375 9  22001666.796 6         0.000 6      1946.387 6        37.977 6
G16  20496572.266 9 107710193.929 9       552.877 9        55.977 9  20496571.439 6         0.000 6       430.813 6        37.977 6
G26  20656386.708 9 108550022.511 9     -1486.983 9        55.872 9  20656389.525 6         0.000 6     -1158.688 6        37.977 6
G20  21940669.976 9 115298965.857 9      2562.639 9        55.317 9  21940670.295 6         0.000 6      1996.863 6        37.977 6
> 2019 07 03 12 01  7.0000000  0  8       0.000000000000
G07  25343974.718 9 133183439.986 9      2183.014 9        54.133 9  25343975.387 6         0.000 6      1701.051 6        37.977 6
G10  23804348.183 9 125092639.412 9      3528.332 9        54.671 9  23804351.904 6         0.000 6      2749.352 6        37.977 6
G21  21172639.874 9 111262952.823 9     -1253.860 9        55.709 9  21172639.160 6         0.000 6      -977.034 6        37.977 6
G29  24304132.625 9 127719022.514 9     -3120.719 9        54.473 9  24304134.204 6         0.000 6     -2431.731 6        37.977 6
G27  22001189.559 9 115617004.505 9      2497.625 9        55.376 9  22001191.491 6         0.000 6      1946.202 6        37.977 6
G16  20496467.116 9 107709641.360 9       552.261 9        55.977 9  20496466.289 6         0.000 6       430.333 6        37.977 6
G26  20656669.726 9 108551509.779 9     -1487.557 9        55.872 9  20656672.543 6         0.000 6     -1159.136 6        37.977 6
G20  21940182.364 9 115296403.444 9      2562.195 9        55.317 9  21940182.683 6         0.000 6      1996.517 6        37.977 6
> 2019 07 03 12 01  8.0000000  0  8       0.000000000000
G07  25343559.349 9 133181257.209 9      2182.554 9        54.133 9  25343560.017 6         0.000 6      1700.692 6        37.977 6
G10  23803676.776 9 125089111.156 9      3528.194 9        54.671 9  23803680.497 6         0.000 6      2749.245 6        37.977 6
G21  21172878.510 9 111264206.860 9     -1254.220 9        55.708 9  21172877.796 6         0.000 6      -977.315 6        37.977 6
G29  24304726.486 9 127722143.265 9     -3120.804 9        54.473 9  24304728.066 6         0.000 6     -2431.798 6        37.977 6
G27  22000714.299 9 115614506.999 9      2497.388 9        55.376 9  22000716.231 6         0.000 6      1946.017 6        37.977 6
G16  20496362.082 9 107709089.405 9       551.644 9        55.977 9  20496361.255 6         0.000 6       429.853 6        37.977 6
G26  20656952.852 9 108552997.617 9     -1488.132 9        55.872 9  20656955.670 6         0.000 6     -1159.584 6        37.977 6
G20  21939694.836 9 115293841.471 9      2561.751 9        55.317 9  21939695.155 6         0.000 6      1996.171 6        37.977 6
> 2019 07 03 12 01  9.0000000  0  8       0.000000000000
G07  25343144.066 9 133179074.888 9      2182.094 9        54.133 9  25343144.734 6         0.000 6      1700.334 6        37.977 6
G10  23803005.396 9 125085583.042 9      3528.056 9        54.672 9  23803009.116 6         0.000 6      2749.137 6        37.977 6
G21  21173117.214 9 111265461.260 9     -1254.581 9        55.708 9  21173116.500 6         0.000 6      -977.595 6        37.977 6
G29  24305320.364 9 127725264.101 9     -3120.889 9        54.473 9  24305321.944 6         0.000 6     -2431.864 6        37.977 6
G27  22000239.085 9 115612009.732 9      2497.151 9        55.376 9  22000241.016 6         0.000 6      1945.833 6        37.977 6
G16  20496257.166 9 107708538.069 9       551.028 9        55.977 9  20496256.340 6         0.000 6       429.372 6        37.977 6
G26  20657236.089 9 108554486.034 9     -1488.706 9        55.872 9  20657238.906 6         0.000 6     -1160.031 6        37.977 6
G20  21939207.393 9 115291279.946 9      2561.307 9        55.317 9  21939207.712 6         0.000 6      1995.825 6        37.977 6
> 2019 07 03 12 01 10.0000000  0  8       0.000000000000
G07  25342728.872 9 133176893.030 9      2181.634 9        54.133 9  25342729.540 6         0.000 6      1699.976 6        37.977 6
G10  23802334.042 9 125082055.061 9      3527.917 9        54.672 9  23802337.761 6         0.000 6      2749.029 6        37.977 6
G21  21173355.987 9 111266716.017 9     -1254.941 9        55.708 9  21173355.273 6         0.000 6      -977.876 6        37.977 6
G29  24305914.257 9 127728385.023 9     -3120.975 9        54.473 9  24305915.838 6         0.000 6     -2431.931 6        37.977 6
G27  21999763.915 9 115609512.701 9      2496.914 9        55.376 9  21999765.846 6         0.000 6      1945.648 6        37.977 6
G16  20496152.367 9 107707987.346 9       550.411 9        55.977 9  20496151.541 6         0.000 6       428.892 6        37.977 6
G26  20657519.434 9 108555975.021 9     -1489.281 9        55.872 9  20657522.252 6         0.000 6     -1160.479 6        37.977 6
G20  21938720.034 9 115288718.861 9      2560.863 9        55.318 9  21938720.352 6         0.000 6      1995.479 6        37.977 6
> 2019 07 03 12 01 11.0000000  0  8       0.000000000000
G07  25342313.765 9 133174711.632 9      2181.174 9        54.133 9  25342314.432 6         0.000 6      1699.617 6        37.977 6
G10  23801662.714 9 125078527.221 9      3527.779 9        54.672 9  23801666.433 6         0.000 6      2748.922 6        37.977 6
G21  21173594.828 9 111267971.135 9     -1255.301 9        55.708 9  21173594.114 6         0.000 6      -978.157 6        37.977 6
G29  24306508.166 9 127731506.025 9     -3121.060 9        54.472 9  24306509.748 6         0.000 6     -2431.997 6        37.977 6
G27  21999288.791 9 115607015.912 9      2496.677 9        55.376 9  21999290.722 6         0.000 6      1945.463 6        37.977 6
G16  20496047.686 9 107707437.244 9       549.795 9        55.977 9  20496046.860 6         0.000 6       428.412 6        37.977 6
G26  20657802.889 9 108557464.587 9     -1489.855 9        55.872 9  20657805.707 6         0.000 6     -1160.927 6        37.977 6
G20  21938232.759 9 115286158.222 9      2560.419 9        55.318 9  21938233.077 6         0.000 6      1995.133 6        37.977 6
> 2019 07 03 12 01 12.0000000  0  8       0.000000000000
G07  25341898.745 9 133172530.691 9      2180.714 9        54.133 9  25341899.412 6         0.000 6      1699.259 6        37.977 6
G10  23800991.413 9 125074999.522 9      3527.641 9        54.672 9  23800995.131 6         0.000 6      2748.814 6        37.977 6
G21  21173833.738 9 111269226.616 9     -1255.661 9        55.708 9  21173833.024 6         0.000 6      -978.438 6        37.977 6
G29  24307102.092 9 127734627.117 9     -3121.145 9        54.472 9  24307103.674 6         0.000 6     -2432.064 6        37.977 6
G27  21998813.712 9 115604519.356 9      2496.439 9        55.377 9  21998815.643 6         0.000 6      1945.278 6        37.977 6
G16  20495943.123 9 107706887.758 9       549.178 9        55.977 9  20495942.296 6         0.000 6       427.931 6        37.977 6
G26  20658086.454 9 108558954.727 9     -1490.430 9        55.872 9  20658089.272 6         0.000 6     -1161.374 6        37.977 6
G20  21937745.570 9 115283598.029 9      2559.975 9        55.318 9  21937745.888 6         0.000 6      1994.787 6        37.977 6
> 2019 07 03 12 01 13.0000000  0  8       0.000000000000
G07  25341483.813 9 133170350.214 9      2180.254 9        54.133 9  25341484.480 6         0.000 6      1698.900 6        37.977 6
G10  23800320.138 9 125071471.957 9      3527.502 9        54.673 9  23800323.855 6         0.000 6      2748.706 6        37.977 6
G21  21174072.716 9 111270482.454 9     -1256.021 9        55.708 9  21174072.003 6         0.000 6      -978.718 6        37.977 6
G29  24307696.034 9 127737748.295 9     -3121.231 9        54.472 9  24307697.617 6         0.000 6     -2432.130 6        37.977 6
G27  21998338.678 9 115602023.037 9      2496.202 9        55.377 9  21998340.608 6         0.000 6      1945.093 6        37.977 6
G16  20495838.676 9 107706338.885 9       548.562 9        55.977 9  20495837.849 6         0.000 6       427.451 6        37.977 6
G26  20658370.127 9 108560445.438 9     -1491.004 9        55.871 9  20658372.945 6         0.000 6     -1161.822 6        37.977 6
G20  21937258.465 9 115281038.277 9      2559.530 9        55.318 9  21937258.782 6         0.000 6      1994.440 6        37.977 6
> 2019 07 03 12 01 14.0000000  0  8       0.000000000000
G07  25341068.968 9 133168170.193 9      2179.794 9        54.134 9  25341069.635 6         0.000 6      1698.541 6        37.977 6
G10  23799648.889 9 125067944.534 9      3527.364 9        54.673 9  23799652.607 6         0.000 6      2748.598 6        37.977 6
G21  21174311.763 9 111271738.655 9     -1256.382 9        55.708 9  21174311.050 6         0.000 6      -978.999 6        37.977 6
G29  24308289.993 9 127740869.558 9     -3121.316 9        54.472 9  24308291.576 6         0.000 6     -2432.197 6        37.977 6
G27  21997863.689 9 115599526.956 9      2495.965 9        55.377 9  21997865.619 6         0.000 6      1944.908 6        37.977 6
G16  20495734.346 9 107705790.631 9       547.945 9        55.977 9  20495733.520 6         0.000 6       426.970 6        37.977 6
G26  20658653.910 9 108561936.727 9     -1491.578 9        55.871 9  20658656.728 6         0.000 6     -1162.269 6        37.977 6
G20  21936771.444 9 115278478.974 9      2559.086 9        55.318 9  21936771.762 6         0.000 6      1994.094 6        37.977 6
> 2019 07 03 12 01 15.0000000  0  8       0.000000000000
G07  25340654.212 9 133165990.636 9      2179.333 9        54.134 9  25340654.878 6         0.000 6      1698.183 6        37.977 6
G10  23798977.667 9 125064417.246 9      3527.225 9        54.673 9  23798981.383 6         0.000 6      2748.490 6        37.977 6
G21  21174550.879 9 111272995.213 9     -1256.742 9        55.708 9  21174550.165 6         0.000 6      -979.279 6        37.977 6
G29  24308883.968 9 127743990.906 9     -3121.401 9        54.472 9  24308885.552 6         0.000 6     -2432.263 6        37.977 6
G27  21997388.745 9 115597031.110 9      2495.727 9        55.377 9  21997390.675 6         0.000 6      1944.723 6        37.977 6
G16  20495630.134 9 107705242.991 9       547.328 9        55.977 9  20495629.307 6         0.000 6       426.490 6        37.977 6
G26  20658937.802 9 108563428.586 9     -1492.153 9        55.871 9  20658940.620 6         0.000 6     -1162.717 6        37.977 6
G20  21936284.508 9 115275920.111 9      2558.641 9        55.319 9  21936284.825 6         0.000 6      1993.747 6        37.977 6
> 2019 07 03 12 01 16.0000000  0  8       0.000000000000
G07  25340239.542 9 133163811.536 9      2178.873 9        54.134 9  25340240.209 6         0.000 6      1697.824 6        37.977 6
G10  23798306.471 9 125060890.101 9      3527.086 9        54.673 9  23798310.187 6         0.000 6      2748.382 6        37.977 6
G21  21174790.063 9 111274252.134 9     -1257.102 9        55.708 9  21174789.349 6         0.000 6      -979.560 6        37.977 6
G29  24309477.959 9 127747112.339 9     -3121.486 9        54.471 9  24309479.543 6         0.000 6     -2432.330 6        37.977 6
G27  21996913.846 9 115594535.504 9      2495.490 9        55.377 9  21996915.776 6         0.000 6      1944.538 6        37.977 6
G16  20495526.040 9 107704695.971 9       546.712 9        55.977 9  20495525.213 6         0.000 6       426.009 6        37.977 6
G26  20659221.804 9 108564921.024 9     -1492.727 9        55.871 9  20659224.622 6         0.000 6     -1163.164 6        37.977 6
G20  21935797.657 9 115273361.696 9      2558.196 9        55.319 9  21935797.974 6         0.000 6      1993.401 6        37.977 6
> 2019 07 03 12 01 17.0000000  0  8       0.000000000000
G07  25339824.961 9 133161632.900 9      2178.413 9        54.134 9  25339825.627 6         0.000 6      1697.465 6        37.977 6
G10  23797635.302 9 125057363.091 9      3526.947 9        54.674 9  23797639.017 6         0.000 6      2748.273 6        37.977 6
G21  21175029.315 9 111275509.412 9     -1257.461 9        55.708 9  21175028.602 6         0.000 6      -979.840 6        37.977 6
G29  24310071.966 9 127750233.858 9     -3121.571 9        54.471 9  24310073.551 6         0.000 6     -2432.396 6        37.977 6
G27  21996438.992 9 115592040.134 9      2495.253 9        55.377 9  21996440.922 6         0.000 6      1944.353 6        37.977 6
G16  20495422.062 9 107704149.564 9       546.095 9        55.977 9  20495421.235 6         0.000 6       425.529 6        37.977 6
G26  20659505.914 9 108566414.032 9     -1493.301 9        55.871 9  20659508.732 6         0.000 6     -1163.612 6        37.977 6
G20  21935310.890 9 115270803.723 9      2557.752 9        55.319 9  21935311.207 6         0.000 6      1993.054 6        37.977 6
> 2019 07 03 12 01 18.0000000  0  8       0.000000000000
G07  25339410.467 9 133159454.721 9      2177.952 9        54.134 9  25339411.133 6         0.000 6      1697.106 6        37.977 6
G10  23796964.159 9 125053836.223 9      3526.808 9        54.674 9  23796967.874 6         0.000 6      2748.165 6        37.977 6
G21  21175268.636 9 111276767.053 9     -1257.821 9        55.707 9  21175267.923 6         0.000 6      -980.121 6        37.977 6
G29  24310665.989 9 127753355.461 9     -3121.657 9        54.471 9  24310667.575 6         0.000 6     -2432.462 6        37.977 6
G27  21995964.184 9 115589545.003 9      2495.015 9        55.378 9  21995966.114 6         0.000 6      1944.168 6        37.977 6
G16  20495318.202 9 107703603.778 9       545.478 9        55.977 9  20495317.375 6         0.000 6       425.048 6        37.977 6
G26  20659790.134 9 108567907.618 9     -1493.875 9        55.871 9  20659792.953 6         0.000 6     -1164.059 6        37.977 6
G20  21934824.209 9 115268246.198 9      2557.307 9        55.319 9  21934824.525 6         0.000 6      1992.708 6        37.977 6
> 2019 07 03 12 01 19.0000000  0  8       0.000000000000
G07  25338996.061 9 133157277.009 9      2177.491 9        54.134 9  25338996.727 6         0.000 6      1696.747 6        37.977 6
G10  23796293.042 9 125050309.489 9      3526.669 9        54.674 9  23796296.756 6         0.000 6      2748.057 6        37.977 6
G21  21175508.025 9 111278025.049 9     -1258.181 9        55.707 9  21175507.312 6         0.000 6      -980.401 6        37.977 6
G29  24311260.028 9 127756477.145 9     -3121.742 9        54.471 9  24311261.614 6         0.000 6     -2432.529 6        37.977 6
G27  21995489.422 9 115587050.111 9      2494.778 9        55.378 9  21995491.351 6         0.000 6      1943.983 6        37.977 6
G16  20495214.459 9 107703058.606 9       544.861 9        55.977 9  20495213.632 6         0.000 6       424.567 6        37.977 6
G26  20660074.463 9 108569401.774 9     -1494.450 9        55.871 9  20660077.282 6         0.000 6     -1164.507 6        37.977 6
G20  21934337.610 9 115265689.111 9      2556.862 9        55.319 9  21934337.926 6         0.000 6      1992.361 6        37.977 6
> 2019 07 03 12 01 20.0000000  0  8       0.000000000000
G07  25338581.742 9 133155099.751 9      2177.031 9        54.134 9  25338582.408 6         0.000 6      1696.388 6        37.977 6
G10  23795621.952 9 125046782.900 9      3526.530 9        54.674 9  23795625.665 6         0.000 6      2747.948 6        37.977 6
G21  21175747.483 9 111279283.409 9     -1258.541 9        55.707 9  21175746.770 6         0.000 6      -980.681 6        37.977 6
G29  24311854.084 9 127759598.919 9     -3121.827 9        54.471 9  24311855.671 6         0.000 6     -2432.595 6        37.977 6
G27  21995014.704 9 115584555.455 9      2494.540 9        55.378 9  21995016.633 6         0.000 6      1943.798 6        37.977 6
G16  20495110.834 9 107702514.053 9       544.245 9        55.977 9  20495110.007 6         0.000 6       424.087 6        37.977 6
G26  20660358.902 9 108570896.509 9     -1495.024 9        55.871 9  20660361.721 6         0.000 6     -1164.954 6        37.977 6
G20  21933851.098 9 115263132.476 9      2556.417 9        55.320 9  21933851.414 6         0.000 6      1992.014 6        37.977 6
> 2019 07 03 12 01 21.0000000  0  8       0.000000000000
G07  25338167.511 9 133152922.955 9      2176.570 9        54.135 9  25338168.176 6         0.000 6      1696.029 6        37.977 6
G10  23794950.889 9 125043256.450 9      3526.391 9        54.675 9  23794954.602 6         0.000 6      2747.839 6        37.977 6
G21  21175987.010 9 111280542.129 9     -1258.901 9        55.707 9  21175986.297 6         0.000 6      -980.962 6        37.977 6
G29  24312448.156 9 127762720.778 9     -3121.912 9        54.470 9  24312449.743 6         0.000 6     -2432.661 6        37.977 6
G27  21994540.031 9 115582061.036 9      2494.302 9        55.378 9  21994541.961 6         0.000 6      1943.613 6        37.977 6
G16  20495007.327 9 107701970.117 9       543.628 9        55.978 9  20495006.500 6         0.000 6       423.606 6        37.977 6
G26  20660643.450 9 108572391.818 9     -1495.598 9        55.870 9  20660646.269 6         0.000 6     -1165.401 6        37.977 6
G20  21933364.670 9 115260576.287 9      2555.971 9        55.320 9  21933364.986 6         0.000 6      1991.667 6        37.977 6
> 2019 07 03 12 01 22.0000000  0  8       0.000000000000
G07  25337753.368 9 133150746.622 9      2176.109 9        54.135 9  25337754.033 6         0.000 6      1695.670 6        37.977 6
G10  23794279.852 9 125039730.135 9      3526.251 9        54.675 9  23794283.564 6         0.000 6      2747.731 6        37.977 6
G21  21176226.604 9 111281801.207 9     -1259.260 9        55.707 9  21176225.891 6         0.000 6      -981.242 6        37.977 6
G29  24313042.244 9 127765842.722 9     -3121.997 9        54.470 9  24313043.832 6         0.000 6     -2432.727 6        37.977 6
G27  21994065.403 9 115579566.853 9      2494.065 9        55.378 9  21994067.333 6         0.000 6      1943.428 6        37.977 6
G16  20494903.936 9 107701426.794 9       543.011 9        55.978 9  20494903.109 6         0.000 6       423.125 6        37.977 6
G26  20660928.107 9 108573887.696 9     -1496.172 9        55.870 9  20660930.926 6         0.000 6     -1165.849 6        37.977 6
G20  21932878.327 9 115258020.538 9      2555.526 9        55.320 9  21932878.642 6         0.000 6      1991.320 6        37.977 6
> 2019 07 03 12 01 23.0000000  0  8       0.000000000000
G07  25337339.312 9 133148570.747 9      2175.648 9        54.135 9  25337339.977 6         0.000 6      1695.311 6        37.977 6
G10  23793608.842 9 125036203.965 9      3526.112 9        54.675 9  23793612.553 6         0.000 6      2747.622 6        37.977 6
G21  21176466.268 9 111283060.646 9     -1259.620 9        55.707 9  21176465.555 6         0.000 6      -981.522 6        37.977 6
G29  24313636.348 9 127768964.752 9     -3122.082 9        54.470 9  24313637.937 6         0.000 6     -2432.794 6        37.977 6
G27  21993590.821 9 115577072.910 9      2493.827 9        55.379 9  21993592.750 6         0.000 6      1943.243 6        37.977 6
G16  20494800.663 9 107700884.092 9       542.394 9        55.978 9  20494799.836 6         0.000 6       422.645 6        37.977 6
G26  20661212.873 9 108575384.153 9     -1496.746 9        55.870 9  20661215.692 6         0.000 6     -1166.296 6        37.977 6
G20  21932392.069 9 115255465.239 9      2555.081 9        55.320 9  21932392.384 6         0.000 6      1990.973 6        37.977 6
> 2019 07 03 12 01 24.0000000  0  8       0.000000000000
G07  25336925.344 9 133146395.336 9      2175.187 9        54.135 9  25336926.009 6         0.000 6      1694.952 6        37.977 6
G10  23792937.857 9 125032677.929 9      3525.972 9        54.675 9  23792941.568 6         0.000 6      2747.513 6        37.977 6
G21  21176705.999 9 111284320.442 9     -1259.979 9        55.707 9  21176705.286 6         0.000 6      -981.802 6        37.977 6
G29  24314230.469 9 127772086.866 9     -3122.167 9        54.470 9  24314232.058 6         0.000 6     -2432.860 6        37.977 6
G27  21993116.284 9 115574579.203 9      2493.589 9        55.379 9  21993118.213 6         0.000 6      1943.057 6        37.977 6
G16  20494697.507 9 107700342.003 9       541.777 9        55.978 9  20494696.680 6         0.000 6       422.164 6        37.977 6
G26  20661497.748 9 108576881.179 9     -1497.320 9        55.870 9  20661500.568 6         0.000 6     -1166.743 6        37.977 6
G20  21931905.895 9 115252910.382 9      2554.635 9        55.320 9  21931906.209 6         0.000 6      1990.626 6        37.977 6
> 2019 07 03 12 01 25.0000000  0  8       0.000000000000
G07  25336511.464 9 133144220.383 9      2174.726 9        54.135 9  25336512.128 6         0.000 6      1694.592 6        37.977 6
G10  23792266.901 9 125029152.038 9      3525.832 9        54.676 9  23792270.611 6         0.000 6      2747.404 6        37.977 6
G21  21176945.800 9 111285580.600 9     -1260.339 9        55.707 9  21176945.086 6         0.000 6      -982.082 6        37.977 6
G29  24314824.605 9 127775209.065 9     -3122.252 9        54.470 9  24314826.196 6         0.000 6     -2432.926 6        37.977 6
G27  21992641.792 9 115572085.735 9      2493.352 9        55.379 9  21992643.721 6         0.000 6      1942.872 6        37.977 6
G16  20494594.469 9 107699800.535 9       541.160 9        55.978 9  20494593.642 6         0.000 6       421.683 6        37.977 6
G26  20661782.734 9 108578378.785 9     -1497.894 9        55.870 9  20661785.553 6         0.000 6     -1167.191 6        37.977 6
G20  21931419.806 9 115250355.974 9      2554.190 9        55.321 9  21931420.120 6         0.000 6      1990.279 6        37.977 6
> 2019 07 03 12 01 26.0000000  0  8       0.000000000000
G07  25336097.671 9 133142045.894 9      2174.265 9        54.135 9  25336098.336 6         0.000 6      1694.233 6        37.977 6
G10  23791595.970 9 125025626.282 9      3525.692 9        54.676 9  23791599.679 6         0.000 6      2747.295 6        37.977 6
G21  21177185.668 9 111286841.116 9     -1260.698 9        55.707 9  21177184.955 6         0.000 6      -982.362 6        37.977 6
G29  24315418.758 9 127778331.350 9     -3122.337 9        54.469 9  24315420.349 6         0.000 6     -2432.992 6        37.977 6
G27  21992167.346 9 115569592.503 9      2493.114 9        55.379 9  21992169.274 6         0.000 6      1942.687 6        37.977 6
G16  20494491.548 9 107699259.680 9       540.543 9        55.978 9  20494490.721 6         0.000 6       421.202 6        37.977 6
G26  20662067.827 9 108579876.959 9     -1498.468 9        55.870 9  20662070.646 6         0.000 6     -1167.638 6        37.977 6
G20  21930933.802 9 115247802.007 9      2553.744 9        55.321 9  21930934.116 6         0.000 6      1989.932 6        37.977 6
> 2019 07 03 12 01 27.0000000  0  8       0.000000000000
G07  25335683.967 9 133139871.866 9      2173.803 9        54.135 9  25335684.631 6         0.000 6      1693.874 6        37.977 6
G10  23790925.065 9 125022100.668 9      3525.552 9        54.676 9  23790928.774 6         0.000 6      2747.186 6        37.977 6
G21  21177425.605 9 111288101.991 9     -1261.057 9        55.707 9  21177424.891 6         0.000 6      -982.642 6        37.977 6
G29  24316012.926 9 127781453.714 9     -3122.422 9        54.469 9  24316014.518 6         0.000 6     -2433.059 6        37.977 6
G27  21991692.945 9 115567099.514 9      2492.876 9        55.379 9  21991694.874 6         0.000 6      1942.502 6        37.977 6
G16  20494388.745 9 107698719.448 9       539.926 9        55.978 9  20494387.918 6         0.000 6       420.721 6        37.977 6
G26  20662353.031 9 108581375.712 9     -1499.042 9        55.870 9  20662355.850 6         0.000 6     -1168.085 6        37.977 6
G20  21930447.882 9 115245248.487 9      2553.298 9        55.321 9  21930448.196 6         0.000 6      1989.584 6        37.977 6
> 2019 07 03 12 01 28.0000000  0  8       0.000000000000
G07  25335270.350 9 133137698.300 9      2173.342 9        54.136 9  25335271.014 6         0.000 6      1693.514 6        37.977 6
G10  23790254.188 9 125018575.192 9      3525.412 9        54.676 9  23790257.896 6         0.000 6      2747.077 6        37.977 6
G21  21177665.610 9 111289363.225 9     -1261.417 9        55.706 9  21177664.896 6         0.000 6      -982.922 6        37.977 6
G29  24316607.112 9 127784576.168 9     -3122.507 9        54.469 9  24316608.704 6         0.000 6     -2433.125 6        37.977 6
G27  21991218.589 9 115564606.758 9      2492.638 9        55.380 9  21991220.517 6         0.000 6      1942.316 6        37.977 6
G16  20494286.059 9 107698179.827 9       539.309 9        55.978 9  20494285.232 6         0.000 6       420.240 6        37.977 6
G26  20662638.342 9 108582875.034 9     -1499.616 9        55.870 9  20662641.162 6         0.000 6     -1168.532 6        37.977 6
G20  21929962.047 9 115242695.412 9      2552.853 9        55.321 9  21929962.361 6         0.000 6      1989.237 6        37.977 6
> 2019 07 03 12 01 29.0000000  0  8       0.000000000000
G07  25334856.821 9 133135525.192 9      2172.881 9        54.136 9  25334857.485 6         0.000 6      1693.155 6        37.977 6
G10  23789583.337 9 125015049.860 9      3525.272 9        54.677 9  23789587.045 6         0.000 6      2746.968 6        37.977 6
G21  21177905.683 9 111290624.820 9     -1261.776 9        55.706 9  21177904.970 6         0.000 6      -983.202 6        37.977 6
G29  24317201.313 9 127787698.707 9     -3122.592 9        54.469 9  24317202.906 6         0.000 6     -2433.191 6        37.977 6
G27  21990744.278 9 115562114.241 9      2492.400 9        55.380 9  21990746.206 6         0.000 6      1942.131 6        37.977 6
G16  20494183.490 9 107697640.827 9       538.691 9        55.978 9  20494182.663 6         0.000 6       419.759 6        37.977 6
G26  20662923.764 9 108584374.935 9     -1500.189 9        55.870 9  20662926.584 6         0.000 6     -1168.979 6        37.977 6
G20  21929476.298 9 115240142.787 9      2552.407 9        55.321 9  21929476.611 6         0.000 6      1988.889 6        37.977 6
> 2019 07 03 12 01 30.0000000  0  8       0.000000000000
G07  25334443.380 9 133133352.549 9      2172.419 9        54.136 9  25334444.043 6         0.000 6      1692.795 6        37.977 6
G10  23788912.513 9 125011524.664 9      3525.132 9        54.677 9  23788916.220 6         0.000 6      2746.859 6        37.977 6
G21  21178145.825 9 111291886.773 9     -1262.135 9        55.706 9  21178145.112 6         0.000 6      -983.482 6        37.977 6
G29  24317795.531 9 127790821.331 9     -3122.677 9        54.468 9  24317797.124 6         0.000 6     -2433.257 6        37.977 6
G27  21990270.012 9 115559621.961 9      2492.162 9        55.380 9  21990271.940 6         0.000 6      1941.945 6        37.977 6
G16  20494081.039 9 107697102.441 9       538.074 9        55.978 9  20494080.212 6         0.000 6       419.279 6        37.977 6
G26  20663209.295 9 108585875.404 9     -1500.763 9        55.869 9  20663212.114 6         0.000 6     -1169.426 6        37.977 6
G20  21928990.633 9 115237590.603 9      2551.961 9        55.321 9  21928990.946 6         0.000 6      1988.542 6        37.977 6
> 2019 07 03 12 01 31.0000000  0  8       0.000000000000
G07  25334030.026 9 133131180.364 9      2171.957 9        54.136 9  25334030.690 6         0.000 6      1692.435 6        37.977 6
G10  23788241.716 9 125007999.613 9      3524.991 9        54.677 9  23788245.422 6         0.000 6      2746.749 6        37.977 6
G21  21178386.036 9 111293149.087 9     -1262.494 9        55.706 9  21178385.323 6         0.000 6      -983.762 6        37.977 6
G29  24318389.764 9 127793944.040 9     -3122.762 9        54.468 9  24318391.358 6         0.000 6     -2433.323 6        37.977 6
G27  21989795.792 9 115557129.920 9      2491.924 9        55.380 9  21989797.720 6         0.000 6      1941.760 6        37.977 6
G16  20493978.705 9 107696564.676 9       537.457 9        55.978 9  20493977.879 6         0.000 6       418.798 6        37.977 6
G26  20663494.935 9 108587376.453 9     -1501.337 9        55.869 9  20663497.755 6         0.000 6     -1169.873 6        37.977 6
G20  21928505.053 9 115235038.870 9      2551.514 9        55.322 9  21928505.366 6         0.000 6      1988.194 6        37.977 6
> 2019 07 03 12 01 32.0000000  0  8       0.000000000000
G07  25333616.761 9 133129008.641 9      2171.496 9        54.136 9  25333617.423 6         0.000 6      1692.076 6        37.977 6
G10  23787570.946 9 125004474.703 9      3524.851 9        54.677 9  23787574.651 6         0.000 6      2746.640 6        37.977 6
G21  21178626.314 9 111294411.760 9     -1262.853 9        55.706 9  21178625.602 6         0.000 6      -984.042 6        37.977 6
G29  24318984.014 9 127797066.833 9     -3122.846 9        54.468 9  24318985.609 6         0.000 6     -2433.389 6        37.977 6
G27  21989321.618 9 115554638.117 9      2491.686 9        55.380 9  21989323.545 6         0.000 6      1941.574 6        37.977 6
G16  20493876.490 9 107696027.528 9       536.839 9        55.978 9  20493875.663 6         0.000 6       418.316 6        37.977 6
G26  20663780.684 9 108588878.075 9     -1501.911 9        55.869 9  20663783.504 6         0.000 6     -1170.320 6        37.977 6
G20  21928019.559 9 115232487.584 9      2551.068 9        55.322 9  21928019.871 6         0.000 6      1987.846 6        37.977 6
> 2019 07 03 12 01 33.0000000  0  8       0.000000000000
G07  25333203.583 9 133126837.382 9      2171.034 9        54.136 9  25333204.246 6         0.000 6      1691.716 6        37.977 6
G10  23786900.202 9 125000949.928 9      3524.710 9        54.678 9  23786903.906 6         0.000 6      2746.530 6        37.977 6
G21  21178866.661 9 111295674.790 9     -1263.212 9        55.706 9  21178865.948 6         0.000 6      -984.322 6        37.977 6
G29  24319578.280 9 127800189.712 9     -3122.931 9        54.468 9  24319579.876 6         0.000 6     -2433.455 6        37.977 6
G27  21988847.488 9 115552146.551 9      2491.448 9        55.381 9  21988849.415 6         0.000 6      1941.389 6        37.977 6
G16  20493774.391 9 107695490.994 9       536.222 9        55.978 9  20493773.564 6         0.000 6       417.835 6        37.977 6
G26  20664066.542 9 108590380.266 9     -1502.484 9        55.869 9  20664069.362 6         0.000 6     -1170.768 6        37.977 6
G20  21927534.148 9 115229936.739 9      2550.622 9        55.322 9  21927534.460 6         0.000 6      1987.499 6        37.977 6
> 2019 07 03 12 01 34.0000000  0  8       0.000000000000
G07  25332790.493 9 133124666.585 9      2170.572 9        54.136 9  25332791.156 6         0.000 6      1691.356 6        37.977 6
G10  23786229.484 9 124997425.297 9      3524.570 9        54.678 9  23786233.189 6         0.000 6      2746.421 6        37.977 6
G21  21179107.076 9 111296938.179 9     -1263.571 9        55.706 9  21179106.363 6         0.000 6      -984.601 6        37.977 6
G29  24320172.561 9 127803312.670 9     -3123.016 9        54.468 9  24320174.157 6         0.000 6     -2433.522 6        37.977 6
G27  21988373.404 9 115549655.228 9      2491.210 9        55.381 9  21988375.331 6         0.000 6      1941.203 6        37.977 6
G16  20493672.410 9 107694955.082 9       535.605 9        55.978 9  20493671.583 6         0.000 6       417.354 6        37.977 6
G26  20664352.510 9 108591883.035 9     -1503.058 9        55.869 9  20664355.330 6         0.000 6     -1171.215 6        37.977 6
G20  21927048.823 9 115227386.341 9      2550.176 9        55.322 9  21927049.135 6         0.000 6      1987.151 6        37.977 6
> 2019 07 03 12 01 35.0000000  0  8       0.000000000000
G07  25332377.492 9 133122496.250 9      2170.111 9        54.137 9  25332378.154 6         0.000 6      1690.996 6        37.977 6
G10  23785558.794 9 124993900.804 9      3524.429 9        54.678 9  23785562.497 6         0.000 6      2746.311 6        37.977 6
G21  21179347.560 9 111298201.927 9     -1263.930 9        55.706 9  21179346.847 6         0.000 6      -984.881 6        37.977 6
G29  24320766.859 9 127806435.718 9     -3123.101 9        54.467 9  24320768.456 6         0.000 6     -2433.588 6        37.977 6
G27  21987899.365 9 115547164.138 9      2490.972 9        55.381 9  21987901.292 6         0.000 6      1941.018 6        37.977 6
G16  20493570.546 9 107694419.782 9       534.987 9        55.978 9  20493569.719 6         0.000 6       416.873 6        37.977 6
G26  20664638.586 9 108593386.373 9     -1503.632 9        55.869 9  20664641.406 6         0.000 6     -1171.661 6        37.977 6
G20  21926563.582 9 115224836.389 9      2549.729 9        55.322 9  21926563.894 6         0.000 6      1986.803 6        37.977 6
> 2019 07 03 12 01 36.0000000  0  8       0.000000000000
G07  25331964.577 9 133120326.374 9      2169.648 9        54.137 9  25331965.239 6         0.000 6      1690.636 6        37.977 6
G10  23784888.131 9 124990376.456 9      3524.288 9        54.678 9  23784891.833 6         0.000 6      2746.201 6        37.977 6
G21  21179588.112 9 111299466.036 9     -1264.289 9        55.706 9  21179587.399 6         0.000 6      -985.161 6        37.977 6
G29  24321361.174 9 127809558.851 9     -3123.186 9        54.467 9  24321362.771 6         0.000 6     -2433.654 6        37.977 6
G27  21987425.371 9 115544673.287 9      2490.734 9        55.381 9  21987427.298 6         0.000 6      1940.832 6        37.977 6
G16  20493468.800 9 107693885.104 9       534.370 9        55.978 9  20493467.973 6         0.000 6       416.392 6        37.977 6
G26  20664924.772 9 108594890.290 9     -1504.205 9        55.869 9  20664927.593 6         0.000 6     -1172.108 6        37.977 6
G20  21926078.427 9 115222286.888 9      2549.282 9        55.323 9  21926078.739 6         0.000 6      1986.455 6        37.977 6
> 2019 07 03 12 01 37.0000000  0  8       0.000000000000
G07  25331551.752 9 133118156.963 9      2169.187 9        54.137 9  25331552.413 6         0.000 6      1690.276 6        37.977 6
G10  23784217.493 9 124986852.245 9      3524.147 9        54.679 9  23784221.196 6         0.000 6      2746.091 6        37.977 6
G21  21179828.732 9 111300730.501 9     -1264.648 9        55.706 9  21179828.019 6         0.000 6      -985.440 6        37.977 6
G29  24321955.504 9 127812682.069 9     -3123.270 9        54.467 9  24321957.102 6         0.000 6     -2433.720 6        37.977 6
G27  21986951.423 9 115542182.673 9      2490.496 9        55.381 9  21986953.349 6         0.000 6      1940.647 6        37.977 6
G16  20493367.171 9 107693351.040 9       533.752 9        55.978 9  20493366.344 6         0.000 6       415.911 6        37.977 6
G26  20665211.067 9 108596394.775 9     -1504.779 9        55.869 9  20665213.887 6         0.000 6     -1172.555 6        37.977 6
G20  21925593.357 9 115219737.829 9      2548.836 9        55.323 9  21925593.668 6         0.000 6      1986.107 6        37.977 6
> 2019 07 03 12 01 38.0000000  0  8       0.000000000000
G07  25331139.013 9 133115988.011 9      2168.724 9        54.137 9  25331139.675 6         0.000 6      1689.916 6        37.977 6
G10  23783546.884 9 124983328.179 9      3524.006 9        54.679 9  23783550.586 6         0.000 6      2745.981 6        37.977 6
G21  21180069.420 9 111301995.328 9     -1265.007 9        55.705 9  21180068.708 6         0.000 6      -985.720 6        37.977 6
G29  24322549.851 9 127815805.371 9     -3123.355 9        54.467 9  24322551.450 6         0.000 6     -2433.786 6        37.977 6
G27  21986477.520 9 115539692.299 9      2490.258 9        55.381 9  21986479.446 6         0.000 6      1940.461 6        37.977 6
G16  20493265.660 9 107692817.596 9       533.135 9        55.978 9  20493264.833 6         0.000 6       415.430 6        37.977 6
G26  20665497.471 9 108597899.839 9     -1505.352 9        55.868 9  20665500.292 6         0.000 6     -1173.002 6        37.977 6
G20  21925108.372 9 115217189.222 9      2548.389 9        55.323 9  21925108.683 6         0.000 6      1985.759 6        37.977 6
> 2019 07 03 12 01 39.0000000  0  8       0.000000000000
G07  25330726.363 9 133113819.524 9      2168.262 9        54.137 9  25330727.024 6         0.000 6      1689.556 6        37.977 6
G10  23782876.301 9 124979804.250 9      3523.864 9        54.679 9  23782880.002 6         0.000 6      2745.871 6        37.977 6
G21  21180310.177 9 111303260.511 9     -1265.365 9        55.705 9  21180309.464 6         0.000 6      -985.999 6        37.977 6
G29  24323144.214 9 127818928.758 9     -3123.440 9        54.467 9  24323145.813 6         0.000 6     -2433.852 6        37.977 6
G27  21986003.662 9 115537202.161 9      2490.019 9        55.382 9  21986005.588 6         0.000 6      1940.275 6        37.977 6
G16  20493164.266 9 107692284.767 9       532.517 9        55.978 9  20493163.439 6         0.000 6       414.949 6        37.977 6
G26  20665783.984 9 108599405.472 9     -1505.926 9        55.868 9  20665786.805 6         0.000 6     -1173.449 6        37.977 6
G20  21924623.471 9 115214641.056 9      2547.942 9        55.323 9  21924623.782 6         0.000 6      1985.411 6        37.977 6
> 2019 07 03 12 01 40.0000000  0  8       0.000000000000
G07  25330313.800 9 133111651.496 9      2167.800 9        54.137 9  25330314.462 6         0.000 6      1689.196 6        37.977 6
G10  23782205.745 9 124976280.467 9      3523.723 9        54.679 9  23782209.445 6         0.000 6      2745.761 6        37.977 6
G21  21180551.002 9 111304526.055 9     -1265.724 9        55.705 9  21180550.289 6         0.000 6      -986.279 6        37.977 6
G29  24323738.593 9 127822052.230 9     -3123.524 9        54.466 9  24323740.192 6         0.000 6     -2433.918 6        37.977 6
G27  21985529.850 9 115534712.264 9      2489.781 9        55.382 9  21985531.776 6         0.000 6      1940.090 6        37.977 6
G16  20493062.990 9 107691752.558 9       531.900 9        55.978 9  20493062.163 6         0.000 6       414.467 6        37.977 6
G26  20666070.607 9 108600911.682 9     -1506.499 9        55.868 9  20666073.427 6         0.000 6     -1173.896 6        37.977 6
G20  21924138.657 9 115212093.342 9      2547.495 9        55.323 9  21924138.967 6         0.000 6      1985.062 6        37.977 6
> 2019 07 03 12 01 41.0000000  0  8       0.000000000000
G07  25329901.326 9 133109483.931 9      2167.338 9        54.137 9  25329901.987 6         0.000 6      1688.835 6        37.977 6
G10  23781535.216 9 124972756.825 9      3523.582 9        54.680 9  23781538.916 6         0.000 6      2745.651 6        37.977 6
G21  21180791.895 9 111305791.957 9     -1266.083 9        55.705 9  21180791.183 6         0.000 6      -986.558 6        37.977 6
G29  24324332.988 9 127825175.786 9     -3123.609 9        54.466 9  24324334.588 6         0.000 6     -2433.984 6        37.977 6
G27  21985056.083 9 115532222.605 9      2489.543 9        55.382 9  21985058.009 6         0.000 6      1939.904 6        37.977 6
G16  20492961.832 9 107691220.967 9       531.282 9        55.978 9  20492961.005 6         0.000 6       413.986 6        37.977 6
G26  20666357.338 9 108602418.466 9     -1507.073 9        55.868 9  20666360.159 6         0.000 6     -1174.343 6        37.977 6
G20  21923653.927 9 115209546.075 9      2547.048 9        55.324 9  21923654.237 6         0.000 6      1984.714 6        37.977 6
> 2019 07 03 12 01 42.0000000  0  8       0.000000000000
G07  25329488.940 9 133107316.834 9      2166.875 9        54.138 9  25329489.601 6         0.000 6      1688.475 6        37.977 6
G10  23780864.713 9 124969233.318 9      3523.440 9        54.680 9  23780868.412 6         0.000 6      2745.540 6        37.977 6
G21  21181032.856 9 111307058.214 9     -1266.441 9        55.705 9  21181032.143 6         0.000 6      -986.837 6        37.977 6
G29  24324927.398 9 127828299.422 9     -3123.694 9        54.466 9  24324928.999 6         0.000 6     -2434.050 6        37.977 6
G27  21984582.362 9 115529733.186 9      2489.304 9        55.382 9  21984584.287 6         0.000 6      1939.718 6        37.977 6
G16  20492860.790 9 107690689.992 9       530.664 9        55.978 9  20492859.963 6         0.000 6       413.505 6        37.977 6
G26  20666644.178 9 108603925.819 9     -1507.646 9        55.868 9  20666646.999 6         0.000 6     -1174.790 6        37.977 6
G20  21923169.281 9 115206999.248 9      2546.601 9        55.324 9  21923169.591 6         0.000 6      1984.365 6        37.977 6
> 2019 07 03 12 01 43.0000000  0  8       0.000000000000
G07  25329076.642 9 133105150.193 9      2166.413 9        54.138 9  25329077.302 6         0.000 6      1688.115 6        37.977 6
G10  23780194.238 9 124965709.959 9      3523.298 9        54.680 9  23780197.937 6         0.000 6      2745.430 6        37.977 6
G21  21181273.886 9 111308324.834 9     -1266.800 9        55.705 9  21181273.173 6         0.000 6      -987.117 6        37.977 6
G29  24325521.825 9 127831423.147 9     -3123.778 9        54.466 9  24325523.427 6         0.000 6     -2434.115 6        37.977 6
G27  21984108.685 9 115527244.003 9      2489.066 9        55.382 9  21984110.611 6         0.000 6      1939.532 6        37.977 6
G16  20492759.867 9 107690159.637 9       530.047 9        55.978 9  20492759.040 6         0.000 6       413.023 6        37.977 6
G26  20666931.128 9 108605433.750 9     -1508.219 9        55.868 9  20666933.950 6         0.000 6     -1175.236 6        37.977 6
G20  21922684.722 9 115204452.875 9      2546.154 9        55.324 9  21922685.031 6         0.000 6      1984.017 6        37.977 6
> 2019 07 03 12 01 44.0000000  0  8       0.000000000000
G07  25328664.431 9 133102984.018 9      2165.950 9        54.138 9  25328665.092 6         0.000 6      1687.754 6        37.977 6
G10  23779523.790 9 124962186.738 9      3523.157 9        54.680 9  23779527.487 6         0.000 6      2745.320 6        37.977 6
G21  21181514.983 9 111309591.809 9     -1267.158 9        55.705 9  21181514.271 6         0.000 6      -987.396 6        37.977 6
G29  24326116.268 9 127834546.958 9     -3123.863 9        54.465 9  24326117.870 6         0.000 6     -2434.181 6        37.977 6
G27  21983635.054 9 115524755.058 9      2488.827 9        55.383 9  21983636.980 6         0.000 6      1939.347 6        37.977 6
G16  20492659.061 9 107689629.896 9       529.429 9        55.979 9  20492658.234 6         0.000 6       412.542 6        37.977 6
G26  20667218.187 9 108606942.249 9     -1508.793 9        55.868 9  20667221.008 6         0.000 6     -1175.683 6        37.977 6
G20  21922200.246 9 115201906.945 9      2545.706 9        55.324 9  21922200.555 6         0.000 6      1983.668 6        37.977 6
> 2019 07 03 12 01 45.0000000  0  8       0.000000000000
G07  25328252.309 9 133100818.303 9      2165.487 9        54.138 9  25328252.969 6         0.000 6      1687.394 6        37.977 6
G10  23778853.369 9 124958663.663 9      3523.015 9        54.681 9  23778857.066 6         0.000 6      2745.209 6        37.977 6
G21  21181756.150 9 111310859.146 9     -1267.516 9        55.705 9  21181755.437 6         0.000 6      -987.675 6        37.977 6
G29  24326710.727 9 127837670.852 9     -3123.947 9        54.465 9  24326712.330 6         0.000 6     -2434.247 6        37.977 6
G27  21983161.469 9 115522266.352 9      2488.589 9        55.383 9  21983163.394 6         0.000 6      1939.161 6        37.977 6
G16  20492558.373 9 107689100.776 9       528.811 9        55.979 9  20492557.546 6         0.000 6       412.060 6        37.977 6
G26  20667505.355 9 108608451.327 9     -1509.366 9        55.868 9  20667508.176 6         0.000 6     -1176.130 6        37.977 6
G20  21921715.857 9 115199361.467 9      2545.259 9        55.324 9  21921716.166 6         0.000 6      1983.320 6        37.977 6
> 2019 07 03 12 01 46.0000000  0  8       0.000000000000
G07  25327840.275 9 133098653.053 9      2165.025 9        54.138 9  25327840.935 6         0.000 6      1687.033 6        37.977 6
G10  23778182.974 9 124955140.725 9      3522.873 9        54.681 9  23778186.670 6         0.000 6      2745.098 6        37.977 6
G21  21181997.384 9 111312126.838 9     -1267.875 9        55.705 9  21181996.671 6         0.000 6      -987.954 6        37.977 6
G29  24327305.203 9 127840794.831 9     -3124.032 9        54.465 9  24327306.807 6         0.000 6     -2434.313 6        37.977 6
G27  21982687.928 9 115519777.883 9      2488.350 9        55.383 9  21982689.854 6         0.000 6      1938.975 6        37.977 6
G16  20492457.801 9 107688572.271 9       528.193 9        55.979 9  20492456.974 6         0.000 6       411.579 6        37.977 6
G26  20667792.631 9 108609960.973 9     -1509.939 9        55.867 9  20667795.453 6         0.000 6     -1176.576 6        37.977 6
G20  21921231.552 9 115196816.432 9      2544.811 9        55.325 9  21921231.861 6         0.000 6      1982.971 6        37.977 6
> 2019 07 03 12 01 47.0000000  0  8       0.000000000000
G07  25327428.328 9 133096488.263 9      2164.562 9        54.138 9  25327428.988 6         0.000 6      1686.673 6        37.977 6
G10  23777512.607 9 124951617.933 9      3522.731 9        54.681 9  23777516.303 6         0.000 6      2744.988 6        37.977 6
G21  21182238.686 9 111313394.891 9     -1268.233 9        55.705 9  21182237.974 6         0.000 6      -988.234 6        37.977 6
G29  24327899.694 9 127843918.895 9     -3124.116 9        54.465 9  24327901.299 6         0.000 6     -2434.379 6        37.977 6
G27  21982214.434 9 115517289.655 9      2488.112 9        55.383 9  21982216.359 6         0.000 6      1938.789 6        37.977 6
G16  20492357.348 9 107688044.387 9       527.575 9        55.979 9  20492356.521 6         0.000 6       411.098 6        37.977 6
G26  20668080.018 9 108611471.196 9     -1510.512 9        55.867 9  20668082.839 6         0.000 6     -1177.023 6        37.977 6
G20  21920747.333 9 115194271.849 9      2544.364 9        55.325 9  21920747.642 6         0.000 6      1982.622 6        37.977 6
> 2019 07 03 12 01 48.0000000  0  8       0.000000000000
G07  25327016.470 9 133094323.939 9      2164.099 9        54.138 9  25327017.130 6         0.000 6      1686.312 6        37.977 6
G10  23776842.266 9 124948095.280 9      3522.589 9        54.681 9  23776845.961 6         0.000 6      2744.877 6        37.977 6
G21  21182480.056 9 111314663.300 9     -1268.591 9        55.704 9  21182479.344 6         0.000 6      -988.513 6        37.977 6
G29  24328494.202 9 127847043.043 9     -3124.201 9        54.465 9  24328495.807 6         0.000 6     -2434.445 6        37.977 6
G27  21981740.984 9 115514801.663 9      2487.873 9        55.383 9  21981742.909 6         0.000 6      1938.603 6        37.977 6
G16  20492257.012 9 107687517.117 9       526.957 9        55.979 9  20492256.185 6         0.000 6       410.616 6        37.977 6
G26  20668367.512 9 108612981.989 9     -1511.085 9        55.867 9  20668370.334 6         0.000 6     -1177.470 6        37.977 6
G20  21920263.199 9 115191727.710 9      2543.916 9        55.325 9  21920263.507 6         0.000 6      1982.273 6        37.977 6
> 2019 07 03 12 01 49.0000000  0  8       0.000000000000
G07  25326604.700 9 133092160.075 9      2163.636 9        54.139 9  25326605.359 6         0.000 6      1685.951 6        37.977 6
G10  23776171.953 9 124944572.773 9      3522.446 9        54.681 9  23776175.648 6         0.000 6      2744.766 6        37.977 6
G21  21182721.495 9 111315932.069 9     -1268.949 9        55.704 9  21182720.783 6         0.000 6      -988.792 6        37.977 6
G29  24329088.726 9 127850167.276 9     -3124.285 9        54.464 9  24329090.331 6         0.000 6     -2434.511 6        37.977 6
G27  21981267.580 9 115512313.912 9      2487.634 9        55.384 9  21981269.505 6         0.000 6      1938.417 6        37.977 6
G16  20492156.794 9 107686990.469 9       526.339 9        55.979 9  20492155.968 6         0.000 6       410.135 6        37.977 6
G26  20668655.117 9 108614493.359 9     -1511.659 9        55.867 9  20668657.939 6         0.000 6     -1177.916 6        37.977 6
G20  21919779.150 9 115189184.022 9      2543.468 9        55.325 9  21919779.458 6         0.000 6      1981.924 6        37.977 6
> 2019 07 03 12 01 50.0000000  0  8       0.000000000000
G07  25326193.019 9 133089996.679 9      2163.173 9        54.139 9  25326193.678 6         0.000 6      1685.590 6        37.977 6
G10  23775501.666 9 124941050.402 9      3522.304 9        54.682 9  23775505.360 6         0.000 6      2744.655 6        37.977 6
G21  21182963.002 9 111317201.192 9     -1269.307 9        55.704 9  21182962.289 6         0.000 6      -989.071 6        37.977 6
G29  24329683.264 9 127853291.588 9     -3124.370 9        54.464 9  24329684.871 6         0.000 6     -2434.576 6        37.977 6
G27  21980794.222 9 115509826.402 9      2487.396 9        55.384 9  21980796.147 6         0.000 6      1938.231 6        37.977 6
G16  20492056.694 9 107686464.437 9       525.721 9        55.979 9  20492055.867 6         0.000 6       409.653 6        37.977 6
G26  20668942.829 9 108616005.297 9     -1512.232 9        55.867 9  20668945.651 6         0.000 6     -1178.363 6        37.977 6
G20  21919295.186 9 115186640.775 9      2543.020 9        55.325 9  21919295.493 6         0.000 6      1981.575 6        37.977 6
> 2019 07 03 12 01 51.0000000  0  8       0.000000000000
G07  25325781.425 9 133087833.741 9      2162.710 9        54.139 9  25325782.084 6         0.000 6      1685.229 6        37.977 6
G10  23774831.408 9 124937528.179 9      3522.161 9        54.682 9  23774835.101 6         0.000 6      2744.544 6        37.977 6
G21  21183204.577 9 111318470.677 9     -1269.665 9        55.704 9  21183203.865 6         0.000 6      -989.350 6        37.977 6
G29  24330277.820 9 127856415.989 9     -3124.454 9        54.464 9  24330279.427 6         0.000 6     -2434.642 6        37.977 6
G27  21980320.909 9 115507339.128 9      2487.157 9        55.384 9  21980322.834 6         0.000 6      1938.045 6        37.977 6
G16  20491956.711 9 107685939.025 9       525.103 9        55.979 9  20491955.884 6         0.000 6       409.171 6        37.977 6
G26  20669230.652 9 108617517.814 9     -1512.805 9        55.867 9  20669233.474 6         0.000 6     -1178.809 6        37.977 6
G20  21918811.308 9 115184097.983 9      2542.572 9        55.325 9  21918811.615 6         0.000 6      1981.226 6        37.977 6
> 2019 07 03 12 01 52.0000000  0  8       0.000000000000
G07  25325369.919 9 133085671.266 9      2162.247 9        54.139 9  25325370.577 6         0.000 6      1684.869 6        37.977 6
G10  23774161.176 9 124934006.100 9      3522.019 9        54.682 9  23774164.869 6         0.000 6      2744.433 6        37.977 6
G21  21183446.220 9 111319740.521 9     -1270.023 9        55.704 9  21183445.508 6         0.000 6      -989.629 6        37.977 6
G29  24330872.392 9 127859540.475 9     -3124.538 9        54.464 9  24330874.000 6         0.000 6     -2434.708 6        37.977 6
G27  21979847.642 9 115504852.093 9      2486.918 9        55.384 9  21979849.566 6         0.000 6      1937.859 6        37.977 6
G16  20491856.846 9 107685414.230 9       524.485 9        55.979 9  20491856.019 6         0.000 6       408.690 6        37.977 6
G26  20669518.584 9 108619030.903 9     -1513.378 9        55.867 9  20669521.406 6         0.000 6     -1179.256 6        37.977 6
G20  21918327.515 9 115181555.640 9      2542.124 9        55.326 9  21918327.822 6         0.000 6      1980.877 6        37.977 6
> 2019 07 03 12 01 53.0000000  0  8       0.000000000000
G07  25324958.502 9 133083509.258 9      2161.784 9        54.139 9  25324959.160 6         0.000 6      1684.508 6        37.977 6
G10  23773490.971 9 124930484.158 9      3521.876 9        54.682 9  23773494.663 6         0.000 6      2744.322 6        37.977 6
G21  21183687.931 9 111321010.720 9     -1270.381 9        55.704 9  21183687.219 6         0.000 6      -989.907 6        37.977 6
G29  24331466.980 9 127862665.046 9     -3124.623 9        54.464 9  24331468.588 6         0.000 6     -2434.774 6        37.977 6
G27  21979374.419 9 115502365.295 9      2486.680 9        55.384 9  21979376.343 6         0.000 6      1937.673 6        37.977 6
G16  20491757.098 9 107684890.051 9       523.867 9        55.979 9  20491756.271 6         0.000 6       408.208 6        37.977 6
G26  20669806.624 9 108620544.561 9     -1513.951 9        55.867 9  20669809.446 6         0.000 6     -1179.702 6        37.977 6
G20  21917843.807 9 115179013.740 9      2541.676 9        55.326 9  21917844.113 6         0.000 6      1980.528 6        37.977 6
> 2019 07 03 12 01 54.0000000  0  8       0.000000000000
G07  25324547.172 9 133081347.709 9      2161.320 9        54.139 9  25324547.830 6         0.000 6      1684.146 6        37.977 6
G10  23772820.794 9 124926962.364 9      3521.733 9        54.683 9  23772824.485 6         0.000 6      2744.210 6        37.977 6
G21  21183929.710 9 111322281.279 9     -1270.739 9        55.704 9  21183928.999 6         0.000 6      -990.186 6        37.977 6
G29  24332061.584 9 127865789.700 9     -3124.707 9        54.463 9  24332063.193 6         0.000 6     -2434.839 6        37.977 6
G27  21978901.243 9 115499878.737 9      2486.441 9        55.384 9  21978903.167 6         0.000 6      1937.487 6        37.977 6
G16  20491657.468 9 107684366.493 9       523.249 9        55.979 9  20491656.642 6         0.000 6       407.726 6        37.977 6
G26  20670094.773 9 108622058.796 9     -1514.524 9        55.867 9  20670097.596 6         0.000 6     -1180.149 6        37.977 6
G20  21917360.184 9 115176472.293 9      2541.228 9        55.326 9  21917360.491 6         0.000 6      1980.178 6        37.977 6
> 2019 07 03 12 01 55.0000000  0  8       0.000000000000
G07  25324135.931 9 133079186.627 9      2160.857 9        54.139 9  25324136.589 6         0.000 6      1683.785 6        37.977 6
G10  23772150.643 9 124923440.708 9      3521.590 9        54.683 9  23772154.334 6         0.000 6      2744.099 6        37.977 6
G21  21184171.558 9 111323552.193 9     -1271.097 9        55.704 9  21184170.846 6         0.000 6      -990.465 6        37.977 6
G29  24332656.204 9 127868914.439 9     -3124.791 9        54.463 9  24332657.813 6         0.000 6     -2434.905 6        37.977 6
G27  21978428.111 9 115497392.417 9      2486.202 9        55.385 9  21978430.035 6         0.000 6      1937.301 6        37.977 6
G16  20491557.956 9 107683843.550 9       522.631 9        55.979 9  20491557.129 6         0.000 6       407.245 6        37.977 6
G26  20670383.031 9 108623573.600 9     -1515.097 9        55.866 9  20670385.854 6         0.000 6     -1180.595 6        37.977 6
G20  21916876.647 9 115173931.290 9      2540.779 9        55.326 9  21916876.953 6         0.000 6      1979.829 6        37.977 6
> 2019 07 03 12 01 56.0000000  0  8       0.000000000000
G07  25323724.778 9 133077026.005 9      2160.393 9        54.139 9  25323725.435 6         0.000 6      1683.424 6        37.977 6
G10  23771480.520 9 124919919.200 9      3521.447 9        54.683 9  23771484.210 6         0.000 6      2743.988 6        37.977 6
G21  21184413.473 9 111324823.468 9     -1271.454 9        55.704 9  21184412.761 6         0.000 6      -990.744 6        37.977 6
G29  24333250.840 9 127872039.262 9     -3124.876 9        54.463 9  24333252.450 6         0.000 6     -2434.971 6        37.977 6
G27  21977955.025 9 115494906.337 9      2485.963 9        55.385 9  21977956.949 6         0.000 6      1937.115 6        37.977 6
G16  20491458.561 9 107683321.228 9       522.012 9        55.979 9  20491457.734 6         0.000 6       406.763 6        37.977 6
G26  20670671.399 9 108625088.981 9     -1515.669 9        55.866 9  20670674.222 6         0.000 6     -1181.042 6        37.977 6
G20  21916393.195 9 115171390.739 9      2540.331 9        55.326 9  21916393.501 6         0.000 6      1979.480 6        37.977 6
> 2019 07 03 12 01 57.0000000  0  8       0.000000000000
G07  25323313.713 9 133074865.850 9      2159.930 9        54.140 9  25323314.371 6         0.000 6      1683.063 6        37.977 6
G10  23770810.424 9 124916397.830 9      3521.304 9        54.683 9  23770814.113 6         0.000 6      2743.876 6        37.977 6
G21  21184655.457 9 111326095.098 9     -1271.812 9        55.704 9  21184654.745 6         0.000 6      -991.023 6        37.977 6
G29  24333845.492 9 127875164.170 9     -3124.960 9        54.463 9  24333847.103 6         0.000 6     -2435.036 6        37.977 6
G27  21977481.985 9 115492420.494 9      2485.724 9        55.385 9  21977483.908 6         0.000 6      1936.928 6        37.977 6
G16  20491359.284 9 107682799.522 9       521.394 9        55.979 9  20491358.457 6         0.000 6       406.281 6        37.977 6
G26  20670959.875 9 108626604.930 9     -1516.242 9        55.866 9  20670962.698 6         0.000 6     -1181.488 6        37.977 6
G20  21915909.828 9 115168850.633 9      2539.882 9        55.327 9  21915910.134 6         0.000 6      1979.130 6        37.977 6
> 2019 07 03 12 01 58.0000000  0  8       0.000000000000
G07  25322902.737 9 133072706.158 9      2159.466 9        54.140 9  25322903.394 6         0.000 6      1682.702 6        37.977 6
G10  23770140.355 9 124912876.605 9      3521.161 9        54.684 9  23770144.044 6         0.000 6      2743.765 6        37.977 6
G21  21184897.508 9 111327367.086 9     -1272.170 9        55.703 9  21184896.796 6         0.000 6      -991.301 6        37.977 6
G29  24334440.159 9 127878289.156 9     -3125.044 9        54.463 9  24334441.771 6         0.000 6     -2435.102 6        37.977 6
G27  21977008.991 9 115489934.896 9      2485.485 9        55.385 9  21977010.914 6         0.000 6      1936.742 6        37.977 6
G16  20491260.125 9 107682278.438 9       520.776 9        55.979 9  20491259.298 6         0.000 6       405.799 6        37.977 6
G26  20671248.461 9 108628121.457 9     -1516.815 9        55.866 9  20671251.284 6         0.000 6     -1181.934 6        37.977 6
G20  21915426.547 9 115166310.976 9      2539.434 9        55.327 9  21915426.852 6         0.000 6      1978.780 6        37.977 6
> 2019 07 03 12 01 59.0000000  0  8       0.000000000000
G07  25322491.849 9 133070546.930 9      2159.002 9        54.140 9  25322492.506 6         0.000 6      1682.340 6        37.977 6
G10  23769470.313 9 124909355.522 9      3521.018 9        54.684 9  23769474.001 6         0.000 6      2743.653 6        37.977 6
G21  21185139.627 9 111328639.432 9     -1272.527 9        55.703 9  21185138.916 6         0.000 6      -991.580 6        37.977 6
G29  24335034.843 9 127881414.232 9     -3125.128 9        54.462 9  24335036.455 6         0.000 6     -2435.168 6        37.977 6
G27  21976536.041 9 115487449.531 9      2485.246 9        55.385 9  21976537.964 6         0.000 6      1936.556 6        37.977 6
G16  20491161.083 9 107681757.968 9       520.158 9        55.979 9  20491160.256 6         0.000 6       405.318 6        37.977 6
G26  20671537.155 9 108629638.552 9     -1517.388 9        55.866 9  20671539.978 6         0.000 6     -1182.381 6        37.977 6
G20  21914943.351 9 115163771.767 9      2538.985 9        55.327 9  21914943.656 6         0.000 6      1978.431 6        37.977 6
> 2019 07 03 12 02  0.0000000  0  8       0.000000000000
G07  25322081.049 9 133068388.165 9      2158.539 9        54.140 9  25322081.705 6         0.000 6      1681.979 6        37.977 6
G10  23768800.299 9 124905834.585 9      3520.874 9        54.684 9  23768803.987 6         0.000 6      2743.541 6        37.977 6
G21  21185381.815 9 111329912.136 9     -1272.885 9        55.703 9  21185381.103 6         0.000 6      -991.858 6        37.977 6
G29  24335629.543 9 127884539.391 9     -3125.213 9        54.462 9  24335631.156 6         0.000 6     -2435.233 6        37.977 6
G27  21976063.137 9 115484964.408 9      2485.007 9        55.386 9  21976065.060 6         0.000 6      1936.370 6        37.977 6
G16  20491062.159 9 107681238.120 9       519.539 9        55.979 9  20491061.332 6         0.000 6       404.836 6        37.977 6
G26  20671825.958 9 108631156.223 9     -1517.961 9        55.866 9  20671828.781 6         0.000 6     -1182.827 6        37.977 6
G20  21914460.240 9 115161233.009 9      2538.536 9        55.327 9  21914460.545 6         0.000 6      1978.081 6        37.977 6
