     3.00           Observation Data    M (Mixed)           RINEX VERSION / TYPE
SimGEN V6.06.00     Spirent             03-Jul-19 12:00     PGM / RUN BY / DATE 
                                                            MARKER NAME         
1                                                           MARKER NUMBER       
GROUND_CRAFT                                                MARKER TYPE         
jin4hi              Spirent                                 OBSERVER / AGENCY   
rec_num             rec_type            rec_vers            REC # / TYPE / VERS 
1                   ant_type                                ANT # / TYPE        
  1000.000                                                  INTERVAL            
  2019     7     3    12     0    1.0000000     GPS         TIME OF FIRST OBS   
  4162645.0750   664448.6060  4770549.9870                  APPROX POSITION XYZ 
        0.0000        0.0000        0.0000                  ANTENNA: DELTA H/E/N
G    8 C1C L1C D1C S1C C2C L2C D2C S2C                      SYS / # / OBS TYPES 
        0.0000        0.0000        0.0000                  ANTENNA: DELTA X/Y/Z
DBHZ                                                        SIGNAL STRENGTH UNIT
                                                            END OF HEADER       
> 2019 07 03 12 00  1.0000000  0  8       0.000000000000
G07  25371594.834 9 133328584.436 9      2213.122 9        54.123 9  25371595.517 6         0.000 6      1724.511 6        37.977 6
G10  23848709.321 9 125325758.061 9      3537.191 9        54.655 9  23848713.086 6         0.000 6      2756.252 6        37.977 6
G21  21157032.362 9 111180934.839 9     -1229.935 9        55.715 9  21157031.645 6         0.000 6      -958.391 6        37.977 6
G29  24264944.786 9 127513089.699 9     -3115.001 9        54.487 9  24264946.324 6         0.000 6     -2427.274 6        37.977 6
G27  22032678.776 9 115782481.277 9      2513.201 9        55.363 9  22032680.719 6         0.000 6      1958.338 6        37.977 6
G16  20503669.057 9 107747487.814 9       592.861 9        55.974 9  20503668.230 6         0.000 6       461.970 6        37.977 6
G26  20638228.479 9 108454600.490 9     -1449.553 9        55.880 9  20638231.290 6         0.000 6     -1129.522 6        37.977 6
G20  21972530.856 9 115466395.616 9      2591.284 9        55.304 9  21972531.193 6         0.000 6      2019.182 6        37.977 6
> 2019 07 03 12 00  2.0000000  0  8       0.000000000000
G07  25371173.724 9 133326371.489 9      2212.723 9        54.123 9  25371174.407 6         0.000 6      1724.200 6        37.977 6
G10  23848036.225 9 125322220.928 9      3537.078 9        54.655 9  23848039.990 6         0.000 6      2756.168 6        37.977 6
G21  21157266.446 9 111182164.956 9     -1230.300 9        55.715 9  21157265.729 6         0.000 6      -958.675 6        37.977 6
G29  24265537.564 9 127516204.761 9     -3115.115 9        54.487 9  24265539.103 6         0.000 6     -2427.365 6        37.977 6
G27  22032200.552 9 115779968.191 9      2512.971 9        55.363 9  22032202.494 6         0.000 6      1958.160 6        37.977 6
G16  20503556.298 9 107746895.259 9       592.248 9        55.974 9  20503555.471 6         0.000 6       461.492 6        37.977 6
G26  20638504.375 9 108456050.332 9     -1450.132 9        55.880 9  20638507.186 6         0.000 6     -1129.973 6        37.977 6
G20  21972037.791 9 115463804.551 9      2590.852 9        55.305 9  21972038.129 6         0.000 6      2018.847 6        37.977 6
> 2019 07 03 12 00  3.0000000  0  8       0.000000000000
G07  25370752.700 9 133324159.000 9      2212.268 9        54.123 9  25370753.383 6         0.000 6      1723.846 6        37.977 6
G10  23847363.153 9 125318683.922 9      3536.947 9        54.656 9  23847366.917 6         0.000 6      2756.065 6        37.977 6
G21  21157500.598 9 111183395.435 9     -1230.664 9        55.715 9  21157499.881 6         0.000 6      -958.959 6        37.977 6
G29  24266130.359 9 127519319.909 9     -3115.202 9        54.487 9  24266131.898 6         0.000 6     -2427.433 6        37.977 6
G27  22031722.371 9 115777455.339 9      2512.736 9        55.364 9  22031724.314 6         0.000 6      1957.977 6        37.977 6
G16  20503443.654 9 107746303.315 9       591.634 9        55.974 9  20503442.828 6         0.000 6       461.014 6        37.977 6
G26  20638780.380 9 108457500.745 9     -1450.708 9        55.880 9  20638783.191 6         0.000 6     -1130.422 6        37.977 6
G20  21971544.810 9 115461213.918 9      2590.414 9        55.305 9  21971545.147 6         0.000 6      2018.505 6        37.977 6
> 2019 07 03 12 00  4.0000000  0  8       0.000000000000
G07  25370331.763 9 133321946.963 9      2211.813 9        54.124 9  25370332.446 6         0.000 6      1723.492 6        37.977 6
G10  23846690.107 9 125315147.051 9      3536.816 9        54.656 9  23846693.870 6         0.000 6      2755.963 6        37.977 6
G21  21157734.820 9 111184626.280 9     -1231.028 9        55.715 9  21157734.104 6         0.000 6      -959.243 6        37.977 6
G29  24266723.171 9 127522435.145 9     -3115.289 9        54.487 9  24266724.711 6         0.000 6     -2427.500 6        37.977 6
G27  22031244.236 9 115774942.723 9      2512.501 9        55.364 9  22031246.178 6         0.000 6      1957.794 6        37.977 6
G16  20503331.129 9 107745711.988 9       591.020 9        55.974 9  20503330.302 6         0.000 6       460.535 6        37.977 6
G26  20639056.496 9 108458951.740 9     -1451.285 9        55.880 9  20639059.306 6         0.000 6     -1130.872 6        37.977 6
G20  21971051.912 9 115458623.728 9      2589.976 9        55.305 9  21971052.249 6         0.000 6      2018.164 6        37.977 6
> 2019 07 03 12 00  5.0000000  0  8       0.000000000000
G07  25369910.912 9 133319735.381 9      2211.358 9        54.124 9  25369911.595 6         0.000 6      1723.137 6        37.977 6
G10  23846017.086 9 125311610.311 9      3536.685 9        54.656 9  23846020.848 6         0.000 6      2755.861 6        37.977 6
G21  21157969.112 9 111185857.489 9     -1231.392 9        55.715 9  21157968.395 6         0.000 6      -959.526 6        37.977 6
G29  24267315.999 9 127525550.467 9     -3115.376 9        54.486 9  24267317.539 6         0.000 6     -2427.568 6        37.977 6
G27  22030766.145 9 115772430.342 9      2512.267 9        55.364 9  22030768.087 6         0.000 6      1957.611 6        37.977 6
G16  20503218.719 9 107745121.274 9       590.407 9        55.974 9  20503217.893 6         0.000 6       460.057 6        37.977 6
G26  20639332.721 9 108460403.312 9     -1451.862 9        55.879 9  20639335.532 6         0.000 6     -1131.321 6        37.977 6
G20  21970559.098 9 115456033.976 9      2589.538 9        55.305 9  21970559.434 6         0.000 6      2017.823 6        37.977 6
> 2019 07 03 12 00  6.0000000  0  8       0.000000000000
G07  25369490.149 9 133317524.257 9      2210.903 9        54.124 9  25369490.831 6         0.000 6      1722.783 6        37.977 6
G10  23845344.089 9 125308073.699 9      3536.553 9        54.656 9  23845347.851 6         0.000 6      2755.758 6        37.977 6
G21  21158203.472 9 111187089.059 9     -1231.756 9        55.714 9  21158202.755 6         0.000 6      -959.810 6        37.977 6
G29  24267908.844 9 127528665.876 9     -3115.463 9        54.486 9  24267910.384 6         0.000 6     -2427.636 6        37.977 6
G27  22030288.099 9 115769918.194 9      2512.032 9        55.364 9  22030290.041 6         0.000 6      1957.428 6        37.977 6
G16  20503106.427 9 107744531.171 9       589.793 9        55.974 9  20503105.600 6         0.000 6       459.579 6        37.977 6
G26  20639609.055 9 108461855.455 9     -1452.438 9        55.879 9  20639611.866 6         0.000 6     -1131.771 6        37.977 6
G20  21970066.366 9 115453444.657 9      2589.100 9        55.305 9  21970066.702 6         0.000 6      2017.482 6        37.977 6
> 2019 07 03 12 00  7.0000000  0  8       0.000000000000
G07  25369069.471 9 133315313.585 9      2210.448 9        54.124 9  25369070.153 6         0.000 6      1722.428 6        37.977 6
G10  23844671.117 9 125304537.222 9      3536.422 9        54.657 9  23844674.879 6         0.000 6      2755.656 6        37.977 6
G21  21158437.902 9 111188320.996 9     -1232.119 9        55.714 9  21158437.185 6         0.000 6      -960.093 6        37.977 6
G29  24268501.705 9 127531781.372 9     -3115.549 9        54.486 9  24268503.246 6         0.000 6     -2427.703 6        37.977 6
G27  22029810.097 9 115767406.282 9      2511.797 9        55.364 9  22029812.039 6         0.000 6      1957.245 6        37.977 6
G16  20502994.251 9 107743941.686 9       589.179 9        55.974 9  20502993.425 6         0.000 6       459.100 6        37.977 6
G26  20639885.500 9 108463308.180 9     -1453.015 9        55.879 9  20639888.310 6         0.000 6     -1132.220 6        37.977 6
G20  21969573.718 9 115450855.781 9      2588.662 9        55.306 9  21969574.054 6         0.000 6      2017.140 6        37.977 6
> 2019 07 03 12 00  8.0000000  0  8       0.000000000000
G07  25368648.881 9 133313103.373 9      2209.993 9        54.124 9  25368649.563 6         0.000 6      1722.074 6        37.977 6
G10  23843998.170 9 125301000.871 9      3536.290 9        54.657 9  23844001.931 6         0.000 6      2755.553 6        37.977 6
G21  21158672.400 9 111189553.292 9     -1232.483 9        55.714 9  21158671.684 6         0.000 6      -960.377 6        37.977 6
G29  24269094.581 9 127534896.950 9     -3115.636 9        54.486 9  24269096.123 6         0.000 6     -2427.771 6        37.977 6
G27  22029332.141 9 115764894.607 9      2511.562 9        55.364 9  22029334.082 6         0.000 6      1957.062 6        37.977 6
G16  20502882.192 9 107743352.812 9       588.565 9        55.974 9  20502881.366 6         0.000 6       458.622 6        37.977 6
G26  20640162.053 9 108464761.477 9     -1453.592 9        55.879 9  20640164.864 6         0.000 6     -1132.669 6        37.977 6
G20  21969081.152 9 115448267.336 9      2588.223 9        55.306 9  21969081.488 6         0.000 6      2016.799 6        37.977 6
> 2019 07 03 12 00  9.0000000  0  8       0.000000000000
G07  25368228.377 9 133310893.612 9      2209.538 9        54.124 9  25368229.058 6         0.000 6      1721.719 6        37.977 6
G10  23843325.249 9 125297464.657 9      3536.158 9        54.657 9  23843329.009 6         0.000 6      2755.451 6        37.977 6
G21  21158906.969 9 111190785.957 9     -1232.847 9        55.714 9  21158906.252 6         0.000 6      -960.660 6        37.977 6
G29  24269687.475 9 127538012.619 9     -3115.723 9        54.486 9  24269689.018 6         0.000 6     -2427.839 6        37.977 6
G27  22028854.229 9 115762383.165 9      2511.327 9        55.365 9  22028856.170 6         0.000 6      1956.879 6        37.977 6
G16  20502770.251 9 107742764.554 9       587.951 9        55.974 9  20502769.424 6         0.000 6       458.143 6        37.977 6
G26  20640438.717 9 108466215.355 9     -1454.168 9        55.879 9  20640441.528 6         0.000 6     -1133.118 6        37.977 6
G20  21968588.672 9 115445679.336 9      2587.785 9        55.306 9  21968589.007 6         0.000 6      2016.457 6        37.977 6
> 2019 07 03 12 00 10.0000000  0  8       0.000000000000
G07  25367807.959 9 133308684.308 9      2209.083 9        54.124 9  25367808.641 6         0.000 6      1721.364 6        37.977 6
G10  23842652.352 9 125293928.571 9      3536.026 9        54.657 9  23842656.111 6         0.000 6      2755.348 6        37.977 6
G21  21159141.606 9 111192018.982 9     -1233.211 9        55.714 9  21159140.889 6         0.000 6      -960.944 6        37.977 6
G29  24270280.386 9 127541128.375 9     -3115.810 9        54.485 9  24270281.929 6         0.000 6     -2427.906 6        37.977 6
G27  22028376.361 9 115759871.956 9      2511.092 9        55.365 9  22028378.302 6         0.000 6      1956.696 6        37.977 6
G16  20502658.425 9 107742176.908 9       587.337 9        55.974 9  20502657.598 6         0.000 6       457.665 6        37.977 6
G26  20640715.490 9 108467669.805 9     -1454.745 9        55.879 9  20640718.301 6         0.000 6     -1133.568 6        37.977 6
G20  21968096.273 9 115443091.770 9      2587.347 9        55.306 9  21968096.609 6         0.000 6      2016.115 6        37.977 6
> 2019 07 03 12 00 11.0000000  0  8       0.000000000000
G07  25367387.628 9 133306475.456 9      2208.627 9        54.125 9  25367388.309 6         0.000 6      1721.009 6        37.977 6
G10  23841979.481 9 125290392.622 9      3535.894 9        54.657 9  23841983.240 6         0.000 6      2755.245 6        37.977 6
G21  21159376.312 9 111193252.374 9     -1233.574 9        55.714 9  21159375.596 6         0.000 6      -961.227 6        37.977 6
G29  24270873.313 9 127544244.218 9     -3115.896 9        54.485 9  24270874.857 6         0.000 6     -2427.974 6        37.977 6
G27  22027898.538 9 115757360.984 9      2510.857 9        55.365 9  22027900.480 6         0.000 6      1956.513 6        37.977 6
G16  20502546.717 9 107741589.878 9       586.723 9        55.974 9  20502545.890 6         0.000 6       457.186 6        37.977 6
G26  20640992.374 9 108469124.836 9     -1455.321 9        55.879 9  20640995.185 6         0.000 6     -1134.017 6        37.977 6
G20  21967603.959 9 115440504.648 9      2586.908 9        55.306 9  21967604.294 6         0.000 6      2015.774 6        37.977 6
> 2019 07 03 12 00 12.0000000  0  8       0.000000000000
G07  25366967.384 9 133304267.063 9      2208.172 9        54.125 9  25366968.065 6         0.000 6      1720.654 6        37.977 6
G10  23841306.635 9 125286856.800 9      3535.762 9        54.658 9  23841310.393 6         0.000 6      2755.142 6        37.977 6
G21  21159611.088 9 111194486.127 9     -1233.938 9        55.714 9  21159610.372 6         0.000 6      -961.510 6        37.977 6
G29  24271466.257 9 127547360.148 9     -3115.983 9        54.485 9  24271467.801 6         0.000 6     -2428.041 6        37.977 6
G27  22027420.760 9 115754850.245 9      2510.622 9        55.365 9  22027422.701 6         0.000 6      1956.330 6        37.977 6
G16  20502435.125 9 107741003.459 9       586.109 9        55.974 9  20502434.299 6         0.000 6       456.708 6        37.977 6
G26  20641269.366 9 108470580.439 9     -1455.898 9        55.879 9  20641272.178 6         0.000 6     -1134.466 6        37.977 6
G20  21967111.728 9 115437917.959 9      2586.469 9        55.306 9  21967112.063 6         0.000 6      2015.432 6        37.977 6
> 2019 07 03 12 00 13.0000000  0  8       0.000000000000
G07  25366547.227 9 133302059.123 9      2207.716 9        54.125 9  25366547.907 6         0.000 6      1720.299 6        37.977 6
G10  23840633.814 9 125283321.115 9      3535.630 9        54.658 9  23840637.571 6         0.000 6      2755.039 6        37.977 6
G21  21159845.933 9 111195720.246 9     -1234.301 9        55.714 9  21159845.217 6         0.000 6      -961.793 6        37.977 6
G29  24272059.217 9 127550476.164 9     -3116.070 9        54.485 9  24272060.762 6         0.000 6     -2428.109 6        37.977 6
G27  22026943.027 9 115752339.743 9      2510.387 9        55.365 9  22026944.968 6         0.000 6      1956.147 6        37.977 6
G16  20502323.651 9 107740417.658 9       585.494 9        55.974 9  20502322.824 6         0.000 6       456.229 6        37.977 6
G26  20641546.469 9 108472036.623 9     -1456.474 9        55.878 9  20641549.281 6         0.000 6     -1134.915 6        37.977 6
G20  21966619.581 9 115435331.714 9      2586.031 9        55.307 9  21966619.915 6         0.000 6      2015.090 6        37.977 6
> 2019 07 03 12 00 14.0000000  0  8       0.000000000000
G07  25366127.156 9 133299851.638 9      2207.261 9        54.125 9  25366127.836 6         0.000 6      1719.944 6        37.977 6
G10  23839961.019 9 125279785.562 9      3535.498 9        54.658 9  23839964.775 6         0.000 6      2754.936 6        37.977 6
G21  21160080.847 9 111196954.728 9     -1234.665 9        55.714 9  21160080.131 6         0.000 6      -962.077 6        37.977 6
G29  24272652.193 9 127553592.267 9     -3116.156 9        54.485 9  24272653.739 6         0.000 6     -2428.176 6        37.977 6
G27  22026465.339 9 115749829.476 9      2510.152 9        55.366 9  22026467.279 6         0.000 6      1955.963 6        37.977 6
G16  20502212.294 9 107739832.471 9       584.880 9        55.974 9  20502211.467 6         0.000 6       455.751 6        37.977 6
G26  20641823.682 9 108473493.384 9     -1457.051 9        55.878 9  20641826.493 6         0.000 6     -1135.364 6        37.977 6
G20  21966127.518 9 115432745.907 9      2585.592 9        55.307 9  21966127.852 6         0.000 6      2014.748 6        37.977 6
> 2019 07 03 12 00 15.0000000  0  8       0.000000000000
G07  25365707.172 9 133297644.612 9      2206.805 9        54.125 9  25365707.852 6         0.000 6      1719.589 6        37.977 6
G10  23839288.248 9 125276250.137 9      3535.365 9        54.658 9  23839292.004 6         0.000 6      2754.833 6        37.977 6
G21  21160315.830 9 111198189.571 9     -1235.028 9        55.714 9  21160315.114 6         0.000 6      -962.360 6        37.977 6
G29  24273245.186 9 127556708.457 9     -3116.243 9        54.484 9  24273246.733 6         0.000 6     -2428.244 6        37.977 6
G27  22025987.695 9 115747319.443 9      2509.917 9        55.366 9  22025989.635 6         0.000 6      1955.780 6        37.977 6
G16  20502101.052 9 107739247.894 9       584.266 9        55.975 9  20502100.226 6         0.000 6       455.272 6        37.977 6
G26  20642101.003 9 108474950.716 9     -1457.627 9        55.878 9  20642103.815 6         0.000 6     -1135.814 6        37.977 6
G20  21965635.537 9 115430160.535 9      2585.153 9        55.307 9  21965635.871 6         0.000 6      2014.406 6        37.977 6
> 2019 07 03 12 00 16.0000000  0  8       0.000000000000
G07  25365287.275 9 133295438.041 9      2206.349 9        54.125 9  25365287.954 6         0.000 6      1719.234 6        37.977 6
G10  23838615.502 9 125272714.846 9      3535.233 9        54.659 9  23838619.257 6         0.000 6      2754.730 6        37.977 6
G21  21160550.883 9 111199424.778 9     -1235.391 9        55.713 9  21160550.166 6         0.000 6      -962.643 6        37.977 6
G29  24273838.195 9 127559824.728 9     -3116.330 9        54.484 9  24273839.742 6         0.000 6     -2428.311 6        37.977 6
G27  22025510.096 9 115744809.650 9      2509.682 9        55.366 9  22025512.037 6         0.000 6      1955.597 6        37.977 6
G16  20501989.929 9 107738663.937 9       583.652 9        55.975 9  20501989.102 6         0.000 6       454.793 6        37.977 6
G26  20642378.435 9 108476408.629 9     -1458.203 9        55.878 9  20642381.247 6         0.000 6     -1136.263 6        37.977 6
G20  21965143.640 9 115427575.603 9      2584.714 9        55.307 9  21965143.973 6         0.000 6      2014.064 6        37.977 6
> 2019 07 03 12 00 17.0000000  0  8       0.000000000000
G07  25364867.464 9 133293231.926 9      2205.893 9        54.125 9  25364868.144 6         0.000 6      1718.879 6        37.977 6
G10  23837942.781 9 125269179.686 9      3535.100 9        54.659 9  23837946.536 6         0.000 6      2754.626 6        37.977 6
G21  21160786.004 9 111200660.348 9     -1235.755 9        55.713 9  21160785.288 6         0.000 6      -962.926 6        37.977 6
G29  24274431.221 9 127562941.090 9     -3116.416 9        54.484 9  24274432.769 6         0.000 6     -2428.379 6        37.977 6
G27  22025032.542 9 115742300.086 9      2509.447 9        55.366 9  22025034.482 6         0.000 6      1955.414 6        37.977 6
G16  20501878.922 9 107738080.590 9       583.037 9        55.975 9  20501878.095 6         0.000 6       454.315 6        37.977 6
G26  20642655.976 9 108477867.114 9     -1458.779 9        55.878 9  20642658.788 6         0.000 6     -1136.712 6        37.977 6
G20  21964651.826 9 115424991.109 9      2584.275 9        55.307 9  21964652.159 6         0.000 6      2013.722 6        37.977 6
> 2019 07 03 12 00 18.0000000  0  8       0.000000000000
G07  25364447.740 9 133291026.264 9      2205.437 9        54.126 9  25364448.419 6         0.000 6      1718.524 6        37.977 6
G10  23837270.087 9 125265644.663 9      3534.967 9        54.659 9  23837273.841 6         0.000 6      2754.523 6        37.977 6
G21  21161021.195 9 111201896.284 9     -1236.118 9        55.713 9  21161020.479 6         0.000 6      -963.209 6        37.977 6
G29  24275024.264 9 127566057.540 9     -3116.503 9        54.484 9  24275025.812 6         0.000 6     -2428.446 6        37.977 6
G27  22024555.032 9 115739790.760 9      2509.211 9        55.366 9  22024556.972 6         0.000 6      1955.230 6        37.977 6
G16  20501768.032 9 107737497.860 9       582.423 9        55.975 9  20501767.205 6         0.000 6       453.836 6        37.977 6
G26  20642933.627 9 108479326.180 9     -1459.356 9        55.878 9  20642936.439 6         0.000 6     -1137.161 6        37.977 6
G20  21964160.097 9 115422407.058 9      2583.836 9        55.308 9  21964160.430 6         0.000 6      2013.380 6        37.977 6
> 2019 07 03 12 00 19.0000000  0  8       0.000000000000
G07  25364028.103 9 133288821.061 9      2204.981 9        54.126 9  25364028.782 6         0.000 6      1718.168 6        37.977 6
G10  23836597.417 9 125262109.768 9      3534.835 9        54.659 9  23836601.170 6         0.000 6      2754.419 6        37.977 6
G21  21161256.454 9 111203132.580 9     -1236.481 9        55.713 9  21161255.738 6         0.000 6      -963.492 6        37.977 6
G29  24275617.323 9 127569174.076 9     -3116.589 9        54.484 9  24275618.872 6         0.000 6     -2428.514 6        37.977 6
G27  22024077.567 9 115737281.667 9      2508.976 9        55.367 9  22024079.507 6         0.000 6      1955.047 6        37.977 6
G16  20501657.258 9 107736915.741 9       581.808 9        55.975 9  20501656.432 6         0.000 6       453.357 6        37.977 6
G26  20643211.387 9 108480785.817 9     -1459.932 9        55.878 9  20643214.199 6         0.000 6     -1137.610 6        37.977 6
G20  21963668.450 9 115419823.443 9      2583.396 9        55.308 9  21963668.783 6         0.000 6      2013.037 6        37.977 6
> 2019 07 03 12 00 20.0000000  0  8       0.000000000000
G07  25363608.552 9 133286616.312 9      2204.525 9        54.126 9  25363609.231 6         0.000 6      1717.813 6        37.977 6
G10  23835924.773 9 125258575.011 9      3534.702 9        54.660 9  23835928.525 6         0.000 6      2754.316 6        37.977 6
G21  21161491.783 9 111204369.242 9     -1236.844 9        55.713 9  21161491.067 6         0.000 6      -963.775 6        37.977 6
G29  24276210.398 9 127572290.698 9     -3116.676 9        54.483 9  24276211.948 6         0.000 6     -2428.581 6        37.977 6
G27  22023600.147 9 115734772.811 9      2508.741 9        55.367 9  22023602.087 6         0.000 6      1954.864 6        37.977 6
G16  20501546.602 9 107736334.240 9       581.194 9        55.975 9  20501545.776 6         0.000 6       452.878 6        37.977 6
G26  20643489.258 9 108482246.036 9     -1460.508 9        55.878 9  20643492.070 6         0.000 6     -1138.059 6        37.977 6
G20  21963176.888 9 115417240.271 9      2582.957 9        55.308 9  21963177.220 6         0.000 6      2012.695 6        37.977 6
> 2019 07 03 12 00 21.0000000  0  8       0.000000000000
G07  25363189.089 9 133284412.021 9      2204.069 9        54.126 9  25363189.768 6         0.000 6      1717.457 6        37.977 6
G10  23835252.153 9 125255040.382 9      3534.569 9        54.660 9  23835255.905 6         0.000 6      2754.212 6        37.977 6
G21  21161727.181 9 111205606.265 9     -1237.207 9        55.713 9  21161726.465 6         0.000 6      -964.058 6        37.977 6
G29  24276803.490 9 127575407.407 9     -3116.762 9        54.483 9  24276805.040 6         0.000 6     -2428.648 6        37.977 6
G27  22023122.772 9 115732264.189 9      2508.506 9        55.367 9  22023124.711 6         0.000 6      1954.680 6        37.977 6
G16  20501436.063 9 107735753.350 9       580.579 9        55.975 9  20501435.236 6         0.000 6       452.400 6        37.977 6
G26  20643767.237 9 108483706.825 9     -1461.084 9        55.878 9  20643770.050 6         0.000 6     -1138.508 6        37.977 6
G20  21962685.409 9 115414657.534 9      2582.517 9        55.308 9  21962685.741 6         0.000 6      2012.352 6        37.977 6
> 2019 07 03 12 00 22.0000000  0  8       0.000000000000
G07  25362769.712 9 133282208.183 9      2203.613 9        54.126 9  25362770.391 6         0.000 6      1717.102 6        37.977 6
G10  23834579.560 9 125251505.891 9      3534.435 9        54.660 9  23834583.311 6         0.000 6      2754.108 6        37.977 6
G21  21161962.648 9 111206843.653 9     -1237.570 9        55.713 9  21161961.932 6         0.000 6      -964.341 6        37.977 6
G29  24277396.598 9 127578524.202 9     -3116.849 9        54.483 9  24277398.149 6         0.000 6     -2428.716 6        37.977 6
G27  22022645.442 9 115729755.804 9      2508.270 9        55.367 9  22022647.381 6         0.000 6      1954.497 6        37.977 6
G16  20501325.640 9 107735173.078 9       579.965 9        55.975 9  20501324.814 6         0.000 6       451.921 6        37.977 6
G26  20644045.327 9 108485168.196 9     -1461.660 9        55.877 9  20644048.140 6         0.000 6     -1138.957 6        37.977 6
G20  21962194.014 9 115412075.241 9      2582.078 9        55.308 9  21962194.345 6         0.000 6      2012.010 6        37.977 6
> 2019 07 03 12 00 23.0000000  0  8       0.000000000000
G07  25362350.422 9 133280004.802 9      2203.157 9        54.126 9  25362351.100 6         0.000 6      1716.746 6        37.977 6
G10  23833906.992 9 125247971.532 9      3534.302 9        54.660 9  23833910.743 6         0.000 6      2754.004 6        37.977 6
G21  21162198.185 9 111208081.404 9     -1237.933 9        55.713 9  21162197.469 6         0.000 6      -964.623 6        37.977 6
G29  24277989.723 9 127581641.084 9     -3116.935 9        54.483 9  24277991.275 6         0.000 6     -2428.783 6        37.977 6
G27  22022168.156 9 115727247.654 9      2508.035 9        55.367 9  22022170.095 6         0.000 6      1954.313 6        37.977 6
G16  20501215.335 9 107734593.420 9       579.350 9        55.975 9  20501214.509 6         0.000 6       451.442 6        37.977 6
G26  20644323.527 9 108486630.143 9     -1462.237 9        55.877 9  20644326.339 6         0.000 6     -1139.406 6        37.977 6
G20  21961702.702 9 115409493.387 9      2581.638 9        55.309 9  21961703.034 6         0.000 6      2011.667 6        37.977 6
> 2019 07 03 12 00 24.0000000  0  8       0.000000000000
G07  25361931.220 9 133277801.883 9      2202.700 9        54.126 9  25361931.898 6         0.000 6      1716.391 6        37.977 6
G10  23833234.448 9 125244437.301 9      3534.169 9        54.661 9  23833238.198 6         0.000 6      2753.901 6        37.977 6
G21  21162433.789 9 111209319.513 9     -1238.296 9        55.713 9  21162433.073 6         0.000 6      -964.906 6        37.977 6
G29  24278582.863 9 127584758.047 9     -3117.021 9        54.482 9  24278584.415 6         0.000 6     -2428.850 6        37.977 6
G27  22021690.916 9 115724739.742 9      2507.799 9        55.368 9  22021692.855 6         0.000 6      1954.130 6        37.977 6
G16  20501105.147 9 107734014.375 9       578.736 9        55.975 9  20501104.320 6         0.000 6       450.963 6        37.977 6
G26  20644601.835 9 108488092.661 9     -1462.813 9        55.877 9  20644604.648 6         0.000 6     -1139.854 6        37.977 6
G20  21961211.473 9 115406911.966 9      2581.198 9        55.309 9  21961211.805 6         0.000 6      2011.325 6        37.977 6
> 2019 07 03 12 00 25.0000000  0  8       0.000000000000
G07  25361512.103 9 133275599.414 9      2202.244 9        54.127 9  25361512.781 6         0.000 6      1716.035 6        37.977 6
G10  23832561.931 9 125240903.209 9      3534.035 9        54.661 9  23832565.680 6         0.000 6      2753.797 6        37.977 6
G21  21162669.464 9 111210557.990 9     -1238.659 9        55.713 9  21162668.748 6         0.000 6      -965.189 6        37.977 6
G29  24279176.021 9 127587875.101 9     -3117.108 9        54.482 9  24279177.574 6         0.000 6     -2428.918 6        37.977 6
G27  22021213.720 9 115722232.063 9      2507.564 9        55.368 9  22021215.659 6         0.000 6      1953.946 6        37.977 6
G16  20500995.075 9 107733435.947 9       578.121 9        55.975 9  20500994.249 6         0.000 6       450.484 6        37.977 6
G26  20644880.254 9 108489555.760 9     -1463.389 9        55.877 9  20644883.067 6         0.000 6     -1140.303 6        37.977 6
G20  21960720.330 9 115404330.992 9      2580.758 9        55.309 9  21960720.661 6         0.000 6      2010.982 6        37.977 6
> 2019 07 03 12 00 26.0000000  0  8       0.000000000000
G07  25361093.074 9 133273397.405 9      2201.787 9        54.127 9  25361093.752 6         0.000 6      1715.679 6        37.977 6
G10  23831889.438 9 125237369.247 9      3533.902 9        54.661 9  23831893.187 6         0.000 6      2753.693 6        37.977 6
G21  21162905.207 9 111211796.827 9     -1239.022 9        55.713 9  21162904.491 6         0.000 6      -965.472 6        37.977 6
G29  24279769.195 9 127590992.242 9     -3117.194 9        54.482 9  24279770.748 6         0.000 6     -2428.985 6        37.977 6
G27  22020736.568 9 115719724.618 9      2507.328 9        55.368 9  22020738.507 6         0.000 6      1953.763 6        37.977 6
G16  20500885.121 9 107732858.130 9       577.506 9        55.975 9  20500884.294 6         0.000 6       450.005 6        37.977 6
G26  20645158.781 9 108491019.430 9     -1463.965 9        55.877 9  20645161.594 6         0.000 6     -1140.752 6        37.977 6
G20  21960229.269 9 115401750.454 9      2580.319 9        55.309 9  21960229.599 6         0.000 6      2010.639 6        37.977 6
> 2019 07 03 12 00 27.0000000  0  8       0.000000000000
G07  25360674.131 9 133271195.850 9      2201.331 9        54.127 9  25360674.809 6         0.000 6      1715.323 6        37.977 6
G10  23831216.971 9 125233835.423 9      3533.768 9        54.661 9  23831220.719 6         0.000 6      2753.588 6        37.977 6
G21  21163141.019 9 111213036.029 9     -1239.384 9        55.712 9  21163140.303 6         0.000 6      -965.754 6        37.977 6
G29  24280362.386 9 127594109.469 9     -3117.281 9        54.482 9  24280363.940 6         0.000 6     -2429.052 6        37.977 6
G27  22020259.462 9 115717217.410 9      2507.093 9        55.368 9  22020261.400 6         0.000 6      1953.579 6        37.977 6
G16  20500775.283 9 107732280.931 9       576.892 9        55.975 9  20500774.457 6         0.000 6       449.526 6        37.977 6
G26  20645437.419 9 108492483.681 9     -1464.541 9        55.877 9  20645440.232 6         0.000 6     -1141.201 6        37.977 6
G20  21959738.292 9 115399170.360 9      2579.878 9        55.309 9  21959738.623 6         0.000 6      2010.296 6        37.977 6
> 2019 07 03 12 00 28.0000000  0  8       0.000000000000
G07  25360255.276 9 133268994.754 9      2200.874 9        54.127 9  25360255.953 6         0.000 6      1714.968 6        37.977 6
G10  23830544.530 9 125230301.728 9      3533.634 9        54.662 9  23830548.277 6         0.000 6      2753.484 6        37.977 6
G21  21163376.900 9 111214275.592 9     -1239.747 9        55.712 9  21163376.184 6         0.000 6      -966.037 6        37.977 6
G29  24280955.593 9 127597226.783 9     -3117.367 9        54.482 9  24280957.147 6         0.000 6     -2429.120 6        37.977 6
G27  22019782.400 9 115714710.436 9      2506.857 9        55.368 9  22019784.338 6         0.000 6      1953.396 6        37.977 6
G16  20500665.562 9 107731704.344 9       576.277 9        55.975 9  20500664.736 6         0.000 6       449.047 6        37.977 6
G26  20645716.166 9 108493948.503 9     -1465.117 9        55.877 9  20645718.979 6         0.000 6     -1141.650 6        37.977 6
G20  21959247.399 9 115396590.702 9      2579.438 9        55.310 9  21959247.729 6         0.000 6      2009.953 6        37.977 6
> 2019 07 03 12 00 29.0000000  0  8       0.000000000000
G07  25359836.507 9 133266794.112 9      2200.417 9        54.127 9  25359837.184 6         0.000 6      1714.612 6        37.977 6
G10  23829872.114 9 125226768.171 9      3533.501 9        54.662 9  23829875.861 6         0.000 6      2753.380 6        37.977 6
G21  21163612.851 9 111215515.520 9     -1240.110 9        55.712 9  21163612.135 6         0.000 6      -966.319 6        37.977 6
G29  24281548.816 9 127600344.183 9     -3117.453 9        54.481 9  24281550.371 6         0.000 6     -2429.187 6        37.977 6
G27  22019305.384 9 115712203.700 9      2506.621 9        55.368 9  22019307.322 6         0.000 6      1953.212 6        37.977 6
G16  20500555.959 9 107731128.375 9       575.662 9        55.975 9  20500555.132 6         0.000 6       448.568 6        37.977 6
G26  20645995.023 9 108495413.905 9     -1465.692 9        55.877 9  20645997.836 6         0.000 6     -1142.098 6        37.977 6
G20  21958756.590 9 115394011.489 9      2578.998 9        55.310 9  21958756.920 6         0.000 6      2009.610 6        37.977 6
> 2019 07 03 12 00 30.0000000  0  8       0.000000000000
G07  25359417.826 9 133264593.930 9      2199.960 9        54.127 9  25359418.502 6         0.000 6      1714.256 6        37.977 6
G10  23829199.723 9 125223234.744 9      3533.367 9        54.662 9  23829203.469 6         0.000 6      2753.275 6        37.977 6
G21  21163848.870 9 111216755.807 9     -1240.472 9        55.712 9  21163848.154 6         0.000 6      -966.602 6        37.977 6
G29  24282142.056 9 127603461.669 9     -3117.539 9        54.481 9  24282143.612 6         0.000 6     -2429.254 6        37.977 6
G27  22018828.411 9 115709697.197 9      2506.386 9        55.369 9  22018830.349 6         0.000 6      1953.029 6        37.977 6
G16  20500446.472 9 107730553.017 9       575.047 9        55.975 9  20500445.645 6         0.000 6       448.089 6        37.977 6
G26  20646273.989 9 108496879.879 9     -1466.268 9        55.877 9  20646276.802 6         0.000 6     -1142.547 6        37.977 6
G20  21958265.864 9 115391432.711 9      2578.558 9        55.310 9  21958266.194 6         0.000 6      2009.267 6        37.977 6
> 2019 07 03 12 00 31.0000000  0  8       0.000000000000
G07  25358999.231 9 133262394.204 9      2199.503 9        54.127 9  25358999.907 6         0.000 6      1713.900 6        37.977 6
G10  23828527.358 9 125219701.453 9      3533.233 9        54.662 9  23828531.104 6         0.000 6      2753.171 6        37.977 6
G21  21164084.958 9 111217996.458 9     -1240.835 9        55.712 9  21164084.242 6         0.000 6      -966.884 6        37.977 6
G29  24282735.311 9 127606579.236 9     -3117.626 9        54.481 9  24282736.868 6         0.000 6     -2429.321 6        37.977 6
G27  22018351.485 9 115707190.936 9      2506.150 9        55.369 9  22018353.423 6         0.000 6      1952.845 6        37.977 6
G16  20500337.103 9 107729978.279 9       574.432 9        55.975 9  20500336.276 6         0.000 6       447.610 6        37.977 6
G26  20646553.065 9 108498346.434 9     -1466.844 9        55.876 9  20646555.879 6         0.000 6     -1142.996 6        37.977 6
G20  21957775.222 9 115388854.375 9      2578.117 9        55.310 9  21957775.551 6         0.000 6      2008.924 6        37.977 6
> 2019 07 03 12 00 32.0000000  0  8       0.000000000000
G07  25358580.723 9 133260194.936 9      2199.046 9        54.128 9  25358581.400 6         0.000 6      1713.544 6        37.977 6
G10  23827855.018 9 125216168.293 9      3533.098 9        54.663 9  23827858.763 6         0.000 6      2753.066 6        37.977 6
G21  21164321.115 9 111219237.471 9     -1241.197 9        55.712 9  21164320.399 6         0.000 6      -967.167 6        37.977 6
G29  24283328.584 9 127609696.895 9     -3117.712 9        54.481 9  24283330.141 6         0.000 6     -2429.388 6        37.977 6
G27  22017874.603 9 115704684.904 9      2505.914 9        55.369 9  22017876.540 6         0.000 6      1952.661 6        37.977 6
G16  20500227.850 9 107729404.151 9       573.817 9        55.975 9  20500227.023 6         0.000 6       447.130 6        37.977 6
G26  20646832.251 9 108499813.559 9     -1467.420 9        55.876 9  20646835.064 6         0.000 6     -1143.445 6        37.977 6
G20  21957284.664 9 115386276.479 9      2577.677 9        55.310 9  21957284.993 6         0.000 6      2008.580 6        37.977 6
> 2019 07 03 12 00 33.0000000  0  8       0.000000000000
G07  25358162.302 9 133257996.121 9      2198.589 9        54.128 9  25358162.978 6         0.000 6      1713.187 6        37.977 6
G10  23827182.705 9 125212635.273 9      3532.964 9        54.663 9  23827186.449 6         0.000 6      2752.962 6        37.977 6
G21  21164557.341 9 111220478.848 9     -1241.559 9        55.712 9  21164556.626 6         0.000 6      -967.449 6        37.977 6
G29  24283921.873 9 127612814.639 9     -3117.798 9        54.481 9  24283923.430 6         0.000 6     -2429.456 6        37.977 6
G27  22017397.766 9 115702179.111 9      2505.678 9        55.369 9  22017399.703 6         0.000 6      1952.477 6        37.977 6
G16  20500118.715 9 107728830.641 9       573.202 9        55.975 9  20500117.888 6         0.000 6       446.651 6        37.977 6
G26  20647111.546 9 108501281.265 9     -1467.996 9        55.876 9  20647114.360 6         0.000 6     -1143.893 6        37.977 6
G20  21956794.190 9 115383699.027 9      2577.236 9        55.311 9  21956794.519 6         0.000 6      2008.237 6        37.977 6
> 2019 07 03 12 00 34.0000000  0  8       0.000000000000
G07  25357743.968 9 133255797.764 9      2198.132 9        54.128 9  25357744.644 6         0.000 6      1712.831 6        37.977 6
G10  23826510.417 9 125209102.387 9      3532.830 9        54.663 9  23826514.160 6         0.000 6      2752.857 6        37.977 6
G21  21164793.637 9 111221720.588 9     -1241.922 9        55.712 9  21164792.921 6         0.000 6      -967.731 6        37.977 6
G29  24284515.178 9 127615932.470 9     -3117.884 9        54.480 9  24284516.737 6         0.000 6     -2429.523 6        37.977 6
G27  22016920.973 9 115699673.553 9      2505.443 9        55.369 9  22016922.911 6         0.000 6      1952.294 6        37.977 6
G16  20500009.697 9 107728257.746 9       572.587 9        55.975 9  20500008.870 6         0.000 6       446.172 6        37.977 6
G26  20647390.951 9 108502749.547 9     -1468.571 9        55.876 9  20647393.765 6         0.000 6     -1144.342 6        37.977 6
G20  21956303.800 9 115381122.016 9      2576.795 9        55.311 9  21956304.129 6         0.000 6      2007.894 6        37.977 6
> 2019 07 03 12 00 35.0000000  0  8       0.000000000000
G07  25357325.722 9 133253599.867 9      2197.675 9        54.128 9  25357326.397 6         0.000 6      1712.475 6        37.977 6
G10  23825838.154 9 125205569.631 9      3532.695 9        54.663 9  23825841.896 6         0.000 6      2752.752 6        37.977 6
G21  21165030.000 9 111222962.688 9     -1242.284 9        55.712 9  21165029.285 6         0.000 6      -968.014 6        37.977 6
G29  24285108.500 9 127619050.388 9     -3117.970 9        54.480 9  24285110.059 6         0.000 6     -2429.590 6        37.977 6
G27  22016444.226 9 115697168.229 9      2505.207 9        55.370 9  22016446.163 6         0.000 6      1952.110 6        37.977 6
G16  20499900.795 9 107727685.463 9       571.972 9        55.975 9  20499899.968 6         0.000 6       445.693 6        37.977 6
G26  20647670.465 9 108504218.400 9     -1469.147 9        55.876 9  20647673.279 6         0.000 6     -1144.790 6        37.977 6
G20  21955813.494 9 115378545.441 9      2576.355 9        55.311 9  21955813.822 6         0.000 6      2007.550 6        37.977 6
> 2019 07 03 12 00 36.0000000  0  8       0.000000000000
G07  25356907.561 9 133251402.424 9      2197.218 9        54.128 9  25356908.237 6         0.000 6      1712.118 6        37.977 6
G10  23825165.917 9 125202037.014 9      3532.561 9        54.664 9  23825169.659 6         0.000 6      2752.647 6        37.977 6
G21  21165266.434 9 111224205.152 9     -1242.646 9        55.712 9  21165265.718 6         0.000 6      -968.296 6        37.977 6
G29  24285701.838 9 127622168.391 9     -3118.057 9        54.480 9  24285703.398 6         0.000 6     -2429.657 6        37.977 6
G27  22015967.523 9 115694663.143 9      2504.971 9        55.370 9  22015969.460 6         0.000 6      1951.926 6        37.977 6
G16  20499792.011 9 107727113.799 9       571.357 9        55.975 9  20499791.184 6         0.000 6       445.213 6        37.977 6
G26  20647950.089 9 108505687.833 9     -1469.723 9        55.876 9  20647952.903 6         0.000 6     -1145.239 6        37.977 6
G20  21955323.272 9 115375969.312 9      2575.914 9        55.311 9  21955323.600 6         0.000 6      2007.207 6        37.977 6
> 2019 07 03 12 00 37.0000000  0  8       0.000000000000
G07  25356489.489 9 133249205.442 9      2196.760 9        54.128 9  25356490.164 6         0.000 6      1711.762 6        37.977 6
G10  23824493.705 9 125198504.527 9      3532.426 9        54.664 9  23824497.446 6         0.000 6      2752.542 6        37.977 6
G21  21165502.935 9 111225447.977 9     -1243.008 9        55.711 9  21165502.220 6         0.000 6      -968.578 6        37.977 6
G29  24286295.193 9 127625286.480 9     -3118.143 9        54.480 9  24286296.753 6         0.000 6     -2429.724 6        37.977 6
G27  22015490.865 9 115692158.291 9      2504.735 9        55.370 9  22015492.802 6         0.000 6      1951.742 6        37.977 6
G16  20499683.343 9 107726542.746 9       570.742 9        55.976 9  20499682.516 6         0.000 6       444.734 6        37.977 6
G26  20648229.822 9 108507157.837 9     -1470.298 9        55.876 9  20648232.636 6         0.000 6     -1145.687 6        37.977 6
G20  21954833.133 9 115373393.619 9      2575.473 9        55.311 9  21954833.460 6         0.000 6      2006.863 6        37.977 6
> 2019 07 03 12 00 38.0000000  0  8       0.000000000000
G07  25356071.503 9 133247008.914 9      2196.303 9        54.128 9  25356072.178 6         0.000 6      1711.406 6        37.977 6
G10  23823821.520 9 125194972.179 9      3532.291 9        54.664 9  23823825.260 6         0.000 6      2752.437 6        37.977 6
G21  21165739.506 9 111226691.165 9     -1243.370 9        55.711 9  21165738.791 6         0.000 6      -968.860 6        37.977 6
G29  24286888.564 9 127628404.656 9     -3118.229 9        54.479 9  24286890.125 6         0.000 6     -2429.791 6        37.977 6
G27  22015014.252 9 115689653.677 9      2504.499 9        55.370 9  22015016.189 6         0.000 6      1951.558 6        37.977 6
G16  20499574.793 9 107725972.312 9       570.127 9        55.976 9  20499573.966 6         0.000 6       444.255 6        37.977 6
G26  20648509.665 9 108508628.421 9     -1470.874 9        55.876 9  20648512.479 6         0.000 6     -1146.136 6        37.977 6
G20  21954343.079 9 115370818.371 9      2575.031 9        55.312 9  21954343.406 6         0.000 6      2006.519 6        37.977 6
> 2019 07 03 12 00 39.0000000  0  8       0.000000000000
G07  25355653.605 9 133244812.849 9      2195.845 9        54.129 9  25355654.280 6         0.000 6      1711.049 6        37.977 6
G10  23823149.358 9 125191439.960 9      3532.156 9        54.664 9  23823153.099 6         0.000 6      2752.332 6        37.977 6
G21  21165976.146 9 111227934.712 9     -1243.733 9        55.711 9  21165975.430 6         0.000 6      -969.142 6        37.977 6
G29  24287481.950 9 127631522.912 9     -3118.315 9        54.479 9  24287483.512 6         0.000 6     -2429.858 6        37.977 6
G27  22014537.685 9 115687149.301 9      2504.263 9        55.370 9  22014539.621 6         0.000 6      1951.374 6        37.977 6
G16  20499466.359 9 107725402.491 9       569.512 9        55.976 9  20499465.533 6         0.000 6       443.775 6        37.977 6
G26  20648789.617 9 108510099.576 9     -1471.450 9        55.875 9  20648792.431 6         0.000 6     -1146.584 6        37.977 6
G20  21953853.107 9 115368243.558 9      2574.590 9        55.312 9  21953853.434 6         0.000 6      2006.175 6        37.977 6
> 2019 07 03 12 00 40.0000000  0  8       0.000000000000
G07  25355235.793 9 133242617.236 9      2195.387 9        54.129 9  25355236.467 6         0.000 6      1710.692 6        37.977 6
G10  23822477.224 9 125187907.882 9      3532.021 9        54.665 9  23822480.964 6         0.000 6      2752.227 6        37.977 6
G21  21166212.854 9 111229178.624 9     -1244.095 9        55.711 9  21166212.139 6         0.000 6      -969.424 6        37.977 6
G29  24288075.354 9 127634641.260 9     -3118.401 9        54.479 9  24288076.916 6         0.000 6     -2429.925 6        37.977 6
G27  22014061.162 9 115684645.158 9      2504.027 9        55.371 9  22014063.098 6         0.000 6      1951.190 6        37.977 6
G16  20499358.044 9 107724833.287 9       568.896 9        55.976 9  20499357.217 6         0.000 6       443.296 6        37.977 6
G26  20649069.679 9 108511571.312 9     -1472.025 9        55.875 9  20649072.493 6         0.000 6     -1147.033 6        37.977 6
G20  21953363.221 9 115365669.193 9      2574.149 9        55.312 9  21953363.547 6         0.000 6      2005.831 6        37.977 6
> 2019 07 03 12 00 41.0000000  0  8       0.000000000000
G07  25354818.069 9 133240422.084 9      2194.930 9        54.129 9  25354818.743 6         0.000 6      1710.336 6        37.977 6
G10  23821805.115 9 125184375.934 9      3531.886 9        54.665 9  23821808.854 6         0.000 6      2752.122 6        37.977 6
G21  21166449.632 9 111230422.897 9     -1244.456 9        55.711 9  21166448.917 6         0.000 6      -969.706 6        37.977 6
G29  24288668.774 9 127637759.693 9     -3118.487 9        54.479 9  24288670.337 6         0.000 6     -2429.992 6        37.977 6
G27  22013584.683 9 115682141.250 9      2503.791 9        55.371 9  22013586.620 6         0.000 6      1951.006 6        37.977 6
G16  20499249.844 9 107724264.695 9       568.281 9        55.976 9  20499249.017 6         0.000 6       442.816 6        37.977 6
G26  20649349.850 9 108513043.618 9     -1472.601 9        55.875 9  20649352.664 6         0.000 6     -1147.481 6        37.977 6
G20  21952873.418 9 115363095.265 9      2573.708 9        55.312 9  21952873.744 6         0.000 6      2005.488 6        37.977 6
> 2019 07 03 12 00 42.0000000  0  8       0.000000000000
G07  25354400.431 9 133238227.387 9      2194.472 9        54.129 9  25354401.105 6         0.000 6      1709.979 6        37.977 6
G10  23821133.032 9 125180844.127 9      3531.751 9        54.665 9  23821136.771 6         0.000 6      2752.016 6        37.977 6
G21  21166686.478 9 111231667.534 9     -1244.818 9        55.711 9  21166685.763 6         0.000 6      -969.988 6        37.977 6
G29  24289262.211 9 127640878.213 9     -3118.573 9        54.479 9  24289263.774 6         0.000 6     -2430.059 6        37.977 6
G27  22013108.250 9 115679637.581 9      2503.555 9        55.371 9  22013110.186 6         0.000 6      1950.822 6        37.977 6
G16  20499141.762 9 107723696.722 9       567.666 9        55.976 9  20499140.936 6         0.000 6       442.337 6        37.977 6
G26  20649630.131 9 108514516.505 9     -1473.176 9        55.875 9  20649632.946 6         0.000 6     -1147.930 6        37.977 6
G20  21952383.699 9 115360521.783 9      2573.266 9        55.312 9  21952384.026 6         0.000 6      2005.144 6        37.977 6
> 2019 07 03 12 00 43.0000000  0  8       0.000000000000
G07  25353982.880 9 133236033.147 9      2194.014 9        54.129 9  25353983.554 6         0.000 6      1709.622 6        37.977 6
G10  23820460.976 9 125177312.455 9      3531.615 9        54.665 9  23820464.713 6         0.000 6      2751.911 6        37.977 6
G21  21166923.394 9 111232912.532 9     -1245.180 9        55.711 9  21166922.679 6         0.000 6      -970.270 6        37.977 6
G29  24289855.663 9 127643996.819 9     -3118.659 9        54.478 9  24289857.227 6         0.000 6     -2430.126 6        37.977 6
G27  22012631.862 9 115677134.147 9      2503.318 9        55.371 9  22012633.798 6         0.000 6      1950.638 6        37.977 6
G16  20499033.798 9 107723129.364 9       567.050 9        55.976 9  20499032.971 6         0.000 6       441.857 6        37.977 6
G26  20649910.522 9 108515989.967 9     -1473.751 9        55.875 9  20649913.337 6         0.000 6     -1148.378 6        37.977 6
G20  21951894.065 9 115357948.742 9      2572.824 9        55.312 9  21951894.391 6         0.000 6      2004.799 6        37.977 6
> 2019 07 03 12 00 44.0000000  0  8       0.000000000000
G07  25353565.418 9 133233839.368 9      2193.556 9        54.129 9  25353566.091 6         0.000 6      1709.266 6        37.977 6
G10  23819788.944 9 125173780.913 9      3531.480 9        54.666 9  23819792.680 6         0.000 6      2751.805 6        37.977 6
G21  21167160.378 9 111234157.890 9     -1245.542 9        55.711 9  21167159.663 6         0.000 6      -970.552 6        37.977 6
G29  24290449.133 9 127647115.510 9     -3118.745 9        54.478 9  24290450.697 6         0.000 6     -2430.193 6        37.977 6
G27  22012155.519 9 115674630.947 9      2503.082 9        55.371 9  22012157.454 6         0.000 6      1950.454 6        37.977 6
G16  20498925.950 9 107722562.618 9       566.435 9        55.976 9  20498925.123 6         0.000 6       441.378 6        37.977 6
G26  20650191.022 9 108517463.999 9     -1474.327 9        55.875 9  20650193.836 6         0.000 6     -1148.827 6        37.977 6
G20  21951404.514 9 115355376.139 9      2572.383 9        55.313 9  21951404.840 6         0.000 6      2004.455 6        37.977 6
> 2019 07 03 12 00 45.0000000  0  8       0.000000000000
G07  25353148.041 9 133231646.045 9      2193.098 9        54.129 9  25353148.715 6         0.000 6      1708.909 6        37.977 6
G10  23819116.938 9 125170249.512 9      3531.344 9        54.666 9  23819120.674 6         0.000 6      2751.700 6        37.977 6
G21  21167397.431 9 111235403.612 9     -1245.904 9        55.711 9  21167396.716 6         0.000 6      -970.834 6        37.977 6
G29  24291042.618 9 127650234.288 9     -3118.831 9        54.478 9  24291044.183 6         0.000 6     -2430.260 6        37.977 6
G27  22011679.220 9 115672127.986 9      2502.846 9        55.371 9  22011681.156 6         0.000 6      1950.270 6        37.977 6
G16  20498818.219 9 107721996.491 9       565.819 9        55.976 9  20498817.392 6         0.000 6       440.898 6        37.977 6
G26  20650471.631 9 108518938.612 9     -1474.902 9        55.875 9  20650474.446 6         0.000 6     -1149.275 6        37.977 6
G20  21950915.048 9 115352803.981 9      2571.941 9        55.313 9  21950915.373 6         0.000 6      2004.111 6        37.977 6
> 2019 07 03 12 00 46.0000000  0  8       0.000000000000
G07  25352730.753 9 133229453.182 9      2192.640 9        54.130 9  25352731.426 6         0.000 6      1708.552 6        37.977 6
G10  23818444.958 9 125166718.242 9      3531.209 9        54.666 9  23818448.693 6         0.000 6      2751.594 6        37.977 6
G21  21167634.552 9 111236649.693 9     -1246.265 9        55.711 9  21167633.837 6         0.000 6      -971.116 6        37.977 6
G29  24291636.120 9 127653353.151 9     -3118.917 9        54.478 9  24291637.686 6         0.000 6     -2430.327 6        37.977 6
G27  22011202.967 9 115669625.259 9      2502.610 9        55.372 9  22011204.902 6         0.000 6      1950.086 6        37.977 6
G16  20498710.605 9 107721430.977 9       565.204 9        55.976 9  20498709.779 6         0.000 6       440.419 6        37.977 6
G26  20650752.350 9 108520413.795 9     -1475.477 9        55.875 9  20650755.165 6         0.000 6     -1149.723 6        37.977 6
G20  21950425.665 9 115350232.261 9      2571.499 9        55.313 9  21950425.990 6         0.000 6      2003.767 6        37.977 6
> 2019 07 03 12 00 47.0000000  0  8       0.000000000000
G07  25352313.551 9 133227260.777 9      2192.182 9        54.130 9  25352314.224 6         0.000 6      1708.195 6        37.977 6
G10  23817773.004 9 125163187.109 9      3531.073 9        54.666 9  23817776.738 6         0.000 6      2751.488 6        37.977 6
G21  21167871.743 9 111237896.137 9     -1246.627 9        55.710 9  21167871.028 6         0.000 6      -971.398 6        37.977 6
G29  24292229.637 9 127656472.095 9     -3119.002 9        54.478 9  24292231.204 6         0.000 6     -2430.394 6        37.977 6
G27  22010726.759 9 115667122.774 9      2502.373 9        55.372 9  22010728.694 6         0.000 6      1949.902 6        37.977 6
G16  20498603.109 9 107720866.082 9       564.588 9        55.976 9  20498602.283 6         0.000 6       439.939 6        37.977 6
G26  20651033.178 9 108521889.558 9     -1476.053 9        55.875 9  20651035.994 6         0.000 6     -1150.171 6        37.977 6
G20  21949936.367 9 115347660.985 9      2571.057 9        55.313 9  21949936.691 6         0.000 6      2003.422 6        37.977 6
> 2019 07 03 12 00 48.0000000  0  8       0.000000000000
G07  25351896.437 9 133225068.831 9      2191.724 9        54.130 9  25351897.110 6         0.000 6      1707.838 6        37.977 6
G10  23817101.075 9 125159656.111 9      3530.937 9        54.667 9  23817104.809 6         0.000 6      2751.382 6        37.977 6
G21  21168109.002 9 111239142.941 9     -1246.988 9        55.710 9  21168108.287 6         0.000 6      -971.679 6        37.977 6
G29  24292823.172 9 127659591.130 9     -3119.088 9        54.477 9  24292824.739 6         0.000 6     -2430.461 6        37.977 6
G27  22010250.595 9 115664620.519 9      2502.137 9        55.372 9  22010252.530 6         0.000 6      1949.718 6        37.977 6
G16  20498495.730 9 107720301.798 9       563.973 9        55.976 9  20498494.903 6         0.000 6       439.459 6        37.977 6
G26  20651314.116 9 108523365.892 9     -1476.628 9        55.874 9  20651316.931 6         0.000 6     -1150.620 6        37.977 6
G20  21949447.152 9 115345090.149 9      2570.615 9        55.313 9  21949447.476 6         0.000 6      2003.078 6        37.977 6
> 2019 07 03 12 00 49.0000000  0  8       0.000000000000
G07  25351479.409 9 133222877.340 9      2191.265 9        54.130 9  25351480.082 6         0.000 6      1707.480 6        37.977 6
G10  23816429.173 9 125156125.252 9      3530.801 9        54.667 9  23816432.906 6         0.000 6      2751.276 6        37.977 6
G21  21168346.330 9 111240390.110 9     -1247.350 9        55.710 9  21168345.616 6         0.000 6      -971.961 6        37.977 6
G29  24293416.723 9 127662710.251 9     -3119.174 9        54.477 9  24293418.291 6         0.000 6     -2430.528 6        37.977 6
G27  22009774.477 9 115662118.503 9      2501.901 9        55.372 9  22009776.412 6         0.000 6      1949.534 6        37.977 6
G16  20498388.468 9 107719738.133 9       563.357 9        55.976 9  20498387.641 6         0.000 6       438.980 6        37.977 6
G26  20651595.163 9 108524842.806 9     -1477.203 9        55.874 9  20651597.979 6         0.000 6     -1151.068 6        37.977 6
G20  21948958.022 9 115342519.759 9      2570.173 9        55.314 9  21948958.346 6         0.000 6      2002.733 6        37.977 6
> 2019 07 03 12 00 50.0000000  0  8       0.000000000000
G07  25351062.470 9 133220686.310 9      2190.807 9        54.130 9  25351063.142 6         0.000 6      1707.123 6        37.977 6
G10  23815757.296 9 125152594.526 9      3530.665 9        54.667 9  23815761.029 6         0.000 6      2751.170 6        37.977 6
G21  21168583.727 9 111241637.637 9     -1247.711 9        55.710 9  21168583.012 6         0.000 6      -972.243 6        37.977 6
G29  24294010.290 9 127665829.458 9     -3119.260 9        54.477 9  24294011.859 6         0.000 6     -2430.595 6        37.977 6
G27  22009298.403 9 115659616.721 9      2501.664 9        55.372 9  22009300.338 6         0.000 6      1949.349 6        37.977 6
G16  20498281.323 9 107719175.081 9       562.741 9        55.976 9  20498280.496 6         0.000 6       438.500 6        37.977 6
G26  20651876.320 9 108526320.290 9     -1477.778 9        55.874 9  20651879.135 6         0.000 6     -1151.516 6        37.977 6
G20  21948468.976 9 115339949.808 9      2569.731 9        55.314 9  21948469.300 6         0.000 6      2002.389 6        37.977 6
> 2019 07 03 12 00 51.0000000  0  8       0.000000000000
G07  25350645.617 9 133218495.736 9      2190.348 9        54.130 9  25350646.289 6         0.000 6      1706.766 6        37.977 6
G10  23815085.446 9 125149063.939 9      3530.529 9        54.667 9  23815089.178 6         0.000 6      2751.064 6        37.977 6
G21  21168821.193 9 111242885.528 9     -1248.073 9        55.710 9  21168820.478 6         0.000 6      -972.524 6        37.977 6
G29  24294603.874 9 127668948.751 9     -3119.346 9        54.477 9  24294605.443 6         0.000 6     -2430.662 6        37.977 6
G27  22008822.375 9 115657115.178 9      2501.428 9        55.373 9  22008824.309 6         0.000 6      1949.165 6        37.977 6
G16  20498174.295 9 107718612.647 9       562.126 9        55.976 9  20498173.468 6         0.000 6       438.020 6        37.977 6
G26  20652157.586 9 108527798.354 9     -1478.354 9        55.874 9  20652160.402 6         0.000 6     -1151.964 6        37.977 6
G20  21947980.014 9 115337380.303 9      2569.288 9        55.314 9  21947980.338 6         0.000 6      2002.044 6        37.977 6
> 2019 07 03 12 00 52.0000000  0  8       0.000000000000
G07  25350228.851 9 133216305.620 9      2189.890 9        54.130 9  25350229.522 6         0.000 6      1706.409 6        37.977 6
G10  23814413.621 9 125145533.489 9      3530.392 9        54.668 9  23814417.353 6         0.000 6      2750.958 6        37.977 6
G21  21169058.728 9 111244133.781 9     -1248.434 9        55.710 9  21169058.013 6         0.000 6      -972.806 6        37.977 6
G29  24295197.474 9 127672068.129 9     -3119.431 9        54.477 9  24295199.043 6         0.000 6     -2430.728 6        37.977 6
G27  22008346.392 9 115654613.871 9      2501.191 9        55.373 9  22008348.326 6         0.000 6      1948.981 6        37.977 6
G16  20498067.385 9 107718050.829 9       561.510 9        55.976 9  20498066.558 6         0.000 6       437.540 6        37.977 6
G26  20652438.962 9 108529276.994 9     -1478.929 9        55.874 9  20652441.778 6         0.000 6     -1152.412 6        37.977 6
G20  21947491.137 9 115334811.240 9      2568.846 9        55.314 9  21947491.461 6         0.000 6      2001.699 6        37.977 6
> 2019 07 03 12 00 53.0000000  0  8       0.000000000000
G07  25349812.173 9 133214115.966 9      2189.431 9        54.131 9  25349812.844 6         0.000 6      1706.051 6        37.977 6
G10  23813741.822 9 125142003.171 9      3530.256 9        54.668 9  23813745.553 6         0.000 6      2750.852 6        37.977 6
G21  21169296.331 9 111245382.392 9     -1248.795 9        55.710 9  21169295.616 6         0.000 6      -973.087 6        37.977 6
G29  24295791.090 9 127675187.593 9     -3119.517 9        54.476 9  24295792.660 6         0.000 6     -2430.795 6        37.977 6
G27  22007870.453 9 115652112.799 9      2500.955 9        55.373 9  22007872.387 6         0.000 6      1948.797 6        37.977 6
G16  20497960.591 9 107717489.624 9       560.894 9        55.976 9  20497959.764 6         0.000 6       437.060 6        37.977 6
G26  20652720.447 9 108530756.203 9     -1479.504 9        55.874 9  20652723.263 6         0.000 6     -1152.860 6        37.977 6
G20  21947002.343 9 115332242.616 9      2568.403 9        55.314 9  21947002.667 6         0.000 6      2001.354 6        37.977 6
> 2019 07 03 12 00 54.0000000  0  8       0.000000000000
G07  25349395.581 9 133211926.768 9      2188.973 9        54.131 9  25349396.253 6         0.000 6      1705.694 6        37.977 6
G10  23813070.050 9 125138472.994 9      3530.120 9        54.668 9  23813073.780 6         0.000 6      2750.745 6        37.977 6
G21  21169534.003 9 111246631.368 9     -1249.156 9        55.710 9  21169533.288 6         0.000 6      -973.369 6        37.977 6
G29  24296384.722 9 127678307.143 9     -3119.603 9        54.476 9  24296386.293 6         0.000 6     -2430.862 6        37.977 6
G27  22007394.560 9 115649611.966 9      2500.718 9        55.373 9  22007396.493 6         0.000 6      1948.612 6        37.977 6
G16  20497853.915 9 107716929.038 9       560.278 9        55.976 9  20497853.088 6         0.000 6       436.581 6        37.977 6
G26  20653002.042 9 108532235.993 9     -1480.079 9        55.874 9  20653004.858 6         0.000 6     -1153.309 6        37.977 6
G20  21946513.635 9 115329674.438 9      2567.961 9        55.315 9  21946513.957 6         0.000 6      2001.010 6        37.977 6
> 2019 07 03 12 00 55.0000000  0  8       0.000000000000
G07  25348979.078 9 133209738.034 9      2188.514 9        54.131 9  25348979.750 6         0.000 6      1705.336 6        37.977 6
G10  23812398.302 9 125134942.947 9      3529.983 9        54.668 9  23812402.032 6         0.000 6      2750.639 6        37.977 6
G21  21169771.743 9 111247880.699 9     -1249.518 9        55.710 9  21169771.028 6         0.000 6      -973.650 6        37.977 6
G29  24296978.370 9 127681426.774 9     -3119.689 9        54.476 9  24296979.942 6         0.000 6     -2430.929 6        37.977 6
G27  22006918.712 9 115647111.370 9      2500.482 9        55.373 9  22006920.645 6         0.000 6      1948.428 6        37.977 6
G16  20497747.356 9 107716369.066 9       559.663 9        55.976 9  20497746.529 6         0.000 6       436.101 6        37.977 6
G26  20653283.745 9 108533716.352 9     -1480.654 9        55.874 9  20653286.561 6         0.000 6     -1153.757 6        37.977 6
G20  21946025.009 9 115327106.696 9      2567.518 9        55.315 9  21946025.331 6         0.000 6      2000.665 6        37.977 6
> 2019 07 03 12 00 56.0000000  0  8       0.000000000000
G07  25348562.662 9 133207549.753 9      2188.055 9        54.131 9  25348563.333 6         0.000 6      1704.979 6        37.977 6
G10  23811726.582 9 125131413.043 9      3529.846 9        54.669 9  23811730.310 6         0.000 6      2750.532 6        37.977 6
G21  21170009.553 9 111249130.397 9     -1249.879 9        55.710 9  21170008.838 6         0.000 6      -973.932 6        37.977 6
G29  24297572.035 9 127684546.495 9     -3119.774 9        54.476 9  24297573.608 6         0.000 6     -2430.996 6        37.977 6
G27  22006442.908 9 115644611.010 9      2500.245 9        55.374 9  22006444.842 6         0.000 6      1948.243 6        37.977 6
G16  20497640.914 9 107715809.711 9       559.047 9        55.976 9  20497640.087 6         0.000 6       435.621 6        37.977 6
G26  20653565.559 9 108535197.292 9     -1481.229 9        55.873 9  20653568.375 6         0.000 6     -1154.205 6        37.977 6
G20  21945536.468 9 115324539.404 9      2567.075 9        55.315 9  21945536.791 6         0.000 6      2000.320 6        37.977 6
> 2019 07 03 12 00 57.0000000  0  8       0.000000000000
G07  25348146.333 9 133205361.934 9      2187.596 9        54.131 9  25348147.004 6         0.000 6      1704.621 6        37.977 6
G10  23811054.886 9 125127883.271 9      3529.709 9        54.669 9  23811058.615 6         0.000 6      2750.426 6        37.977 6
G21  21170247.430 9 111250380.453 9     -1250.240 9        55.709 9  21170246.716 6         0.000 6      -974.213 6        37.977 6
G29  24298165.717 9 127687666.302 9     -3119.860 9        54.475 9  24298167.290 6         0.000 6     -2431.062 6        37.977 6
G27  22005967.150 9 115642110.884 9      2500.008 9        55.374 9  22005969.083 6         0.000 6      1948.059 6        37.977 6
G16  20497534.589 9 107715250.969 9       558.431 9        55.976 9  20497533.762 6         0.000 6       435.141 6        37.977 6
G26  20653847.481 9 108536678.801 9     -1481.804 9        55.873 9  20653850.297 6         0.000 6     -1154.653 6        37.977 6
G20  21945048.011 9 115321972.550 9      2566.632 9        55.315 9  21945048.334 6         0.000 6      1999.974 6        37.977 6
> 2019 07 03 12 00 58.0000000  0  8       0.000000000000
G07  25347730.091 9 133203174.571 9      2187.137 9        54.131 9  25347730.761 6         0.000 6      1704.263 6        37.977 6
G10  23810383.218 9 125124353.641 9      3529.573 9        54.669 9  23810386.946 6         0.000 6      2750.319 6        37.977 6
G21  21170485.378 9 111251630.872 9     -1250.601 9        55.709 9  21170484.663 6         0.000 6      -974.494 6        37.977 6
G29  24298759.415 9 127690786.194 9     -3119.946 9        54.475 9  24298760.988 6         0.000 6     -2431.129 6        37.977 6
G27  22005491.436 9 115639610.997 9      2499.771 9        55.374 9  22005493.370 6         0.000 6      1947.875 6        37.977 6
G16  20497428.382 9 107714692.847 9       557.815 9        55.976 9  20497427.555 6         0.000 6       434.661 6        37.977 6
G26  20654129.514 9 108538160.891 9     -1482.379 9        55.873 9  20654132.330 6         0.000 6     -1155.101 6        37.977 6
G20  21944559.640 9 115319406.144 9      2566.189 9        55.315 9  21944559.962 6         0.000 6      1999.629 6        37.977 6
> 2019 07 03 12 00 59.0000000  0  8       0.000000000000
G07  25347313.937 9 133200987.670 9      2186.678 9        54.131 9  25347314.607 6         0.000 6      1703.906 6        37.977 6
G10  23809711.575 9 125120824.143 9      3529.436 9        54.669 9  23809715.302 6         0.000 6      2750.212 6        37.977 6
G21  21170723.393 9 111252881.651 9     -1250.962 9        55.709 9  21170722.679 6         0.000 6      -974.775 6        37.977 6
G29  24299353.129 9 127693906.172 9     -3120.031 9        54.475 9  24299354.703 6         0.000 6     -2431.196 6        37.977 6
G27  22005015.768 9 115637111.345 9      2499.535 9        55.374 9  22005017.701 6         0.000 6      1947.690 6        37.977 6
G16  20497322.291 9 107714135.337 9       557.199 9        55.977 9  20497321.464 6         0.000 6       434.181 6        37.977 6
G26  20654411.655 9 108539643.550 9     -1482.953 9        55.873 9  20654414.471 6         0.000 6     -1155.549 6        37.977 6
G20  21944071.352 9 115316840.177 9      2565.746 9        55.316 9  21944071.673 6         0.000 6      1999.284 6        37.977 6
> 2019 07 03 12 01  0.0000000  0  8       0.000000000000
G07  25346897.870 9 133198801.225 9      2186.219 9        54.132 9  25346898.540 6         0.000 6      1703.548 6        37.977 6
G10  23809039.959 9 125117294.787 9      3529.298 9        54.669 9  23809043.685 6         0.000 6      2750.105 6        37.977 6
G21  21170961.477 9 111254132.792 9     -1251.322 9        55.709 9  21170960.763 6         0.000 6      -975.057 6        37.977 6
G29  24299946.859 9 127697026.236 9     -3120.117 9        54.475 9  24299948.434 6         0.000 6     -2431.262 6        37.977 6
G27  22004540.145 9 115634611.931 9      2499.298 9        55.374 9  22004542.078 6         0.000 6      1947.506 6        37.977 6
G16  20497216.318 9 107713578.446 9       556.583 9        55.977 9  20497215.492 6         0.000 6       433.701 6        37.977 6
G26  20654693.906 9 108541126.789 9     -1483.528 9        55.873 9  20654696.723 6         0.000 6     -1155.997 6        37.977 6
G20  21943583.148 9 115314274.657 9      2565.303 9        55.316 9  21943583.470 6         0.000 6      1998.939 6        37.977 6
> 2019 07 03 12 01  1.0000000  0  8       0.000000000000
G07  25346481.890 9 133196615.243 9      2185.759 9        54.132 9  25346482.560 6         0.000 6      1703.190 6        37.977 6
G10  23808368.368 9 125113765.563 9      3529.161 9        54.670 9  23808372.093 6         0.000 6      2749.998 6        37.977 6
G21  21171199.630 9 111255384.292 9     -1251.683 9        55.709 9  21171198.916 6         0.000 6      -975.338 6        37.977 6
G29  24300540.606 9 127700146.385 9     -3120.202 9        54.475 9  24300542.181 6         0.000 6     -2431.329 6        37.977 6
G27  22004064.566 9 115632112.753 9      2499.061 9        55.374 9  22004066.499 6         0.000 6      1947.321 6        37.977 6
G16  20497110.462 9 107713022.168 9       555.967 9        55.977 9  20497109.635 6         0.000 6       433.221 6        37.977 6
G26  20654976.266 9 108542610.599 9     -1484.103 9        55.873 9  20654979.083 6         0.000 6     -1156.444 6        37.977 6
G20  21943095.029 9 115311709.576 9      2564.860 9        55.316 9  21943095.350 6         0.000 6      1998.593 6        37.977 6
> 2019 07 03 12 01  2.0000000  0  8       0.000000000000
G07  25346065.998 9 133194429.716 9      2185.300 9        54.132 9  25346066.667 6         0.000 6      1702.832 6        37.977 6
G10  23807696.804 9 125110236.482 9      3529.024 9        54.670 9  23807700.529 6         0.000 6      2749.891 6        37.977 6
G21  21171437.852 9 111256636.155 9     -1252.044 9        55.709 9  21171437.137 6         0.000 6      -975.619 6        37.977 6
G29  24301134.368 9 127703266.620 9     -3120.288 9        54.474 9  24301135.944 6         0.000 6     -2431.396 6        37.977 6
G27  22003589.034 9 115629613.813 9      2498.824 9        55.375 9  22003590.966 6         0.000 6      1947.136 6        37.977 6
G16  20497004.724 9 107712466.510 9       555.350 9        55.977 9  20497003.897 6         0.000 6       432.741 6        37.977 6
G26  20655258.736 9 108544094.987 9     -1484.678 9        55.873 9  20655261.553 6         0.000 6     -1156.892 6        37.977 6
G20  21942606.994 9 115309144.942 9      2564.416 9        55.316 9  21942607.315 6         0.000 6      1998.248 6        37.977 6
> 2019 07 03 12 01  3.0000000  0  8       0.000000000000
G07  25345650.193 9 133192244.652 9      2184.841 9        54.132 9  25345650.863 6         0.000 6      1702.474 6        37.977 6
G10  23807025.265 9 125106707.535 9      3528.886 9        54.670 9  23807028.990 6         0.000 6      2749.784 6        37.977 6
G21  21171676.142 9 111257888.376 9     -1252.405 9        55.709 9  21171675.427 6         0.000 6      -975.900 6        37.977 6
G29  24301728.147 9 127706386.935 9     -3120.373 9        54.474 9  24301729.723 6         0.000 6     -2431.462 6        37.977 6
G27  22003113.546 9 115627115.113 9      2498.587 9        55.375 9  22003115.479 6         0.000 6      1946.952 6        37.977 6
G16  20496899.103 9 107711911.469 9       554.734 9        55.977 9  20496898.276 6         0.000 6       432.260 6        37.977 6
G26  20655541.316 9 108545579.951 9     -1485.253 9        55.873 9  20655544.132 6         0.000 6     -1157.340 6        37.977 6
G20  21942119.044 9 115306580.749 9      2563.973 9        55.316 9  21942119.364 6         0.000 6      1997.902 6        37.977 6
> 2019 07 03 12 01  4.0000000  0  8       0.000000000000
G07  25345234.476 9 133190060.048 9      2184.381 9        54.132 9  25345235.145 6         0.000 6      1702.116 6        37.977 6
G10  23806353.753 9 125103178.724 9      3528.749 9        54.670 9  23806357.477 6         0.000 6      2749.677 6        37.977 6
G21  21171914.500 9 111259140.958 9     -1252.765 9        55.709 9  21171913.786 6         0.000 6      -976.181 6        37.977 6
G29  24302321.942 9 127709507.341 9     -3120.459 9        54.474 9  24302323.519 6         0.000 6     -2431.529 6        37.977 6
G27  22002638.103 9 115624616.646 9      2498.350 9        55.375 9  22002640.035 6         0.000 6      1946.767 6        37.977 6
G16  20496793.599 9 107711357.040 9       554.118 9        55.977 9  20496792.772 6         0.000 6       431.780 6        37.977 6
G26  20655824.004 9 108547065.484 9     -1485.827 9        55.873 9  20655826.820 6         0.000 6     -1157.788 6        37.977 6
G20  21941631.177 9 115304016.998 9      2563.529 9        55.316 9  21941631.498 6         0.000 6      1997.556 6        37.977 6
> 2019 07 03 12 01  5.0000000  0  8       0.000000000000
G07  25344818.846 9 133187875.900 9      2183.922 9        54.132 9  25344819.515 6         0.000 6      1701.758 6        37.977 6
G10  23805682.267 9 125099650.054 9      3528.611 9        54.671 9  23805685.991 6         0.000 6      2749.570 6        37.977 6
G21  21172152.928 9 111260393.903 9     -1253.126 9        55.709 9  21172152.214 6         0.000 6      -976.462 6        37.977 6
G29  24302915.754 9 127712627.832 9     -3120.544 9        54.474 9  24302917.332 6         0.000 6     -2431.596 6        37.977 6
G27  22002162.705 9 115622118.416 9      2498.113 9        55.375 9  22002164.638 6         0.000 6      1946.582 6        37.977 6
G16  20496688.212 9 107710803.230 9       553.502 9        55.977 9  20496687.385 6         0.000 6       431.300 6        37.977 6
G26  20656106.802 9 108548551.597 9     -1486.402 9        55.872 9  20656109.619 6         0.000 6     -1158.236 6        37.977 6
G20  21941143.396 9 115301453.695 9      2563.086 9        55.317 9  21941143.716 6         0.000 6      1997.211 6        37.977 6
> 2019 07 03 12 01  6.0000000  0  8       0.000000000000
G07  25344403.304 9 133185692.215 9      2183.462 9        54.132 9  25344403.972 6         0.000 6      1701.400 6        37.977 6
G10  23805010.807 9 125096121.518 9      3528.473 9        54.671 9  23805014.530 6         0.000 6      2749.462 6        37.977 6
G21  21172391.424 9 111261647.206 9     -1253.486 9        55.709 9  21172390.710 6         0.000 6      -976.743 6        37.977 6
G29  24303509.582 9 127715748.409 9     -3120.630 9        54.474 9  24303511.160 6         0.000 6     -2431.662 6        37.977 6
G27  22001687.353 9 115619620.423 9      2497.876 9        55.375 9  22001689.284 6         0.000 6      1946.398 6        37.977 6
G16  20496582.942 9 107710250.033 9       552.885 9        55.977 9  20496582.116 6         0.000 6       430.820 6        37.977 6
G26  20656389.708 9 108550038.280 9     -1486.977 9        55.872 9  20656392.526 6         0.000 6     -1158.684 6        37.977 6
G20  21940655.699 9 115298890.832 9      2562.642 9        55.317 9  21940656.018 6         0.000 6      1996.865 6        37.977 6
> 2019 07 03 12 01  7.0000000  0  8       0.000000000000
G07  25343987.848 9 133183508.986 9      2183.002 9        54.133 9  25343988.517 6         0.000 6      1701.042 6        37.977 6
G10  23804339.374 9 125092593.124 9      3528.335 9        54.671 9  23804343.096 6         0.000 6      2749.355 6        37.977 6
G21  21172629.988 9 111262900.872 9     -1253.847 9        55.709 9  21172629.274 6         0.000 6      -977.024 6        37.977 6
G29  24304103.426 9 127718869.071 9     -3120.715 9        54.473 9  24304105.005 6         0.000 6     -2431.729 6        37.977 6
G27  22001212.045 9 115617122.668 9      2497.639 9        55.376 9  22001213.977 6         0.000 6      1946.213 6        37.977 6
G16  20496477.790 9 107709697.456 9       552.269 9        55.977 9  20496476.964 6         0.000 6       430.340 6        37.977 6
G26  20656672.725 9 108551525.542 9     -1487.551 9        55.872 9  20656675.543 6         0.000 6     -1159.131 6        37.977 6
G20  21940168.086 9 115296328.416 9      2562.198 9        55.317 9  21940168.406 6         0.000 6      1996.519 6        37.977 6
> 2019 07 03 12 01  8.0000000  0  8       0.000000000000
G07  25343572.481 9 133181326.220 9      2182.542 9        54.133 9  25343573.149 6         0.000 6      1700.683 6        37.977 6
G10  23803667.967 9 125089064.864 9      3528.198 9        54.671 9  23803671.688 6         0.000 6      2749.248 6        37.977 6
G21  21172868.621 9 111264154.896 9     -1254.207 9        55.708 9  21172867.907 6         0.000 6      -977.305 6        37.977 6
G29  24304697.286 9 127721989.819 9     -3120.800 9        54.473 9  24304698.866 6         0.000 6     -2431.795 6        37.977 6
G27  22000736.782 9 115614625.148 9      2497.402 9        55.376 9  22000738.714 6         0.000 6      1946.028 6        37.977 6
G16  20496372.755 9 107709145.492 9       551.653 9        55.977 9  20496371.928 6         0.000 6       429.859 6        37.977 6
G26  20656955.851 9 108553013.374 9     -1488.126 9        55.872 9  20656958.668 6         0.000 6     -1159.579 6        37.977 6
G20  21939680.558 9 115293766.441 9      2561.754 9        55.317 9  21939680.877 6         0.000 6      1996.173 6        37.977 6
> 2019 07 03 12 01  9.0000000  0  8       0.000000000000
G07  25343157.201 9 133179143.911 9      2182.083 9        54.133 9  25343157.869 6         0.000 6      1700.325 6        37.977 6
G10  23802996.586 9 125085536.746 9      3528.059 9        54.672 9  23803000.307 6         0.000 6      2749.140 6        37.977 6
G21  21173107.323 9 111265409.283 9     -1254.568 9        55.708 9  21173106.610 6         0.000 6      -977.585 6        37.977 6
G29  24305291.163 9 127725110.652 9     -3120.886 9        54.473 9  24305292.743 6         0.000 6     -2431.862 6        37.977 6
G27  22000261.565 9 115612127.867 9      2497.165 9        55.376 9  22000263.496 6         0.000 6      1945.843 6        37.977 6
G16  20496267.838 9 107708594.147 9       551.036 9        55.977 9  20496267.011 6         0.000 6       429.379 6        37.977 6
G26  20657239.086 9 108554501.785 9     -1488.700 9        55.872 9  20657241.904 6         0.000 6     -1160.027 6        37.977 6
G20  21939193.114 9 115291204.913 9      2561.310 9        55.317 9  21939193.433 6         0.000 6      1995.827 6        37.977 6
> 2019 07 03 12 01 10.0000000  0  8       0.000000000000
G07  25342742.009 9 133176962.068 9      2181.623 9        54.133 9  25342742.677 6         0.000 6      1699.967 6        37.977 6
G10  23802325.231 9 125082008.760 9      3527.921 9        54.672 9  23802328.950 6         0.000 6      2749.032 6        37.977 6
G21  21173346.093 9 111266664.026 9     -1254.928 9        55.708 9  21173345.379 6         0.000 6      -977.866 6        37.977 6
G29  24305885.055 9 127728231.565 9     -3120.971 9        54.473 9  24305886.636 6         0.000 6     -2431.928 6        37.977 6
G27  21999786.393 9 115609630.825 9      2496.928 9        55.376 9  21999788.324 6         0.000 6      1945.659 6        37.977 6
G16  20496163.037 9 107708043.417 9       550.420 9        55.977 9  20496162.211 6         0.000 6       428.899 6        37.977 6
G26  20657522.430 9 108555990.766 9     -1489.275 9        55.872 9  20657525.248 6         0.000 6     -1160.474 6        37.977 6
G20  21938705.754 9 115288643.822 9      2560.866 9        55.318 9  21938706.073 6         0.000 6      1995.481 6        37.977 6
> 2019 07 03 12 01 11.0000000  0  8       0.000000000000
G07  25342326.904 9 133174780.679 9      2181.163 9        54.133 9  25342327.572 6         0.000 6      1699.608 6        37.977 6
G10  23801653.903 9 125078480.918 9      3527.783 9        54.672 9  23801657.622 6         0.000 6      2748.924 6        37.977 6
G21  21173584.932 9 111267919.133 9     -1255.288 9        55.708 9  21173584.218 6         0.000 6      -978.147 6        37.977 6
G29  24306478.964 9 127731352.569 9     -3121.057 9        54.472 9  24306480.546 6         0.000 6     -2431.995 6        37.977 6
G27  21999311.266 9 115607134.019 9      2496.691 9        55.376 9  21999313.197 6         0.000 6      1945.474 6        37.977 6
G16  20496058.355 9 107707493.305 9       549.803 9        55.977 9  20496057.528 6         0.000 6       428.418 6        37.977 6
G26  20657805.884 9 108557480.326 9     -1489.849 9        55.872 9  20657808.702 6         0.000 6     -1160.922 6        37.977 6
G20  21938218.480 9 115286083.183 9      2560.422 9        55.318 9  21938218.798 6         0.000 6      1995.135 6        37.977 6
> 2019 07 03 12 01 12.0000000  0  8       0.000000000000
G07  25341911.886 9 133172599.750 9      2180.702 9        54.133 9  25341912.554 6         0.000 6      1699.250 6        37.977 6
G10  23800982.601 9 125074953.215 9      3527.645 9        54.672 9  23800986.320 6         0.000 6      2748.817 6        37.977 6
G21  21173823.840 9 111269174.601 9     -1255.649 9        55.708 9  21173823.126 6         0.000 6      -978.428 6        37.977 6
G29  24307072.890 9 127734473.658 9     -3121.142 9        54.472 9  24307074.472 6         0.000 6     -2432.061 6        37.977 6
G27  21998836.184 9 115604637.449 9      2496.453 9        55.377 9  21998838.115 6         0.000 6      1945.289 6        37.977 6
G16  20495953.789 9 107706943.810 9       549.187 9        55.977 9  20495952.962 6         0.000 6       427.938 6        37.977 6
G26  20658089.448 9 108558970.461 9     -1490.424 9        55.872 9  20658092.266 6         0.000 6     -1161.370 6        37.977 6
G20  21937731.290 9 115283522.988 9      2559.977 9        55.318 9  21937731.608 6         0.000 6      1994.789 6        37.977 6
> 2019 07 03 12 01 13.0000000  0  8       0.000000000000
G07  25341496.957 9 133170419.284 9      2180.242 9        54.133 9  25341497.624 6         0.000 6      1698.891 6        37.977 6
G10  23800311.325 9 125071425.646 9      3527.506 9        54.673 9  23800315.043 6         0.000 6      2748.709 6        37.977 6
G21  21174062.816 9 111270430.427 9     -1256.009 9        55.708 9  21174062.102 6         0.000 6      -978.708 6        37.977 6
G29  24307666.831 9 127737594.832 9     -3121.227 9        54.472 9  24307668.414 6         0.000 6     -2432.128 6        37.977 6
G27  21998361.147 9 115602141.116 9      2496.216 9        55.377 9  21998363.078 6         0.000 6      1945.104 6        37.977 6
G16  20495849.340 9 107706394.929 9       548.570 9        55.977 9  20495848.514 6         0.000 6       427.457 6        37.977 6
G26  20658373.120 9 108560461.165 9     -1490.998 9        55.871 9  20658375.938 6         0.000 6     -1161.817 6        37.977 6
G20  21937244.184 9 115280963.233 9      2559.533 9        55.318 9  21937244.502 6         0.000 6      1994.442 6        37.977 6
> 2019 07 03 12 01 14.0000000  0  8       0.000000000000
G07  25341082.114 9 133168239.275 9      2179.782 9        54.134 9  25341082.781 6         0.000 6      1698.532 6        37.977 6
G10  23799640.076 9 125067898.220 9      3527.367 9        54.673 9  23799643.793 6         0.000 6      2748.601 6        37.977 6
G21  21174301.861 9 111271686.615 9     -1256.369 9        55.708 9  21174301.147 6         0.000 6      -978.989 6        37.977 6
G29  24308260.789 9 127740716.091 9     -3121.312 9        54.472 9  24308262.373 6         0.000 6     -2432.194 6        37.977 6
G27  21997886.156 9 115599645.021 9      2495.979 9        55.377 9  21997888.086 6         0.000 6      1944.919 6        37.977 6
G16  20495745.010 9 107705846.667 9       547.954 9        55.977 9  20495744.183 6         0.000 6       426.977 6        37.977 6
G26  20658656.902 9 108561952.448 9     -1491.572 9        55.871 9  20658659.720 6         0.000 6     -1162.265 6        37.977 6
G20  21936757.164 9 115278403.927 9      2559.088 9        55.318 9  21936757.481 6         0.000 6      1994.096 6        37.977 6
> 2019 07 03 12 01 15.0000000  0  8       0.000000000000
G07  25340667.360 9 133166059.730 9      2179.322 9        54.134 9  25340668.027 6         0.000 6      1698.174 6        37.977 6
G10  23798968.853 9 125064370.928 9      3527.229 9        54.673 9  23798972.569 6         0.000 6      2748.493 6        37.977 6
G21  21174540.973 9 111272943.160 9     -1256.729 9        55.708 9  21174540.260 6         0.000 6      -979.269 6        37.977 6
G29  24308854.763 9 127743837.436 9     -3121.398 9        54.472 9  24308856.347 6         0.000 6     -2432.260 6        37.977 6
G27  21997411.209 9 115597149.162 9      2495.741 9        55.377 9  21997413.140 6         0.000 6      1944.734 6        37.977 6
G16  20495640.796 9 107705299.018 9       547.337 9        55.977 9  20495639.969 6         0.000 6       426.496 6        37.977 6
G26  20658940.793 9 108563444.301 9     -1492.147 9        55.871 9  20658943.611 6         0.000 6     -1162.712 6        37.977 6
G20  21936270.227 9 115275845.061 9      2558.644 9        55.319 9  21936270.544 6         0.000 6      1993.750 6        37.977 6
> 2019 07 03 12 01 16.0000000  0  8       0.000000000000
G07  25340252.693 9 133163880.642 9      2178.861 9        54.134 9  25340253.359 6         0.000 6      1697.815 6        37.977 6
G10  23798297.657 9 125060843.779 9      3527.090 9        54.673 9  23798301.373 6         0.000 6      2748.384 6        37.977 6
G21  21174780.155 9 111274200.068 9     -1257.089 9        55.708 9  21174779.442 6         0.000 6      -979.550 6        37.977 6
G29  24309448.754 9 127746958.866 9     -3121.483 9        54.471 9  24309450.338 6         0.000 6     -2432.327 6        37.977 6
G27  21996936.308 9 115594653.542 9      2495.504 9        55.377 9  21996938.238 6         0.000 6      1944.549 6        37.977 6
G16  20495536.699 9 107704751.989 9       546.720 9        55.977 9  20495535.873 6         0.000 6       426.016 6        37.977 6
G26  20659224.793 9 108564936.734 9     -1492.721 9        55.871 9  20659227.612 6         0.000 6     -1163.160 6        37.977 6
G20  21935783.375 9 115273286.645 9      2558.199 9        55.319 9  21935783.692 6         0.000 6      1993.403 6        37.977 6
> 2019 07 03 12 01 17.0000000  0  8       0.000000000000
G07  25339838.113 9 133161702.017 9      2178.401 9        54.134 9  25339838.780 6         0.000 6      1697.456 6        37.977 6
G10  23797626.486 9 125057316.765 9      3526.951 9        54.674 9  23797630.201 6         0.000 6      2748.276 6        37.977 6
G21  21175019.405 9 111275457.334 9     -1257.449 9        55.708 9  21175018.691 6         0.000 6      -979.830 6        37.977 6
G29  24310042.760 9 127750080.381 9     -3121.568 9        54.471 9  24310044.346 6         0.000 6     -2432.393 6        37.977 6
G27  21996461.452 9 115592158.158 9      2495.266 9        55.377 9  21996463.382 6         0.000 6      1944.364 6        37.977 6
G16  20495432.720 9 107704205.574 9       546.104 9        55.977 9  20495431.893 6         0.000 6       425.535 6        37.977 6
G26  20659508.902 9 108566429.735 9     -1493.295 9        55.871 9  20659511.721 6         0.000 6     -1163.607 6        37.977 6
G20  21935296.608 9 115270728.668 9      2557.754 9        55.319 9  21935296.924 6         0.000 6      1993.056 6        37.977 6
> 2019 07 03 12 01 18.0000000  0  8       0.000000000000
G07  25339423.622 9 133159523.853 9      2177.940 9        54.134 9  25339424.288 6         0.000 6      1697.097 6        37.977 6
G10  23796955.342 9 125053789.892 9      3526.812 9        54.674 9  23796959.057 6         0.000 6      2748.168 6        37.977 6
G21  21175258.723 9 111276714.959 9     -1257.808 9        55.707 9  21175258.010 6         0.000 6      -980.111 6        37.977 6
G29  24310636.782 9 127753201.976 9     -3121.653 9        54.471 9  24310638.368 6         0.000 6     -2432.460 6        37.977 6
G27  21995986.641 9 115589663.016 9      2495.029 9        55.378 9  21995988.571 6         0.000 6      1944.179 6        37.977 6
G16  20495328.859 9 107703659.780 9       545.487 9        55.977 9  20495328.032 6         0.000 6       425.055 6        37.977 6
G26  20659793.122 9 108567923.315 9     -1493.869 9        55.871 9  20659795.940 6         0.000 6     -1164.055 6        37.977 6
G20  21934809.925 9 115268171.138 9      2557.309 9        55.319 9  21934810.241 6         0.000 6      1992.710 6        37.977 6
> 2019 07 03 12 01 19.0000000  0  8       0.000000000000
G07  25339009.218 9 133157346.149 9      2177.480 9        54.134 9  25339009.884 6         0.000 6      1696.738 6        37.977 6
G10  23796284.225 9 125050263.155 9      3526.673 9        54.674 9  23796287.939 6         0.000 6      2748.059 6        37.977 6
G21  21175498.110 9 111277972.945 9     -1258.168 9        55.707 9  21175497.397 6         0.000 6      -980.391 6        37.977 6
G29  24311230.821 9 127756323.662 9     -3121.738 9        54.471 9  24311232.407 6         0.000 6     -2432.526 6        37.977 6
G27  21995511.875 9 115587168.107 9      2494.791 9        55.378 9  21995513.805 6         0.000 6      1943.994 6        37.977 6
G16  20495225.114 9 107703114.599 9       544.870 9        55.977 9  20495224.288 6         0.000 6       424.574 6        37.977 6
G26  20660077.449 9 108569417.465 9     -1494.444 9        55.871 9  20660080.268 6         0.000 6     -1164.502 6        37.977 6
G20  21934323.327 9 115265614.051 9      2556.864 9        55.319 9  21934323.643 6         0.000 6      1992.363 6        37.977 6
> 2019 07 03 12 01 20.0000000  0  8       0.000000000000
G07  25338594.901 9 133155168.904 9      2177.019 9        54.134 9  25338595.567 6         0.000 6      1696.379 6        37.977 6
G10  23795613.135 9 125046736.563 9      3526.534 9        54.674 9  23795616.848 6         0.000 6      2747.951 6        37.977 6
G21  21175737.566 9 111279231.292 9     -1258.528 9        55.707 9  21175736.852 6         0.000 6      -980.671 6        37.977 6
G29  24311824.876 9 127759445.432 9     -3121.823 9        54.471 9  24311826.463 6         0.000 6     -2432.592 6        37.977 6
G27  21995037.155 9 115584673.437 9      2494.554 9        55.378 9  21995039.085 6         0.000 6      1943.809 6        37.977 6
G16  20495121.488 9 107702570.037 9       544.253 9        55.977 9  20495120.661 6         0.000 6       424.093 6        37.977 6
G26  20660361.887 9 108570912.194 9     -1495.018 9        55.871 9  20660364.706 6         0.000 6     -1164.949 6        37.977 6
G20  21933836.814 9 115263057.414 9      2556.419 9        55.320 9  21933837.130 6         0.000 6      1992.016 6        37.977 6
> 2019 07 03 12 01 21.0000000  0  8       0.000000000000
G07  25338180.673 9 133152992.121 9      2176.558 9        54.135 9  25338181.338 6         0.000 6      1696.020 6        37.977 6
G10  23794942.070 9 125043210.105 9      3526.394 9        54.675 9  23794945.783 6         0.000 6      2747.842 6        37.977 6
G21  21175977.089 9 111280489.997 9     -1258.888 9        55.707 9  21175976.376 6         0.000 6      -980.952 6        37.977 6
G29  24312418.947 9 127762567.288 9     -3121.909 9        54.470 9  24312420.535 6         0.000 6     -2432.659 6        37.977 6
G27  21994562.479 9 115582179.003 9      2494.316 9        55.378 9  21994564.409 6         0.000 6      1943.624 6        37.977 6
G16  20495017.978 9 107702026.089 9       543.636 9        55.978 9  20495017.151 6         0.000 6       423.613 6        37.977 6
G26  20660646.433 9 108572407.493 9     -1495.592 9        55.870 9  20660649.252 6         0.000 6     -1165.397 6        37.977 6
G20  21933350.385 9 115260501.218 9      2555.974 9        55.320 9  21933350.701 6         0.000 6      1991.669 6        37.977 6
> 2019 07 03 12 01 22.0000000  0  8       0.000000000000
G07  25337766.531 9 133150815.797 9      2176.097 9        54.135 9  25337767.196 6         0.000 6      1695.661 6        37.977 6
G10  23794271.033 9 125039683.791 9      3526.255 9        54.675 9  23794274.745 6         0.000 6      2747.734 6        37.977 6
G21  21176216.682 9 111281749.064 9     -1259.247 9        55.707 9  21176215.969 6         0.000 6      -981.232 6        37.977 6
G29  24313013.035 9 127765689.229 9     -3121.994 9        54.470 9  24313014.623 6         0.000 6     -2432.725 6        37.977 6
G27  21994087.849 9 115579684.808 9      2494.079 9        55.378 9  21994089.779 6         0.000 6      1943.439 6        37.977 6
G16  20494914.586 9 107701482.761 9       543.019 9        55.978 9  20494913.759 6         0.000 6       423.132 6        37.977 6
G26  20660931.089 9 108573903.370 9     -1496.166 9        55.870 9  20660933.908 6         0.000 6     -1165.844 6        37.977 6
G20  21932864.042 9 115257945.471 9      2555.529 9        55.320 9  21932864.357 6         0.000 6      1991.322 6        37.977 6
> 2019 07 03 12 01 23.0000000  0  8       0.000000000000
G07  25337352.478 9 133148639.934 9      2175.636 9        54.135 9  25337353.143 6         0.000 6      1695.302 6        37.977 6
G10  23793600.022 9 125036157.616 9      3526.115 9        54.675 9  23793603.733 6         0.000 6      2747.625 6        37.977 6
G21  21176456.343 9 111283008.490 9     -1259.607 9        55.707 9  21176455.630 6         0.000 6      -981.512 6        37.977 6
G29  24313607.139 9 127768811.255 9     -3122.079 9        54.470 9  24313608.728 6         0.000 6     -2432.791 6        37.977 6
G27  21993613.265 9 115577190.851 9      2493.841 9        55.379 9  21993615.194 6         0.000 6      1943.253 6        37.977 6
G16  20494811.312 9 107700940.050 9       542.402 9        55.978 9  20494810.485 6         0.000 6       422.651 6        37.977 6
G26  20661215.855 9 108575399.821 9     -1496.740 9        55.870 9  20661218.674 6         0.000 6     -1166.291 6        37.977 6
G20  21932377.783 9 115255390.169 9      2555.083 9        55.320 9  21932378.098 6         0.000 6      1990.975 6        37.977 6
> 2019 07 03 12 01 24.0000000  0  8       0.000000000000
G07  25336938.512 9 133146464.535 9      2175.175 9        54.135 9  25336939.177 6         0.000 6      1694.943 6        37.977 6
G10  23792929.037 9 125032631.577 9      3525.976 9        54.675 9  23792932.748 6         0.000 6      2747.516 6        37.977 6
G21  21176696.072 9 111284268.274 9     -1259.966 9        55.707 9  21176695.359 6         0.000 6      -981.792 6        37.977 6
G29  24314201.259 9 127771933.366 9     -3122.164 9        54.470 9  24314202.848 6         0.000 6     -2432.857 6        37.977 6
G27  21993138.725 9 115574697.129 9      2493.603 9        55.379 9  21993140.654 6         0.000 6      1943.068 6        37.977 6
G16  20494708.154 9 107700397.953 9       541.785 9        55.978 9  20494707.327 6         0.000 6       422.170 6        37.977 6
G26  20661500.729 9 108576896.842 9     -1497.314 9        55.870 9  20661503.548 6         0.000 6     -1166.739 6        37.977 6
G20  21931891.609 9 115252835.309 9      2554.638 9        55.320 9  21931891.923 6         0.000 6      1990.628 6        37.977 6
> 2019 07 03 12 01 25.0000000  0  8       0.000000000000
G07  25336524.634 9 133144289.594 9      2174.714 9        54.135 9  25336525.299 6         0.000 6      1694.583 6        37.977 6
G10  23792258.079 9 125029105.682 9      3525.836 9        54.676 9  23792261.789 6         0.000 6      2747.407 6        37.977 6
G21  21176935.870 9 111285528.419 9     -1260.326 9        55.707 9  21176935.157 6         0.000 6      -982.072 6        37.977 6
G29  24314795.395 9 127775055.562 9     -3122.249 9        54.470 9  24314796.985 6         0.000 6     -2432.924 6        37.977 6
G27  21992664.230 9 115572203.648 9      2493.366 9        55.379 9  21992666.159 6         0.000 6      1942.883 6        37.977 6
G16  20494605.114 9 107699856.476 9       541.168 9        55.978 9  20494604.287 6         0.000 6       421.690 6        37.977 6
G26  20661785.713 9 108578394.441 9     -1497.888 9        55.870 9  20661788.532 6         0.000 6     -1167.186 6        37.977 6
G20  21931405.520 9 115250280.898 9      2554.192 9        55.321 9  21931405.834 6         0.000 6      1990.281 6        37.977 6
> 2019 07 03 12 01 26.0000000  0  8       0.000000000000
G07  25336110.845 9 133142115.120 9      2174.253 9        54.135 9  25336111.509 6         0.000 6      1694.224 6        37.977 6
G10  23791587.147 9 125025579.920 9      3525.696 9        54.676 9  23791590.857 6         0.000 6      2747.298 6        37.977 6
G21  21177175.735 9 111286788.920 9     -1260.685 9        55.707 9  21177175.022 6         0.000 6      -982.352 6        37.977 6
G29  24315389.546 9 127778177.837 9     -3122.334 9        54.469 9  24315391.137 6         0.000 6     -2432.990 6        37.977 6
G27  21992189.782 9 115569710.405 9      2493.128 9        55.379 9  21992191.710 6         0.000 6      1942.698 6        37.977 6
G16  20494502.192 9 107699315.615 9       540.551 9        55.978 9  20494501.365 6         0.000 6       421.209 6        37.977 6
G26  20662070.805 9 108579892.609 9     -1498.462 9        55.870 9  20662073.624 6         0.000 6     -1167.633 6        37.977 6
G20  21930919.514 9 115247726.925 9      2553.747 9        55.321 9  21930919.828 6         0.000 6      1989.934 6        37.977 6
> 2019 07 03 12 01 27.0000000  0  8       0.000000000000
G07  25335697.142 9 133139941.101 9      2173.792 9        54.135 9  25335697.806 6         0.000 6      1693.864 6        37.977 6
G10  23790916.243 9 125022054.304 9      3525.556 9        54.676 9  23790919.952 6         0.000 6      2747.189 6        37.977 6
G21  21177415.670 9 111288049.784 9     -1261.045 9        55.707 9  21177414.957 6         0.000 6      -982.632 6        37.977 6
G29  24315983.714 9 127781300.203 9     -3122.419 9        54.469 9  24315985.306 6         0.000 6     -2433.056 6        37.977 6
G27  21991715.378 9 115567217.399 9      2492.890 9        55.379 9  21991717.306 6         0.000 6      1942.512 6        37.977 6
G16  20494399.387 9 107698775.372 9       539.934 9        55.978 9  20494398.560 6         0.000 6       420.728 6        37.977 6
G26  20662356.008 9 108581391.356 9     -1499.036 9        55.870 9  20662358.827 6         0.000 6     -1168.080 6        37.977 6
G20  21930433.595 9 115245173.406 9      2553.301 9        55.321 9  21930433.908 6         0.000 6      1989.586 6        37.977 6
> 2019 07 03 12 01 28.0000000  0  8       0.000000000000
G07  25335283.528 9 133137767.546 9      2173.330 9        54.136 9  25335284.191 6         0.000 6      1693.505 6        37.977 6
G10  23790245.364 9 125018528.825 9      3525.416 9        54.676 9  23790249.072 6         0.000 6      2747.080 6        37.977 6
G21  21177655.672 9 111289311.005 9     -1261.404 9        55.706 9  21177654.959 6         0.000 6      -982.912 6        37.977 6
G29  24316577.899 9 127784422.654 9     -3122.504 9        54.469 9  24316579.491 6         0.000 6     -2433.122 6        37.977 6
G27  21991241.019 9 115564724.629 9      2492.652 9        55.380 9  21991242.947 6         0.000 6      1942.327 6        37.977 6
G16  20494296.699 9 107698235.743 9       539.317 9        55.978 9  20494295.872 6         0.000 6       420.247 6        37.977 6
G26  20662641.318 9 108582890.672 9     -1499.610 9        55.870 9  20662644.138 6         0.000 6     -1168.527 6        37.977 6
G20  21929947.759 9 115242620.328 9      2552.855 9        55.321 9  21929948.073 6         0.000 6      1989.239 6        37.977 6
> 2019 07 03 12 01 29.0000000  0  8       0.000000000000
G07  25334870.000 9 133135594.450 9      2172.869 9        54.136 9  25334870.664 6         0.000 6      1693.145 6        37.977 6
G10  23789574.513 9 125015003.489 9      3525.276 9        54.677 9  23789578.221 6         0.000 6      2746.971 6        37.977 6
G21  21177895.744 9 111290572.588 9     -1261.763 9        55.706 9  21177895.031 6         0.000 6      -983.192 6        37.977 6
G29  24317172.100 9 127787545.190 9     -3122.588 9        54.469 9  24317173.693 6         0.000 6     -2433.188 6        37.977 6
G27  21990766.706 9 115562232.099 9      2492.414 9        55.380 9  21990768.634 6         0.000 6      1942.142 6        37.977 6
G16  20494194.129 9 107697696.735 9       538.700 9        55.978 9  20494193.302 6         0.000 6       419.766 6        37.977 6
G26  20662926.739 9 108584390.567 9     -1500.184 9        55.870 9  20662929.559 6         0.000 6     -1168.975 6        37.977 6
G20  21929462.009 9 115240067.701 9      2552.409 9        55.321 9  21929462.323 6         0.000 6      1988.891 6        37.977 6
> 2019 07 03 12 01 30.0000000  0  8       0.000000000000
G07  25334456.562 9 133133421.818 9      2172.407 9        54.136 9  25334457.225 6         0.000 6      1692.786 6        37.977 6
G10  23788903.688 9 125011478.290 9      3525.136 9        54.677 9  23788907.395 6         0.000 6      2746.862 6        37.977 6
G21  21178135.883 9 111291834.528 9     -1262.122 9        55.706 9  21178135.170 6         0.000 6      -983.472 6        37.977 6
G29  24317766.317 9 127790667.810 9     -3122.673 9        54.468 9  24317767.910 6         0.000 6     -2433.255 6        37.977 6
G27  21990292.437 9 115559739.804 9      2492.176 9        55.380 9  21990294.365 6         0.000 6      1941.956 6        37.977 6
G16  20494091.676 9 107697158.340 9       538.083 9        55.978 9  20494090.849 6         0.000 6       419.285 6        37.977 6
G26  20663212.268 9 108585891.031 9     -1500.757 9        55.869 9  20663215.088 6         0.000 6     -1169.422 6        37.977 6
G20  21928976.344 9 115237515.515 9      2551.963 9        55.321 9  21928976.657 6         0.000 6      1988.544 6        37.977 6
> 2019 07 03 12 01 31.0000000  0  8       0.000000000000
G07  25334043.210 9 133131249.645 9      2171.946 9        54.136 9  25334043.873 6         0.000 6      1692.426 6        37.977 6
G10  23788232.890 9 125007953.235 9      3524.995 9        54.677 9  23788236.597 6         0.000 6      2746.752 6        37.977 6
G21  21178376.091 9 111293096.829 9     -1262.482 9        55.706 9  21178375.378 6         0.000 6      -983.752 6        37.977 6
G29  24318360.550 9 127793790.516 9     -3122.758 9        54.468 9  24318362.144 6         0.000 6     -2433.321 6        37.977 6
G27  21989818.215 9 115557247.749 9      2491.938 9        55.380 9  21989820.142 6         0.000 6      1941.771 6        37.977 6
G16  20493989.341 9 107696620.566 9       537.465 9        55.978 9  20493988.514 6         0.000 6       418.804 6        37.977 6
G26  20663497.907 9 108587392.073 9     -1501.331 9        55.869 9  20663500.727 6         0.000 6     -1169.869 6        37.977 6
G20  21928490.764 9 115234963.779 9      2551.517 9        55.322 9  21928491.076 6         0.000 6      1988.196 6        37.977 6
> 2019 07 03 12 01 32.0000000  0  8       0.000000000000
G07  25333629.947 9 133129077.934 9      2171.484 9        54.136 9  25333630.610 6         0.000 6      1692.066 6        37.977 6
G10  23787562.120 9 125004428.321 9      3524.855 9        54.677 9  23787565.825 6         0.000 6      2746.643 6        37.977 6
G21  21178616.368 9 111294359.490 9     -1262.841 9        55.706 9  21178615.655 6         0.000 6      -984.032 6        37.977 6
G29  24318954.799 9 127796913.306 9     -3122.843 9        54.468 9  24318956.394 6         0.000 6     -2433.387 6        37.977 6
G27  21989344.037 9 115554755.933 9      2491.700 9        55.380 9  21989345.965 6         0.000 6      1941.585 6        37.977 6
G16  20493887.124 9 107696083.410 9       536.848 9        55.978 9  20493886.297 6         0.000 6       418.323 6        37.977 6
G26  20663783.656 9 108588893.689 9     -1501.905 9        55.869 9  20663786.476 6         0.000 6     -1170.316 6        37.977 6
G20  21928005.269 9 115232412.489 9      2551.071 9        55.322 9  21928005.581 6         0.000 6      1987.849 6        37.977 6
> 2019 07 03 12 01 33.0000000  0  8       0.000000000000
G07  25333216.771 9 133126906.687 9      2171.022 9        54.136 9  25333217.434 6         0.000 6      1691.707 6        37.977 6
G10  23786891.375 9 125000903.542 9      3524.714 9        54.678 9  23786895.079 6         0.000 6      2746.533 6        37.977 6
G21  21178856.712 9 111295622.507 9     -1263.200 9        55.706 9  21178855.999 6         0.000 6      -984.312 6        37.977 6
G29  24319549.064 9 127800036.181 9     -3122.928 9        54.468 9  24319550.660 6         0.000 6     -2433.453 6        37.977 6
G27  21988869.905 9 115552264.352 9      2491.462 9        55.380 9  21988871.832 6         0.000 6      1941.400 6        37.977 6
G16  20493785.023 9 107695546.867 9       536.231 9        55.978 9  20493784.196 6         0.000 6       417.842 6        37.977 6
G26  20664069.512 9 108590395.874 9     -1502.478 9        55.869 9  20664072.333 6         0.000 6     -1170.763 6        37.977 6
G20  21927519.858 9 115229861.642 9      2550.625 9        55.322 9  21927520.170 6         0.000 6      1987.501 6        37.977 6
> 2019 07 03 12 01 34.0000000  0  8       0.000000000000
G07  25332803.684 9 133124735.902 9      2170.561 9        54.136 9  25332804.347 6         0.000 6      1691.347 6        37.977 6
G10  23786220.657 9 124997378.907 9      3524.573 9        54.678 9  23786224.361 6         0.000 6      2746.423 6        37.977 6
G21  21179097.125 9 111296885.883 9     -1263.559 9        55.706 9  21179096.412 6         0.000 6      -984.591 6        37.977 6
G29  24320143.345 9 127803159.136 9     -3123.013 9        54.468 9  24320144.941 6         0.000 6     -2433.519 6        37.977 6
G27  21988395.818 9 115549773.016 9      2491.224 9        55.381 9  21988397.746 6         0.000 6      1941.214 6        37.977 6
G16  20493683.041 9 107695010.946 9       535.613 9        55.978 9  20493682.214 6         0.000 6       417.361 6        37.977 6
G26  20664355.479 9 108591898.638 9     -1503.052 9        55.869 9  20664358.299 6         0.000 6     -1171.210 6        37.977 6
G20  21927034.532 9 115227311.242 9      2550.178 9        55.322 9  21927034.844 6         0.000 6      1987.153 6        37.977 6
> 2019 07 03 12 01 35.0000000  0  8       0.000000000000
G07  25332390.685 9 133122565.578 9      2170.099 9        54.137 9  25332391.347 6         0.000 6      1690.987 6        37.977 6
G10  23785549.965 9 124993854.410 9      3524.433 9        54.678 9  23785553.669 6         0.000 6      2746.314 6        37.977 6
G21  21179337.605 9 111298149.618 9     -1263.917 9        55.706 9  21179336.893 6         0.000 6      -984.871 6        37.977 6
G29  24320737.642 9 127806282.181 9     -3123.097 9        54.467 9  24320739.239 6         0.000 6     -2433.585 6        37.977 6
G27  21987921.777 9 115547281.911 9      2490.986 9        55.381 9  21987923.704 6         0.000 6      1941.029 6        37.977 6
G16  20493581.175 9 107694475.639 9       534.996 9        55.978 9  20493580.348 6         0.000 6       416.880 6        37.977 6
G26  20664641.554 9 108593401.970 9     -1503.626 9        55.869 9  20664644.374 6         0.000 6     -1171.657 6        37.977 6
G20  21926549.291 9 115224761.287 9      2549.732 9        55.322 9  21926549.602 6         0.000 6      1986.805 6        37.977 6
> 2019 07 03 12 01 36.0000000  0  8       0.000000000000
G07  25331977.772 9 133120395.714 9      2169.637 9        54.137 9  25331978.435 6         0.000 6      1690.627 6        37.977 6
G10  23784879.301 9 124990330.059 9      3524.292 9        54.678 9  23784883.004 6         0.000 6      2746.204 6        37.977 6
G21  21179578.155 9 111299413.714 9     -1264.276 9        55.706 9  21179577.442 6         0.000 6      -985.151 6        37.977 6
G29  24321331.956 9 127809405.310 9     -3123.182 9        54.467 9  24321333.553 6         0.000 6     -2433.651 6        37.977 6
G27  21987447.780 9 115544791.047 9      2490.748 9        55.381 9  21987449.707 6         0.000 6      1940.843 6        37.977 6
G16  20493479.427 9 107693940.951 9       534.378 9        55.978 9  20493478.600 6         0.000 6       416.399 6        37.977 6
G26  20664927.739 9 108594905.881 9     -1504.199 9        55.869 9  20664930.560 6         0.000 6     -1172.104 6        37.977 6
G20  21926064.135 9 115222211.784 9      2549.285 9        55.323 9  21926064.447 6         0.000 6      1986.457 6        37.977 6
> 2019 07 03 12 01 37.0000000  0  8       0.000000000000
G07  25331564.949 9 133118226.315 9      2169.175 9        54.137 9  25331565.611 6         0.000 6      1690.267 6        37.977 6
G10  23784208.664 9 124986805.844 9      3524.151 9        54.679 9  23784212.366 6         0.000 6      2746.094 6        37.977 6
G21  21179818.773 9 111300678.167 9     -1264.635 9        55.706 9  21179818.060 6         0.000 6      -985.430 6        37.977 6
G29  24321926.286 9 127812528.525 9     -3123.267 9        54.467 9  24321927.884 6         0.000 6     -2433.717 6        37.977 6
G27  21986973.829 9 115542300.419 9      2490.510 9        55.381 9  21986975.756 6         0.000 6      1940.658 6        37.977 6
G16  20493377.797 9 107693406.879 9       533.761 9        55.978 9  20493376.970 6         0.000 6       415.918 6        37.977 6
G26  20665214.032 9 108596410.360 9     -1504.773 9        55.869 9  20665216.853 6         0.000 6     -1172.551 6        37.977 6
G20  21925579.064 9 115219662.722 9      2548.838 9        55.323 9  21925579.375 6         0.000 6      1986.109 6        37.977 6
> 2019 07 03 12 01 38.0000000  0  8       0.000000000000
G07  25331152.213 9 133116057.375 9      2168.713 9        54.137 9  25331152.874 6         0.000 6      1689.907 6        37.977 6
G10  23783538.054 9 124983281.774 9      3524.009 9        54.679 9  23783541.755 6         0.000 6      2745.984 6        37.977 6
G21  21180059.459 9 111301942.980 9     -1264.994 9        55.705 9  21180058.746 6         0.000 6      -985.710 6        37.977 6
G29  24322520.632 9 127815651.824 9     -3123.352 9        54.467 9  24322522.230 6         0.000 6     -2433.783 6        37.977 6
G27  21986499.924 9 115539810.031 9      2490.271 9        55.381 9  21986501.850 6         0.000 6      1940.472 6        37.977 6
G16  20493276.284 9 107692873.426 9       533.143 9        55.978 9  20493275.457 6         0.000 6       415.436 6        37.977 6
G26  20665500.436 9 108597915.418 9     -1505.346 9        55.868 9  20665503.256 6         0.000 6     -1172.998 6        37.977 6
G20  21925094.079 9 115217114.112 9      2548.392 9        55.323 9  21925094.390 6         0.000 6      1985.761 6        37.977 6
> 2019 07 03 12 01 39.0000000  0  8       0.000000000000
G07  25330739.565 9 133113888.899 9      2168.250 9        54.137 9  25330740.226 6         0.000 6      1689.547 6        37.977 6
G10  23782867.469 9 124979757.842 9      3523.868 9        54.679 9  23782871.170 6         0.000 6      2745.874 6        37.977 6
G21  21180300.213 9 111303208.150 9     -1265.353 9        55.705 9  21180299.500 6         0.000 6      -985.989 6        37.977 6
G29  24323114.994 9 127818775.207 9     -3123.436 9        54.467 9  24323116.593 6         0.000 6     -2433.849 6        37.977 6
G27  21986026.063 9 115537319.879 9      2490.033 9        55.382 9  21986027.989 6         0.000 6      1940.286 6        37.977 6
G16  20493174.888 9 107692340.589 9       532.526 9        55.978 9  20493174.061 6         0.000 6       414.955 6        37.977 6
G26  20665786.947 9 108599421.045 9     -1505.920 9        55.868 9  20665789.768 6         0.000 6     -1173.445 6        37.977 6
G20  21924609.178 9 115214565.944 9      2547.945 9        55.323 9  21924609.488 6         0.000 6      1985.413 6        37.977 6
> 2019 07 03 12 01 40.0000000  0  8       0.000000000000
G07  25330327.004 9 133111720.884 9      2167.788 9        54.137 9  25330327.666 6         0.000 6      1689.186 6        37.977 6
G10  23782196.913 9 124976234.055 9      3523.727 9        54.679 9  23782200.613 6         0.000 6      2745.764 6        37.977 6
G21  21180541.035 9 111304473.682 9     -1265.711 9        55.705 9  21180540.323 6         0.000 6      -986.269 6        37.977 6
G29  24323709.372 9 127821898.676 9     -3123.521 9        54.466 9  24323710.972 6         0.000 6     -2433.915 6        37.977 6
G27  21985552.248 9 115534829.968 9      2489.795 9        55.382 9  21985554.174 6         0.000 6      1940.101 6        37.977 6
G16  20493073.611 9 107691808.372 9       531.908 9        55.978 9  20493072.784 6         0.000 6       414.474 6        37.977 6
G26  20666073.569 9 108600927.250 9     -1506.493 9        55.868 9  20666076.390 6         0.000 6     -1173.891 6        37.977 6
G20  21924124.363 9 115212018.227 9      2547.498 9        55.323 9  21924124.673 6         0.000 6      1985.064 6        37.977 6
> 2019 07 03 12 01 41.0000000  0  8       0.000000000000
G07  25329914.532 9 133109553.330 9      2167.326 9        54.137 9  25329915.193 6         0.000 6      1688.826 6        37.977 6
G10  23781526.384 9 124972710.409 9      3523.585 9        54.680 9  23781530.083 6         0.000 6      2745.654 6        37.977 6
G21  21180781.926 9 111305739.571 9     -1266.070 9        55.705 9  21180781.214 6         0.000 6      -986.548 6        37.977 6
G29  24324303.767 9 127825022.229 9     -3123.606 9        54.466 9  24324305.367 6         0.000 6     -2433.981 6        37.977 6
G27  21985078.479 9 115532340.295 9      2489.557 9        55.382 9  21985080.405 6         0.000 6      1939.915 6        37.977 6
G16  20492972.451 9 107691276.772 9       531.290 9        55.978 9  20492971.624 6         0.000 6       413.993 6        37.977 6
G26  20666360.300 9 108602434.028 9     -1507.067 9        55.868 9  20666363.121 6         0.000 6     -1174.338 6        37.977 6
G20  21923639.633 9 115209470.957 9      2547.051 9        55.324 9  21923639.942 6         0.000 6      1984.716 6        37.977 6
> 2019 07 03 12 01 42.0000000  0  8       0.000000000000
G07  25329502.149 9 133107386.245 9      2166.863 9        54.138 9  25329502.809 6         0.000 6      1688.466 6        37.977 6
G10  23780855.880 9 124969186.898 9      3523.444 9        54.680 9  23780859.579 6         0.000 6      2745.543 6        37.977 6
G21  21181022.885 9 111307005.815 9     -1266.428 9        55.705 9  21181022.172 6         0.000 6      -986.827 6        37.977 6
G29  24324898.176 9 127828145.861 9     -3123.690 9        54.466 9  24324899.777 6         0.000 6     -2434.047 6        37.977 6
G27  21984604.755 9 115529850.862 9      2489.318 9        55.382 9  21984606.681 6         0.000 6      1939.729 6        37.977 6
G16  20492871.408 9 107690745.789 9       530.673 9        55.978 9  20492870.581 6         0.000 6       413.511 6        37.977 6
G26  20666647.139 9 108603941.375 9     -1507.640 9        55.868 9  20666649.960 6         0.000 6     -1174.785 6        37.977 6
G20  21923154.986 9 115206924.127 9      2546.604 9        55.324 9  21923155.296 6         0.000 6      1984.367 6        37.977 6
> 2019 07 03 12 01 43.0000000  0  8       0.000000000000
G07  25329089.852 9 133105219.616 9      2166.401 9        54.138 9  25329090.513 6         0.000 6      1688.105 6        37.977 6
G10  23780185.404 9 124965663.536 9      3523.302 9        54.680 9  23780189.102 6         0.000 6      2745.433 6        37.977 6
G21  21181263.912 9 111308272.422 9     -1266.787 9        55.705 9  21181263.200 6         0.000 6      -987.107 6        37.977 6
G29  24325492.603 9 127831269.583 9     -3123.775 9        54.466 9  24325494.204 6         0.000 6     -2434.113 6        37.977 6
G27  21984131.076 9 115527361.666 9      2489.080 9        55.382 9  21984133.002 6         0.000 6      1939.543 6        37.977 6
G16  20492770.483 9 107690215.425 9       530.055 9        55.978 9  20492769.656 6         0.000 6       413.030 6        37.977 6
G26  20666934.087 9 108605449.300 9     -1508.213 9        55.868 9  20666936.909 6         0.000 6     -1175.232 6        37.977 6
G20  21922670.426 9 115204377.752 9      2546.156 9        55.324 9  21922670.735 6         0.000 6      1984.019 6        37.977 6
> 2019 07 03 12 01 44.0000000  0  8       0.000000000000
G07  25328677.644 9 133103053.452 9      2165.938 9        54.138 9  25328678.305 6         0.000 6      1687.745 6        37.977 6
G10  23779514.955 9 124962140.310 9      3523.161 9        54.680 9  23779518.652 6         0.000 6      2745.323 6        37.977 6
G21  21181505.007 9 111309539.385 9     -1267.145 9        55.705 9  21181504.295 6         0.000 6      -987.386 6        37.977 6
G29  24326087.045 9 127834393.390 9     -3123.859 9        54.466 9  24326088.648 6         0.000 6     -2434.179 6        37.977 6
G27  21983657.442 9 115524872.706 9      2488.841 9        55.383 9  21983659.368 6         0.000 6      1939.358 6        37.977 6
G16  20492669.675 9 107689685.676 9       529.437 9        55.979 9  20492668.848 6         0.000 6       412.549 6        37.977 6
G26  20667221.145 9 108606957.793 9     -1508.787 9        55.868 9  20667223.966 6         0.000 6     -1175.678 6        37.977 6
G20  21922185.950 9 115201831.820 9      2545.709 9        55.324 9  21922186.260 6         0.000 6      1983.670 6        37.977 6
> 2019 07 03 12 01 45.0000000  0  8       0.000000000000
G07  25328265.524 9 133100887.749 9      2165.476 9        54.138 9  25328266.184 6         0.000 6      1687.385 6        37.977 6
G10  23778844.533 9 124958617.231 9      3523.019 9        54.681 9  23778848.230 6         0.000 6      2745.212 6        37.977 6
G21  21181746.171 9 111310806.708 9     -1267.503 9        55.705 9  21181745.459 6         0.000 6      -987.665 6        37.977 6
G29  24326681.504 9 127837517.281 9     -3123.944 9        54.465 9  24326683.107 6         0.000 6     -2434.245 6        37.977 6
G27  21983183.854 9 115522383.987 9      2488.603 9        55.383 9  21983185.779 6         0.000 6      1939.172 6        37.977 6
G16  20492568.985 9 107689156.547 9       528.819 9        55.979 9  20492568.159 6         0.000 6       412.067 6        37.977 6
G26  20667508.312 9 108608466.865 9     -1509.360 9        55.868 9  20667511.133 6         0.000 6     -1176.125 6        37.977 6
G20  21921701.561 9 115199286.339 9      2545.261 9        55.324 9  21921701.870 6         0.000 6      1983.322 6        37.977 6
> 2019 07 03 12 01 46.0000000  0  8       0.000000000000
G07  25327853.492 9 133098722.511 9      2165.013 9        54.138 9  25327854.152 6         0.000 6      1687.024 6        37.977 6
G10  23778174.138 9 124955094.290 9      3522.877 9        54.681 9  23778177.834 6         0.000 6      2745.101 6        37.977 6
G21  21181987.403 9 111312074.388 9     -1267.862 9        55.705 9  21181986.690 6         0.000 6      -987.944 6        37.977 6
G29  24327275.979 9 127840641.257 9     -3124.028 9        54.465 9  24327277.582 6         0.000 6     -2434.310 6        37.977 6
G27  21982710.311 9 115519895.504 9      2488.364 9        55.383 9  21982712.236 6         0.000 6      1938.986 6        37.977 6
G16  20492468.413 9 107688628.033 9       528.202 9        55.979 9  20492467.586 6         0.000 6       411.586 6        37.977 6
G26  20667795.587 9 108609976.505 9     -1509.933 9        55.867 9  20667798.408 6         0.000 6     -1176.572 6        37.977 6
G20  21921217.255 9 115196741.301 9      2544.814 9        55.325 9  21921217.564 6         0.000 6      1982.973 6        37.977 6
> 2019 07 03 12 01 47.0000000  0  8       0.000000000000
G07  25327441.548 9 133096557.733 9      2164.550 9        54.138 9  25327442.208 6         0.000 6      1686.663 6        37.977 6
G10  23777503.770 9 124951571.495 9      3522.735 9        54.681 9  23777507.466 6         0.000 6      2744.991 6        37.977 6
G21  21182228.703 9 111313342.428 9     -1268.220 9        55.705 9  21182227.991 6         0.000 6      -988.224 6        37.977 6
G29  24327870.470 9 127843765.318 9     -3124.113 9        54.465 9  24327872.074 6         0.000 6     -2434.376 6        37.977 6
G27  21982236.814 9 115517407.262 9      2488.126 9        55.383 9  21982238.739 6         0.000 6      1938.800 6        37.977 6
G16  20492367.958 9 107688100.141 9       527.584 9        55.979 9  20492367.131 6         0.000 6       411.104 6        37.977 6
G26  20668082.972 9 108611486.723 9     -1510.506 9        55.867 9  20668085.794 6         0.000 6     -1177.018 6        37.977 6
G20  21920733.036 9 115194196.716 9      2544.366 9        55.325 9  21920733.344 6         0.000 6      1982.624 6        37.977 6
> 2019 07 03 12 01 48.0000000  0  8       0.000000000000
G07  25327029.692 9 133094393.420 9      2164.087 9        54.138 9  25327030.352 6         0.000 6      1686.303 6        37.977 6
G10  23776833.429 9 124948048.838 9      3522.592 9        54.681 9  23776837.124 6         0.000 6      2744.880 6        37.977 6
G21  21182470.071 9 111314610.824 9     -1268.578 9        55.704 9  21182469.358 6         0.000 6      -988.503 6        37.977 6
G29  24328464.976 9 127846889.463 9     -3124.197 9        54.465 9  24328466.581 6         0.000 6     -2434.442 6        37.977 6
G27  21981763.361 9 115514919.256 9      2487.887 9        55.383 9  21981765.286 6         0.000 6      1938.614 6        37.977 6
G16  20492267.620 9 107687572.863 9       526.966 9        55.979 9  20492266.793 6         0.000 6       410.623 6        37.977 6
G26  20668370.466 9 108612997.509 9     -1511.080 9        55.867 9  20668373.287 6         0.000 6     -1177.465 6        37.977 6
G20  21920248.901 9 115191652.574 9      2543.919 9        55.325 9  21920249.209 6         0.000 6      1982.275 6        37.977 6
> 2019 07 03 12 01 49.0000000  0  8       0.000000000000
G07  25326617.925 9 133092229.571 9      2163.624 9        54.139 9  25326618.584 6         0.000 6      1685.942 6        37.977 6
G10  23776163.115 9 124944526.325 9      3522.450 9        54.682 9  23776166.809 6         0.000 6      2744.769 6        37.977 6
G21  21182711.507 9 111315879.578 9     -1268.936 9        55.704 9  21182710.795 6         0.000 6      -988.782 6        37.977 6
G29  24329059.499 9 127850013.687 9     -3124.282 9        54.464 9  24329061.104 6         0.000 6     -2434.508 6        37.977 6
G27  21981289.956 9 115512431.495 9      2487.648 9        55.383 9  21981291.880 6         0.000 6      1938.428 6        37.977 6
G16  20492167.401 9 107687046.207 9       526.348 9        55.979 9  20492166.574 6         0.000 6       410.141 6        37.977 6
G26  20668658.069 9 108614508.873 9     -1511.653 9        55.867 9  20668660.891 6         0.000 6     -1177.912 6        37.977 6
G20  21919764.851 9 115189108.880 9      2543.471 9        55.325 9  21919765.159 6         0.000 6      1981.926 6        37.977 6
> 2019 07 03 12 01 50.0000000  0  8       0.000000000000
G07  25326206.245 9 133090066.184 9      2163.161 9        54.139 9  25326206.904 6         0.000 6      1685.581 6        37.977 6
G10  23775492.827 9 124941003.952 9      3522.308 9        54.682 9  23775496.521 6         0.000 6      2744.658 6        37.977 6
G21  21182953.011 9 111317148.690 9     -1269.294 9        55.704 9  21182952.299 6         0.000 6      -989.061 6        37.977 6
G29  24329654.038 9 127853138.000 9     -3124.366 9        54.464 9  24329655.644 6         0.000 6     -2434.574 6        37.977 6
G27  21980816.594 9 115509943.966 9      2487.410 9        55.384 9  21980818.519 6         0.000 6      1938.242 6        37.977 6
G16  20492067.299 9 107686520.165 9       525.730 9        55.979 9  20492066.472 6         0.000 6       409.660 6        37.977 6
G26  20668945.781 9 108616020.806 9     -1512.226 9        55.867 9  20668948.603 6         0.000 6     -1178.358 6        37.977 6
G20  21919280.887 9 115186565.634 9      2543.023 9        55.325 9  21919281.194 6         0.000 6      1981.577 6        37.977 6
> 2019 07 03 12 01 51.0000000  0  8       0.000000000000
G07  25325794.653 9 133087903.258 9      2162.698 9        54.139 9  25325795.312 6         0.000 6      1685.220 6        37.977 6
G10  23774822.568 9 124937481.726 9      3522.165 9        54.682 9  23774826.261 6         0.000 6      2744.547 6        37.977 6
G21  21183194.584 9 111318418.163 9     -1269.652 9        55.704 9  21183193.872 6         0.000 6      -989.340 6        37.977 6
G29  24330248.593 9 127856262.399 9     -3124.451 9        54.464 9  24330250.200 6         0.000 6     -2434.640 6        37.977 6
G27  21980343.279 9 115507456.679 9      2487.171 9        55.384 9  21980345.203 6         0.000 6      1938.056 6        37.977 6
G16  20491967.314 9 107685994.744 9       525.112 9        55.979 9  20491966.487 6         0.000 6       409.178 6        37.977 6
G26  20669233.602 9 108617533.316 9     -1512.799 9        55.867 9  20669236.424 6         0.000 6     -1178.805 6        37.977 6
G20  21918797.008 9 115184022.839 9      2542.575 9        55.325 9  21918797.315 6         0.000 6      1981.228 6        37.977 6
> 2019 07 03 12 01 52.0000000  0  8       0.000000000000
G07  25325383.150 9 133085740.795 9      2162.235 9        54.139 9  25325383.808 6         0.000 6      1684.859 6        37.977 6
G10  23774152.336 9 124933959.642 9      3522.023 9        54.682 9  23774156.028 6         0.000 6      2744.436 6        37.977 6
G21  21183436.224 9 111319687.994 9     -1270.010 9        55.704 9  21183435.512 6         0.000 6      -989.619 6        37.977 6
G29  24330843.164 9 127859386.881 9     -3124.535 9        54.464 9  24330844.772 6         0.000 6     -2434.705 6        37.977 6
G27  21979870.008 9 115504969.630 9      2486.932 9        55.384 9  21979871.933 6         0.000 6      1937.870 6        37.977 6
G16  20491867.448 9 107685469.942 9       524.494 9        55.979 9  20491866.621 6         0.000 6       408.696 6        37.977 6
G26  20669521.533 9 108619046.400 9     -1513.372 9        55.867 9  20669524.355 6         0.000 6     -1179.251 6        37.977 6
G20  21918313.215 9 115181480.493 9      2542.127 9        55.326 9  21918313.522 6         0.000 6      1980.879 6        37.977 6
> 2019 07 03 12 01 53.0000000  0  8       0.000000000000
G07  25324971.735 9 133083578.798 9      2161.772 9        54.139 9  25324972.393 6         0.000 6      1684.498 6        37.977 6
G10  23773482.130 9 124930437.697 9      3521.880 9        54.682 9  23773485.822 6         0.000 6      2744.325 6        37.977 6
G21  21183677.933 9 111320958.180 9     -1270.368 9        55.704 9  21183677.221 6         0.000 6      -989.897 6        37.977 6
G29  24331437.751 9 127862511.448 9     -3124.619 9        54.464 9  24331439.359 6         0.000 6     -2434.771 6        37.977 6
G27  21979396.783 9 115502482.818 9      2486.693 9        55.384 9  21979398.707 6         0.000 6      1937.684 6        37.977 6
G16  20491767.698 9 107684945.754 9       523.876 9        55.979 9  20491766.871 6         0.000 6       408.215 6        37.977 6
G26  20669809.571 9 108620560.052 9     -1513.945 9        55.867 9  20669812.394 6         0.000 6     -1179.698 6        37.977 6
G20  21917829.506 9 115178938.591 9      2541.679 9        55.326 9  21917829.813 6         0.000 6      1980.530 6        37.977 6
> 2019 07 03 12 01 54.0000000  0  8       0.000000000000
G07  25324560.407 9 133081417.261 9      2161.308 9        54.139 9  25324561.065 6         0.000 6      1684.137 6        37.977 6
G10  23772811.952 9 124926915.899 9      3521.737 9        54.683 9  23772815.643 6         0.000 6      2744.213 6        37.977 6
G21  21183919.710 9 111322228.726 9     -1270.726 9        55.704 9  21183918.998 6         0.000 6      -990.176 6        37.977 6
G29  24332032.355 9 127865636.100 9     -3124.704 9        54.463 9  24332033.963 6         0.000 6     -2434.837 6        37.977 6
G27  21978923.604 9 115499996.246 9      2486.455 9        55.384 9  21978925.528 6         0.000 6      1937.498 6        37.977 6
G16  20491668.067 9 107684422.187 9       523.257 9        55.979 9  20491667.240 6         0.000 6       407.733 6        37.977 6
G26  20670097.720 9 108622074.281 9     -1514.518 9        55.867 9  20670100.542 6         0.000 6     -1180.144 6        37.977 6
G20  21917345.884 9 115176397.141 9      2541.230 9        55.326 9  21917346.190 6         0.000 6      1980.181 6        37.977 6
> 2019 07 03 12 01 55.0000000  0  8       0.000000000000
G07  25324149.169 9 133079256.191 9      2160.845 9        54.139 9  25324149.827 6         0.000 6      1683.776 6        37.977 6
G10  23772141.800 9 124923394.240 9      3521.594 9        54.683 9  23772145.491 6         0.000 6      2744.102 6        37.977 6
G21  21184161.555 9 111323499.628 9     -1271.084 9        55.704 9  21184160.843 6         0.000 6      -990.455 6        37.977 6
G29  24332626.974 9 127868760.835 9     -3124.788 9        54.463 9  24332628.583 6         0.000 6     -2434.902 6        37.977 6
G27  21978450.470 9 115497509.912 9      2486.216 9        55.385 9  21978452.394 6         0.000 6      1937.312 6        37.977 6
G16  20491568.552 9 107683899.236 9       522.639 9        55.979 9  20491567.725 6         0.000 6       407.251 6        37.977 6
G26  20670385.977 9 108623589.079 9     -1515.091 9        55.866 9  20670388.799 6         0.000 6     -1180.591 6        37.977 6
G20  21916862.345 9 115173856.135 9      2540.782 9        55.326 9  21916862.651 6         0.000 6      1979.831 6        37.977 6
> 2019 07 03 12 01 56.0000000  0  8       0.000000000000
G07  25323738.018 9 133077095.581 9      2160.381 9        54.139 9  25323738.675 6         0.000 6      1683.415 6        37.977 6
G10  23771471.677 9 124919872.727 9      3521.451 9        54.683 9  23771475.367 6         0.000 6      2743.991 6        37.977 6
G21  21184403.468 9 111324770.890 9     -1271.442 9        55.704 9  21184402.756 6         0.000 6      -990.734 6        37.977 6
G29  24333221.609 9 127871885.655 9     -3124.872 9        54.463 9  24333223.219 6         0.000 6     -2434.968 6        37.977 6
G27  21977977.381 9 115495023.818 9      2485.977 9        55.385 9  21977979.305 6         0.000 6      1937.125 6        37.977 6
G16  20491469.156 9 107683376.906 9       522.021 9        55.979 9  20491468.329 6         0.000 6       406.770 6        37.977 6
G26  20670674.343 9 108625104.454 9     -1515.664 9        55.866 9  20670677.166 6         0.000 6     -1181.037 6        37.977 6
G20  21916378.893 9 115171315.582 9      2540.333 9        55.326 9  21916379.199 6         0.000 6      1979.482 6        37.977 6
> 2019 07 03 12 01 57.0000000  0  8       0.000000000000
G07  25323326.956 9 133074935.440 9      2159.918 9        54.140 9  25323327.613 6         0.000 6      1683.054 6        37.977 6
G10  23770801.579 9 124916351.352 9      3521.308 9        54.683 9  23770805.269 6         0.000 6      2743.879 6        37.977 6
G21  21184645.448 9 111326042.505 9     -1271.799 9        55.704 9  21184644.737 6         0.000 6      -991.013 6        37.977 6
G29  24333816.260 9 127875010.554 9     -3124.957 9        54.463 9  24333817.871 6         0.000 6     -2435.034 6        37.977 6
G27  21977504.339 9 115492537.965 9      2485.738 9        55.385 9  21977506.262 6         0.000 6      1936.939 6        37.977 6
G16  20491369.877 9 107682855.192 9       521.403 9        55.979 9  20491369.050 6         0.000 6       406.288 6        37.977 6
G26  20670962.818 9 108626620.397 9     -1516.236 9        55.866 9  20670965.641 6         0.000 6     -1181.483 6        37.977 6
G20  21915895.525 9 115168775.470 9      2539.885 9        55.327 9  21915895.831 6         0.000 6      1979.132 6        37.977 6
> 2019 07 03 12 01 58.0000000  0  8       0.000000000000
G07  25322915.981 9 133072775.758 9      2159.454 9        54.140 9  25322916.638 6         0.000 6      1682.693 6        37.977 6
G10  23770131.510 9 124912830.126 9      3521.165 9        54.684 9  23770135.199 6         0.000 6      2743.767 6        37.977 6
G21  21184887.498 9 111327314.482 9     -1272.157 9        55.703 9  21184886.786 6         0.000 6      -991.291 6        37.977 6
G29  24334410.927 9 127878135.543 9     -3125.041 9        54.463 9  24334412.539 6         0.000 6     -2435.099 6        37.977 6
G27  21977031.341 9 115490052.350 9      2485.499 9        55.385 9  21977033.265 6         0.000 6      1936.753 6        37.977 6
G16  20491270.717 9 107682334.098 9       520.784 9        55.979 9  20491269.890 6         0.000 6       405.806 6        37.977 6
G26  20671251.403 9 108628136.919 9     -1516.809 9        55.866 9  20671254.226 6         0.000 6     -1181.930 6        37.977 6
G20  21915412.244 9 115166235.814 9      2539.436 9        55.327 9  21915412.549 6         0.000 6      1978.783 6        37.977 6
> 2019 07 03 12 01 59.0000000  0  8       0.000000000000
G07  25322505.095 9 133070616.541 9      2158.991 9        54.140 9  25322505.752 6         0.000 6      1682.331 6        37.977 6
G10  23769461.468 9 124909309.039 9      3521.022 9        54.684 9  23769465.156 6         0.000 6      2743.656 6        37.977 6
G21  21185129.615 9 111328586.815 9     -1272.514 9        55.703 9  21185128.903 6         0.000 6      -991.570 6        37.977 6
G29  24335005.611 9 127881260.615 9     -3125.125 9        54.462 9  24335007.223 6         0.000 6     -2435.165 6        37.977 6
G27  21976558.389 9 115487566.971 9      2485.260 9        55.385 9  21976560.312 6         0.000 6      1936.567 6        37.977 6
G16  20491171.673 9 107681813.620 9       520.166 9        55.979 9  20491170.846 6         0.000 6       405.324 6        37.977 6
G26  20671540.096 9 108629654.008 9     -1517.382 9        55.866 9  20671542.919 6         0.000 6     -1182.376 6        37.977 6
G20  21914929.047 9 115163696.602 9      2538.987 9        55.327 9  21914929.352 6         0.000 6      1978.433 6        37.977 6
> 2019 07 03 12 02  0.0000000  0  8       0.000000000000
G07  25322094.297 9 133068457.787 9      2158.527 9        54.140 9  25322094.954 6         0.000 6      1681.970 6        37.977 6
G10  23768791.453 9 124905788.098 9      3520.878 9        54.684 9  23768795.140 6         0.000 6      2743.544 6        37.977 6
G21  21185371.800 9 111329859.506 9     -1272.872 9        55.703 9  21185371.088 6         0.000 6      -991.848 6        37.977 6
G29  24335600.310 9 127884385.771 9     -3125.209 9        54.462 9  24335601.923 6         0.000 6     -2435.231 6        37.977 6
G27  21976085.483 9 115485081.834 9      2485.021 9        55.386 9  21976087.406 6         0.000 6      1936.381 6        37.977 6
G16  20491072.747 9 107681293.763 9       519.548 9        55.979 9  20491071.920 6         0.000 6       404.842 6        37.977 6
G26  20671828.898 9 108631171.673 9     -1517.955 9        55.866 9  20671831.721 6         0.000 6     -1182.822 6        37.977 6
G20  21914445.936 9 115161157.842 9      2538.539 9        55.327 9  21914446.241 6         0.000 6      1978.083 6        37.977 6
