     3.00           Observation Data    M (Mixed)           RINEX VERSION / TYPE
SimGEN V6.06.00     Spirent             03-Jul-19 12:00     PGM / RUN BY / DATE 
                                                            MARKER NAME         
1                                                           MARKER NUMBER       
GROUND_CRAFT                                                MARKER TYPE         
jin4hi              Spirent                                 OBSERVER / AGENCY   
rec_num             rec_type            rec_vers            REC # / TYPE / VERS 
1                   ant_type                                ANT # / TYPE        
  1000.000                                                  INTERVAL            
  2019     7     3    12     0    1.0000000     GPS         TIME OF FIRST OBS   
  4162652.7200   664400.6990  4770549.9870                  APPROX POSITION XYZ 
        0.0000        0.0000        0.0000                  ANTENNA: DELTA H/E/N
G    8 C1C L1C D1C S1C C2C L2C D2C S2C                      SYS / # / OBS TYPES 
        0.0000        0.0000        0.0000                  ANTENNA: DELTA X/Y/Z
DBHZ                                                        SIGNAL STRENGTH UNIT
                                                            END OF HEADER       
> 2019 07 03 12 00  1.0000000  0  8       0.000000000000
G07  25371573.838 9 133328474.102 9      2214.437 9        54.123 9  25371574.521 6         0.000 6      1725.536 6        37.977 6
G10  23848723.488 9 125325832.510 9      3536.310 9        54.655 9  23848727.253 6         0.000 6      2755.566 6        37.977 6
G21  21157048.090 9 111181017.489 9     -1230.926 9        55.715 9  21157047.373 6         0.000 6      -959.163 6        37.977 6
G29  24264991.933 9 127513337.457 9     -3117.919 9        54.487 9  24264993.471 6         0.000 6     -2429.547 6        37.977 6
G27  22032642.135 9 115782288.727 9      2515.442 9        55.363 9  22032644.078 6         0.000 6      1960.085 6        37.977 6
G16  20503651.621 9 107747396.185 9       593.925 9        55.974 9  20503650.794 6         0.000 6       462.798 6        37.977 6
G26  20638223.508 9 108454574.363 9     -1449.255 9        55.880 9  20638226.318 6         0.000 6     -1129.290 6        37.977 6
G20  21972553.890 9 115466516.665 9      2589.858 9        55.304 9  21972554.228 6         0.000 6      2018.071 6        37.977 6
> 2019 07 03 12 00  2.0000000  0  8       0.000000000000
G07  25371152.515 9 133326260.037 9      2213.586 9        54.123 9  25371153.198 6         0.000 6      1724.873 6        37.977 6
G10  23848050.534 9 125322296.123 9      3536.504 9        54.655 9  23848054.299 6         0.000 6      2755.720 6        37.977 6
G21  21157282.334 9 111182248.449 9     -1230.953 9        55.715 9  21157281.617 6         0.000 6      -959.184 6        37.977 6
G29  24265585.183 9 127516454.997 9     -3117.019 9        54.487 9  24265586.721 6         0.000 6     -2428.849 6        37.977 6
G27  22032163.549 9 115779773.742 9      2514.424 9        55.363 9  22032165.492 6         0.000 6      1959.292 6        37.977 6
G16  20503538.689 9 107746802.728 9       592.937 9        55.974 9  20503537.863 6         0.000 6       462.029 6        37.977 6
G26  20638499.355 9 108456023.950 9     -1449.939 9        55.880 9  20638502.165 6         0.000 6     -1129.823 6        37.977 6
G20  21972061.056 9 115463926.808 9      2589.922 9        55.305 9  21972061.394 6         0.000 6      2018.122 6        37.977 6
> 2019 07 03 12 00  3.0000000  0  8       0.000000000000
G07  25370731.383 9 133324046.978 9      2212.548 9        54.123 9  25370732.066 6         0.000 6      1724.064 6        37.977 6
G10  23847377.534 9 125318759.497 9      3536.767 9        54.656 9  23847381.298 6         0.000 6      2755.925 6        37.977 6
G21  21157516.569 9 111183479.362 9     -1230.880 9        55.715 9  21157515.852 6         0.000 6      -959.127 6        37.977 6
G29  24266178.213 9 127519571.382 9     -3115.798 9        54.487 9  24266179.752 6         0.000 6     -2427.897 6        37.977 6
G27  22031685.191 9 115777259.957 9      2513.173 9        55.364 9  22031687.134 6         0.000 6      1958.317 6        37.977 6
G16  20503425.963 9 107746210.346 9       591.841 9        55.974 9  20503425.136 6         0.000 6       461.175 6        37.977 6
G26  20638775.338 9 108457474.249 9     -1450.652 9        55.880 9  20638778.148 6         0.000 6     -1130.379 6        37.977 6
G20  21971568.190 9 115461336.786 9      2590.125 9        55.305 9  21971568.528 6         0.000 6      2018.280 6        37.977 6
> 2019 07 03 12 00  4.0000000  0  8       0.000000000000
G07  25370310.410 9 133321834.755 9      2212.235 9        54.124 9  25370311.093 6         0.000 6      1723.821 6        37.977 6
G10  23846704.511 9 125315222.744 9      3536.538 9        54.656 9  23846708.274 6         0.000 6      2755.747 6        37.977 6
G21  21157750.819 9 111184710.353 9     -1231.351 9        55.715 9  21157750.102 6         0.000 6      -959.494 6        37.977 6
G29  24266771.098 9 127522687.001 9     -3116.200 9        54.487 9  24266772.637 6         0.000 6     -2428.210 6        37.977 6
G27  22031207.004 9 115774747.070 9      2513.182 9        55.364 9  22031208.946 6         0.000 6      1958.324 6        37.977 6
G16  20503313.413 9 107745618.892 9       591.341 9        55.974 9  20503312.586 6         0.000 6       460.785 6        37.977 6
G26  20639051.448 9 108458925.212 9     -1451.199 9        55.880 9  20639054.258 6         0.000 6     -1130.805 6        37.977 6
G20  21971075.328 9 115458746.783 9      2589.530 9        55.305 9  21971075.665 6         0.000 6      2017.816 6        37.977 6
> 2019 07 03 12 00  5.0000000  0  8       0.000000000000
G07  25369889.435 9 133319622.518 9      2212.132 9        54.124 9  25369890.117 6         0.000 6      1723.740 6        37.977 6
G10  23846031.572 9 125311686.438 9      3536.171 9        54.656 9  23846035.335 6         0.000 6      2755.461 6        37.977 6
G21  21157985.205 9 111185942.060 9     -1231.978 9        55.715 9  21157984.488 6         0.000 6      -959.983 6        37.977 6
G29  24267364.199 9 127525803.762 9     -3117.078 9        54.486 9  24267365.740 6         0.000 6     -2428.895 6        37.977 6
G27  22030728.706 9 115772233.597 9      2513.563 9        55.364 9  22030730.648 6         0.000 6      1958.621 6        37.977 6
G16  20503200.905 9 107745027.661 9       591.021 9        55.974 9  20503200.079 6         0.000 6       460.536 6        37.977 6
G26  20639327.645 9 108460376.639 9     -1451.690 9        55.879 9  20639330.456 6         0.000 6     -1131.187 6        37.977 6
G20  21970582.647 9 115456157.731 9      2588.707 9        55.305 9  21970582.984 6         0.000 6      2017.176 6        37.977 6
> 2019 07 03 12 00  6.0000000  0  8       0.000000000000
G07  25369468.534 9 133317410.669 9      2211.515 9        54.124 9  25369469.216 6         0.000 6      1723.259 6        37.977 6
G10  23845358.667 9 125308150.309 9      3536.149 9        54.656 9  23845362.429 6         0.000 6      2755.444 6        37.977 6
G21  21158219.670 9 111187174.180 9     -1232.220 9        55.714 9  21158218.953 6         0.000 6      -960.172 6        37.977 6
G29  24267957.345 9 127528920.755 9     -3116.803 9        54.486 9  24267958.886 6         0.000 6     -2428.680 6        37.977 6
G27  22030250.430 9 115769720.247 9      2513.047 9        55.364 9  22030252.372 6         0.000 6      1958.219 6        37.977 6
G16  20503088.505 9 107744436.991 9       590.274 9        55.974 9  20503087.678 6         0.000 6       459.954 6        37.977 6
G26  20639603.950 9 108461828.630 9     -1452.304 9        55.879 9  20639606.761 6         0.000 6     -1131.666 6        37.977 6
G20  21970090.064 9 115453569.191 9      2588.447 9        55.305 9  21970090.400 6         0.000 6      2016.973 6        37.977 6
> 2019 07 03 12 00  7.0000000  0  8       0.000000000000
G07  25369047.771 9 133315199.550 9      2210.728 9        54.124 9  25369048.453 6         0.000 6      1722.646 6        37.977 6
G10  23844685.751 9 125304614.124 9      3536.241 9        54.657 9  23844689.513 6         0.000 6      2755.516 6        37.977 6
G21  21158454.165 9 111188406.458 9     -1232.336 9        55.714 9  21158453.448 6         0.000 6      -960.262 6        37.977 6
G29  24268550.392 9 127532037.224 9     -3116.145 9        54.486 9  24268551.933 6         0.000 6     -2428.167 6        37.977 6
G27  22029772.290 9 115767207.605 9      2512.233 9        55.364 9  22029774.232 6         0.000 6      1957.585 6        37.977 6
G16  20502976.263 9 107743847.159 9       589.385 9        55.974 9  20502975.437 6         0.000 6       459.261 6        37.977 6
G26  20639880.376 9 108463281.257 9     -1452.959 9        55.879 9  20639883.187 6         0.000 6     -1132.176 6        37.977 6
G20  21969597.506 9 115450980.787 9      2588.373 9        55.306 9  21969597.842 6         0.000 6      2016.915 6        37.977 6
> 2019 07 03 12 00  8.0000000  0  8       0.000000000000
G07  25368627.154 9 133312989.198 9      2209.999 9        54.124 9  25368627.836 6         0.000 6      1722.078 6        37.977 6
G10  23844012.821 9 125301077.864 9      3536.293 9        54.657 9  23844016.582 6         0.000 6      2755.555 6        37.977 6
G21  21158688.684 9 111189638.867 9     -1232.494 9        55.714 9  21158687.968 6         0.000 6      -960.385 6        37.977 6
G29  24269143.320 9 127535153.071 9     -3115.611 9        54.486 9  24269144.862 6         0.000 6     -2427.752 6        37.977 6
G27  22029294.300 9 115764695.750 9      2511.515 9        55.365 9  22029296.241 6         0.000 6      1957.025 6        37.977 6
G16  20502864.189 9 107743258.206 9       588.539 9        55.974 9  20502863.363 6         0.000 6       458.602 6        37.977 6
G26  20640156.928 9 108464734.542 9     -1453.605 9        55.879 9  20640159.738 6         0.000 6     -1132.680 6        37.977 6
G20  21969104.967 9 115448392.480 9      2588.234 9        55.306 9  21969105.302 6         0.000 6      2016.807 6        37.977 6
> 2019 07 03 12 00  9.0000000  0  8       0.000000000000
G07  25368206.664 9 133310779.512 9      2209.412 9        54.124 9  25368207.346 6         0.000 6      1721.621 6        37.977 6
G10  23843339.889 9 125297541.591 9      3536.250 9        54.657 9  23843343.649 6         0.000 6      2755.522 6        37.977 6
G21  21158923.243 9 111190871.480 9     -1232.759 9        55.714 9  21158922.527 6         0.000 6      -960.592 6        37.977 6
G29  24269736.175 9 127538268.535 9     -3115.403 9        54.486 9  24269737.717 6         0.000 6     -2427.589 6        37.977 6
G27  22028816.423 9 115762184.495 9      2511.051 9        55.365 9  22028818.364 6         0.000 6      1956.664 6        37.977 6
G16  20502752.265 9 107742670.039 9       587.816 9        55.974 9  20502751.438 6         0.000 6       458.039 6        37.977 6
G26  20640433.597 9 108466188.450 9     -1454.212 9        55.879 9  20640436.408 6         0.000 6     -1133.153 6        37.977 6
G20  21968612.466 9 115445804.379 9      2587.940 9        55.306 9  21968612.802 6         0.000 6      2016.578 6        37.977 6
> 2019 07 03 12 00 10.0000000  0  8       0.000000000000
G07  25367786.273 9 133308570.343 9      2208.954 9        54.124 9  25367786.954 6         0.000 6      1721.264 6        37.977 6
G10  23842666.974 9 125294005.408 9      3536.120 9        54.657 9  23842670.733 6         0.000 6      2755.421 6        37.977 6
G21  21159157.862 9 111192104.412 9     -1233.121 9        55.714 9  21159157.146 6         0.000 6      -960.873 6        37.977 6
G29  24270329.020 9 127541383.950 9     -3115.485 9        54.485 9  24270330.564 6         0.000 6     -2427.653 6        37.977 6
G27  22028338.611 9 115759673.579 9      2510.813 9        55.365 9  22028340.552 6         0.000 6      1956.478 6        37.977 6
G16  20502640.467 9 107742082.536 9       587.201 9        55.974 9  20502639.640 6         0.000 6       457.559 6        37.977 6
G26  20640710.379 9 108467642.948 9     -1454.789 9        55.879 9  20640713.191 6         0.000 6     -1133.602 6        37.977 6
G20  21968120.037 9 115443216.649 9      2587.505 9        55.306 9  21968120.372 6         0.000 6      2016.239 6        37.977 6
> 2019 07 03 12 00 11.0000000  0  8       0.000000000000
G07  25367365.960 9 133306361.590 9      2208.562 9        54.125 9  25367366.641 6         0.000 6      1720.958 6        37.977 6
G10  23841994.089 9 125290469.385 9      3535.947 9        54.657 9  23841997.848 6         0.000 6      2755.286 6        37.977 6
G21  21159392.556 9 111193337.736 9     -1233.531 9        55.714 9  21159391.840 6         0.000 6      -961.193 6        37.977 6
G29  24270921.898 9 127544499.535 9     -3115.716 9        54.485 9  24270923.442 6         0.000 6     -2427.833 6        37.977 6
G27  22027860.832 9 115757162.834 9      2510.691 9        55.365 9  22027862.773 6         0.000 6      1956.384 6        37.977 6
G16  20502528.780 9 107741495.617 9       586.642 9        55.974 9  20502527.953 6         0.000 6       457.124 6        37.977 6
G26  20640987.270 9 108469098.016 9     -1455.347 9        55.879 9  20640990.081 6         0.000 6     -1134.037 6        37.977 6
G20  21967627.699 9 115440629.402 9      2586.998 9        55.306 9  21967628.034 6         0.000 6      2015.844 6        37.977 6
> 2019 07 03 12 00 12.0000000  0  8       0.000000000000
G07  25366945.721 9 133304153.222 9      2208.175 9        54.125 9  25366946.402 6         0.000 6      1720.657 6        37.977 6
G10  23841321.238 9 125286933.542 9      3535.767 9        54.658 9  23841324.996 6         0.000 6      2755.146 6        37.977 6
G21  21159627.330 9 111194571.478 9     -1233.947 9        55.714 9  21159626.613 6         0.000 6      -961.517 6        37.977 6
G29  24271514.823 9 127547615.367 9     -3115.953 9        54.485 9  24271516.368 6         0.000 6     -2428.018 6        37.977 6
G27  22027383.073 9 115754652.200 9      2510.572 9        55.365 9  22027385.014 6         0.000 6      1956.290 6        37.977 6
G16  20502417.199 9 107740909.254 9       586.081 9        55.974 9  20502416.372 6         0.000 6       456.687 6        37.977 6
G26  20641264.267 9 108470553.644 9     -1455.911 9        55.879 9  20641267.078 6         0.000 6     -1134.477 6        37.977 6
G20  21967135.460 9 115438042.671 9      2586.483 9        55.306 9  21967135.795 6         0.000 6      2015.443 6        37.977 6
> 2019 07 03 12 00 13.0000000  0  8       0.000000000000
G07  25366525.558 9 133301945.256 9      2207.758 9        54.125 9  25366526.239 6         0.000 6      1720.332 6        37.977 6
G10  23840648.419 9 125283397.866 9      3535.610 9        54.658 9  23840652.177 6         0.000 6      2755.023 6        37.977 6
G21  21159862.180 9 111195805.622 9     -1234.339 9        55.714 9  21159861.463 6         0.000 6      -961.823 6        37.977 6
G29  24272107.788 9 127550731.405 9     -3116.127 9        54.485 9  24272109.333 6         0.000 6     -2428.154 6        37.977 6
G27  22026905.342 9 115752141.707 9      2510.405 9        55.365 9  22026907.283 6         0.000 6      1956.161 6        37.977 6
G16  20502305.726 9 107740323.459 9       585.500 9        55.974 9  20502304.899 6         0.000 6       456.234 6        37.977 6
G26  20641541.371 9 108472009.834 9     -1456.477 9        55.878 9  20641544.183 6         0.000 6     -1134.917 6        37.977 6
G20  21966643.315 9 115435456.435 9      2586.003 9        55.307 9  21966643.649 6         0.000 6      2015.068 6        37.977 6
> 2019 07 03 12 00 14.0000000  0  8       0.000000000000
G07  25366105.479 9 133299737.727 9      2207.308 9        54.125 9  25366106.159 6         0.000 6      1719.981 6        37.977 6
G10  23839975.628 9 125279862.333 9      3535.475 9        54.658 9  23839979.384 6         0.000 6      2754.918 6        37.977 6
G21  21160097.101 9 111197040.144 9     -1234.706 9        55.714 9  21160096.385 6         0.000 6      -962.109 6        37.977 6
G29  24272700.777 9 127553847.576 9     -3116.230 9        54.485 9  24272702.323 6         0.000 6     -2428.233 6        37.977 6
G27  22026427.648 9 115749631.413 9      2510.183 9        55.366 9  22026429.589 6         0.000 6      1955.988 6        37.977 6
G16  20502194.366 9 107739738.260 9       584.894 9        55.974 9  20502193.539 6         0.000 6       455.761 6        37.977 6
G26  20641818.584 9 108473466.593 9     -1457.049 9        55.878 9  20641821.395 6         0.000 6     -1135.363 6        37.977 6
G20  21966151.257 9 115432870.658 9      2585.558 9        55.307 9  21966151.591 6         0.000 6      2014.722 6        37.977 6
> 2019 07 03 12 00 15.0000000  0  8       0.000000000000
G07  25365685.486 9 133297530.651 9      2206.844 9        54.125 9  25365686.166 6         0.000 6      1719.619 6        37.977 6
G10  23839302.862 9 125276326.937 9      3535.347 9        54.658 9  23839306.618 6         0.000 6      2754.819 6        37.977 6
G21  21160332.093 9 111198275.031 9     -1235.064 9        55.714 9  21160331.377 6         0.000 6      -962.387 6        37.977 6
G29  24273293.783 9 127556963.834 9     -3116.295 9        54.484 9  24273295.330 6         0.000 6     -2428.285 6        37.977 6
G27  22025950.000 9 115747121.356 9      2509.931 9        55.366 9  22025951.940 6         0.000 6      1955.791 6        37.977 6
G16  20502083.124 9 107739153.679 9       584.270 9        55.975 9  20502082.297 6         0.000 6       455.276 6        37.977 6
G26  20642095.907 9 108474923.933 9     -1457.629 9        55.878 9  20642098.718 6         0.000 6     -1135.815 6        37.977 6
G20  21965659.283 9 115430285.325 9      2585.128 9        55.307 9  21965659.617 6         0.000 6      2014.387 6        37.977 6
> 2019 07 03 12 00 16.0000000  0  8       0.000000000000
G07  25365265.582 9 133295324.047 9      2206.374 9        54.125 9  25365266.262 6         0.000 6      1719.254 6        37.977 6
G10  23838630.119 9 125272791.660 9      3535.224 9        54.659 9  23838633.875 6         0.000 6      2754.723 6        37.977 6
G21  21160567.151 9 111199510.269 9     -1235.417 9        55.713 9  21160566.435 6         0.000 6      -962.662 6        37.977 6
G29  24273886.800 9 127560080.147 9     -3116.351 9        54.484 9  24273888.347 6         0.000 6     -2428.328 6        37.977 6
G27  22025472.400 9 115744611.556 9      2509.672 9        55.366 9  22025474.341 6         0.000 6      1955.589 6        37.977 6
G16  20501972.000 9 107738569.720 9       583.645 9        55.975 9  20501971.173 6         0.000 6       454.788 6        37.977 6
G26  20642373.339 9 108476381.848 9     -1458.209 9        55.878 9  20642376.151 6         0.000 6     -1136.267 6        37.977 6
G20  21965167.390 9 115427700.411 9      2584.704 9        55.307 9  21965167.723 6         0.000 6      2014.056 6        37.977 6
> 2019 07 03 12 00 17.0000000  0  8       0.000000000000
G07  25364845.767 9 133293117.908 9      2205.910 9        54.125 9  25364846.447 6         0.000 6      1718.892 6        37.977 6
G10  23837957.401 9 125269256.513 9      3535.096 9        54.659 9  23837961.156 6         0.000 6      2754.623 6        37.977 6
G21  21160802.277 9 111200745.865 9     -1235.774 9        55.713 9  21160801.561 6         0.000 6      -962.941 6        37.977 6
G29  24274479.828 9 127563196.521 9     -3116.417 9        54.484 9  24274481.376 6         0.000 6     -2428.379 6        37.977 6
G27  22024994.850 9 115742102.014 9      2509.420 9        55.366 9  22024996.790 6         0.000 6      1955.393 6        37.977 6
G16  20501860.996 9 107737986.388 9       583.021 9        55.975 9  20501860.169 6         0.000 6       454.302 6        37.977 6
G26  20642650.882 9 108477840.348 9     -1458.789 9        55.878 9  20642653.694 6         0.000 6     -1136.719 6        37.977 6
G20  21964675.578 9 115425115.929 9      2584.274 9        55.307 9  21964675.912 6         0.000 6      2013.721 6        37.977 6
> 2019 07 03 12 00 18.0000000  0  8       0.000000000000
G07  25364426.041 9 133290912.235 9      2205.449 9        54.126 9  25364426.720 6         0.000 6      1718.532 6        37.977 6
G10  23837284.706 9 125265721.489 9      3534.968 9        54.659 9  23837288.460 6         0.000 6      2754.523 6        37.977 6
G21  21161037.471 9 111201981.815 9     -1236.133 9        55.713 9  21161036.755 6         0.000 6      -963.221 6        37.977 6
G29  24275072.869 9 127566312.960 9     -3116.493 9        54.484 9  24275074.417 6         0.000 6     -2428.439 6        37.977 6
G27  22024517.347 9 115739592.721 9      2509.177 9        55.366 9  22024519.287 6         0.000 6      1955.204 6        37.977 6
G16  20501750.109 9 107737403.677 9       582.404 9        55.975 9  20501749.283 6         0.000 6       453.822 6        37.977 6
G26  20642928.536 9 108479299.423 9     -1459.365 9        55.878 9  20642931.348 6         0.000 6     -1137.168 6        37.977 6
G20  21964183.848 9 115422531.873 9      2583.841 9        55.308 9  21964184.181 6         0.000 6      2013.384 6        37.977 6
> 2019 07 03 12 00 19.0000000  0  8       0.000000000000
G07  25364006.401 9 133288707.015 9      2204.995 9        54.126 9  25364007.080 6         0.000 6      1718.179 6        37.977 6
G10  23836612.038 9 125262186.601 9      3534.833 9        54.659 9  23836615.791 6         0.000 6      2754.418 6        37.977 6
G21  21161272.734 9 111203218.131 9     -1236.498 9        55.713 9  21161272.018 6         0.000 6      -963.505 6        37.977 6
G29  24275665.927 9 127569429.492 9     -3116.585 9        54.483 9  24275667.476 6         0.000 6     -2428.510 6        37.977 6
G27  22024039.888 9 115737083.661 9      2508.946 9        55.367 9  22024041.828 6         0.000 6      1955.023 6        37.977 6
G16  20501639.340 9 107736821.578 9       581.791 9        55.975 9  20501638.513 6         0.000 6       453.344 6        37.977 6
G26  20643206.298 9 108480759.075 9     -1459.942 9        55.878 9  20643209.110 6         0.000 6     -1137.617 6        37.977 6
G20  21963692.202 9 115419948.260 9      2583.398 9        55.308 9  21963692.535 6         0.000 6      2013.039 6        37.977 6
> 2019 07 03 12 00 20.0000000  0  8       0.000000000000
G07  25363586.847 9 133286502.251 9      2204.542 9        54.126 9  25363587.526 6         0.000 6      1717.826 6        37.977 6
G10  23835939.394 9 125258651.845 9      3534.698 9        54.660 9  23835943.147 6         0.000 6      2754.312 6        37.977 6
G21  21161508.066 9 111204454.810 9     -1236.863 9        55.713 9  21161507.350 6         0.000 6      -963.790 6        37.977 6
G29  24276259.001 9 127572546.110 9     -3116.676 9        54.483 9  24276260.551 6         0.000 6     -2428.582 6        37.977 6
G27  22023562.474 9 115734574.835 9      2508.714 9        55.367 9  22023564.413 6         0.000 6      1954.843 6        37.977 6
G16  20501528.687 9 107736240.094 9       581.178 9        55.975 9  20501527.860 6         0.000 6       452.866 6        37.977 6
G26  20643484.171 9 108482219.303 9     -1460.518 9        55.878 9  20643486.983 6         0.000 6     -1138.066 6        37.977 6
G20  21963200.639 9 115417365.086 9      2582.956 9        55.308 9  21963200.972 6         0.000 6      2012.694 6        37.977 6
> 2019 07 03 12 00 21.0000000  0  8       0.000000000000
G07  25363167.381 9 133284297.943 9      2204.089 9        54.126 9  25363168.060 6         0.000 6      1717.473 6        37.977 6
G10  23835266.775 9 125255117.221 9      3534.562 9        54.660 9  23835270.527 6         0.000 6      2754.207 6        37.977 6
G21  21161743.468 9 111205691.852 9     -1237.228 9        55.713 9  21161742.752 6         0.000 6      -964.074 6        37.977 6
G29  24276852.093 9 127575662.819 9     -3116.768 9        54.483 9  24276853.644 6         0.000 6     -2428.653 6        37.977 6
G27  22023085.103 9 115732066.239 9      2508.483 9        55.367 9  22023087.043 6         0.000 6      1954.662 6        37.977 6
G16  20501418.150 9 107735659.220 9       580.565 9        55.975 9  20501417.324 6         0.000 6       452.388 6        37.977 6
G26  20643762.152 9 108483680.102 9     -1461.094 9        55.878 9  20643764.964 6         0.000 6     -1138.516 6        37.977 6
G20  21962709.160 9 115414782.350 9      2582.513 9        55.308 9  21962709.492 6         0.000 6      2012.349 6        37.977 6
> 2019 07 03 12 00 22.0000000  0  8       0.000000000000
G07  25362748.000 9 133282094.087 9      2203.630 9        54.126 9  25362748.679 6         0.000 6      1717.115 6        37.977 6
G10  23834594.183 9 125251582.736 9      3534.434 9        54.660 9  23834597.934 6         0.000 6      2754.107 6        37.977 6
G21  21161978.939 9 111206929.261 9     -1237.589 9        55.713 9  21161978.223 6         0.000 6      -964.355 6        37.977 6
G29  24277445.203 9 127578779.620 9     -3116.855 9        54.483 9  24277446.754 6         0.000 6     -2428.720 6        37.977 6
G27  22022607.777 9 115729557.877 9      2508.249 9        55.367 9  22022609.717 6         0.000 6      1954.481 6        37.977 6
G16  20501307.731 9 107735078.963 9       579.954 9        55.975 9  20501306.904 6         0.000 6       451.912 6        37.977 6
G26  20644040.244 9 108485141.483 9     -1461.666 9        55.877 9  20644043.056 6         0.000 6     -1138.961 6        37.977 6
G20  21962217.766 9 115412200.062 9      2582.078 9        55.308 9  21962218.098 6         0.000 6      2012.010 6        37.977 6
> 2019 07 03 12 00 23.0000000  0  8       0.000000000000
G07  25362328.706 9 133279890.686 9      2203.173 9        54.126 9  25362329.385 6         0.000 6      1716.759 6        37.977 6
G10  23833921.616 9 125248048.382 9      3534.300 9        54.660 9  23833925.366 6         0.000 6      2754.003 6        37.977 6
G21  21162214.479 9 111208167.033 9     -1237.952 9        55.713 9  21162213.763 6         0.000 6      -964.638 6        37.977 6
G29  24278038.330 9 127581896.513 9     -3116.941 9        54.483 9  24278039.881 6         0.000 6     -2428.788 6        37.977 6
G27  22022130.495 9 115727049.745 9      2508.014 9        55.367 9  22022132.434 6         0.000 6      1954.297 6        37.977 6
G16  20501197.428 9 107734499.315 9       579.339 9        55.975 9  20501196.601 6         0.000 6       451.433 6        37.977 6
G26  20644318.445 9 108486603.435 9     -1462.242 9        55.877 9  20644321.257 6         0.000 6     -1139.410 6        37.977 6
G20  21961726.456 9 115409618.212 9      2581.638 9        55.309 9  21961726.787 6         0.000 6      2011.667 6        37.977 6
> 2019 07 03 12 00 24.0000000  0  8       0.000000000000
G07  25361909.499 9 133277687.742 9      2202.720 9        54.126 9  25361910.177 6         0.000 6      1716.406 6        37.977 6
G10  23833249.074 9 125244514.163 9      3534.163 9        54.661 9  23833252.824 6         0.000 6      2753.896 6        37.977 6
G21  21162450.089 9 111209405.168 9     -1238.317 9        55.713 9  21162449.373 6         0.000 6      -964.923 6        37.977 6
G29  24278631.472 9 127585013.487 9     -3117.027 9        54.482 9  24278633.024 6         0.000 6     -2428.855 6        37.977 6
G27  22021653.259 9 115724541.854 9      2507.776 9        55.368 9  22021655.198 6         0.000 6      1954.112 6        37.977 6
G16  20501087.242 9 107733920.286 9       578.721 9        55.975 9  20501086.415 6         0.000 6       450.952 6        37.977 6
G26  20644596.756 9 108488065.968 9     -1462.823 9        55.877 9  20644599.568 6         0.000 6     -1139.862 6        37.977 6
G20  21961235.229 9 115407036.803 9      2581.194 9        55.309 9  21961235.560 6         0.000 6      2011.321 6        37.977 6
> 2019 07 03 12 00 25.0000000  0  8       0.000000000000
G07  25361490.380 9 133275485.256 9      2202.263 9        54.127 9  25361491.057 6         0.000 6      1716.050 6        37.977 6
G10  23832576.557 9 125240980.074 9      3534.029 9        54.661 9  23832580.307 6         0.000 6      2753.792 6        37.977 6
G21  21162685.767 9 111210643.664 9     -1238.680 9        55.713 9  21162685.051 6         0.000 6      -965.205 6        37.977 6
G29  24279224.631 9 127588130.548 9     -3117.114 9        54.482 9  24279226.184 6         0.000 6     -2428.922 6        37.977 6
G27  22021176.067 9 115722034.196 9      2507.541 9        55.368 9  22021178.006 6         0.000 6      1953.929 6        37.977 6
G16  20500977.173 9 107733341.869 9       578.107 9        55.975 9  20500976.346 6         0.000 6       450.473 6        37.977 6
G26  20644875.175 9 108489529.072 9     -1463.399 9        55.877 9  20644877.988 6         0.000 6     -1140.311 6        37.977 6
G20  21960744.085 9 115404455.829 9      2580.754 9        55.309 9  21960744.416 6         0.000 6      2010.978 6        37.977 6
> 2019 07 03 12 00 26.0000000  0  8       0.000000000000
G07  25361071.346 9 133273283.225 9      2201.807 9        54.127 9  25361072.024 6         0.000 6      1715.694 6        37.977 6
G10  23831904.067 9 125237446.122 9      3533.896 9        54.661 9  23831907.815 6         0.000 6      2753.688 6        37.977 6
G21  21162921.514 9 111211882.525 9     -1239.043 9        55.713 9  21162920.798 6         0.000 6      -965.488 6        37.977 6
G29  24279817.806 9 127591247.695 9     -3117.200 9        54.482 9  24279819.359 6         0.000 6     -2428.990 6        37.977 6
G27  22020698.920 9 115719526.776 9      2507.305 9        55.368 9  22020700.859 6         0.000 6      1953.745 6        37.977 6
G16  20500867.221 9 107732764.070 9       577.492 9        55.975 9  20500866.395 6         0.000 6       449.994 6        37.977 6
G26  20645153.706 9 108490992.757 9     -1463.975 9        55.877 9  20645156.519 6         0.000 6     -1140.760 6        37.977 6
G20  21960253.026 9 115401875.300 9      2580.314 9        55.309 9  21960253.357 6         0.000 6      2010.635 6        37.977 6
> 2019 07 03 12 00 27.0000000  0  8       0.000000000000
G07  25360652.400 9 133271081.653 9      2201.350 9        54.127 9  25360653.078 6         0.000 6      1715.339 6        37.977 6
G10  23831231.601 9 125233912.300 9      3533.762 9        54.661 9  23831235.349 6         0.000 6      2753.583 6        37.977 6
G21  21163157.330 9 111213121.746 9     -1239.406 9        55.712 9  21163156.615 6         0.000 6      -965.771 6        37.977 6
G29  24280410.998 9 127594364.928 9     -3117.286 9        54.482 9  24280412.552 6         0.000 6     -2429.057 6        37.977 6
G27  22020221.818 9 115717019.589 9      2507.070 9        55.368 9  22020223.756 6         0.000 6      1953.562 6        37.977 6
G16  20500757.386 9 107732186.882 9       576.877 9        55.975 9  20500756.559 6         0.000 6       449.515 6        37.977 6
G26  20645432.345 9 108492457.013 9     -1464.551 9        55.877 9  20645435.158 6         0.000 6     -1141.209 6        37.977 6
G20  21959762.049 9 115399295.206 9      2579.874 9        55.309 9  21959762.380 6         0.000 6      2010.293 6        37.977 6
> 2019 07 03 12 00 28.0000000  0  8       0.000000000000
G07  25360233.541 9 133268880.535 9      2200.893 9        54.127 9  25360234.218 6         0.000 6      1714.983 6        37.977 6
G10  23830559.161 9 125230378.615 9      3533.628 9        54.662 9  23830562.908 6         0.000 6      2753.479 6        37.977 6
G21  21163393.216 9 111214361.332 9     -1239.768 9        55.712 9  21163392.500 6         0.000 6      -966.053 6        37.977 6
G29  24281004.206 9 127597482.247 9     -3117.373 9        54.482 9  24281005.760 6         0.000 6     -2429.124 6        37.977 6
G27  22019744.761 9 115714512.640 9      2506.834 9        55.368 9  22019746.699 6         0.000 6      1953.378 6        37.977 6
G16  20500647.669 9 107731610.312 9       576.262 9        55.975 9  20500646.842 6         0.000 6       449.036 6        37.977 6
G26  20645711.094 9 108493921.850 9     -1465.127 9        55.877 9  20645713.907 6         0.000 6     -1141.658 6        37.977 6
G20  21959271.158 9 115396715.556 9      2579.434 9        55.310 9  21959271.488 6         0.000 6      2009.950 6        37.977 6
> 2019 07 03 12 00 29.0000000  0  8       0.000000000000
G07  25359814.769 9 133266679.879 9      2200.437 9        54.127 9  25359815.446 6         0.000 6      1714.627 6        37.977 6
G10  23829886.745 9 125226845.058 9      3533.494 9        54.662 9  23829890.492 6         0.000 6      2753.375 6        37.977 6
G21  21163629.170 9 111215601.276 9     -1240.131 9        55.712 9  21163628.454 6         0.000 6      -966.336 6        37.977 6
G29  24281597.429 9 127600599.648 9     -3117.459 9        54.481 9  24281598.985 6         0.000 6     -2429.191 6        37.977 6
G27  22019267.749 9 115712005.928 9      2506.598 9        55.368 9  22019269.687 6         0.000 6      1953.194 6        37.977 6
G16  20500538.068 9 107731034.355 9       575.648 9        55.975 9  20500537.241 6         0.000 6       448.557 6        37.977 6
G26  20645989.952 9 108495387.258 9     -1465.702 9        55.877 9  20645992.766 6         0.000 6     -1142.106 6        37.977 6
G20  21958780.348 9 115394136.340 9      2578.994 9        55.310 9  21958780.678 6         0.000 6      2009.607 6        37.977 6
> 2019 07 03 12 00 30.0000000  0  8       0.000000000000
G07  25359396.083 9 133264479.674 9      2199.980 9        54.127 9  25359396.760 6         0.000 6      1714.271 6        37.977 6
G10  23829214.356 9 125223311.642 9      3533.360 9        54.662 9  23829218.102 6         0.000 6      2753.270 6        37.977 6
G21  21163865.193 9 111216841.588 9     -1240.493 9        55.712 9  21163864.478 6         0.000 6      -966.618 6        37.977 6
G29  24282190.670 9 127603717.140 9     -3117.545 9        54.481 9  24282192.226 6         0.000 6     -2429.259 6        37.977 6
G27  22018790.781 9 115709499.450 9      2506.363 9        55.369 9  22018792.719 6         0.000 6      1953.011 6        37.977 6
G16  20500428.584 9 107730459.015 9       575.033 9        55.975 9  20500427.757 6         0.000 6       448.077 6        37.977 6
G26  20646268.921 9 108496853.247 9     -1466.278 9        55.877 9  20646271.734 6         0.000 6     -1142.555 6        37.977 6
G20  21958289.624 9 115391557.571 9      2578.553 9        55.310 9  21958289.954 6         0.000 6      2009.263 6        37.977 6
> 2019 07 03 12 00 31.0000000  0  8       0.000000000000
G07  25358977.485 9 133262279.929 9      2199.523 9        54.127 9  25358978.162 6         0.000 6      1713.915 6        37.977 6
G10  23828541.992 9 125219778.355 9      3533.226 9        54.662 9  23828545.738 6         0.000 6      2753.166 6        37.977 6
G21  21164101.285 9 111218082.259 9     -1240.856 9        55.712 9  21164100.570 6         0.000 6      -966.901 6        37.977 6
G29  24282783.928 9 127606834.718 9     -3117.632 9        54.481 9  24282785.484 6         0.000 6     -2429.326 6        37.977 6
G27  22018313.858 9 115706993.206 9      2506.127 9        55.369 9  22018315.796 6         0.000 6      1952.827 6        37.977 6
G16  20500319.217 9 107729884.287 9       574.418 9        55.975 9  20500318.390 6         0.000 6       447.598 6        37.977 6
G26  20646547.998 9 108498319.806 9     -1466.854 9        55.876 9  20646550.812 6         0.000 6     -1143.004 6        37.977 6
G20  21957798.983 9 115388979.238 9      2578.113 9        55.310 9  21957799.312 6         0.000 6      2008.920 6        37.977 6
> 2019 07 03 12 00 32.0000000  0  8       0.000000000000
G07  25358558.973 9 133260080.639 9      2199.066 9        54.128 9  25358559.650 6         0.000 6      1713.559 6        37.977 6
G10  23827869.654 9 125216245.207 9      3533.092 9        54.663 9  23827873.399 6         0.000 6      2753.061 6        37.977 6
G21  21164337.447 9 111219323.296 9     -1241.218 9        55.712 9  21164336.731 6         0.000 6      -967.183 6        37.977 6
G29  24283377.201 9 127609952.382 9     -3117.718 9        54.481 9  24283378.759 6         0.000 6     -2429.393 6        37.977 6
G27  22017836.981 9 115704487.199 9      2505.891 9        55.369 9  22017838.918 6         0.000 6      1952.643 6        37.977 6
G16  20500209.967 9 107729310.176 9       573.803 9        55.975 9  20500209.141 6         0.000 6       447.119 6        37.977 6
G26  20646827.186 9 108499786.947 9     -1467.430 9        55.876 9  20646830.000 6         0.000 6     -1143.452 6        37.977 6
G20  21957308.426 9 115386401.350 9      2577.672 9        55.310 9  21957308.755 6         0.000 6      2008.577 6        37.977 6
> 2019 07 03 12 00 33.0000000  0  8       0.000000000000
G07  25358140.549 9 133257881.805 9      2198.609 9        54.128 9  25358141.225 6         0.000 6      1713.203 6        37.977 6
G10  23827197.342 9 125212712.192 9      3532.958 9        54.663 9  23827201.086 6         0.000 6      2752.957 6        37.977 6
G21  21164573.677 9 111220564.695 9     -1241.581 9        55.712 9  21164572.962 6         0.000 6      -967.466 6        37.977 6
G29  24283970.492 9 127613070.133 9     -3117.804 9        54.481 9  24283972.049 6         0.000 6     -2429.460 6        37.977 6
G27  22017360.148 9 115701981.429 9      2505.655 9        55.369 9  22017362.085 6         0.000 6      1952.460 6        37.977 6
G16  20500100.835 9 107728736.681 9       573.188 9        55.975 9  20500100.008 6         0.000 6       446.640 6        37.977 6
G26  20647106.484 9 108501254.663 9     -1468.006 9        55.876 9  20647109.297 6         0.000 6     -1143.901 6        37.977 6
G20  21956817.953 9 115383823.903 9      2577.232 9        55.311 9  21956818.282 6         0.000 6      2008.234 6        37.977 6
> 2019 07 03 12 00 34.0000000  0  8       0.000000000000
G07  25357722.211 9 133255683.431 9      2198.152 9        54.128 9  25357722.887 6         0.000 6      1712.846 6        37.977 6
G10  23826525.055 9 125209179.308 9      3532.823 9        54.663 9  23826528.798 6         0.000 6      2752.852 6        37.977 6
G21  21164809.976 9 111221806.453 9     -1241.943 9        55.712 9  21164809.261 6         0.000 6      -967.748 6        37.977 6
G29  24284563.798 9 127616187.970 9     -3117.890 9        54.480 9  24284565.357 6         0.000 6     -2429.527 6        37.977 6
G27  22016883.360 9 115699475.892 9      2505.420 9        55.369 9  22016885.297 6         0.000 6      1952.276 6        37.977 6
G16  20499991.819 9 107728163.797 9       572.573 9        55.975 9  20499990.992 6         0.000 6       446.161 6        37.977 6
G26  20647385.890 9 108502722.950 9     -1468.581 9        55.876 9  20647388.703 6         0.000 6     -1144.350 6        37.977 6
G20  21956327.564 9 115381246.892 9      2576.791 9        55.311 9  21956327.892 6         0.000 6      2007.890 6        37.977 6
> 2019 07 03 12 00 35.0000000  0  8       0.000000000000
G07  25357303.960 9 133253485.512 9      2197.694 9        54.128 9  25357304.636 6         0.000 6      1712.490 6        37.977 6
G10  23825852.793 9 125205646.563 9      3532.689 9        54.663 9  23825856.536 6         0.000 6      2752.747 6        37.977 6
G21  21165046.344 9 111223048.577 9     -1242.305 9        55.712 9  21165045.629 6         0.000 6      -968.030 6        37.977 6
G29  24285157.121 9 127619305.893 9     -3117.976 9        54.480 9  24285158.680 6         0.000 6     -2429.594 6        37.977 6
G27  22016406.617 9 115696970.593 9      2505.184 9        55.370 9  22016408.554 6         0.000 6      1952.092 6        37.977 6
G16  20499882.920 9 107727591.532 9       571.958 9        55.975 9  20499882.093 6         0.000 6       445.681 6        37.977 6
G26  20647665.406 9 108504191.817 9     -1469.157 9        55.876 9  20647668.220 6         0.000 6     -1144.798 6        37.977 6
G20  21955837.258 9 115378670.326 9      2576.350 9        55.311 9  21955837.587 6         0.000 6      2007.547 6        37.977 6
> 2019 07 03 12 00 36.0000000  0  8       0.000000000000
G07  25356885.798 9 133251288.055 9      2197.237 9        54.128 9  25356886.473 6         0.000 6      1712.134 6        37.977 6
G10  23825180.557 9 125202113.945 9      3532.554 9        54.664 9  23825184.299 6         0.000 6      2752.642 6        37.977 6
G21  21165282.781 9 111224291.058 9     -1242.668 9        55.712 9  21165282.066 6         0.000 6      -968.313 6        37.977 6
G29  24285750.459 9 127622423.897 9     -3118.062 9        54.480 9  24285752.019 6         0.000 6     -2429.662 6        37.977 6
G27  22015929.919 9 115694465.532 9      2504.948 9        55.370 9  22015931.856 6         0.000 6      1951.908 6        37.977 6
G16  20499774.138 9 107727019.880 9       571.343 9        55.975 9  20499773.312 6         0.000 6       445.202 6        37.977 6
G26  20647945.031 9 108505661.255 9     -1469.733 9        55.876 9  20647947.845 6         0.000 6     -1145.247 6        37.977 6
G20  21955347.036 9 115376094.194 9      2575.909 9        55.311 9  21955347.364 6         0.000 6      2007.203 6        37.977 6
> 2019 07 03 12 00 37.0000000  0  8       0.000000000000
G07  25356467.721 9 133249091.050 9      2196.780 9        54.128 9  25356468.396 6         0.000 6      1711.777 6        37.977 6
G10  23824508.347 9 125198581.469 9      3532.419 9        54.664 9  23824512.088 6         0.000 6      2752.537 6        37.977 6
G21  21165519.287 9 111225533.906 9     -1243.030 9        55.711 9  21165518.572 6         0.000 6      -968.595 6        37.977 6
G29  24286343.815 9 127625541.992 9     -3118.149 9        54.480 9  24286345.375 6         0.000 6     -2429.729 6        37.977 6
G27  22015453.265 9 115691960.705 9      2504.712 9        55.370 9  22015455.202 6         0.000 6      1951.724 6        37.977 6
G16  20499665.474 9 107726448.845 9       570.728 9        55.976 9  20499664.647 6         0.000 6       444.723 6        37.977 6
G26  20648224.767 9 108507131.274 9     -1470.308 9        55.876 9  20648227.581 6         0.000 6     -1145.695 6        37.977 6
G20  21954856.899 9 115373518.510 9      2575.468 9        55.311 9  21954857.226 6         0.000 6      2006.859 6        37.977 6
> 2019 07 03 12 00 38.0000000  0  8       0.000000000000
G07  25356049.732 9 133246894.506 9      2196.322 9        54.128 9  25356050.406 6         0.000 6      1711.421 6        37.977 6
G10  23823836.162 9 125195049.124 9      3532.285 9        54.664 9  23823839.902 6         0.000 6      2752.432 6        37.977 6
G21  21165755.862 9 111226777.114 9     -1243.392 9        55.711 9  21165755.147 6         0.000 6      -968.877 6        37.977 6
G29  24286937.187 9 127628660.173 9     -3118.235 9        54.479 9  24286938.748 6         0.000 6     -2429.796 6        37.977 6
G27  22014976.657 9 115689456.111 9      2504.476 9        55.370 9  22014978.593 6         0.000 6      1951.540 6        37.977 6
G16  20499556.926 9 107725878.422 9       570.112 9        55.976 9  20499556.099 6         0.000 6       444.243 6        37.977 6
G26  20648504.611 9 108508601.864 9     -1470.884 9        55.876 9  20648507.425 6         0.000 6     -1146.144 6        37.977 6
G20  21954366.845 9 115370943.262 9      2575.027 9        55.311 9  21954367.172 6         0.000 6      2006.516 6        37.977 6
> 2019 07 03 12 00 39.0000000  0  8       0.000000000000
G07  25355631.829 9 133244698.416 9      2195.865 9        54.129 9  25355632.504 6         0.000 6      1711.064 6        37.977 6
G10  23823164.003 9 125191516.917 9      3532.150 9        54.664 9  23823167.743 6         0.000 6      2752.327 6        37.977 6
G21  21165992.506 9 111228020.686 9     -1243.754 9        55.711 9  21165991.791 6         0.000 6      -969.159 6        37.977 6
G29  24287530.576 9 127631778.441 9     -3118.321 9        54.479 9  24287532.137 6         0.000 6     -2429.863 6        37.977 6
G27  22014500.093 9 115686951.756 9      2504.240 9        55.370 9  22014502.030 6         0.000 6      1951.356 6        37.977 6
G16  20499448.496 9 107725308.617 9       569.497 9        55.976 9  20499447.669 6         0.000 6       443.764 6        37.977 6
G26  20648784.566 9 108510073.034 9     -1471.460 9        55.875 9  20648787.380 6         0.000 6     -1146.592 6        37.977 6
G20  21953876.875 9 115368368.461 9      2574.586 9        55.312 9  21953877.202 6         0.000 6      2006.172 6        37.977 6
> 2019 07 03 12 00 40.0000000  0  8       0.000000000000
G07  25355214.014 9 133242502.786 9      2195.407 9        54.129 9  25355214.688 6         0.000 6      1710.708 6        37.977 6
G10  23822491.869 9 125187984.841 9      3532.015 9        54.665 9  23822495.609 6         0.000 6      2752.222 6        37.977 6
G21  21166229.218 9 111229264.617 9     -1244.116 9        55.711 9  21166228.503 6         0.000 6      -969.441 6        37.977 6
G29  24288123.981 9 127634896.794 9     -3118.407 9        54.479 9  24288125.543 6         0.000 6     -2429.930 6        37.977 6
G27  22014023.574 9 115684447.635 9      2504.004 9        55.371 9  22014025.511 6         0.000 6      1951.173 6        37.977 6
G16  20499340.182 9 107724739.424 9       568.882 9        55.976 9  20499339.355 6         0.000 6       443.285 6        37.977 6
G26  20649064.629 9 108511544.775 9     -1472.035 9        55.875 9  20649067.444 6         0.000 6     -1147.041 6        37.977 6
G20  21953386.989 9 115365794.096 9      2574.145 9        55.312 9  21953387.316 6         0.000 6      2005.828 6        37.977 6
> 2019 07 03 12 00 41.0000000  0  8       0.000000000000
G07  25354796.285 9 133240307.612 9      2194.949 9        54.129 9  25354796.960 6         0.000 6      1710.351 6        37.977 6
G10  23821819.762 9 125184452.905 9      3531.880 9        54.665 9  23821823.501 6         0.000 6      2752.117 6        37.977 6
G21  21166466.000 9 111230508.914 9     -1244.478 9        55.711 9  21166465.285 6         0.000 6      -969.723 6        37.977 6
G29  24288717.402 9 127638015.234 9     -3118.493 9        54.479 9  24288718.965 6         0.000 6     -2429.997 6        37.977 6
G27  22013547.101 9 115681943.752 9      2503.768 9        55.371 9  22013549.037 6         0.000 6      1950.989 6        37.977 6
G16  20499231.986 9 107724170.850 9       568.267 9        55.976 9  20499231.159 6         0.000 6       442.805 6        37.977 6
G26  20649344.803 9 108513017.096 9     -1472.611 9        55.875 9  20649347.617 6         0.000 6     -1147.489 6        37.977 6
G20  21952897.188 9 115363220.177 9      2573.703 9        55.312 9  21952897.514 6         0.000 6      2005.484 6        37.977 6
> 2019 07 03 12 00 42.0000000  0  8       0.000000000000
G07  25354378.644 9 133238112.895 9      2194.491 9        54.129 9  25354379.318 6         0.000 6      1709.994 6        37.977 6
G10  23821147.681 9 125180921.104 9      3531.744 9        54.665 9  23821151.419 6         0.000 6      2752.011 6        37.977 6
G21  21166702.851 9 111231753.571 9     -1244.840 9        55.711 9  21166702.136 6         0.000 6      -970.005 6        37.977 6
G29  24289310.840 9 127641133.759 9     -3118.579 9        54.479 9  24289312.403 6         0.000 6     -2430.064 6        37.977 6
G27  22013070.672 9 115679440.105 9      2503.532 9        55.371 9  22013072.608 6         0.000 6      1950.805 6        37.977 6
G16  20499123.907 9 107723602.891 9       567.651 9        55.976 9  20499123.080 6         0.000 6       442.326 6        37.977 6
G26  20649625.086 9 108514489.992 9     -1473.186 9        55.875 9  20649627.901 6         0.000 6     -1147.938 6        37.977 6
G20  21952407.470 9 115360646.699 9      2573.262 9        55.312 9  21952407.796 6         0.000 6      2005.140 6        37.977 6
> 2019 07 03 12 00 43.0000000  0  8       0.000000000000
G07  25353961.090 9 133235918.639 9      2194.034 9        54.129 9  25353961.764 6         0.000 6      1709.638 6        37.977 6
G10  23820475.624 9 125177389.433 9      3531.609 9        54.665 9  23820479.362 6         0.000 6      2751.906 6        37.977 6
G21  21166939.770 9 111232998.589 9     -1245.201 9        55.711 9  21166939.055 6         0.000 6      -970.287 6        37.977 6
G29  24289904.293 9 127644252.371 9     -3118.665 9        54.478 9  24289905.857 6         0.000 6     -2430.131 6        37.977 6
G27  22012594.288 9 115676936.692 9      2503.295 9        55.371 9  22012596.224 6         0.000 6      1950.621 6        37.977 6
G16  20499015.944 9 107723035.544 9       567.036 9        55.976 9  20499015.118 6         0.000 6       441.846 6        37.977 6
G26  20649905.478 9 108515963.459 9     -1473.761 9        55.875 9  20649908.293 6         0.000 6     -1148.386 6        37.977 6
G20  21951917.836 9 115358073.658 9      2572.820 9        55.312 9  21951918.162 6         0.000 6      2004.796 6        37.977 6
> 2019 07 03 12 00 44.0000000  0  8       0.000000000000
G07  25353543.624 9 133233724.840 9      2193.576 9        54.129 9  25353544.297 6         0.000 6      1709.281 6        37.977 6
G10  23819803.594 9 125173857.900 9      3531.474 9        54.666 9  23819807.331 6         0.000 6      2751.800 6        37.977 6
G21  21167176.758 9 111234243.968 9     -1245.563 9        55.711 9  21167176.043 6         0.000 6      -970.569 6        37.977 6
G29  24290497.763 9 127647371.063 9     -3118.751 9        54.478 9  24290499.327 6         0.000 6     -2430.198 6        37.977 6
G27  22012117.950 9 115674433.521 9      2503.059 9        55.371 9  22012119.885 6         0.000 6      1950.436 6        37.977 6
G16  20498908.100 9 107722468.817 9       566.420 9        55.976 9  20498907.273 6         0.000 6       441.367 6        37.977 6
G26  20650185.980 9 108517437.506 9     -1474.337 9        55.875 9  20650188.795 6         0.000 6     -1148.834 6        37.977 6
G20  21951428.286 9 115355501.060 9      2572.378 9        55.313 9  21951428.612 6         0.000 6      2004.452 6        37.977 6
> 2019 07 03 12 00 45.0000000  0  8       0.000000000000
G07  25353126.244 9 133231531.500 9      2193.118 9        54.129 9  25353126.917 6         0.000 6      1708.924 6        37.977 6
G10  23819131.589 9 125170326.501 9      3531.338 9        54.666 9  23819135.325 6         0.000 6      2751.695 6        37.977 6
G21  21167413.815 9 111235489.709 9     -1245.925 9        55.711 9  21167413.100 6         0.000 6      -970.851 6        37.977 6
G29  24291091.249 9 127650489.846 9     -3118.836 9        54.478 9  24291092.815 6         0.000 6     -2430.265 6        37.977 6
G27  22011641.656 9 115671930.581 9      2502.823 9        55.371 9  22011643.591 6         0.000 6      1950.252 6        37.977 6
G16  20498800.372 9 107721902.701 9       565.805 9        55.976 9  20498799.545 6         0.000 6       440.887 6        37.977 6
G26  20650466.591 9 108518912.124 9     -1474.912 9        55.875 9  20650469.406 6         0.000 6     -1149.283 6        37.977 6
G20  21950938.820 9 115352928.903 9      2571.937 9        55.313 9  21950939.145 6         0.000 6      2004.108 6        37.977 6
> 2019 07 03 12 00 46.0000000  0  8       0.000000000000
G07  25352708.951 9 133229338.615 9      2192.660 9        54.130 9  25352709.624 6         0.000 6      1708.567 6        37.977 6
G10  23818459.610 9 125166795.241 9      3531.202 9        54.666 9  23818463.346 6         0.000 6      2751.589 6        37.977 6
G21  21167650.941 9 111236735.814 9     -1246.287 9        55.711 9  21167650.226 6         0.000 6      -971.133 6        37.977 6
G29  24291684.752 9 127653608.716 9     -3118.922 9        54.478 9  24291686.318 6         0.000 6     -2430.332 6        37.977 6
G27  22011165.407 9 115669427.879 9      2502.587 9        55.372 9  22011167.342 6         0.000 6      1950.068 6        37.977 6
G16  20498692.761 9 107721337.204 9       565.190 9        55.976 9  20498691.934 6         0.000 6       440.407 6        37.977 6
G26  20650747.312 9 108520387.322 9     -1475.487 9        55.875 9  20650750.127 6         0.000 6     -1149.731 6        37.977 6
G20  21950449.439 9 115350357.192 9      2571.495 9        55.313 9  21950449.764 6         0.000 6      2003.763 6        37.977 6
> 2019 07 03 12 00 47.0000000  0  8       0.000000000000
G07  25352291.746 9 133227146.191 9      2192.202 9        54.130 9  25352292.419 6         0.000 6      1708.210 6        37.977 6
G10  23817787.657 9 125163264.113 9      3531.067 9        54.666 9  23817791.392 6         0.000 6      2751.483 6        37.977 6
G21  21167888.135 9 111237982.279 9     -1246.648 9        55.710 9  21167887.420 6         0.000 6      -971.414 6        37.977 6
G29  24292278.272 9 127656727.671 9     -3119.008 9        54.478 9  24292279.838 6         0.000 6     -2430.399 6        37.977 6
G27  22010689.202 9 115666925.411 9      2502.350 9        55.372 9  22010691.137 6         0.000 6      1949.884 6        37.977 6
G16  20498585.267 9 107720772.319 9       564.574 9        55.976 9  20498584.440 6         0.000 6       439.928 6        37.977 6
G26  20651028.142 9 108521863.091 9     -1476.063 9        55.875 9  20651030.957 6         0.000 6     -1150.179 6        37.977 6
G20  21949960.141 9 115347785.919 9      2571.053 9        55.313 9  21949960.466 6         0.000 6      2003.419 6        37.977 6
> 2019 07 03 12 00 48.0000000  0  8       0.000000000000
G07  25351874.628 9 133224954.222 9      2191.743 9        54.130 9  25351875.300 6         0.000 6      1707.853 6        37.977 6
G10  23817115.730 9 125159733.125 9      3530.931 9        54.667 9  23817119.464 6         0.000 6      2751.377 6        37.977 6
G21  21168125.399 9 111239229.107 9     -1247.010 9        55.710 9  21168124.684 6         0.000 6      -971.696 6        37.977 6
G29  24292871.808 9 127659846.712 9     -3119.094 9        54.477 9  24292873.375 6         0.000 6     -2430.466 6        37.977 6
G27  22010213.043 9 115664423.182 9      2502.114 9        55.372 9  22010214.978 6         0.000 6      1949.700 6        37.977 6
G16  20498477.891 9 107720208.053 9       563.958 9        55.976 9  20498477.064 6         0.000 6       439.448 6        37.977 6
G26  20651309.082 9 108523339.439 9     -1476.638 9        55.874 9  20651311.897 6         0.000 6     -1150.627 6        37.977 6
G20  21949470.928 9 115345215.091 9      2570.611 9        55.313 9  21949471.252 6         0.000 6      2003.074 6        37.977 6
> 2019 07 03 12 00 49.0000000  0  8       0.000000000000
G07  25351457.597 9 133222762.714 9      2191.285 9        54.130 9  25351458.269 6         0.000 6      1707.496 6        37.977 6
G10  23816443.829 9 125156202.269 9      3530.795 9        54.667 9  23816447.562 6         0.000 6      2751.271 6        37.977 6
G21  21168362.731 9 111240476.294 9     -1247.371 9        55.710 9  21168362.016 6         0.000 6      -971.978 6        37.977 6
G29  24293465.360 9 127662965.838 9     -3119.180 9        54.477 9  24293466.927 6         0.000 6     -2430.532 6        37.977 6
G27  22009736.929 9 115661921.187 9      2501.878 9        55.372 9  22009738.864 6         0.000 6      1949.516 6        37.977 6
G16  20498370.631 9 107719644.399 9       563.343 9        55.976 9  20498369.804 6         0.000 6       438.968 6        37.977 6
G26  20651590.131 9 108524816.358 9     -1477.213 9        55.874 9  20651592.946 6         0.000 6     -1151.076 6        37.977 6
G20  21948981.798 9 115342644.702 9      2570.169 9        55.314 9  21948982.122 6         0.000 6      2002.730 6        37.977 6
> 2019 07 03 12 00 50.0000000  0  8       0.000000000000
G07  25351040.653 9 133220571.662 9      2190.826 9        54.130 9  25351041.325 6         0.000 6      1707.138 6        37.977 6
G10  23815771.954 9 125152671.553 9      3530.659 9        54.667 9  23815775.687 6         0.000 6      2751.165 6        37.977 6
G21  21168600.132 9 111241723.845 9     -1247.733 9        55.710 9  21168599.417 6         0.000 6      -972.259 6        37.977 6
G29  24294058.928 9 127666085.051 9     -3119.266 9        54.477 9  24294060.496 6         0.000 6     -2430.599 6        37.977 6
G27  22009260.860 9 115659419.430 9      2501.641 9        55.372 9  22009262.795 6         0.000 6      1949.331 6        37.977 6
G16  20498263.489 9 107719081.364 9       562.727 9        55.976 9  20498262.662 6         0.000 6       438.489 6        37.977 6
G26  20651871.290 9 108526293.857 9     -1477.788 9        55.874 9  20651874.105 6         0.000 6     -1151.524 6        37.977 6
G20  21948492.753 9 115340074.759 9      2569.726 9        55.314 9  21948493.077 6         0.000 6      2002.385 6        37.977 6
> 2019 07 03 12 00 51.0000000  0  8       0.000000000000
G07  25350623.796 9 133218381.069 9      2190.368 9        54.130 9  25350624.468 6         0.000 6      1706.781 6        37.977 6
G10  23815100.105 9 125149140.973 9      3530.522 9        54.667 9  23815103.837 6         0.000 6      2751.059 6        37.977 6
G21  21168837.602 9 111242971.758 9     -1248.094 9        55.710 9  21168836.887 6         0.000 6      -972.541 6        37.977 6
G29  24294652.513 9 127669204.349 9     -3119.352 9        54.477 9  24294654.082 6         0.000 6     -2430.666 6        37.977 6
G27  22008784.836 9 115656917.910 9      2501.405 9        55.373 9  22008786.770 6         0.000 6      1949.147 6        37.977 6
G16  20498156.464 9 107718518.945 9       562.111 9        55.976 9  20498155.637 6         0.000 6       438.009 6        37.977 6
G26  20652152.558 9 108527771.931 9     -1478.363 9        55.874 9  20652155.374 6         0.000 6     -1151.972 6        37.977 6
G20  21948003.793 9 115337505.259 9      2569.284 9        55.314 9  21948004.116 6         0.000 6      2002.041 6        37.977 6
> 2019 07 03 12 00 52.0000000  0  8       0.000000000000
G07  25350207.028 9 133216190.939 9      2189.909 9        54.130 9  25350207.699 6         0.000 6      1706.424 6        37.977 6
G10  23814428.280 9 125145610.523 9      3530.386 9        54.668 9  23814432.012 6         0.000 6      2750.953 6        37.977 6
G21  21169075.140 9 111244220.027 9     -1248.455 9        55.710 9  21169074.425 6         0.000 6      -972.822 6        37.977 6
G29  24295246.113 9 127672323.728 9     -3119.437 9        54.477 9  24295247.682 6         0.000 6     -2430.733 6        37.977 6
G27  22008308.857 9 115654416.628 9      2501.168 9        55.373 9  22008310.792 6         0.000 6      1948.963 6        37.977 6
G16  20498049.556 9 107717957.140 9       561.496 9        55.976 9  20498048.729 6         0.000 6       437.529 6        37.977 6
G26  20652433.935 9 108529250.576 9     -1478.939 9        55.874 9  20652436.751 6         0.000 6     -1152.420 6        37.977 6
G20  21947514.915 9 115334936.193 9      2568.842 9        55.314 9  21947515.238 6         0.000 6      2001.696 6        37.977 6
> 2019 07 03 12 00 53.0000000  0  8       0.000000000000
G07  25349790.345 9 133214001.262 9      2189.451 9        54.131 9  25349791.017 6         0.000 6      1706.066 6        37.977 6
G10  23813756.483 9 125142080.215 9      3530.250 9        54.668 9  23813760.214 6         0.000 6      2750.847 6        37.977 6
G21  21169312.747 9 111245468.662 9     -1248.817 9        55.710 9  21169312.033 6         0.000 6      -973.104 6        37.977 6
G29  24295839.730 9 127675443.198 9     -3119.523 9        54.476 9  24295841.300 6         0.000 6     -2430.800 6        37.977 6
G27  22007832.923 9 115651915.581 9      2500.932 9        55.373 9  22007834.857 6         0.000 6      1948.779 6        37.977 6
G16  20497942.766 9 107717395.952 9       560.880 9        55.976 9  20497941.939 6         0.000 6       437.049 6        37.977 6
G26  20652715.423 9 108530729.800 9     -1479.514 9        55.874 9  20652718.238 6         0.000 6     -1152.868 6        37.977 6
G20  21947026.123 9 115332367.577 9      2568.399 9        55.314 9  21947026.446 6         0.000 6      2001.351 6        37.977 6
> 2019 07 03 12 00 54.0000000  0  8       0.000000000000
G07  25349373.751 9 133211812.047 9      2188.992 9        54.131 9  25349374.422 6         0.000 6      1705.709 6        37.977 6
G10  23813084.711 9 125138550.040 9      3530.113 9        54.668 9  23813088.441 6         0.000 6      2750.740 6        37.977 6
G21  21169550.423 9 111246717.656 9     -1249.178 9        55.710 9  21169549.709 6         0.000 6      -973.385 6        37.977 6
G29  24296433.364 9 127678562.754 9     -3119.609 9        54.476 9  24296434.934 6         0.000 6     -2430.866 6        37.977 6
G27  22007357.034 9 115649414.768 9      2500.695 9        55.373 9  22007358.968 6         0.000 6      1948.594 6        37.977 6
G16  20497836.092 9 107716835.377 9       560.264 9        55.976 9  20497835.265 6         0.000 6       436.569 6        37.977 6
G26  20652997.018 9 108532209.595 9     -1480.089 9        55.874 9  20652999.834 6         0.000 6     -1153.316 6        37.977 6
G20  21946537.414 9 115329799.400 9      2567.956 9        55.315 9  21946537.737 6         0.000 6      2001.006 6        37.977 6
> 2019 07 03 12 00 55.0000000  0  8       0.000000000000
G07  25348957.243 9 133209623.288 9      2188.533 9        54.131 9  25348957.914 6         0.000 6      1705.352 6        37.977 6
G10  23812412.966 9 125135020.006 9      3529.977 9        54.668 9  23812416.695 6         0.000 6      2750.634 6        37.977 6
G21  21169788.168 9 111247967.014 9     -1249.539 9        55.710 9  21169787.454 6         0.000 6      -973.667 6        37.977 6
G29  24297027.014 9 127681682.395 9     -3119.694 9        54.476 9  24297028.585 6         0.000 6     -2430.933 6        37.977 6
G27  22006881.190 9 115646914.194 9      2500.458 9        55.373 9  22006883.124 6         0.000 6      1948.410 6        37.977 6
G16  20497729.536 9 107716275.421 9       559.648 9        55.976 9  20497728.709 6         0.000 6       436.090 6        37.977 6
G26  20653278.725 9 108533689.969 9     -1480.664 9        55.874 9  20653281.541 6         0.000 6     -1153.764 6        37.977 6
G20  21946048.790 9 115327231.670 9      2567.514 9        55.315 9  21946049.113 6         0.000 6      2000.661 6        37.977 6
> 2019 07 03 12 00 56.0000000  0  8       0.000000000000
G07  25348540.823 9 133207434.991 9      2188.074 9        54.131 9  25348541.494 6         0.000 6      1704.994 6        37.977 6
G10  23811741.246 9 125131490.104 9      3529.840 9        54.669 9  23811744.975 6         0.000 6      2750.527 6        37.977 6
G21  21170025.981 9 111249216.730 9     -1249.900 9        55.710 9  21170025.267 6         0.000 6      -973.948 6        37.977 6
G29  24297620.680 9 127684802.122 9     -3119.780 9        54.476 9  24297622.252 6         0.000 6     -2431.000 6        37.977 6
G27  22006405.391 9 115644413.854 9      2500.222 9        55.374 9  22006407.324 6         0.000 6      1948.225 6        37.977 6
G16  20497623.096 9 107715716.077 9       559.032 9        55.976 9  20497622.269 6         0.000 6       435.610 6        37.977 6
G26  20653560.539 9 108535170.914 9     -1481.239 9        55.873 9  20653563.355 6         0.000 6     -1154.212 6        37.977 6
G20  21945560.250 9 115324664.378 9      2567.071 9        55.315 9  21945560.572 6         0.000 6      2000.316 6        37.977 6
> 2019 07 03 12 00 57.0000000  0  8       0.000000000000
G07  25348124.490 9 133205247.149 9      2187.615 9        54.131 9  25348125.161 6         0.000 6      1704.636 6        37.977 6
G10  23811069.553 9 125127960.343 9      3529.703 9        54.669 9  23811073.281 6         0.000 6      2750.421 6        37.977 6
G21  21170263.864 9 111250466.810 9     -1250.261 9        55.709 9  21170263.149 6         0.000 6      -974.230 6        37.977 6
G29  24298214.362 9 127687921.935 9     -3119.866 9        54.475 9  24298215.935 6         0.000 6     -2431.067 6        37.977 6
G27  22005929.637 9 115641913.754 9      2499.985 9        55.374 9  22005931.570 6         0.000 6      1948.041 6        37.977 6
G16  20497516.774 9 107715157.353 9       558.416 9        55.976 9  20497515.948 6         0.000 6       435.130 6        37.977 6
G26  20653842.464 9 108536652.438 9     -1481.814 9        55.873 9  20653845.281 6         0.000 6     -1154.660 6        37.977 6
G20  21945071.795 9 115322097.533 9      2566.628 9        55.315 9  21945072.117 6         0.000 6      1999.971 6        37.977 6
> 2019 07 03 12 00 58.0000000  0  8       0.000000000000
G07  25347708.245 9 133203059.770 9      2187.157 9        54.131 9  25347708.915 6         0.000 6      1704.279 6        37.977 6
G10  23810397.885 9 125124430.715 9      3529.566 9        54.669 9  23810401.612 6         0.000 6      2750.314 6        37.977 6
G21  21170501.814 9 111251717.249 9     -1250.622 9        55.709 9  21170501.100 6         0.000 6      -974.511 6        37.977 6
G29  24298808.061 9 127691041.833 9     -3119.951 9        54.475 9  24298809.635 6         0.000 6     -2431.133 6        37.977 6
G27  22005453.928 9 115639413.888 9      2499.748 9        55.374 9  22005455.861 6         0.000 6      1947.857 6        37.977 6
G16  20497410.569 9 107714599.241 9       557.800 9        55.976 9  20497409.742 6         0.000 6       434.650 6        37.977 6
G26  20654124.498 9 108538134.533 9     -1482.389 9        55.873 9  20654127.314 6         0.000 6     -1155.108 6        37.977 6
G20  21944583.423 9 115319531.127 9      2566.185 9        55.315 9  21944583.745 6         0.000 6      1999.626 6        37.977 6
> 2019 07 03 12 00 59.0000000  0  8       0.000000000000
G07  25347292.087 9 133200872.849 9      2186.697 9        54.131 9  25347292.757 6         0.000 6      1703.921 6        37.977 6
G10  23809726.243 9 125120901.225 9      3529.429 9        54.669 9  23809729.970 6         0.000 6      2750.207 6        37.977 6
G21  21170739.834 9 111252968.048 9     -1250.983 9        55.709 9  21170739.119 6         0.000 6      -974.792 6        37.977 6
G29  24299401.775 9 127694161.812 9     -3120.037 9        54.475 9  24299403.349 6         0.000 6     -2431.200 6        37.977 6
G27  22004978.265 9 115636914.264 9      2499.512 9        55.374 9  22004980.198 6         0.000 6      1947.672 6        37.977 6
G16  20497304.482 9 107714041.750 9       557.184 9        55.977 9  20497303.655 6         0.000 6       434.170 6        37.977 6
G26  20654406.642 9 108539617.207 9     -1482.963 9        55.873 9  20654409.458 6         0.000 6     -1155.556 6        37.977 6
G20  21944095.136 9 115316965.165 9      2565.742 9        55.316 9  21944095.457 6         0.000 6      1999.280 6        37.977 6
> 2019 07 03 12 01  0.0000000  0  8       0.000000000000
G07  25346876.017 9 133198686.388 9      2186.238 9        54.132 9  25346876.687 6         0.000 6      1703.563 6        37.977 6
G10  23809054.627 9 125117371.871 9      3529.292 9        54.669 9  23809058.354 6         0.000 6      2750.100 6        37.977 6
G21  21170977.922 9 111254219.208 9     -1251.344 9        55.709 9  21170977.207 6         0.000 6      -975.073 6        37.977 6
G29  24299995.507 9 127697281.881 9     -3120.122 9        54.475 9  24299997.081 6         0.000 6     -2431.267 6        37.977 6
G27  22004502.646 9 115634414.872 9      2499.275 9        55.374 9  22004504.579 6         0.000 6      1947.488 6        37.977 6
G16  20497198.512 9 107713484.871 9       556.568 9        55.977 9  20497197.685 6         0.000 6       433.690 6        37.977 6
G26  20654688.894 9 108541100.451 9     -1483.538 9        55.873 9  20654691.711 6         0.000 6     -1156.004 6        37.977 6
G20  21943606.933 9 115314399.645 9      2565.299 9        55.316 9  21943607.254 6         0.000 6      1998.935 6        37.977 6
> 2019 07 03 12 01  1.0000000  0  8       0.000000000000
G07  25346460.033 9 133196500.383 9      2185.779 9        54.132 9  25346460.703 6         0.000 6      1703.205 6        37.977 6
G10  23808383.038 9 125113842.658 9      3529.155 9        54.670 9  23808386.764 6         0.000 6      2749.993 6        37.977 6
G21  21171216.079 9 111255470.732 9     -1251.705 9        55.709 9  21171215.365 6         0.000 6      -975.354 6        37.977 6
G29  24300589.254 9 127700402.036 9     -3120.208 9        54.475 9  24300590.830 6         0.000 6     -2431.334 6        37.977 6
G27  22004027.072 9 115631915.718 9      2499.038 9        55.374 9  22004029.005 6         0.000 6      1947.303 6        37.977 6
G16  20497092.659 9 107712928.610 9       555.952 9        55.977 9  20497091.832 6         0.000 6       433.210 6        37.977 6
G26  20654971.257 9 108542584.275 9     -1484.113 9        55.873 9  20654974.073 6         0.000 6     -1156.452 6        37.977 6
G20  21943118.815 9 115311834.572 9      2564.855 9        55.316 9  21943119.136 6         0.000 6      1998.590 6        37.977 6
> 2019 07 03 12 01  2.0000000  0  8       0.000000000000
G07  25346044.137 9 133194314.837 9      2185.320 9        54.132 9  25346044.806 6         0.000 6      1702.847 6        37.977 6
G10  23807711.476 9 125110313.583 9      3529.017 9        54.670 9  23807715.201 6         0.000 6      2749.886 6        37.977 6
G21  21171454.305 9 111256722.616 9     -1252.065 9        55.709 9  21171453.590 6         0.000 6      -975.636 6        37.977 6
G29  24301183.018 9 127703522.277 9     -3120.294 9        54.474 9  24301184.594 6         0.000 6     -2431.400 6        37.977 6
G27  22003551.543 9 115629416.801 9      2498.801 9        55.375 9  22003553.476 6         0.000 6      1947.118 6        37.977 6
G16  20496986.923 9 107712372.966 9       555.336 9        55.977 9  20496986.096 6         0.000 6       432.729 6        37.977 6
G26  20655253.729 9 108544068.674 9     -1484.688 9        55.873 9  20655256.545 6         0.000 6     -1156.900 6        37.977 6
G20  21942630.781 9 115309269.943 9      2564.412 9        55.316 9  21942631.102 6         0.000 6      1998.244 6        37.977 6
> 2019 07 03 12 01  3.0000000  0  8       0.000000000000
G07  25345628.329 9 133192129.753 9      2184.860 9        54.132 9  25345628.998 6         0.000 6      1702.489 6        37.977 6
G10  23807039.938 9 125106784.640 9      3528.880 9        54.670 9  23807043.662 6         0.000 6      2749.779 6        37.977 6
G21  21171692.599 9 111257974.859 9     -1252.426 9        55.709 9  21171691.885 6         0.000 6      -975.917 6        37.977 6
G29  24301776.799 9 127706642.603 9     -3120.379 9        54.474 9  24301778.375 6         0.000 6     -2431.467 6        37.977 6
G27  22003076.060 9 115626918.119 9      2498.564 9        55.375 9  22003077.992 6         0.000 6      1946.934 6        37.977 6
G16  20496881.304 9 107711817.935 9       554.720 9        55.977 9  20496880.477 6         0.000 6       432.249 6        37.977 6
G26  20655536.309 9 108545553.642 9     -1485.263 9        55.873 9  20655539.126 6         0.000 6     -1157.348 6        37.977 6
G20  21942142.831 9 115306705.753 9      2563.968 9        55.316 9  21942143.152 6         0.000 6      1997.899 6        37.977 6
> 2019 07 03 12 01  4.0000000  0  8       0.000000000000
G07  25345212.607 9 133189945.127 9      2184.401 9        54.132 9  25345213.276 6         0.000 6      1702.131 6        37.977 6
G10  23806368.428 9 125103255.839 9      3528.742 9        54.670 9  23806372.151 6         0.000 6      2749.672 6        37.977 6
G21  21171930.962 9 111259227.464 9     -1252.787 9        55.709 9  21171930.248 6         0.000 6      -976.198 6        37.977 6
G29  24302370.595 9 127709763.015 9     -3120.465 9        54.474 9  24302372.172 6         0.000 6     -2431.533 6        37.977 6
G27  22002600.621 9 115624419.676 9      2498.327 9        55.375 9  22002602.553 6         0.000 6      1946.749 6        37.977 6
G16  20496775.803 9 107711263.523 9       554.104 9        55.977 9  20496774.976 6         0.000 6       431.769 6        37.977 6
G26  20655819.000 9 108547039.190 9     -1485.837 9        55.873 9  20655821.817 6         0.000 6     -1157.796 6        37.977 6
G20  21941654.967 9 115304142.011 9      2563.525 9        55.316 9  21941655.287 6         0.000 6      1997.553 6        37.977 6
> 2019 07 03 12 01  5.0000000  0  8       0.000000000000
G07  25344796.974 9 133187760.962 9      2183.941 9        54.132 9  25344797.643 6         0.000 6      1701.773 6        37.977 6
G10  23805696.943 9 125099727.172 9      3528.605 9        54.671 9  23805700.666 6         0.000 6      2749.565 6        37.977 6
G21  21172169.393 9 111260480.428 9     -1253.147 9        55.709 9  21172168.679 6         0.000 6      -976.479 6        37.977 6
G29  24302964.408 9 127712883.512 9     -3120.550 9        54.474 9  24302965.986 6         0.000 6     -2431.600 6        37.977 6
G27  22002125.227 9 115621921.469 9      2498.090 9        55.375 9  22002127.160 6         0.000 6      1946.564 6        37.977 6
G16  20496670.419 9 107710709.725 9       553.487 9        55.977 9  20496669.592 6         0.000 6       431.289 6        37.977 6
G26  20656101.799 9 108548525.308 9     -1486.412 9        55.872 9  20656104.616 6         0.000 6     -1158.243 6        37.977 6
G20  21941167.186 9 115301578.709 9      2563.081 9        55.317 9  21941167.505 6         0.000 6      1997.207 6        37.977 6
> 2019 07 03 12 01  6.0000000  0  8       0.000000000000
G07  25344381.427 9 133185577.254 9      2183.481 9        54.132 9  25344382.096 6         0.000 6      1701.415 6        37.977 6
G10  23805025.484 9 125096198.647 9      3528.467 9        54.671 9  23805029.207 6         0.000 6      2749.458 6        37.977 6
G21  21172407.893 9 111261733.755 9     -1253.508 9        55.709 9  21172407.179 6         0.000 6      -976.760 6        37.977 6
G29  24303558.237 9 127716004.094 9     -3120.635 9        54.474 9  24303559.815 6         0.000 6     -2431.667 6        37.977 6
G27  22001649.879 9 115619423.500 9      2497.853 9        55.375 9  22001651.811 6         0.000 6      1946.380 6        37.977 6
G16  20496565.152 9 107710156.545 9       552.871 9        55.977 9  20496564.325 6         0.000 6       430.809 6        37.977 6
G26  20656384.709 9 108550012.006 9     -1486.987 9        55.872 9  20656387.526 6         0.000 6     -1158.691 6        37.977 6
G20  21940679.490 9 115299015.854 9      2562.637 9        55.317 9  21940679.809 6         0.000 6      1996.861 6        37.977 6
> 2019 07 03 12 01  7.0000000  0  8       0.000000000000
G07  25343965.970 9 133183394.012 9      2183.022 9        54.133 9  25343966.638 6         0.000 6      1701.057 6        37.977 6
G10  23804354.051 9 125092670.253 9      3528.329 9        54.671 9  23804357.773 6         0.000 6      2749.350 6        37.977 6
G21  21172646.461 9 111262987.438 9     -1253.868 9        55.709 9  21172645.747 6         0.000 6      -977.040 6        37.977 6
G29  24304152.081 9 127719124.757 9     -3120.721 9        54.473 9  24304153.660 6         0.000 6     -2431.733 6        37.977 6
G27  22001174.576 9 115616925.769 9      2497.616 9        55.376 9  22001176.508 6         0.000 6      1946.195 6        37.977 6
G16  20496460.003 9 107709603.980 9       552.255 9        55.977 9  20496459.176 6         0.000 6       430.328 6        37.977 6
G26  20656667.726 9 108551499.273 9     -1487.561 9        55.872 9  20656670.544 6         0.000 6     -1159.139 6        37.977 6
G20  21940191.877 9 115296453.435 9      2562.194 9        55.317 9  21940192.196 6         0.000 6      1996.516 6        37.977 6
> 2019 07 03 12 01  8.0000000  0  8       0.000000000000
G07  25343550.598 9 133181211.223 9      2182.562 9        54.133 9  25343551.266 6         0.000 6      1700.699 6        37.977 6
G10  23803682.646 9 125089142.003 9      3528.191 9        54.671 9  23803686.367 6         0.000 6      2749.243 6        37.977 6
G21  21172885.099 9 111264241.486 9     -1254.229 9        55.708 9  21172884.385 6         0.000 6      -977.321 6        37.977 6
G29  24304745.943 9 127722245.510 9     -3120.806 9        54.473 9  24304747.523 6         0.000 6     -2431.800 6        37.977 6
G27  22000699.319 9 115614428.275 9      2497.379 9        55.376 9  22000701.250 6         0.000 6      1946.010 6        37.977 6
G16  20496354.971 9 107709052.034 9       551.638 9        55.977 9  20496354.144 6         0.000 6       429.848 6        37.977 6
G26  20656950.855 9 108552987.119 9     -1488.136 9        55.872 9  20656953.672 6         0.000 6     -1159.587 6        37.977 6
G20  21939704.350 9 115293891.468 9      2561.750 9        55.317 9  21939704.669 6         0.000 6      1996.170 6        37.977 6
> 2019 07 03 12 01  9.0000000  0  8       0.000000000000
G07  25343135.315 9 133179028.898 9      2182.102 9        54.133 9  25343135.983 6         0.000 6      1700.340 6        37.977 6
G10  23803011.266 9 125085613.887 9      3528.053 9        54.672 9  23803014.986 6         0.000 6      2749.135 6        37.977 6
G21  21173123.804 9 111265495.892 9     -1254.589 9        55.708 9  21173123.091 6         0.000 6      -977.602 6        37.977 6
G29  24305339.821 9 127725366.349 9     -3120.892 9        54.473 9  24305341.401 6         0.000 6     -2431.866 6        37.977 6
G27  22000224.105 9 115611931.015 9      2497.142 9        55.376 9  22000226.037 6         0.000 6      1945.826 6        37.977 6
G16  20496250.055 9 107708500.700 9       551.022 9        55.977 9  20496249.229 6         0.000 6       429.368 6        37.977 6
G26  20657234.091 9 108554475.536 9     -1488.710 9        55.872 9  20657236.909 6         0.000 6     -1160.034 6        37.977 6
G20  21939216.906 9 115291329.941 9      2561.306 9        55.317 9  21939217.225 6         0.000 6      1995.824 6        37.977 6
> 2019 07 03 12 01 10.0000000  0  8       0.000000000000
G07  25342720.118 9 133176847.029 9      2181.642 9        54.133 9  25342720.786 6         0.000 6      1699.982 6        37.977 6
G10  23802339.913 9 125082085.914 9      3527.915 9        54.672 9  23802343.632 6         0.000 6      2749.027 6        37.977 6
G21  21173362.579 9 111266750.660 9     -1254.949 9        55.708 9  21173361.865 6         0.000 6      -977.883 6        37.977 6
G29  24305933.715 9 127728487.273 9     -3120.977 9        54.473 9  24305935.296 6         0.000 6     -2431.933 6        37.977 6
G27  21999748.938 9 115609433.994 9      2496.905 9        55.376 9  21999750.869 6         0.000 6      1945.641 6        37.977 6
G16  20496145.258 9 107707949.986 9       550.406 9        55.977 9  20496144.431 6         0.000 6       428.887 6        37.977 6
G26  20657517.438 9 108555964.532 9     -1489.285 9        55.872 9  20657520.256 6         0.000 6     -1160.482 6        37.977 6
G20  21938729.548 9 115288768.862 9      2560.861 9        55.318 9  21938729.867 6         0.000 6      1995.478 6        37.977 6
> 2019 07 03 12 01 11.0000000  0  8       0.000000000000
G07  25342305.009 9 133174665.621 9      2181.182 9        54.133 9  25342305.677 6         0.000 6      1699.623 6        37.977 6
G10  23801668.586 9 125078558.078 9      3527.777 9        54.672 9  23801672.305 6         0.000 6      2748.920 6        37.977 6
G21  21173601.422 9 111268005.789 9     -1255.310 9        55.708 9  21173600.708 6         0.000 6      -978.164 6        37.977 6
G29  24306527.625 9 127731608.282 9     -3121.062 9        54.472 9  24306529.207 6         0.000 6     -2431.999 6        37.977 6
G27  21999273.815 9 115606937.211 9      2496.667 9        55.376 9  21999275.746 6         0.000 6      1945.456 6        37.977 6
G16  20496040.578 9 107707399.889 9       549.789 9        55.977 9  20496039.751 6         0.000 6       428.407 6        37.977 6
G26  20657800.894 9 108557454.102 9     -1489.859 9        55.872 9  20657803.712 6         0.000 6     -1160.930 6        37.977 6
G20  21938242.275 9 115286208.227 9      2560.417 9        55.318 9  21938242.593 6         0.000 6      1995.131 6        37.977 6
> 2019 07 03 12 01 12.0000000  0  8       0.000000000000
G07  25341889.988 9 133172484.675 9      2180.722 9        54.133 9  25341890.656 6         0.000 6      1699.265 6        37.977 6
G10  23800997.285 9 125075030.377 9      3527.638 9        54.672 9  23801001.003 6         0.000 6      2748.812 6        37.977 6
G21  21173840.334 9 111269261.276 9     -1255.670 9        55.708 9  21173839.620 6         0.000 6      -978.444 6        37.977 6
G29  24307121.552 9 127734729.377 9     -3121.148 9        54.472 9  24307123.134 6         0.000 6     -2432.066 6        37.977 6
G27  21998798.737 9 115604440.663 9      2496.430 9        55.377 9  21998800.668 6         0.000 6      1945.271 6        37.977 6
G16  20495936.015 9 107706850.405 9       549.173 9        55.977 9  20495935.188 6         0.000 6       427.927 6        37.977 6
G26  20658084.459 9 108558944.241 9     -1490.434 9        55.872 9  20658087.276 6         0.000 6     -1161.377 6        37.977 6
G20  21937755.085 9 115283648.032 9      2559.973 9        55.318 9  21937755.403 6         0.000 6      1994.785 6        37.977 6
> 2019 07 03 12 01 13.0000000  0  8       0.000000000000
G07  25341475.055 9 133170304.186 9      2180.262 9        54.133 9  25341475.722 6         0.000 6      1698.906 6        37.977 6
G10  23800326.010 9 125071502.819 9      3527.500 9        54.673 9  23800329.728 6         0.000 6      2748.704 6        37.977 6
G21  21174079.314 9 111270517.125 9     -1256.030 9        55.708 9  21174078.600 6         0.000 6      -978.725 6        37.977 6
G29  24307715.494 9 127737850.557 9     -3121.233 9        54.472 9  24307717.077 6         0.000 6     -2432.132 6        37.977 6
G27  21998323.705 9 115601944.354 9      2496.193 9        55.377 9  21998325.636 6         0.000 6      1945.086 6        37.977 6
G16  20495831.569 9 107706301.541 9       548.556 9        55.977 9  20495830.742 6         0.000 6       427.446 6        37.977 6
G26  20658368.133 9 108560434.960 9     -1491.008 9        55.871 9  20658370.951 6         0.000 6     -1161.825 6        37.977 6
G20  21937267.981 9 115281088.286 9      2559.528 9        55.318 9  21937268.299 6         0.000 6      1994.439 6        37.977 6
> 2019 07 03 12 01 14.0000000  0  8       0.000000000000
G07  25341060.209 9 133168124.161 9      2179.802 9        54.134 9  25341060.876 6         0.000 6      1698.548 6        37.977 6
G10  23799654.762 9 125067975.394 9      3527.361 9        54.673 9  23799658.479 6         0.000 6      2748.596 6        37.977 6
G21  21174318.362 9 111271773.332 9     -1256.390 9        55.708 9  21174317.649 6         0.000 6      -979.005 6        37.977 6
G29  24308309.453 9 127740971.822 9     -3121.318 9        54.472 9  24308311.037 6         0.000 6     -2432.198 6        37.977 6
G27  21997848.717 9 115599448.281 9      2495.956 9        55.377 9  21997850.648 6         0.000 6      1944.901 6        37.977 6
G16  20495727.241 9 107705753.290 9       547.939 9        55.977 9  20495726.414 6         0.000 6       426.966 6        37.977 6
G26  20658651.916 9 108561926.249 9     -1491.582 9        55.871 9  20658654.734 6         0.000 6     -1162.272 6        37.977 6
G20  21936780.960 9 115278528.980 9      2559.084 9        55.318 9  21936781.278 6         0.000 6      1994.093 6        37.977 6
> 2019 07 03 12 01 15.0000000  0  8       0.000000000000
G07  25340645.451 9 133165944.596 9      2179.341 9        54.134 9  25340646.117 6         0.000 6      1698.189 6        37.977 6
G10  23798983.540 9 125064448.111 9      3527.222 9        54.673 9  23798987.257 6         0.000 6      2748.488 6        37.977 6
G21  21174557.479 9 111273029.899 9     -1256.750 9        55.708 9  21174556.766 6         0.000 6      -979.286 6        37.977 6
G29  24308903.427 9 127744093.167 9     -3121.403 9        54.472 9  24308905.011 6         0.000 6     -2432.265 6        37.977 6
G27  21997373.776 9 115596952.450 9      2495.718 9        55.377 9  21997375.706 6         0.000 6      1944.716 6        37.977 6
G16  20495623.030 9 107705205.660 9       547.323 9        55.977 9  20495622.203 6         0.000 6       426.485 6        37.977 6
G26  20658935.810 9 108563418.116 9     -1492.157 9        55.871 9  20658938.628 6         0.000 6     -1162.720 6        37.977 6
G20  21936294.025 9 115275970.120 9      2558.639 9        55.319 9  21936294.342 6         0.000 6      1993.746 6        37.977 6
> 2019 07 03 12 01 16.0000000  0  8       0.000000000000
G07  25340230.780 9 133163765.491 9      2178.881 9        54.134 9  25340231.447 6         0.000 6      1697.830 6        37.977 6
G10  23798312.344 9 125060920.964 9      3527.084 9        54.673 9  23798316.060 6         0.000 6      2748.380 6        37.977 6
G21  21174796.665 9 111274286.826 9     -1257.110 9        55.708 9  21174795.951 6         0.000 6      -979.566 6        37.977 6
G29  24309497.419 9 127747214.603 9     -3121.488 9        54.471 9  24309499.004 6         0.000 6     -2432.331 6        37.977 6
G27  21996898.879 9 115594456.852 9      2495.481 9        55.377 9  21996900.809 6         0.000 6      1944.531 6        37.977 6
G16  20495518.936 9 107704658.643 9       546.706 9        55.977 9  20495518.109 6         0.000 6       426.005 6        37.977 6
G26  20659219.811 9 108564910.554 9     -1492.731 9        55.871 9  20659222.630 6         0.000 6     -1163.167 6        37.977 6
G20  21935807.173 9 115273411.703 9      2558.195 9        55.319 9  21935807.490 6         0.000 6      1993.400 6        37.977 6
> 2019 07 03 12 01 17.0000000  0  8       0.000000000000
G07  25339816.197 9 133161586.844 9      2178.420 9        54.134 9  25339816.863 6         0.000 6      1697.471 6        37.977 6
G10  23797641.176 9 125057393.960 9      3526.945 9        54.674 9  23797644.891 6         0.000 6      2748.271 6        37.977 6
G21  21175035.919 9 111275544.115 9     -1257.470 9        55.708 9  21175035.205 6         0.000 6      -979.847 6        37.977 6
G29  24310091.426 9 127750336.124 9     -3121.574 9        54.471 9  24310093.012 6         0.000 6     -2432.398 6        37.977 6
G27  21996424.027 9 115591961.492 9      2495.243 9        55.378 9  21996425.957 6         0.000 6      1944.346 6        37.977 6
G16  20495414.960 9 107704112.245 9       546.089 9        55.977 9  20495414.133 6         0.000 6       425.524 6        37.977 6
G26  20659503.923 9 108566403.570 9     -1493.305 9        55.871 9  20659506.742 6         0.000 6     -1163.615 6        37.977 6
G20  21935320.407 9 115270853.736 9      2557.750 9        55.319 9  21935320.724 6         0.000 6      1993.053 6        37.977 6
> 2019 07 03 12 01 18.0000000  0  8       0.000000000000
G07  25339401.701 9 133159408.661 9      2177.960 9        54.134 9  25339402.367 6         0.000 6      1697.112 6        37.977 6
G10  23796970.033 9 125053867.091 9      3526.806 9        54.674 9  23796973.748 6         0.000 6      2748.163 6        37.977 6
G21  21175275.241 9 111276801.762 9     -1257.830 9        55.707 9  21175274.528 6         0.000 6      -980.127 6        37.977 6
G29  24310685.450 9 127753457.730 9     -3121.659 9        54.471 9  24310687.036 6         0.000 6     -2432.464 6        37.977 6
G27  21995949.221 9 115589466.368 9      2495.006 9        55.378 9  21995951.150 6         0.000 6      1944.161 6        37.977 6
G16  20495311.101 9 107703566.461 9       545.473 9        55.977 9  20495310.274 6         0.000 6       425.044 6        37.977 6
G26  20659788.144 9 108567897.156 9     -1493.879 9        55.871 9  20659790.962 6         0.000 6     -1164.062 6        37.977 6
G20  21934833.725 9 115268296.209 9      2557.305 9        55.319 9  21934834.041 6         0.000 6      1992.706 6        37.977 6
> 2019 07 03 12 01 19.0000000  0  8       0.000000000000
G07  25338987.293 9 133157230.935 9      2177.499 9        54.134 9  25338987.959 6         0.000 6      1696.753 6        37.977 6
G10  23796298.917 9 125050340.366 9      3526.667 9        54.674 9  23796302.631 6         0.000 6      2748.055 6        37.977 6
G21  21175514.633 9 111278059.771 9     -1258.190 9        55.707 9  21175513.919 6         0.000 6      -980.408 6        37.977 6
G29  24311279.490 9 127756579.421 9     -3121.744 9        54.471 9  24311281.077 6         0.000 6     -2432.530 6        37.977 6
G27  21995474.459 9 115586971.484 9      2494.768 9        55.378 9  21995476.389 6         0.000 6      1943.976 6        37.977 6
G16  20495207.360 9 107703021.296 9       544.856 9        55.977 9  20495206.533 6         0.000 6       424.563 6        37.977 6
G26  20660072.474 9 108569391.320 9     -1494.454 9        55.871 9  20660075.292 6         0.000 6     -1164.510 6        37.977 6
G20  21934347.129 9 115265739.131 9      2556.860 9        55.319 9  21934347.445 6         0.000 6      1992.360 6        37.977 6
> 2019 07 03 12 01 20.0000000  0  8       0.000000000000
G07  25338572.973 9 133155053.669 9      2177.038 9        54.134 9  25338573.638 6         0.000 6      1696.394 6        37.977 6
G10  23795627.828 9 125046813.780 9      3526.527 9        54.674 9  23795631.542 6         0.000 6      2747.946 6        37.977 6
G21  21175754.092 9 111279318.140 9     -1258.549 9        55.707 9  21175753.379 6         0.000 6      -980.688 6        37.977 6
G29  24311873.546 9 127759701.197 9     -3121.829 9        54.471 9  24311875.134 6         0.000 6     -2432.597 6        37.977 6
G27  21994999.743 9 115584476.837 9      2494.531 9        55.378 9  21995001.673 6         0.000 6      1943.791 6        37.977 6
G16  20495103.736 9 107702476.749 9       544.239 9        55.977 9  20495102.909 6         0.000 6       424.082 6        37.977 6
G26  20660356.914 9 108570886.059 9     -1495.028 9        55.871 9  20660359.732 6         0.000 6     -1164.957 6        37.977 6
G20  21933860.617 9 115263182.498 9      2556.415 9        55.320 9  21933860.932 6         0.000 6      1992.013 6        37.977 6
> 2019 07 03 12 01 21.0000000  0  8       0.000000000000
G07  25338158.741 9 133152876.868 9      2176.578 9        54.135 9  25338159.406 6         0.000 6      1696.035 6        37.977 6
G10  23794956.765 9 125043287.328 9      3526.388 9        54.675 9  23794960.478 6         0.000 6      2747.838 6        37.977 6
G21  21175993.620 9 111280576.866 9     -1258.909 9        55.707 9  21175992.907 6         0.000 6      -980.968 6        37.977 6
G29  24312467.619 9 127762823.058 9     -3121.914 9        54.470 9  24312469.207 6         0.000 6     -2432.663 6        37.977 6
G27  21994525.072 9 115581982.426 9      2494.293 9        55.378 9  21994527.001 6         0.000 6      1943.606 6        37.977 6
G16  20495000.228 9 107701932.815 9       543.622 9        55.978 9  20494999.402 6         0.000 6       423.602 6        37.977 6
G26  20660641.462 9 108572381.367 9     -1495.602 9        55.870 9  20660644.280 6         0.000 6     -1165.404 6        37.977 6
G20  21933374.189 9 115260626.306 9      2555.970 9        55.320 9  21933374.504 6         0.000 6      1991.666 6        37.977 6
> 2019 07 03 12 01 22.0000000  0  8       0.000000000000
G07  25337744.596 9 133150700.527 9      2176.117 9        54.135 9  25337745.261 6         0.000 6      1695.676 6        37.977 6
G10  23794285.728 9 125039761.018 9      3526.249 9        54.675 9  23794289.440 6         0.000 6      2747.729 6        37.977 6
G21  21176233.216 9 111281835.952 9     -1259.269 9        55.707 9  21176232.503 6         0.000 6      -981.249 6        37.977 6
G29  24313061.707 9 127765945.000 9     -3121.999 9        54.470 9  24313063.295 6         0.000 6     -2432.729 6        37.977 6
G27  21994050.447 9 115579488.258 9      2494.056 9        55.378 9  21994052.376 6         0.000 6      1943.421 6        37.977 6
G16  20494896.840 9 107701389.503 9       543.005 9        55.978 9  20494896.013 6         0.000 6       423.121 6        37.977 6
G26  20660926.120 9 108573877.254 9     -1496.176 9        55.870 9  20660928.939 6         0.000 6     -1165.852 6        37.977 6
G20  21932887.846 9 115258070.560 9      2555.524 9        55.320 9  21932888.161 6         0.000 6      1991.319 6        37.977 6
> 2019 07 03 12 01 23.0000000  0  8       0.000000000000
G07  25337330.539 9 133148524.647 9      2175.656 9        54.135 9  25337331.204 6         0.000 6      1695.317 6        37.977 6
G10  23793614.718 9 125036234.845 9      3526.109 9        54.675 9  23793618.429 6         0.000 6      2747.620 6        37.977 6
G21  21176472.881 9 111283095.397 9     -1259.628 9        55.707 9  21176472.168 6         0.000 6      -981.529 6        37.977 6
G29  24313655.811 9 127769067.031 9     -3122.084 9        54.470 9  24313657.400 6         0.000 6     -2432.796 6        37.977 6
G27  21993575.866 9 115576994.322 9      2493.818 9        55.379 9  21993577.796 6         0.000 6      1943.235 6        37.977 6
G16  20494793.567 9 107700846.803 9       542.388 9        55.978 9  20494792.740 6         0.000 6       422.640 6        37.977 6
G26  20661210.886 9 108575373.710 9     -1496.750 9        55.870 9  20661213.705 6         0.000 6     -1166.299 6        37.977 6
G20  21932401.587 9 115255515.259 9      2555.079 9        55.320 9  21932401.902 6         0.000 6      1990.972 6        37.977 6
> 2019 07 03 12 01 24.0000000  0  8       0.000000000000
G07  25336916.569 9 133146349.225 9      2175.195 9        54.135 9  25336917.234 6         0.000 6      1694.958 6        37.977 6
G10  23792943.735 9 125032708.817 9      3525.969 9        54.675 9  23792947.446 6         0.000 6      2747.511 6        37.977 6
G21  21176712.614 9 111284355.205 9     -1259.988 9        55.707 9  21176711.901 6         0.000 6      -981.809 6        37.977 6
G29  24314249.932 9 127772189.148 9     -3122.169 9        54.470 9  24314251.522 6         0.000 6     -2432.862 6        37.977 6
G27  21993101.331 9 115574500.626 9      2493.580 9        55.379 9  21993103.260 6         0.000 6      1943.050 6        37.977 6
G16  20494690.413 9 107700304.724 9       541.771 9        55.978 9  20494689.586 6         0.000 6       422.159 6        37.977 6
G26  20661495.763 9 108576870.745 9     -1497.324 9        55.870 9  20661498.582 6         0.000 6     -1166.746 6        37.977 6
G20  21931915.414 9 115252960.407 9      2554.634 9        55.320 9  21931915.729 6         0.000 6      1990.625 6        37.977 6
> 2019 07 03 12 01 25.0000000  0  8       0.000000000000
G07  25336502.688 9 133144174.267 9      2174.734 9        54.135 9  25336503.353 6         0.000 6      1694.599 6        37.977 6
G10  23792272.778 9 125029182.923 9      3525.830 9        54.676 9  23792276.488 6         0.000 6      2747.402 6        37.977 6
G21  21176952.416 9 111285615.369 9     -1260.347 9        55.707 9  21176951.703 6         0.000 6      -982.089 6        37.977 6
G29  24314844.069 9 127775311.349 9     -3122.254 9        54.470 9  24314845.660 6         0.000 6     -2432.928 6        37.977 6
G27  21992626.841 9 115572007.165 9      2493.342 9        55.379 9  21992628.770 6         0.000 6      1942.865 6        37.977 6
G16  20494587.375 9 107699763.258 9       541.154 9        55.978 9  20494586.548 6         0.000 6       421.679 6        37.977 6
G26  20661780.748 9 108578368.350 9     -1497.898 9        55.870 9  20661783.567 6         0.000 6     -1167.194 6        37.977 6
G20  21931429.325 9 115250405.996 9      2554.188 9        55.321 9  21931429.639 6         0.000 6      1990.278 6        37.977 6
> 2019 07 03 12 01 26.0000000  0  8       0.000000000000
G07  25336088.894 9 133141999.768 9      2174.272 9        54.135 9  25336089.558 6         0.000 6      1694.239 6        37.977 6
G10  23791601.848 9 125025657.174 9      3525.690 9        54.676 9  23791605.558 6         0.000 6      2747.293 6        37.977 6
G21  21177192.286 9 111286875.895 9     -1260.707 9        55.707 9  21177191.573 6         0.000 6      -982.369 6        37.977 6
G29  24315438.223 9 127778433.636 9     -3122.339 9        54.469 9  24315439.814 6         0.000 6     -2432.994 6        37.977 6
G27  21992152.396 9 115569513.944 9      2493.105 9        55.379 9  21992154.325 6         0.000 6      1942.680 6        37.977 6
G16  20494484.456 9 107699222.412 9       540.537 9        55.978 9  20494483.629 6         0.000 6       421.198 6        37.977 6
G26  20662065.843 9 108579866.533 9     -1498.472 9        55.870 9  20662068.662 6         0.000 6     -1167.641 6        37.977 6
G20  21930943.322 9 115247852.036 9      2553.742 9        55.321 9  21930943.636 6         0.000 6      1989.930 6        37.977 6
> 2019 07 03 12 01 27.0000000  0  8       0.000000000000
G07  25335675.188 9 133139825.732 9      2173.811 9        54.135 9  25335675.852 6         0.000 6      1693.880 6        37.977 6
G10  23790930.944 9 125022131.561 9      3525.550 9        54.676 9  23790934.653 6         0.000 6      2747.184 6        37.977 6
G21  21177432.224 9 111288136.778 9     -1261.066 9        55.707 9  21177431.511 6         0.000 6      -982.649 6        37.977 6
G29  24316032.392 9 127781556.007 9     -3122.424 9        54.469 9  24316033.984 6         0.000 6     -2433.060 6        37.977 6
G27  21991677.997 9 115567020.959 9      2492.867 9        55.379 9  21991679.925 6         0.000 6      1942.494 6        37.977 6
G16  20494381.653 9 107698682.180 9       539.920 9        55.978 9  20494380.826 6         0.000 6       420.717 6        37.977 6
G26  20662351.046 9 108581365.285 9     -1499.046 9        55.870 9  20662353.866 6         0.000 6     -1168.088 6        37.977 6
G20  21930457.402 9 115245298.516 9      2553.297 9        55.321 9  21930457.716 6         0.000 6      1989.583 6        37.977 6
> 2019 07 03 12 01 28.0000000  0  8       0.000000000000
G07  25335261.569 9 133137652.155 9      2173.350 9        54.136 9  25335262.233 6         0.000 6      1693.520 6        37.977 6
G10  23790260.068 9 125018606.092 9      3525.410 9        54.676 9  23790263.776 6         0.000 6      2747.075 6        37.977 6
G21  21177672.231 9 111289398.023 9     -1261.425 9        55.706 9  21177671.518 6         0.000 6      -982.929 6        37.977 6
G29  24316626.578 9 127784678.464 9     -3122.509 9        54.469 9  24316628.170 6         0.000 6     -2433.127 6        37.977 6
G27  21991203.642 9 115564528.214 9      2492.629 9        55.380 9  21991205.571 6         0.000 6      1942.309 6        37.977 6
G16  20494278.969 9 107698142.569 9       539.303 9        55.978 9  20494278.142 6         0.000 6       420.236 6        37.977 6
G26  20662636.360 9 108582864.616 9     -1499.620 9        55.870 9  20662639.179 6         0.000 6     -1168.535 6        37.977 6
G20  21929971.568 9 115242745.447 9      2552.851 9        55.321 9  21929971.882 6         0.000 6      1989.235 6        37.977 6
> 2019 07 03 12 01 29.0000000  0  8       0.000000000000
G07  25334848.039 9 133135479.043 9      2172.888 9        54.136 9  25334848.703 6         0.000 6      1693.161 6        37.977 6
G10  23789589.217 9 125015080.758 9      3525.270 9        54.677 9  23789592.924 6         0.000 6      2746.966 6        37.977 6
G21  21177912.306 9 111290659.625 9     -1261.785 9        55.706 9  21177911.593 6         0.000 6      -983.209 6        37.977 6
G29  24317220.780 9 127787801.005 9     -3122.594 9        54.469 9  24317222.373 6         0.000 6     -2433.193 6        37.977 6
G27  21990729.333 9 115562035.705 9      2492.391 9        55.380 9  21990731.261 6         0.000 6      1942.124 6        37.977 6
G16  20494176.401 9 107697603.572 9       538.686 9        55.978 9  20494175.574 6         0.000 6       419.755 6        37.977 6
G26  20662921.782 9 108584364.516 9     -1500.193 9        55.870 9  20662924.601 6         0.000 6     -1168.982 6        37.977 6
G20  21929485.819 9 115240192.820 9      2552.405 9        55.321 9  21929486.132 6         0.000 6      1988.888 6        37.977 6
> 2019 07 03 12 01 30.0000000  0  8       0.000000000000
G07  25334434.597 9 133133306.391 9      2172.427 9        54.136 9  25334435.260 6         0.000 6      1692.801 6        37.977 6
G10  23788918.393 9 125011555.567 9      3525.129 9        54.677 9  23788922.100 6         0.000 6      2746.857 6        37.977 6
G21  21178152.450 9 111291921.587 9     -1262.144 9        55.706 9  21178151.737 6         0.000 6      -983.489 6        37.977 6
G29  24317814.997 9 127790923.626 9     -3122.679 9        54.468 9  24317816.590 6         0.000 6     -2433.259 6        37.977 6
G27  21990255.070 9 115559543.439 9      2492.153 9        55.380 9  21990256.998 6         0.000 6      1941.938 6        37.977 6
G16  20494073.951 9 107697065.196 9       538.068 9        55.978 9  20494073.124 6         0.000 6       419.274 6        37.977 6
G26  20663207.314 9 108585864.994 9     -1500.767 9        55.869 9  20663210.133 6         0.000 6     -1169.429 6        37.977 6
G20  21929000.154 9 115237640.639 9      2551.959 9        55.321 9  21929000.467 6         0.000 6      1988.540 6        37.977 6
> 2019 07 03 12 01 31.0000000  0  8       0.000000000000
G07  25334021.241 9 133131134.199 9      2171.965 9        54.136 9  25334021.905 6         0.000 6      1692.441 6        37.977 6
G10  23788247.597 9 125008030.519 9      3524.989 9        54.677 9  23788251.303 6         0.000 6      2746.747 6        37.977 6
G21  21178392.662 9 111293183.909 9     -1262.503 9        55.706 9  21178391.949 6         0.000 6      -983.769 6        37.977 6
G29  24318409.231 9 127794046.337 9     -3122.764 9        54.468 9  24318410.825 6         0.000 6     -2433.325 6        37.977 6
G27  21989780.852 9 115557051.408 9      2491.915 9        55.380 9  21989782.780 6         0.000 6      1941.753 6        37.977 6
G16  20493971.619 9 107696527.436 9       537.451 9        55.978 9  20493970.792 6         0.000 6       418.793 6        37.977 6
G26  20663492.955 9 108587366.046 9     -1501.341 9        55.869 9  20663495.774 6         0.000 6     -1169.877 6        37.977 6
G20  21928514.575 9 115235088.908 9      2551.513 9        55.322 9  21928514.888 6         0.000 6      1988.193 6        37.977 6
> 2019 07 03 12 01 32.0000000  0  8       0.000000000000
G07  25333607.975 9 133128962.470 9      2171.504 9        54.136 9  25333608.638 6         0.000 6      1692.082 6        37.977 6
G10  23787576.827 9 125004505.606 9      3524.848 9        54.677 9  23787580.532 6         0.000 6      2746.638 6        37.977 6
G21  21178632.942 9 111294446.588 9     -1262.862 9        55.706 9  21178632.229 6         0.000 6      -984.048 6        37.977 6
G29  24319003.481 9 127797169.133 9     -3122.849 9        54.468 9  24319005.076 6         0.000 6     -2433.391 6        37.977 6
G27  21989306.679 9 115554559.613 9      2491.677 9        55.380 9  21989308.606 6         0.000 6      1941.567 6        37.977 6
G16  20493869.404 9 107695990.290 9       536.834 9        55.978 9  20493868.577 6         0.000 6       418.312 6        37.977 6
G26  20663778.704 9 108588867.667 9     -1501.915 9        55.869 9  20663781.524 6         0.000 6     -1170.324 6        37.977 6
G20  21928029.080 9 115232537.619 9      2551.066 9        55.322 9  21928029.392 6         0.000 6      1987.845 6        37.977 6
> 2019 07 03 12 01 33.0000000  0  8       0.000000000000
G07  25333194.795 9 133126791.201 9      2171.042 9        54.136 9  25333195.458 6         0.000 6      1691.722 6        37.977 6
G10  23786906.084 9 125000980.839 9      3524.708 9        54.678 9  23786909.788 6         0.000 6      2746.528 6        37.977 6
G21  21178873.291 9 111295709.629 9     -1263.221 9        55.706 9  21178872.578 6         0.000 6      -984.328 6        37.977 6
G29  24319597.748 9 127800292.014 9     -3122.934 9        54.468 9  24319599.343 6         0.000 6     -2433.457 6        37.977 6
G27  21988832.551 9 115552068.057 9      2491.439 9        55.381 9  21988834.478 6         0.000 6      1941.382 6        37.977 6
G16  20493767.306 9 107695453.765 9       536.216 9        55.978 9  20493766.479 6         0.000 6       417.831 6        37.977 6
G26  20664064.563 9 108590369.867 9     -1502.488 9        55.869 9  20664067.384 6         0.000 6     -1170.771 6        37.977 6
G20  21927543.671 9 115229986.780 9      2550.620 9        55.322 9  21927543.983 6         0.000 6      1987.497 6        37.977 6
> 2019 07 03 12 01 34.0000000  0  8       0.000000000000
G07  25332781.704 9 133124620.396 9      2170.580 9        54.136 9  25332782.367 6         0.000 6      1691.362 6        37.977 6
G10  23786235.366 9 124997456.207 9      3524.567 9        54.678 9  23786239.071 6         0.000 6      2746.419 6        37.977 6
G21  21179113.707 9 111296973.027 9     -1263.580 9        55.706 9  21179112.995 6         0.000 6      -984.608 6        37.977 6
G29  24320192.030 9 127803414.980 9     -3123.018 9        54.468 9  24320193.626 6         0.000 6     -2433.523 6        37.977 6
G27  21988358.468 9 115549576.738 9      2491.201 9        55.381 9  21988360.395 6         0.000 6      1941.196 6        37.977 6
G16  20493665.326 9 107694917.854 9       535.599 9        55.978 9  20493664.499 6         0.000 6       417.350 6        37.977 6
G26  20664350.531 9 108591872.636 9     -1503.062 9        55.869 9  20664353.351 6         0.000 6     -1171.218 6        37.977 6
G20  21927058.345 9 115227436.383 9      2550.174 9        55.322 9  21927058.657 6         0.000 6      1987.150 6        37.977 6
> 2019 07 03 12 01 35.0000000  0  8       0.000000000000
G07  25332368.700 9 133122450.051 9      2170.118 9        54.137 9  25332369.363 6         0.000 6      1691.002 6        37.977 6
G10  23785564.677 9 124993931.721 9      3524.426 9        54.678 9  23785568.381 6         0.000 6      2746.309 6        37.977 6
G21  21179354.193 9 111298236.785 9     -1263.939 9        55.706 9  21179353.480 6         0.000 6      -984.888 6        37.977 6
G29  24320786.329 9 127806538.030 9     -3123.103 9        54.467 9  24320787.925 6         0.000 6     -2433.589 6        37.977 6
G27  21987884.431 9 115547085.659 9      2490.963 9        55.381 9  21987886.358 6         0.000 6      1941.011 6        37.977 6
G16  20493563.463 9 107694382.564 9       534.982 9        55.978 9  20493562.636 6         0.000 6       416.869 6        37.977 6
G26  20664636.609 9 108593375.983 9     -1503.636 9        55.869 9  20664639.429 6         0.000 6     -1171.665 6        37.977 6
G20  21926573.106 9 115224886.437 9      2549.727 9        55.322 9  21926573.417 6         0.000 6      1986.802 6        37.977 6
> 2019 07 03 12 01 36.0000000  0  8       0.000000000000
G07  25331955.785 9 133120280.170 9      2169.656 9        54.137 9  25331956.447 6         0.000 6      1690.642 6        37.977 6
G10  23784894.014 9 124990407.372 9      3524.285 9        54.678 9  23784897.716 6         0.000 6      2746.199 6        37.977 6
G21  21179594.746 9 111299500.900 9     -1264.298 9        55.706 9  21179594.033 6         0.000 6      -985.167 6        37.977 6
G29  24321380.644 9 127809661.165 9     -3123.188 9        54.467 9  24321382.241 6         0.000 6     -2433.655 6        37.977 6
G27  21987410.439 9 115544594.816 9      2490.725 9        55.381 9  21987412.366 6         0.000 6      1940.825 6        37.977 6
G16  20493461.718 9 107693847.888 9       534.364 9        55.978 9  20493460.891 6         0.000 6       416.388 6        37.977 6
G26  20664922.795 9 108594879.899 9     -1504.209 9        55.869 9  20664925.615 6         0.000 6     -1172.112 6        37.977 6
G20  21926087.951 9 115222336.933 9      2549.281 9        55.323 9  21926088.262 6         0.000 6      1986.454 6        37.977 6
> 2019 07 03 12 01 37.0000000  0  8       0.000000000000
G07  25331542.958 9 133118110.751 9      2169.194 9        54.137 9  25331543.619 6         0.000 6      1690.282 6        37.977 6
G10  23784223.377 9 124986883.165 9      3524.144 9        54.679 9  23784227.080 6         0.000 6      2746.089 6        37.977 6
G21  21179835.368 9 111300765.375 9     -1264.656 9        55.706 9  21179834.655 6         0.000 6      -985.447 6        37.977 6
G29  24321974.974 9 127812784.380 9     -3123.273 9        54.467 9  24321976.571 6         0.000 6     -2433.721 6        37.977 6
G27  21986936.493 9 115542104.216 9      2490.487 9        55.381 9  21986938.420 6         0.000 6      1940.640 6        37.977 6
G16  20493360.091 9 107693313.834 9       533.747 9        55.978 9  20493359.264 6         0.000 6       415.907 6        37.977 6
G26  20665209.091 9 108596384.392 9     -1504.783 9        55.869 9  20665211.911 6         0.000 6     -1172.558 6        37.977 6
G20  21925602.881 9 115219787.877 9      2548.834 9        55.323 9  21925603.192 6         0.000 6      1986.106 6        37.977 6
> 2019 07 03 12 01 38.0000000  0  8       0.000000000000
G07  25331130.218 9 133115941.794 9      2168.732 9        54.137 9  25331130.880 6         0.000 6      1689.922 6        37.977 6
G10  23783552.768 9 124983359.097 9      3524.003 9        54.679 9  23783556.469 6         0.000 6      2745.979 6        37.977 6
G21  21180076.058 9 111302030.207 9     -1265.015 9        55.705 9  21180075.345 6         0.000 6      -985.726 6        37.977 6
G29  24322569.321 9 127815907.684 9     -3123.357 9        54.467 9  24322570.919 6         0.000 6     -2433.787 6        37.977 6
G27  21986462.591 9 115539613.850 9      2490.248 9        55.381 9  21986464.518 6         0.000 6      1940.454 6        37.977 6
G16  20493258.580 9 107692780.393 9       533.129 9        55.978 9  20493257.753 6         0.000 6       415.425 6        37.977 6
G26  20665495.495 9 108597889.455 9     -1505.356 9        55.868 9  20665498.316 6         0.000 6     -1173.005 6        37.977 6
G20  21925117.895 9 115217239.267 9      2548.387 9        55.323 9  21925118.206 6         0.000 6      1985.757 6        37.977 6
> 2019 07 03 12 01 39.0000000  0  8       0.000000000000
G07  25330717.566 9 133113773.296 9      2168.270 9        54.137 9  25330718.227 6         0.000 6      1689.562 6        37.977 6
G10  23782882.186 9 124979835.175 9      3523.862 9        54.679 9  23782885.886 6         0.000 6      2745.869 6        37.977 6
G21  21180316.816 9 111303295.401 9     -1265.374 9        55.705 9  21180316.103 6         0.000 6      -986.006 6        37.977 6
G29  24323163.684 9 127819031.074 9     -3123.442 9        54.467 9  24323165.283 6         0.000 6     -2433.853 6        37.977 6
G27  21985988.736 9 115537123.723 9      2490.010 9        55.382 9  21985990.662 6         0.000 6      1940.268 6        37.977 6
G16  20493157.188 9 107692247.572 9       532.512 9        55.978 9  20493156.361 6         0.000 6       414.944 6        37.977 6
G26  20665782.010 9 108599395.097 9     -1505.930 9        55.868 9  20665784.830 6         0.000 6     -1173.452 6        37.977 6
G20  21924632.996 9 115214691.108 9      2547.940 9        55.323 9  21924633.306 6         0.000 6      1985.409 6        37.977 6
> 2019 07 03 12 01 40.0000000  0  8       0.000000000000
G07  25330305.002 9 133111605.261 9      2167.808 9        54.137 9  25330305.663 6         0.000 6      1689.202 6        37.977 6
G10  23782211.630 9 124976311.395 9      3523.721 9        54.679 9  23782215.331 6         0.000 6      2745.759 6        37.977 6
G21  21180557.643 9 111304560.954 9     -1265.733 9        55.705 9  21180556.930 6         0.000 6      -986.285 6        37.977 6
G29  24323758.063 9 127822154.547 9     -3123.527 9        54.466 9  24323759.663 6         0.000 6     -2433.919 6        37.977 6
G27  21985514.925 9 115534633.835 9      2489.772 9        55.382 9  21985516.851 6         0.000 6      1940.083 6        37.977 6
G16  20493055.913 9 107691715.370 9       531.894 9        55.978 9  20493055.086 6         0.000 6       414.463 6        37.977 6
G26  20666068.633 9 108600901.311 9     -1506.503 9        55.868 9  20666071.454 6         0.000 6     -1173.899 6        37.977 6
G20  21924148.181 9 115212143.395 9      2547.493 9        55.323 9  21924148.492 6         0.000 6      1985.061 6        37.977 6
> 2019 07 03 12 01 41.0000000  0  8       0.000000000000
G07  25329892.526 9 133109437.690 9      2167.345 9        54.137 9  25329893.187 6         0.000 6      1688.842 6        37.977 6
G10  23781541.101 9 124972787.751 9      3523.579 9        54.680 9  23781544.801 6         0.000 6      2745.649 6        37.977 6
G21  21180798.537 9 111305826.862 9     -1266.091 9        55.705 9  21180797.825 6         0.000 6      -986.565 6        37.977 6
G29  24324352.458 9 127825278.106 9     -3123.611 9        54.466 9  24324354.059 6         0.000 6     -2433.985 6        37.977 6
G27  21985041.160 9 115532144.183 9      2489.533 9        55.382 9  21985043.086 6         0.000 6      1939.897 6        37.977 6
G16  20492954.755 9 107691183.781 9       531.276 9        55.978 9  20492953.928 6         0.000 6       413.982 6        37.977 6
G26  20666355.365 9 108602408.094 9     -1507.077 9        55.868 9  20666358.186 6         0.000 6     -1174.346 6        37.977 6
G20  21923663.451 9 115209596.126 9      2547.046 9        55.324 9  21923663.761 6         0.000 6      1984.713 6        37.977 6
> 2019 07 03 12 01 42.0000000  0  8       0.000000000000
G07  25329480.138 9 133107270.580 9      2166.883 9        54.138 9  25329480.799 6         0.000 6      1688.481 6        37.977 6
G10  23780870.600 9 124969264.253 9      3523.438 9        54.680 9  23780874.299 6         0.000 6      2745.538 6        37.977 6
G21  21181039.501 9 111307093.132 9     -1266.450 9        55.705 9  21181038.788 6         0.000 6      -986.844 6        37.977 6
G29  24324946.870 9 127828401.749 9     -3123.696 9        54.466 9  24324948.471 6         0.000 6     -2434.051 6        37.977 6
G27  21984567.440 9 115529654.772 9      2489.295 9        55.382 9  21984569.366 6         0.000 6      1939.711 6        37.977 6
G16  20492853.715 9 107690652.814 9       530.659 9        55.978 9  20492852.889 6         0.000 6       413.500 6        37.977 6
G26  20666642.206 9 108603915.456 9     -1507.650 9        55.868 9  20666645.027 6         0.000 6     -1174.793 6        37.977 6
G20  21923178.807 9 115207049.308 9      2546.599 9        55.324 9  21923179.117 6         0.000 6      1984.364 6        37.977 6
> 2019 07 03 12 01 43.0000000  0  8       0.000000000000
G07  25329067.839 9 133105103.934 9      2166.421 9        54.138 9  25329068.499 6         0.000 6      1688.121 6        37.977 6
G10  23780200.125 9 124965740.892 9      3523.296 9        54.680 9  23780203.823 6         0.000 6      2745.428 6        37.977 6
G21  21181280.532 9 111308359.758 9     -1266.808 9        55.705 9  21181279.819 6         0.000 6      -987.123 6        37.977 6
G29  24325541.297 9 127831525.477 9     -3123.780 9        54.466 9  24325542.899 6         0.000 6     -2434.117 6        37.977 6
G27  21984093.765 9 115527165.597 9      2489.057 9        55.382 9  21984095.691 6         0.000 6      1939.525 6        37.977 6
G16  20492752.793 9 107690122.461 9       530.041 9        55.978 9  20492751.966 6         0.000 6       413.019 6        37.977 6
G26  20666929.156 9 108605423.386 9     -1508.223 9        55.868 9  20666931.977 6         0.000 6     -1175.239 6        37.977 6
G20  21922694.247 9 115204502.932 9      2546.152 9        55.324 9  21922694.557 6         0.000 6      1984.016 6        37.977 6
> 2019 07 03 12 01 44.0000000  0  8       0.000000000000
G07  25328655.627 9 133102937.748 9      2165.958 9        54.138 9  25328656.287 6         0.000 6      1687.760 6        37.977 6
G10  23779529.677 9 124962217.678 9      3523.154 9        54.680 9  23779533.375 6         0.000 6      2745.318 6        37.977 6
G21  21181521.631 9 111309626.744 9     -1267.166 9        55.705 9  21181520.919 6         0.000 6      -987.403 6        37.977 6
G29  24326135.741 9 127834649.289 9     -3123.865 9        54.465 9  24326137.344 6         0.000 6     -2434.183 6        37.977 6
G27  21983620.136 9 115524676.662 9      2488.818 9        55.383 9  21983622.062 6         0.000 6      1939.339 6        37.977 6
G16  20492651.988 9 107689592.729 9       529.423 9        55.979 9  20492651.161 6         0.000 6       412.537 6        37.977 6
G26  20667216.216 9 108606931.894 9     -1508.797 9        55.868 9  20667219.037 6         0.000 6     -1175.686 6        37.977 6
G20  21922209.773 9 115201957.009 9      2545.705 9        55.324 9  21922210.082 6         0.000 6      1983.667 6        37.977 6
> 2019 07 03 12 01 45.0000000  0  8       0.000000000000
G07  25328243.504 9 133100772.031 9      2165.495 9        54.138 9  25328244.164 6         0.000 6      1687.400 6        37.977 6
G10  23778859.255 9 124958694.598 9      3523.012 9        54.681 9  23778862.952 6         0.000 6      2745.207 6        37.977 6
G21  21181762.798 9 111310894.085 9     -1267.525 9        55.705 9  21181762.086 6         0.000 6      -987.682 6        37.977 6
G29  24326730.200 9 127837773.181 9     -3123.949 9        54.465 9  24326731.803 6         0.000 6     -2434.249 6        37.977 6
G27  21983146.553 9 115522187.968 9      2488.580 9        55.383 9  21983148.478 6         0.000 6      1939.154 6        37.977 6
G16  20492551.301 9 107689063.613 9       528.805 9        55.979 9  20492550.474 6         0.000 6       412.056 6        37.977 6
G26  20667503.384 9 108608440.970 9     -1509.370 9        55.868 9  20667506.206 6         0.000 6     -1176.133 6        37.977 6
G20  21921725.383 9 115199411.525 9      2545.257 9        55.324 9  21921725.692 6         0.000 6      1983.318 6        37.977 6
> 2019 07 03 12 01 46.0000000  0  8       0.000000000000
G07  25327831.467 9 133098606.770 9      2165.033 9        54.138 9  25327832.127 6         0.000 6      1687.039 6        37.977 6
G10  23778188.862 9 124955171.668 9      3522.870 9        54.681 9  23778192.558 6         0.000 6      2745.096 6        37.977 6
G21  21182004.034 9 111312161.788 9     -1267.883 9        55.705 9  21182003.322 6         0.000 6      -987.961 6        37.977 6
G29  24327324.676 9 127840897.162 9     -3124.034 9        54.465 9  24327326.279 6         0.000 6     -2434.315 6        37.977 6
G27  21982673.014 9 115519699.510 9      2488.341 9        55.383 9  21982674.940 6         0.000 6      1938.968 6        37.977 6
G16  20492450.731 9 107688535.116 9       528.187 9        55.979 9  20492449.904 6         0.000 6       411.575 6        37.977 6
G26  20667790.662 9 108609950.625 9     -1509.943 9        55.867 9  20667793.484 6         0.000 6     -1176.579 6        37.977 6
G20  21921241.079 9 115196866.496 9      2544.810 9        55.325 9  21921241.388 6         0.000 6      1982.970 6        37.977 6
> 2019 07 03 12 01 47.0000000  0  8       0.000000000000
G07  25327419.520 9 133096441.975 9      2164.570 9        54.138 9  25327420.180 6         0.000 6      1686.679 6        37.977 6
G10  23777518.495 9 124951648.874 9      3522.728 9        54.681 9  23777522.190 6         0.000 6      2744.986 6        37.977 6
G21  21182245.338 9 111313429.847 9     -1268.241 9        55.705 9  21182244.626 6         0.000 6      -988.240 6        37.977 6
G29  24327919.168 9 127844021.228 9     -3124.118 9        54.465 9  24327920.772 6         0.000 6     -2434.381 6        37.977 6
G27  21982199.521 9 115517211.289 9      2488.102 9        55.383 9  21982201.446 6         0.000 6      1938.782 6        37.977 6
G16  20492350.278 9 107688007.235 9       527.570 9        55.979 9  20492349.452 6         0.000 6       411.093 6        37.977 6
G26  20668078.048 9 108611460.848 9     -1510.516 9        55.867 9  20668080.870 6         0.000 6     -1177.026 6        37.977 6
G20  21920756.860 9 115194321.911 9      2544.362 9        55.325 9  21920757.168 6         0.000 6      1982.621 6        37.977 6
> 2019 07 03 12 01 48.0000000  0  8       0.000000000000
G07  25327007.660 9 133094277.641 9      2164.107 9        54.138 9  25327008.320 6         0.000 6      1686.318 6        37.977 6
G10  23776848.155 9 124948126.228 9      3522.586 9        54.681 9  23776851.850 6         0.000 6      2744.875 6        37.977 6
G21  21182486.710 9 111314698.267 9     -1268.600 9        55.704 9  21182485.998 6         0.000 6      -988.519 6        37.977 6
G29  24328513.676 9 127847145.379 9     -3124.203 9        54.465 9  24328515.281 6         0.000 6     -2434.446 6        37.977 6
G27  21981726.074 9 115514723.309 9      2487.864 9        55.383 9  21981727.999 6         0.000 6      1938.596 6        37.977 6
G16  20492249.944 9 107687479.974 9       526.952 9        55.979 9  20492249.117 6         0.000 6       410.612 6        37.977 6
G26  20668365.545 9 108612971.649 9     -1511.089 9        55.867 9  20668368.366 6         0.000 6     -1177.473 6        37.977 6
G20  21920272.726 9 115191777.777 9      2543.914 9        55.325 9  21920273.034 6         0.000 6      1982.272 6        37.977 6
> 2019 07 03 12 01 49.0000000  0  8       0.000000000000
G07  25326595.888 9 133092113.769 9      2163.644 9        54.139 9  25326596.548 6         0.000 6      1685.957 6        37.977 6
G10  23776177.843 9 124944603.723 9      3522.444 9        54.681 9  23776181.537 6         0.000 6      2744.764 6        37.977 6
G21  21182728.151 9 111315967.045 9     -1268.958 9        55.704 9  21182727.439 6         0.000 6      -988.798 6        37.977 6
G29  24329108.200 9 127850269.614 9     -3124.287 9        54.464 9  24329109.805 6         0.000 6     -2434.512 6        37.977 6
G27  21981252.672 9 115512235.567 9      2487.625 9        55.384 9  21981254.596 6         0.000 6      1938.410 6        37.977 6
G16  20492149.727 9 107686953.332 9       526.334 9        55.979 9  20492148.900 6         0.000 6       410.130 6        37.977 6
G26  20668653.150 9 108614483.023 9     -1511.663 9        55.867 9  20668655.972 6         0.000 6     -1177.919 6        37.977 6
G20  21919788.678 9 115189234.091 9      2543.466 9        55.325 9  21919788.986 6         0.000 6      1981.923 6        37.977 6
> 2019 07 03 12 01 50.0000000  0  8       0.000000000000
G07  25326184.205 9 133089950.362 9      2163.181 9        54.139 9  25326184.864 6         0.000 6      1685.596 6        37.977 6
G10  23775507.557 9 124941081.357 9      3522.301 9        54.682 9  23775511.251 6         0.000 6      2744.653 6        37.977 6
G21  21182969.659 9 111317236.178 9     -1269.316 9        55.704 9  21182968.947 6         0.000 6      -989.077 6        37.977 6
G29  24329702.740 9 127853393.933 9     -3124.372 9        54.464 9  24329704.346 6         0.000 6     -2434.578 6        37.977 6
G27  21980779.315 9 115509748.062 9      2487.387 9        55.384 9  21980781.239 6         0.000 6      1938.224 6        37.977 6
G16  20492049.628 9 107686427.304 9       525.716 9        55.979 9  20492048.801 6         0.000 6       409.649 6        37.977 6
G26  20668940.863 9 108615994.966 9     -1512.236 9        55.867 9  20668943.685 6         0.000 6     -1178.366 6        37.977 6
G20  21919304.714 9 115186690.849 9      2543.018 9        55.325 9  21919305.022 6         0.000 6      1981.574 6        37.977 6
> 2019 07 03 12 01 51.0000000  0  8       0.000000000000
G07  25325772.610 9 133087787.417 9      2162.718 9        54.139 9  25325773.268 6         0.000 6      1685.236 6        37.977 6
G10  23774837.299 9 124937559.137 9      3522.159 9        54.682 9  23774840.992 6         0.000 6      2744.542 6        37.977 6
G21  21183211.236 9 111318505.672 9     -1269.674 9        55.704 9  21183210.524 6         0.000 6      -989.356 6        37.977 6
G29  24330297.296 9 127856518.337 9     -3124.456 9        54.464 9  24330298.903 6         0.000 6     -2434.644 6        37.977 6
G27  21980306.004 9 115507260.797 9      2487.148 9        55.384 9  21980307.928 6         0.000 6      1938.038 6        37.977 6
G16  20491949.646 9 107685901.897 9       525.098 9        55.979 9  20491948.819 6         0.000 6       409.167 6        37.977 6
G26  20669228.687 9 108617507.486 9     -1512.809 9        55.867 9  20669231.509 6         0.000 6     -1178.812 6        37.977 6
G20  21918820.837 9 115184148.059 9      2542.570 9        55.325 9  21918821.144 6         0.000 6      1981.225 6        37.977 6
> 2019 07 03 12 01 52.0000000  0  8       0.000000000000
G07  25325361.103 9 133085624.937 9      2162.255 9        54.139 9  25325361.761 6         0.000 6      1684.875 6        37.977 6
G10  23774167.067 9 124934037.055 9      3522.016 9        54.682 9  23774170.759 6         0.000 6      2744.431 6        37.977 6
G21  21183452.880 9 111319775.522 9     -1270.032 9        55.704 9  21183452.168 6         0.000 6      -989.635 6        37.977 6
G29  24330891.869 9 127859642.825 9     -3124.541 9        54.464 9  24330893.476 6         0.000 6     -2434.710 6        37.977 6
G27  21979832.737 9 115504773.770 9      2486.909 9        55.384 9  21979834.662 6         0.000 6      1937.852 6        37.977 6
G16  20491849.781 9 107685377.105 9       524.480 9        55.979 9  20491848.955 6         0.000 6       408.685 6        37.977 6
G26  20669516.618 9 108619020.575 9     -1513.382 9        55.867 9  20669519.440 6         0.000 6     -1179.259 6        37.977 6
G20  21918337.044 9 115181605.713 9      2542.122 9        55.326 9  21918337.350 6         0.000 6      1980.876 6        37.977 6
> 2019 07 03 12 01 53.0000000  0  8       0.000000000000
G07  25324949.684 9 133083462.920 9      2161.791 9        54.139 9  25324950.342 6         0.000 6      1684.514 6        37.977 6
G10  23773496.863 9 124930515.118 9      3521.874 9        54.682 9  23773500.554 6         0.000 6      2744.320 6        37.977 6
G21  21183694.593 9 111321045.730 9     -1270.390 9        55.704 9  21183693.881 6         0.000 6      -989.914 6        37.977 6
G29  24331486.456 9 127862767.392 9     -3124.625 9        54.464 9  24331488.064 6         0.000 6     -2434.775 6        37.977 6
G27  21979359.518 9 115502286.986 9      2486.670 9        55.384 9  21979361.442 6         0.000 6      1937.666 6        37.977 6
G16  20491750.035 9 107684852.936 9       523.861 9        55.979 9  20491749.209 6         0.000 6       408.204 6        37.977 6
G26  20669804.660 9 108620534.241 9     -1513.955 9        55.867 9  20669807.482 6         0.000 6     -1179.705 6        37.977 6
G20  21917853.336 9 115179063.816 9      2541.674 9        55.326 9  21917853.642 6         0.000 6      1980.526 6        37.977 6
> 2019 07 03 12 01 54.0000000  0  8       0.000000000000
G07  25324538.353 9 133081301.366 9      2161.328 9        54.139 9  25324539.011 6         0.000 6      1684.153 6        37.977 6
G10  23772826.685 9 124926993.322 9      3521.731 9        54.683 9  23772830.376 6         0.000 6      2744.209 6        37.977 6
G21  21183936.374 9 111322316.295 9     -1270.747 9        55.704 9  21183935.662 6         0.000 6      -990.193 6        37.977 6
G29  24332081.060 9 127865892.049 9     -3124.709 9        54.463 9  24332082.669 6         0.000 6     -2434.841 6        37.977 6
G27  21978886.343 9 115499800.436 9      2486.431 9        55.384 9  21978888.266 6         0.000 6      1937.480 6        37.977 6
G16  20491650.406 9 107684329.381 9       523.243 9        55.979 9  20491649.579 6         0.000 6       407.722 6        37.977 6
G26  20670092.809 9 108622048.475 9     -1514.528 9        55.867 9  20670095.632 6         0.000 6     -1180.152 6        37.977 6
G20  21917369.713 9 115176522.366 9      2541.226 9        55.326 9  21917370.019 6         0.000 6      1980.177 6        37.977 6
> 2019 07 03 12 01 55.0000000  0  8       0.000000000000
G07  25324127.110 9 133079140.274 9      2160.865 9        54.139 9  25324127.768 6         0.000 6      1683.792 6        37.977 6
G10  23772156.536 9 124923471.673 9      3521.588 9        54.683 9  23772160.226 6         0.000 6      2744.097 6        37.977 6
G21  21184178.223 9 111323587.220 9     -1271.105 9        55.704 9  21184177.511 6         0.000 6      -990.472 6        37.977 6
G29  24332675.681 9 127869016.790 9     -3124.794 9        54.463 9  24332677.290 6         0.000 6     -2434.907 6        37.977 6
G27  21978413.213 9 115497314.127 9      2486.193 9        55.385 9  21978415.137 6         0.000 6      1937.294 6        37.977 6
G16  20491550.895 9 107683806.447 9       522.625 9        55.979 9  20491550.068 6         0.000 6       407.240 6        37.977 6
G26  20670381.069 9 108623563.288 9     -1515.101 9        55.866 9  20670383.891 6         0.000 6     -1180.598 6        37.977 6
G20  21916886.177 9 115173981.369 9      2540.777 9        55.326 9  21916886.483 6         0.000 6      1979.828 6        37.977 6
> 2019 07 03 12 01 56.0000000  0  8       0.000000000000
G07  25323715.956 9 133076979.647 9      2160.401 9        54.140 9  25323716.614 6         0.000 6      1683.430 6        37.977 6
G10  23771486.413 9 124919950.163 9      3521.445 9        54.683 9  23771490.102 6         0.000 6      2743.986 6        37.977 6
G21  21184420.140 9 111324858.501 9     -1271.463 9        55.704 9  21184419.428 6         0.000 6      -990.750 6        37.977 6
G29  24333270.317 9 127872141.615 9     -3124.878 9        54.463 9  24333271.927 6         0.000 6     -2434.972 6        37.977 6
G27  21977940.129 9 115494828.055 9      2485.954 9        55.385 9  21977942.052 6         0.000 6      1937.107 6        37.977 6
G16  20491451.501 9 107683284.127 9       522.007 9        55.979 9  20491450.674 6         0.000 6       406.759 6        37.977 6
G26  20670669.436 9 108625078.668 9     -1515.673 9        55.866 9  20670672.259 6         0.000 6     -1181.045 6        37.977 6
G20  21916402.725 9 115171440.816 9      2540.329 9        55.326 9  21916403.030 6         0.000 6      1979.478 6        37.977 6
> 2019 07 03 12 01 57.0000000  0  8       0.000000000000
G07  25323304.889 9 133074819.481 9      2159.938 9        54.140 9  25323305.547 6         0.000 6      1683.069 6        37.977 6
G10  23770816.317 9 124916428.800 9      3521.302 9        54.683 9  23770820.007 6         0.000 6      2743.874 6        37.977 6
G21  21184662.125 9 111326130.142 9     -1271.821 9        55.704 9  21184661.414 6         0.000 6      -991.029 6        37.977 6
G29  24333864.970 9 127875266.525 9     -3124.962 9        54.463 9  24333866.580 6         0.000 6     -2435.038 6        37.977 6
G27  21977467.090 9 115492342.223 9      2485.715 9        55.385 9  21977469.014 6         0.000 6      1936.921 6        37.977 6
G16  20491352.225 9 107682762.430 9       521.389 9        55.979 9  20491351.398 6         0.000 6       406.277 6        37.977 6
G26  20670957.914 9 108626594.626 9     -1516.246 9        55.866 9  20670960.737 6         0.000 6     -1181.491 6        37.977 6
G20  21915919.359 9 115168900.716 9      2539.880 9        55.327 9  21915919.664 6         0.000 6      1979.129 6        37.977 6
> 2019 07 03 12 01 58.0000000  0  8       0.000000000000
G07  25322893.912 9 133072659.781 9      2159.474 9        54.140 9  25322894.569 6         0.000 6      1682.708 6        37.977 6
G10  23770146.249 9 124912907.576 9      3521.159 9        54.684 9  23770149.937 6         0.000 6      2743.763 6        37.977 6
G21  21184904.178 9 111327402.139 9     -1272.178 9        55.703 9  21184903.467 6         0.000 6      -991.308 6        37.977 6
G29  24334459.638 9 127878391.519 9     -3125.046 9        54.463 9  24334461.250 6         0.000 6     -2435.104 6        37.977 6
G27  21976994.097 9 115489856.629 9      2485.476 9        55.385 9  21976996.020 6         0.000 6      1936.735 6        37.977 6
G16  20491253.067 9 107682241.347 9       520.770 9        55.979 9  20491252.240 6         0.000 6       405.795 6        37.977 6
G26  20671246.500 9 108628111.152 9     -1516.819 9        55.866 9  20671249.323 6         0.000 6     -1181.937 6        37.977 6
G20  21915436.077 9 115166361.060 9      2539.432 9        55.327 9  21915436.383 6         0.000 6      1978.779 6        37.977 6
> 2019 07 03 12 01 59.0000000  0  8       0.000000000000
G07  25322483.021 9 133070500.543 9      2159.010 9        54.140 9  25322483.679 6         0.000 6      1682.346 6        37.977 6
G10  23769476.208 9 124909386.500 9      3521.015 9        54.684 9  23769479.896 6         0.000 6      2743.651 6        37.977 6
G21  21185146.300 9 111328674.495 9     -1272.536 9        55.703 9  21185145.588 6         0.000 6      -991.586 6        37.977 6
G29  24335054.323 9 127881516.597 9     -3125.131 9        54.462 9  24335055.935 6         0.000 6     -2435.169 6        37.977 6
G27  21976521.149 9 115487371.275 9      2485.237 9        55.385 9  21976523.072 6         0.000 6      1936.549 6        37.977 6
G16  20491154.026 9 107681720.886 9       520.152 9        55.979 9  20491153.199 6         0.000 6       405.313 6        37.977 6
G26  20671535.195 9 108629628.256 9     -1517.392 9        55.866 9  20671538.018 6         0.000 6     -1182.384 6        37.977 6
G20  21914952.882 9 115163821.857 9      2538.983 9        55.327 9  21914953.187 6         0.000 6      1978.429 6        37.977 6
> 2019 07 03 12 02  0.0000000  0  8       0.000000000000
G07  25322072.220 9 133068341.769 9      2158.546 9        54.140 9  25322072.877 6         0.000 6      1681.985 6        37.977 6
G10  23768806.195 9 124905865.565 9      3520.872 9        54.684 9  23768809.882 6         0.000 6      2743.539 6        37.977 6
G21  21185388.489 9 111329947.208 9     -1272.893 9        55.703 9  21185387.777 6         0.000 6      -991.865 6        37.977 6
G29  24335649.023 9 127884641.758 9     -3125.215 9        54.462 9  24335650.636 6         0.000 6     -2435.235 6        37.977 6
G27  21976048.247 9 115484886.162 9      2484.998 9        55.386 9  21976050.170 6         0.000 6      1936.362 6        37.977 6
G16  20491055.103 9 107681201.043 9       519.533 9        55.979 9  20491054.276 6         0.000 6       404.831 6        37.977 6
G26  20671824.000 9 108631145.931 9     -1517.965 9        55.866 9  20671826.823 6         0.000 6     -1182.830 6        37.977 6
G20  21914469.772 9 115161283.101 9      2538.534 9        55.327 9  21914470.077 6         0.000 6      1978.080 6        37.977 6
