     3.00           Observation Data    M (Mixed)           RINEX VERSION / TYPE
SimGEN V6.06.00     Spirent             03-Jul-19 12:00     PGM / RUN BY / DATE 
                                                            MARKER NAME         
1                                                           MARKER NUMBER       
GROUND_CRAFT                                                MARKER TYPE         
jin4hi              Spirent                                 OBSERVER / AGENCY   
rec_num             rec_type            rec_vers            REC # / TYPE / VERS 
1                   ant_type                                ANT # / TYPE        
  1000.000                                                  INTERVAL            
  2019     7     3    12     0    1.0000000     GPS         TIME OF FIRST OBS   
  4162638.1110   664396.8620  4770563.1800                  APPROX POSITION XYZ 
        0.0000        0.0000        0.0000                  ANTENNA: DELTA H/E/N
G    8 C1C L1C D1C S1C C2C L2C D2C S2C                      SYS / # / OBS TYPES 
        0.0000        0.0000        0.0000                  ANTENNA: DELTA X/Y/Z
DBHZ                                                        SIGNAL STRENGTH UNIT
                                                            END OF HEADER       
> 2019 07 03 12 00  1.0000000  0  8       0.000000000000
G07  25371555.299 9 133328376.678 9      2213.137 9        54.123 9  25371555.982 6         0.000 6      1724.522 6        37.977 6
G10  23848741.863 9 125325929.071 9      3537.190 9        54.655 9  23848745.629 6         0.000 6      2756.252 6        37.977 6
G21  21157045.980 9 111181006.400 9     -1229.947 9        55.715 9  21157045.263 6         0.000 6      -958.400 6        37.977 6
G29  24264993.670 9 127513346.585 9     -3115.016 9        54.487 9  24264995.208 6         0.000 6     -2427.285 6        37.977 6
G27  22032636.654 9 115782259.921 9      2513.182 9        55.363 9  22032638.596 6         0.000 6      1958.324 6        37.977 6
G16  20503649.622 9 107747385.682 9       592.834 9        55.974 9  20503648.795 6         0.000 6       461.948 6        37.977 6
G26  20638231.525 9 108454616.495 9     -1449.577 9        55.880 9  20638234.335 6         0.000 6     -1129.540 6        37.977 6
G20  21972566.871 9 115466584.878 9      2591.291 9        55.304 9  21972567.209 6         0.000 6      2019.187 6        37.977 6
> 2019 07 03 12 00  2.0000000  0  8       0.000000000000
G07  25371134.186 9 133326163.720 9      2212.738 9        54.123 9  25371134.869 6         0.000 6      1724.212 6        37.977 6
G10  23848068.767 9 125322391.935 9      3537.077 9        54.655 9  23848072.531 6         0.000 6      2756.167 6        37.977 6
G21  21157280.065 9 111182236.527 9     -1230.312 9        55.715 9  21157279.348 6         0.000 6      -958.685 6        37.977 6
G29  24265586.451 9 127516461.661 9     -3115.129 9        54.487 9  24265587.989 6         0.000 6     -2427.376 6        37.977 6
G27  22032158.432 9 115779746.852 9      2512.952 9        55.363 9  22032160.375 6         0.000 6      1958.145 6        37.977 6
G16  20503536.867 9 107746793.151 9       592.220 9        55.974 9  20503536.040 6         0.000 6       461.470 6        37.977 6
G26  20638507.425 9 108456066.356 9     -1450.155 9        55.880 9  20638510.235 6         0.000 6     -1129.991 6        37.977 6
G20  21972073.805 9 115463993.802 9      2590.858 9        55.305 9  21972074.142 6         0.000 6      2018.852 6        37.977 6
> 2019 07 03 12 00  3.0000000  0  8       0.000000000000
G07  25370713.160 9 133323951.213 9      2212.283 9        54.123 9  25370713.842 6         0.000 6      1723.858 6        37.977 6
G10  23847395.696 9 125318854.934 9      3536.946 9        54.656 9  23847399.460 6         0.000 6      2756.065 6        37.977 6
G21  21157514.220 9 111183467.020 9     -1230.676 9        55.715 9  21157513.504 6         0.000 6      -958.968 6        37.977 6
G29  24266179.249 9 127519576.824 9     -3115.216 9        54.487 9  24266180.788 6         0.000 6     -2427.444 6        37.977 6
G27  22031680.256 9 115777234.020 9      2512.717 9        55.364 9  22031682.198 6         0.000 6      1957.962 6        37.977 6
G16  20503424.230 9 107746201.238 9       591.607 9        55.974 9  20503423.403 6         0.000 6       460.992 6        37.977 6
G26  20638783.435 9 108457516.797 9     -1450.732 9        55.880 9  20638786.245 6         0.000 6     -1130.441 6        37.977 6
G20  21971580.822 9 115461403.167 9      2590.420 9        55.305 9  21971581.160 6         0.000 6      2018.510 6        37.977 6
> 2019 07 03 12 00  4.0000000  0  8       0.000000000000
G07  25370292.220 9 133321739.161 9      2211.828 9        54.124 9  25370292.902 6         0.000 6      1723.503 6        37.977 6
G10  23846722.650 9 125315318.064 9      3536.815 9        54.656 9  23846726.413 6         0.000 6      2755.962 6        37.977 6
G21  21157748.445 9 111184697.877 9     -1231.040 9        55.715 9  21157747.728 6         0.000 6      -959.252 6        37.977 6
G29  24266772.063 9 127522692.074 9     -3115.303 9        54.487 9  24266773.603 6         0.000 6     -2427.512 6        37.977 6
G27  22031202.124 9 115774721.423 9      2512.483 9        55.364 9  22031204.066 6         0.000 6      1957.779 6        37.977 6
G16  20503311.709 9 107745609.938 9       590.993 9        55.974 9  20503310.882 6         0.000 6       460.514 6        37.977 6
G26  20639059.555 9 108458967.816 9     -1451.309 9        55.880 9  20639062.365 6         0.000 6     -1130.890 6        37.977 6
G20  21971087.924 9 115458812.970 9      2589.982 9        55.305 9  21971088.260 6         0.000 6      2018.169 6        37.977 6
> 2019 07 03 12 00  5.0000000  0  8       0.000000000000
G07  25369871.366 9 133319527.567 9      2211.373 9        54.124 9  25369872.049 6         0.000 6      1723.149 6        37.977 6
G10  23846049.628 9 125311781.321 9      3536.684 9        54.656 9  23846053.390 6         0.000 6      2755.860 6        37.977 6
G21  21157982.738 9 111185929.096 9     -1231.404 9        55.715 9  21157982.021 6         0.000 6      -959.536 6        37.977 6
G29  24267364.894 9 127525807.410 9     -3115.390 9        54.486 9  24267366.434 6         0.000 6     -2427.579 6        37.977 6
G27  22030724.036 9 115772209.058 9      2512.248 9        55.364 9  22030725.978 6         0.000 6      1957.597 6        37.977 6
G16  20503199.305 9 107745019.249 9       590.379 9        55.974 9  20503198.478 6         0.000 6       460.036 6        37.977 6
G26  20639335.784 9 108460419.406 9     -1451.885 9        55.879 9  20639338.594 6         0.000 6     -1131.340 6        37.977 6
G20  21970595.107 9 115456223.207 9      2589.544 9        55.305 9  21970595.444 6         0.000 6      2017.828 6        37.977 6
> 2019 07 03 12 00  6.0000000  0  8       0.000000000000
G07  25369450.599 9 133317316.425 9      2210.918 9        54.124 9  25369451.281 6         0.000 6      1722.794 6        37.977 6
G10  23845376.632 9 125308244.714 9      3536.552 9        54.656 9  23845380.394 6         0.000 6      2755.758 6        37.977 6
G21  21158217.101 9 111187160.681 9     -1231.768 9        55.714 9  21158216.384 6         0.000 6      -959.819 6        37.977 6
G29  24267957.741 9 127528922.833 9     -3115.477 9        54.486 9  24267959.282 6         0.000 6     -2427.647 6        37.977 6
G27  22030245.993 9 115769696.931 9      2512.013 9        55.364 9  22030247.935 6         0.000 6      1957.414 6        37.977 6
G16  20503087.018 9 107744429.177 9       589.765 9        55.974 9  20503086.191 6         0.000 6       459.557 6        37.977 6
G26  20639612.123 9 108461871.578 9     -1452.462 9        55.879 9  20639614.934 6         0.000 6     -1131.789 6        37.977 6
G20  21970102.375 9 115453633.887 9      2589.106 9        55.305 9  21970102.711 6         0.000 6      2017.487 6        37.977 6
> 2019 07 03 12 00  7.0000000  0  8       0.000000000000
G07  25369029.920 9 133315105.741 9      2210.463 9        54.124 9  25369030.601 6         0.000 6      1722.440 6        37.977 6
G10  23844703.660 9 125304708.234 9      3536.421 9        54.656 9  23844707.421 6         0.000 6      2755.655 6        37.977 6
G21  21158451.533 9 111188392.627 9     -1232.132 9        55.714 9  21158450.816 6         0.000 6      -960.103 6        37.977 6
G29  24268550.605 9 127532038.344 9     -3115.564 9        54.486 9  24268552.146 6         0.000 6     -2427.714 6        37.977 6
G27  22029767.995 9 115767185.036 9      2511.778 9        55.364 9  22029769.937 6         0.000 6      1957.231 6        37.977 6
G16  20502974.847 9 107743839.716 9       589.151 9        55.974 9  20502974.020 6         0.000 6       459.079 6        37.977 6
G26  20639888.571 9 108463324.322 9     -1453.039 9        55.879 9  20639891.382 6         0.000 6     -1132.238 6        37.977 6
G20  21969609.725 9 115451045.000 9      2588.668 9        55.306 9  21969610.061 6         0.000 6      2017.145 6        37.977 6
> 2019 07 03 12 00  8.0000000  0  8       0.000000000000
G07  25368609.326 9 133312895.509 9      2210.008 9        54.124 9  25368610.007 6         0.000 6      1722.085 6        37.977 6
G10  23844030.714 9 125301171.890 9      3536.289 9        54.657 9  23844034.475 6         0.000 6      2755.552 6        37.977 6
G21  21158686.034 9 111189624.940 9     -1232.495 9        55.714 9  21158685.318 6         0.000 6      -960.386 6        37.977 6
G29  24269143.485 9 127535153.940 9     -3115.650 9        54.486 9  24269145.027 6         0.000 6     -2427.782 6        37.977 6
G27  22029290.042 9 115764673.377 9      2511.544 9        55.365 9  22029291.984 6         0.000 6      1957.048 6        37.977 6
G16  20502862.794 9 107743250.872 9       588.537 9        55.974 9  20502861.967 6         0.000 6       458.600 6        37.977 6
G26  20640165.130 9 108464777.647 9     -1453.615 9        55.879 9  20640167.941 6         0.000 6     -1132.688 6        37.977 6
G20  21969117.160 9 115448456.555 9      2588.230 9        55.306 9  21969117.496 6         0.000 6      2016.804 6        37.977 6
> 2019 07 03 12 00  9.0000000  0  8       0.000000000000
G07  25368188.819 9 133310685.738 9      2209.553 9        54.124 9  25368189.501 6         0.000 6      1721.730 6        37.977 6
G10  23843357.792 9 125297635.671 9      3536.157 9        54.657 9  23843361.552 6         0.000 6      2755.450 6        37.977 6
G21  21158920.604 9 111190857.612 9     -1232.859 9        55.714 9  21158919.888 6         0.000 6      -960.670 6        37.977 6
G29  24269736.381 9 127538269.619 9     -3115.737 9        54.486 9  24269737.924 6         0.000 6     -2427.850 6        37.977 6
G27  22028812.134 9 115762161.956 9      2511.309 9        55.365 9  22028814.075 6         0.000 6      1956.865 6        37.977 6
G16  20502750.857 9 107742662.640 9       587.923 9        55.974 9  20502750.030 6         0.000 6       458.122 6        37.977 6
G26  20640441.798 9 108466231.544 9     -1454.192 9        55.879 9  20640444.609 6         0.000 6     -1133.137 6        37.977 6
G20  21968624.676 9 115445868.542 9      2587.792 9        55.306 9  21968625.012 6         0.000 6      2016.462 6        37.977 6
> 2019 07 03 12 00 10.0000000  0  8       0.000000000000
G07  25367768.399 9 133308476.416 9      2209.097 9        54.124 9  25367769.080 6         0.000 6      1721.376 6        37.977 6
G10  23842684.896 9 125294099.591 9      3536.025 9        54.657 9  23842688.655 6         0.000 6      2755.347 6        37.977 6
G21  21159155.244 9 111192090.652 9     -1233.223 9        55.714 9  21159154.528 6         0.000 6      -960.953 6        37.977 6
G29  24270329.294 9 127541385.389 9     -3115.824 9        54.485 9  24270330.837 6         0.000 6     -2427.917 6        37.977 6
G27  22028334.270 9 115759650.767 9      2511.074 9        55.365 9  22028336.211 6         0.000 6      1956.681 6        37.977 6
G16  20502639.037 9 107742075.024 9       587.309 9        55.974 9  20502638.210 6         0.000 6       457.643 6        37.977 6
G26  20640718.576 9 108467686.022 9     -1454.768 9        55.879 9  20640721.387 6         0.000 6     -1133.586 6        37.977 6
G20  21968132.278 9 115443280.974 9      2587.353 9        55.306 9  21968132.613 6         0.000 6      2016.120 6        37.977 6
> 2019 07 03 12 00 11.0000000  0  8       0.000000000000
G07  25367348.065 9 133306267.553 9      2208.642 9        54.125 9  25367348.746 6         0.000 6      1721.021 6        37.977 6
G10  23842012.025 9 125290563.638 9      3535.893 9        54.657 9  23842015.783 6         0.000 6      2755.244 6        37.977 6
G21  21159389.953 9 111193324.054 9     -1233.586 9        55.714 9  21159389.236 6         0.000 6      -961.236 6        37.977 6
G29  24270922.224 9 127544501.246 9     -3115.911 9        54.485 9  24270923.768 6         0.000 6     -2427.985 6        37.977 6
G27  22027856.451 9 115757139.812 9      2510.839 9        55.365 9  22027858.392 6         0.000 6      1956.498 6        37.977 6
G16  20502527.334 9 107741488.019 9       586.695 9        55.974 9  20502526.507 6         0.000 6       457.165 6        37.977 6
G26  20640995.463 9 108469141.072 9     -1455.345 9        55.879 9  20640998.275 6         0.000 6     -1134.035 6        37.977 6
G20  21967639.962 9 115440693.840 9      2586.915 9        55.306 9  21967640.297 6         0.000 6      2015.779 6        37.977 6
> 2019 07 03 12 00 12.0000000  0  8       0.000000000000
G07  25366927.818 9 133304059.142 9      2208.187 9        54.125 9  25366928.499 6         0.000 6      1720.666 6        37.977 6
G10  23841339.179 9 125287027.822 9      3535.761 9        54.658 9  23841342.937 6         0.000 6      2755.141 6        37.977 6
G21  21159624.731 9 111194557.821 9     -1233.950 9        55.714 9  21159624.014 6         0.000 6      -961.520 6        37.977 6
G29  24271515.170 9 127547617.190 9     -3115.997 9        54.485 9  24271516.715 6         0.000 6     -2428.052 6        37.977 6
G27  22027378.676 9 115754629.094 9      2510.604 9        55.365 9  22027380.617 6         0.000 6      1956.315 6        37.977 6
G16  20502415.748 9 107740901.631 9       586.081 9        55.974 9  20502414.921 6         0.000 6       456.686 6        37.977 6
G26  20641272.461 9 108470596.704 9     -1455.921 9        55.879 9  20641275.273 6         0.000 6     -1134.485 6        37.977 6
G20  21967147.730 9 115438107.150 9      2586.476 9        55.306 9  21967148.065 6         0.000 6      2015.437 6        37.977 6
> 2019 07 03 12 00 13.0000000  0  8       0.000000000000
G07  25366507.658 9 133301851.187 9      2207.731 9        54.125 9  25366508.338 6         0.000 6      1720.311 6        37.977 6
G10  23840666.359 9 125283492.137 9      3535.629 9        54.658 9  23840670.116 6         0.000 6      2755.038 6        37.977 6
G21  21159859.578 9 111195791.952 9     -1234.313 9        55.714 9  21159858.862 6         0.000 6      -961.803 6        37.977 6
G29  24272108.133 9 127550733.221 9     -3116.084 9        54.485 9  24272109.678 6         0.000 6     -2428.120 6        37.977 6
G27  22026900.947 9 115752118.610 9      2510.369 9        55.365 9  22026902.887 6         0.000 6      1956.132 6        37.977 6
G16  20502304.279 9 107740315.857 9       585.467 9        55.974 9  20502303.452 6         0.000 6       456.208 6        37.977 6
G26  20641549.569 9 108472052.911 9     -1456.498 9        55.878 9  20641552.380 6         0.000 6     -1134.934 6        37.977 6
G20  21966655.582 9 115435520.898 9      2586.037 9        55.307 9  21966655.916 6         0.000 6      2015.095 6        37.977 6
> 2019 07 03 12 00 14.0000000  0  8       0.000000000000
G07  25366087.584 9 133299643.690 9      2207.276 9        54.125 9  25366088.264 6         0.000 6      1719.956 6        37.977 6
G10  23839993.563 9 125279956.581 9      3535.497 9        54.658 9  23839997.319 6         0.000 6      2754.935 6        37.977 6
G21  21160094.494 9 111197026.444 9     -1234.677 9        55.714 9  21160093.778 6         0.000 6      -962.086 6        37.977 6
G29  24272701.112 9 127553849.338 9     -3116.170 9        54.485 9  24272702.658 6         0.000 6     -2428.187 6        37.977 6
G27  22026423.261 9 115749608.360 9      2510.134 9        55.366 9  22026425.202 6         0.000 6      1955.949 6        37.977 6
G16  20502192.926 9 107739730.694 9       584.852 9        55.974 9  20502192.099 6         0.000 6       455.729 6        37.977 6
G26  20641826.785 9 108473509.691 9     -1457.074 9        55.878 9  20641829.596 6         0.000 6     -1135.383 6        37.977 6
G20  21966163.516 9 115432935.080 9      2585.598 9        55.307 9  21966163.850 6         0.000 6      2014.753 6        37.977 6
> 2019 07 03 12 00 15.0000000  0  8       0.000000000000
G07  25365667.597 9 133297436.646 9      2206.820 9        54.125 9  25365668.277 6         0.000 6      1719.601 6        37.977 6
G10  23839320.792 9 125276421.161 9      3535.364 9        54.658 9  23839324.549 6         0.000 6      2754.832 6        37.977 6
G21  21160329.480 9 111198261.302 9     -1235.040 9        55.714 9  21160328.764 6         0.000 6      -962.369 6        37.977 6
G29  24273294.108 9 127556965.541 9     -3116.257 9        54.484 9  24273295.655 6         0.000 6     -2428.255 6        37.977 6
G27  22025945.621 9 115747098.347 9      2509.898 9        55.366 9  22025947.562 6         0.000 6      1955.766 6        37.977 6
G16  20502081.691 9 107739146.149 9       584.238 9        55.975 9  20502080.864 6         0.000 6       455.251 6        37.977 6
G26  20642104.112 9 108474967.051 9     -1457.650 9        55.878 9  20642106.923 6         0.000 6     -1135.832 6        37.977 6
G20  21965671.535 9 115430349.706 9      2585.159 9        55.307 9  21965671.869 6         0.000 6      2014.411 6        37.977 6
> 2019 07 03 12 00 16.0000000  0  8       0.000000000000
G07  25365247.697 9 133295230.060 9      2206.364 9        54.125 9  25365248.377 6         0.000 6      1719.246 6        37.977 6
G10  23838648.047 9 125272885.869 9      3535.232 9        54.659 9  23838651.802 6         0.000 6      2754.729 6        37.977 6
G21  21160564.535 9 111199496.520 9     -1235.404 9        55.713 9  21160563.818 6         0.000 6      -962.652 6        37.977 6
G29  24273887.120 9 127560081.831 9     -3116.344 9        54.484 9  24273888.667 6         0.000 6     -2428.322 6        37.977 6
G27  22025468.025 9 115744588.567 9      2509.663 9        55.366 9  22025469.966 6         0.000 6      1955.582 6        37.977 6
G16  20501970.572 9 107738562.215 9       583.624 9        55.975 9  20501969.745 6         0.000 6       454.772 6        37.977 6
G26  20642381.547 9 108476424.983 9     -1458.227 9        55.878 9  20642384.359 6         0.000 6     -1136.281 6        37.977 6
G20  21965179.636 9 115427764.766 9      2584.720 9        55.307 9  21965179.970 6         0.000 6      2014.069 6        37.977 6
> 2019 07 03 12 00 17.0000000  0  8       0.000000000000
G07  25364827.884 9 133293023.931 9      2205.908 9        54.125 9  25364828.563 6         0.000 6      1718.890 6        37.977 6
G10  23837975.327 9 125269350.712 9      3535.099 9        54.659 9  23837979.081 6         0.000 6      2754.625 6        37.977 6
G21  21160799.658 9 111200732.103 9     -1235.767 9        55.713 9  21160798.942 6         0.000 6      -962.935 6        37.977 6
G29  24274480.148 9 127563198.203 9     -3116.430 9        54.484 9  24274481.696 6         0.000 6     -2428.390 6        37.977 6
G27  22024990.476 9 115742079.028 9      2509.428 9        55.366 9  22024992.416 6         0.000 6      1955.399 6        37.977 6
G16  20501859.571 9 107737978.899 9       583.010 9        55.975 9  20501858.744 6         0.000 6       454.293 6        37.977 6
G26  20642659.093 9 108477883.496 9     -1458.803 9        55.878 9  20642661.905 6         0.000 6     -1136.730 6        37.977 6
G20  21964687.821 9 115425180.267 9      2584.281 9        55.307 9  21964688.155 6         0.000 6      2013.727 6        37.977 6
> 2019 07 03 12 00 18.0000000  0  8       0.000000000000
G07  25364408.157 9 133290818.257 9      2205.452 9        54.126 9  25364408.837 6         0.000 6      1718.535 6        37.977 6
G10  23837302.632 9 125265815.686 9      3534.966 9        54.659 9  23837306.386 6         0.000 6      2754.522 6        37.977 6
G21  21161034.851 9 111201968.048 9     -1236.130 9        55.713 9  21161034.135 6         0.000 6      -963.218 6        37.977 6
G29  24275073.193 9 127566314.667 9     -3116.517 9        54.484 9  24275074.742 6         0.000 6     -2428.457 6        37.977 6
G27  22024512.969 9 115739569.718 9      2509.193 9        55.366 9  22024514.909 6         0.000 6      1955.216 6        37.977 6
G16  20501748.685 9 107737396.194 9       582.395 9        55.975 9  20501747.859 6         0.000 6       453.814 6        37.977 6
G26  20642936.748 9 108479342.581 9     -1459.379 9        55.878 9  20642939.560 6         0.000 6     -1137.179 6        37.977 6
G20  21964196.090 9 115422596.205 9      2583.842 9        55.308 9  21964196.423 6         0.000 6      2013.385 6        37.977 6
> 2019 07 03 12 00 19.0000000  0  8       0.000000000000
G07  25363988.517 9 133288613.036 9      2204.996 9        54.126 9  25363989.196 6         0.000 6      1718.180 6        37.977 6
G10  23836629.962 9 125262280.797 9      3534.834 9        54.659 9  23836633.716 6         0.000 6      2754.419 6        37.977 6
G21  21161270.113 9 111203204.359 9     -1236.493 9        55.713 9  21161269.397 6         0.000 6      -963.501 6        37.977 6
G29  24275666.255 9 127569431.216 9     -3116.603 9        54.483 9  24275667.804 6         0.000 6     -2428.525 6        37.977 6
G27  22024035.508 9 115737060.645 9      2508.958 9        55.367 9  22024037.448 6         0.000 6      1955.033 6        37.977 6
G16  20501637.918 9 107736814.106 9       581.781 9        55.975 9  20501637.091 6         0.000 6       453.336 6        37.977 6
G26  20643214.514 9 108480802.247 9     -1459.956 9        55.878 9  20643217.326 6         0.000 6     -1137.628 6        37.977 6
G20  21963704.443 9 115420012.587 9      2583.403 9        55.308 9  21963704.776 6         0.000 6      2013.042 6        37.977 6
> 2019 07 03 12 00 20.0000000  0  8       0.000000000000
G07  25363568.964 9 133286408.274 9      2204.540 9        54.126 9  25363569.643 6         0.000 6      1717.825 6        37.977 6
G10  23835957.318 9 125258746.036 9      3534.701 9        54.660 9  23835961.070 6         0.000 6      2754.315 6        37.977 6
G21  21161505.444 9 111204441.031 9     -1236.856 9        55.713 9  21161504.728 6         0.000 6      -963.784 6        37.977 6
G29  24276259.333 9 127572547.853 9     -3116.690 9        54.483 9  24276260.883 6         0.000 6     -2428.592 6        37.977 6
G27  22023558.091 9 115734551.806 9      2508.722 9        55.367 9  22023560.031 6         0.000 6      1954.849 6        37.977 6
G16  20501527.266 9 107736232.629 9       581.166 9        55.975 9  20501526.440 6         0.000 6       452.857 6        37.977 6
G26  20643492.388 9 108482262.484 9     -1460.532 9        55.878 9  20643495.200 6         0.000 6     -1138.077 6        37.977 6
G20  21963212.879 9 115417429.405 9      2582.963 9        55.308 9  21963213.211 6         0.000 6      2012.700 6        37.977 6
> 2019 07 03 12 00 21.0000000  0  8       0.000000000000
G07  25363149.498 9 133284203.966 9      2204.084 9        54.126 9  25363150.176 6         0.000 6      1717.469 6        37.977 6
G10  23835284.699 9 125255211.412 9      3534.568 9        54.660 9  23835288.451 6         0.000 6      2754.211 6        37.977 6
G21  21161740.845 9 111205678.068 9     -1237.219 9        55.713 9  21161740.129 6         0.000 6      -964.067 6        37.977 6
G29  24276852.428 9 127575664.576 9     -3116.776 9        54.483 9  24276853.978 6         0.000 6     -2428.659 6        37.977 6
G27  22023080.720 9 115732043.205 9      2508.487 9        55.367 9  22023082.659 6         0.000 6      1954.666 6        37.977 6
G16  20501416.733 9 107735651.770 9       580.552 9        55.975 9  20501415.906 6         0.000 6       452.378 6        37.977 6
G26  20643770.373 9 108483723.302 9     -1461.108 9        55.878 9  20643773.185 6         0.000 6     -1138.526 6        37.977 6
G20  21962721.399 9 115414846.665 9      2582.524 9        55.308 9  21962721.731 6         0.000 6      2012.357 6        37.977 6
> 2019 07 03 12 00 22.0000000  0  8       0.000000000000
G07  25362730.118 9 133282000.116 9      2203.628 9        54.126 9  25362730.797 6         0.000 6      1717.114 6        37.977 6
G10  23834612.105 9 125251676.918 9      3534.435 9        54.660 9  23834615.857 6         0.000 6      2754.108 6        37.977 6
G21  21161976.314 9 111206915.466 9     -1237.582 9        55.713 9  21161975.598 6         0.000 6      -964.350 6        37.977 6
G29  24277445.539 9 127578781.385 9     -3116.863 9        54.483 9  24277447.089 6         0.000 6     -2428.727 6        37.977 6
G27  22022603.393 9 115729534.836 9      2508.251 9        55.367 9  22022605.332 6         0.000 6      1954.482 6        37.977 6
G16  20501306.315 9 107735071.522 9       579.937 9        55.975 9  20501305.488 6         0.000 6       451.899 6        37.977 6
G26  20644048.466 9 108485184.691 9     -1461.684 9        55.877 9  20644051.279 6         0.000 6     -1138.975 6        37.977 6
G20  21962230.002 9 115412264.362 9      2582.084 9        55.308 9  21962230.334 6         0.000 6      2012.015 6        37.977 6
> 2019 07 03 12 00 23.0000000  0  8       0.000000000000
G07  25362310.825 9 133279796.720 9      2203.171 9        54.126 9  25362311.503 6         0.000 6      1716.758 6        37.977 6
G10  23833939.537 9 125248142.560 9      3534.301 9        54.660 9  23833943.288 6         0.000 6      2754.004 6        37.977 6
G21  21162211.852 9 111208153.229 9     -1237.945 9        55.713 9  21162211.136 6         0.000 6      -964.633 6        37.977 6
G29  24278038.666 9 127581898.281 9     -3116.949 9        54.483 9  24278040.218 6         0.000 6     -2428.794 6        37.977 6
G27  22022126.111 9 115727026.705 9      2508.016 9        55.367 9  22022128.050 6         0.000 6      1954.299 6        37.977 6
G16  20501196.015 9 107734491.892 9       579.323 9        55.975 9  20501195.188 6         0.000 6       451.420 6        37.977 6
G26  20644326.670 9 108486646.662 9     -1462.260 9        55.877 9  20644329.483 6         0.000 6     -1139.424 6        37.977 6
G20  21961738.690 9 115409682.502 9      2581.645 9        55.309 9  21961739.021 6         0.000 6      2011.672 6        37.977 6
> 2019 07 03 12 00 24.0000000  0  8       0.000000000000
G07  25361891.620 9 133277593.783 9      2202.715 9        54.126 9  25361892.297 6         0.000 6      1716.402 6        37.977 6
G10  23833266.994 9 125244608.334 9      3534.168 9        54.661 9  23833270.744 6         0.000 6      2753.900 6        37.977 6
G21  21162447.460 9 111209391.353 9     -1238.308 9        55.713 9  21162446.744 6         0.000 6      -964.916 6        37.977 6
G29  24278631.809 9 127585015.258 9     -3117.036 9        54.482 9  24278633.361 6         0.000 6     -2428.861 6        37.977 6
G27  22021648.874 9 115724518.813 9      2507.781 9        55.368 9  22021650.813 6         0.000 6      1954.115 6        37.977 6
G16  20501085.832 9 107733912.878 9       578.708 9        55.975 9  20501085.006 6         0.000 6       450.941 6        37.977 6
G26  20644604.984 9 108488109.208 9     -1462.836 9        55.877 9  20644607.796 6         0.000 6     -1139.873 6        37.977 6
G20  21961247.460 9 115407101.078 9      2581.205 9        55.309 9  21961247.791 6         0.000 6      2011.330 6        37.977 6
> 2019 07 03 12 00 25.0000000  0  8       0.000000000000
G07  25361472.501 9 133275391.302 9      2202.259 9        54.127 9  25361473.178 6         0.000 6      1716.047 6        37.977 6
G10  23832594.476 9 125241074.239 9      3534.035 9        54.661 9  23832598.226 6         0.000 6      2753.796 6        37.977 6
G21  21162683.136 9 111210629.839 9     -1238.671 9        55.713 9  21162682.420 6         0.000 6      -965.198 6        37.977 6
G29  24279224.969 9 127588132.327 9     -3117.122 9        54.482 9  24279226.522 6         0.000 6     -2428.929 6        37.977 6
G27  22021171.682 9 115722011.151 9      2507.545 9        55.368 9  22021173.620 6         0.000 6      1953.932 6        37.977 6
G16  20500975.766 9 107733334.474 9       578.093 9        55.975 9  20500974.939 6         0.000 6       450.462 6        37.977 6
G26  20644883.406 9 108489572.325 9     -1463.412 9        55.877 9  20644886.219 6         0.000 6     -1140.322 6        37.977 6
G20  21960756.314 9 115404520.094 9      2580.765 9        55.309 9  21960756.645 6         0.000 6      2010.987 6        37.977 6
> 2019 07 03 12 00 26.0000000  0  8       0.000000000000
G07  25361053.468 9 133273189.276 9      2201.802 9        54.127 9  25361054.146 6         0.000 6      1715.691 6        37.977 6
G10  23831921.985 9 125237540.282 9      3533.901 9        54.661 9  23831925.734 6         0.000 6      2753.692 6        37.977 6
G21  21162918.882 9 111211868.691 9     -1239.034 9        55.713 9  21162918.166 6         0.000 6      -965.481 6        37.977 6
G29  24279818.146 9 127591249.482 9     -3117.208 9        54.482 9  24279819.699 6         0.000 6     -2428.996 6        37.977 6
G27  22020694.534 9 115719503.727 9      2507.310 9        55.368 9  22020696.473 6         0.000 6      1953.748 6        37.977 6
G16  20500865.817 9 107732756.688 9       577.479 9        55.975 9  20500864.990 6         0.000 6       449.983 6        37.977 6
G26  20645161.939 9 108491036.024 9     -1463.988 9        55.877 9  20645164.752 6         0.000 6     -1140.770 6        37.977 6
G20  21960265.253 9 115401939.553 9      2580.325 9        55.309 9  21960265.584 6         0.000 6      2010.644 6        37.977 6
> 2019 07 03 12 00 27.0000000  0  8       0.000000000000
G07  25360634.523 9 133270987.708 9      2201.346 9        54.127 9  25360635.200 6         0.000 6      1715.335 6        37.977 6
G10  23831249.518 9 125234006.455 9      3533.767 9        54.661 9  23831253.266 6         0.000 6      2753.588 6        37.977 6
G21  21163154.696 9 111213107.903 9     -1239.396 9        55.712 9  21163153.980 6         0.000 6      -965.764 6        37.977 6
G29  24280411.339 9 127594366.723 9     -3117.295 9        54.482 9  24280412.893 6         0.000 6     -2429.063 6        37.977 6
G27  22020217.431 9 115716996.536 9      2507.074 9        55.368 9  22020219.369 6         0.000 6      1953.565 6        37.977 6
G16  20500755.984 9 107732179.514 9       576.864 9        55.975 9  20500755.157 6         0.000 6       449.504 6        37.977 6
G26  20645440.581 9 108492500.294 9     -1464.564 9        55.877 9  20645443.394 6         0.000 6     -1141.219 6        37.977 6
G20  21959774.274 9 115399359.449 9      2579.885 9        55.309 9  21959774.605 6         0.000 6      2010.301 6        37.977 6
> 2019 07 03 12 00 28.0000000  0  8       0.000000000000
G07  25360215.665 9 133268786.595 9      2200.889 9        54.127 9  25360216.342 6         0.000 6      1714.979 6        37.977 6
G10  23830577.077 9 125230472.765 9      3533.634 9        54.662 9  23830580.824 6         0.000 6      2753.483 6        37.977 6
G21  21163390.580 9 111214347.480 9     -1239.759 9        55.712 9  21163389.864 6         0.000 6      -966.046 6        37.977 6
G29  24281004.549 9 127597484.050 9     -3117.381 9        54.482 9  24281006.104 6         0.000 6     -2429.131 6        37.977 6
G27  22019740.373 9 115714489.582 9      2506.838 9        55.368 9  22019742.311 6         0.000 6      1953.381 6        37.977 6
G16  20500646.269 9 107731602.957 9       576.249 9        55.975 9  20500645.442 6         0.000 6       449.025 6        37.977 6
G26  20645719.333 9 108493965.144 9     -1465.140 9        55.877 9  20645722.146 6         0.000 6     -1141.668 6        37.977 6
G20  21959283.381 9 115396779.788 9      2579.445 9        55.310 9  21959283.711 6         0.000 6      2009.958 6        37.977 6
> 2019 07 03 12 00 29.0000000  0  8       0.000000000000
G07  25359796.893 9 133266585.940 9      2200.432 9        54.127 9  25359797.570 6         0.000 6      1714.623 6        37.977 6
G10  23829904.661 9 125226939.205 9      3533.500 9        54.662 9  23829908.407 6         0.000 6      2753.379 6        37.977 6
G21  21163626.532 9 111215587.417 9     -1240.122 9        55.712 9  21163625.817 6         0.000 6      -966.329 6        37.977 6
G29  24281597.775 9 127600601.464 9     -3117.467 9        54.481 9  24281599.330 6         0.000 6     -2429.198 6        37.977 6
G27  22019263.360 9 115711982.863 9      2506.603 9        55.368 9  22019265.298 6         0.000 6      1953.198 6        37.977 6
G16  20500536.670 9 107731027.012 9       575.634 9        55.975 9  20500535.844 6         0.000 6       448.546 6        37.977 6
G26  20645998.194 9 108495430.565 9     -1465.716 9        55.877 9  20646001.007 6         0.000 6     -1142.117 6        37.977 6
G20  21958792.570 9 115394200.564 9      2579.005 9        55.310 9  21958792.899 6         0.000 6      2009.615 6        37.977 6
> 2019 07 03 12 00 30.0000000  0  8       0.000000000000
G07  25359378.208 9 133264385.740 9      2199.975 9        54.127 9  25359378.885 6         0.000 6      1714.267 6        37.977 6
G10  23829232.271 9 125223405.783 9      3533.366 9        54.662 9  23829236.017 6         0.000 6      2753.275 6        37.977 6
G21  21163862.554 9 111216827.720 9     -1240.484 9        55.712 9  21163861.838 6         0.000 6      -966.611 6        37.977 6
G29  24282191.018 9 127603718.964 9     -3117.553 9        54.481 9  24282192.573 6         0.000 6     -2429.265 6        37.977 6
G27  22018786.391 9 115709476.380 9      2506.367 9        55.369 9  22018788.329 6         0.000 6      1953.014 6        37.977 6
G16  20500427.189 9 107730451.686 9       575.019 9        55.975 9  20500426.363 6         0.000 6       448.067 6        37.977 6
G26  20646277.165 9 108496896.568 9     -1466.292 9        55.877 9  20646279.978 6         0.000 6     -1142.565 6        37.977 6
G20  21958301.843 9 115391621.784 9      2578.564 9        55.310 9  21958302.173 6         0.000 6      2009.272 6        37.977 6
> 2019 07 03 12 00 31.0000000  0  8       0.000000000000
G07  25358959.611 9 133262186.000 9      2199.518 9        54.127 9  25358960.287 6         0.000 6      1713.911 6        37.977 6
G10  23828559.906 9 125219872.490 9      3533.232 9        54.662 9  23828563.651 6         0.000 6      2753.170 6        37.977 6
G21  21164098.644 9 111218068.382 9     -1240.847 9        55.712 9  21164097.929 6         0.000 6      -966.894 6        37.977 6
G29  24282784.276 9 127606836.551 9     -3117.640 9        54.481 9  24282785.833 6         0.000 6     -2429.332 6        37.977 6
G27  22018309.468 9 115706970.132 9      2506.131 9        55.369 9  22018311.405 6         0.000 6      1952.830 6        37.977 6
G16  20500317.825 9 107729876.970 9       574.405 9        55.975 9  20500316.998 6         0.000 6       447.588 6        37.977 6
G26  20646556.245 9 108498363.141 9     -1466.868 9        55.876 9  20646559.058 6         0.000 6     -1143.014 6        37.977 6
G20  21957811.200 9 115389043.440 9      2578.124 9        55.310 9  21957811.529 6         0.000 6      2008.929 6        37.977 6
> 2019 07 03 12 00 32.0000000  0  8       0.000000000000
G07  25358541.101 9 133259986.717 9      2199.061 9        54.128 9  25358541.777 6         0.000 6      1713.555 6        37.977 6
G10  23827887.566 9 125216339.334 9      3533.097 9        54.663 9  23827891.311 6         0.000 6      2753.066 6        37.977 6
G21  21164334.804 9 111219309.407 9     -1241.209 9        55.712 9  21164334.088 6         0.000 6      -967.176 6        37.977 6
G29  24283377.551 9 127609954.218 9     -3117.726 9        54.481 9  24283379.108 6         0.000 6     -2429.399 6        37.977 6
G27  22017832.590 9 115704464.125 9      2505.896 9        55.369 9  22017834.527 6         0.000 6      1952.647 6        37.977 6
G16  20500208.578 9 107729302.875 9       573.790 9        55.975 9  20500207.751 6         0.000 6       447.109 6        37.977 6
G26  20646835.435 9 108499830.294 9     -1467.443 9        55.876 9  20646838.249 6         0.000 6     -1143.463 6        37.977 6
G20  21957320.641 9 115386465.538 9      2577.683 9        55.310 9  21957320.970 6         0.000 6      2008.586 6        37.977 6
> 2019 07 03 12 00 33.0000000  0  8       0.000000000000
G07  25358122.677 9 133257787.888 9      2198.604 9        54.128 9  25358123.353 6         0.000 6      1713.199 6        37.977 6
G10  23827215.253 9 125212806.315 9      3532.963 9        54.663 9  23827218.997 6         0.000 6      2752.961 6        37.977 6
G21  21164571.032 9 111220550.797 9     -1241.572 9        55.712 9  21164570.317 6         0.000 6      -967.459 6        37.977 6
G29  24283970.842 9 127613071.977 9     -3117.812 9        54.481 9  24283972.400 6         0.000 6     -2429.467 6        37.977 6
G27  22017355.756 9 115701958.350 9      2505.660 9        55.369 9  22017357.694 6         0.000 6      1952.463 6        37.977 6
G16  20500099.448 9 107728729.393 9       573.175 9        55.975 9  20500098.621 6         0.000 6       446.630 6        37.977 6
G26  20647114.735 9 108501298.024 9     -1468.019 9        55.876 9  20647117.549 6         0.000 6     -1143.911 6        37.977 6
G20  21956830.166 9 115383888.080 9      2577.243 9        55.311 9  21956830.494 6         0.000 6      2008.242 6        37.977 6
> 2019 07 03 12 00 34.0000000  0  8       0.000000000000
G07  25357704.340 9 133255589.518 9      2198.147 9        54.128 9  25357705.016 6         0.000 6      1712.843 6        37.977 6
G10  23826542.964 9 125209273.425 9      3532.829 9        54.663 9  23826546.708 6         0.000 6      2752.856 6        37.977 6
G21  21164807.330 9 111221792.547 9     -1241.934 9        55.712 9  21164806.614 6         0.000 6      -967.741 6        37.977 6
G29  24284564.151 9 127616189.822 9     -3117.898 9        54.480 9  24284565.709 6         0.000 6     -2429.534 6        37.977 6
G27  22016878.967 9 115699452.809 9      2505.424 9        55.369 9  22016880.904 6         0.000 6      1952.279 6        37.977 6
G16  20499990.434 9 107728156.522 9       572.560 9        55.975 9  20499989.607 6         0.000 6       446.150 6        37.977 6
G26  20647394.144 9 108502766.324 9     -1468.595 9        55.876 9  20647396.957 6         0.000 6     -1144.360 6        37.977 6
G20  21956339.774 9 115381311.058 9      2576.802 9        55.311 9  21956340.102 6         0.000 6      2007.899 6        37.977 6
> 2019 07 03 12 00 35.0000000  0  8       0.000000000000
G07  25357286.090 9 133253391.604 9      2197.690 9        54.128 9  25357286.766 6         0.000 6      1712.486 6        37.977 6
G10  23825870.702 9 125205740.674 9      3532.694 9        54.663 9  23825874.445 6         0.000 6      2752.751 6        37.977 6
G21  21165043.696 9 111223034.661 9     -1242.296 9        55.712 9  21165042.981 6         0.000 6      -968.023 6        37.977 6
G29  24285157.475 9 127619307.753 9     -3117.984 9        54.480 9  24285159.034 6         0.000 6     -2429.601 6        37.977 6
G27  22016402.223 9 115696947.506 9      2505.188 9        55.370 9  22016404.160 6         0.000 6      1952.095 6        37.977 6
G16  20499881.538 9 107727584.270 9       571.945 9        55.975 9  20499880.711 6         0.000 6       445.671 6        37.977 6
G26  20647673.663 9 108504235.205 9     -1469.171 9        55.876 9  20647676.477 6         0.000 6     -1144.809 6        37.977 6
G20  21955849.467 9 115378734.481 9      2576.361 9        55.311 9  21955849.795 6         0.000 6      2007.555 6        37.977 6
> 2019 07 03 12 00 36.0000000  0  8       0.000000000000
G07  25356867.928 9 133251194.149 9      2197.233 9        54.128 9  25356868.603 6         0.000 6      1712.130 6        37.977 6
G10  23825198.465 9 125202208.054 9      3532.560 9        54.664 9  23825202.207 6         0.000 6      2752.647 6        37.977 6
G21  21165280.131 9 111224277.135 9     -1242.658 9        55.712 9  21165279.416 6         0.000 6      -968.305 6        37.977 6
G29  24285750.816 9 127622425.771 9     -3118.071 9        54.480 9  24285752.376 6         0.000 6     -2429.668 6        37.977 6
G27  22015925.524 9 115694442.437 9      2504.952 9        55.370 9  22015927.461 6         0.000 6      1951.911 6        37.977 6
G16  20499772.759 9 107727012.630 9       571.329 9        55.975 9  20499771.932 6         0.000 6       445.192 6        37.977 6
G26  20647953.291 9 108505704.657 9     -1469.746 9        55.876 9  20647956.104 6         0.000 6     -1145.257 6        37.977 6
G20  21955359.243 9 115376158.341 9      2575.920 9        55.311 9  21955359.571 6         0.000 6      2007.212 6        37.977 6
> 2019 07 03 12 00 37.0000000  0  8       0.000000000000
G07  25356449.852 9 133248997.149 9      2196.775 9        54.128 9  25356450.527 6         0.000 6      1711.774 6        37.977 6
G10  23824526.254 9 125198675.572 9      3532.425 9        54.664 9  23824529.995 6         0.000 6      2752.542 6        37.977 6
G21  21165516.636 9 111225519.974 9     -1243.021 9        55.711 9  21165515.921 6         0.000 6      -968.588 6        37.977 6
G29  24286344.173 9 127625543.874 9     -3118.157 9        54.480 9  24286345.734 6         0.000 6     -2429.735 6        37.977 6
G27  22015448.870 9 115691937.605 9      2504.716 9        55.370 9  22015450.806 6         0.000 6      1951.728 6        37.977 6
G16  20499664.097 9 107726441.608 9       570.714 9        55.976 9  20499663.270 6         0.000 6       444.712 6        37.977 6
G26  20648233.029 9 108507174.690 9     -1470.322 9        55.876 9  20648235.843 6         0.000 6     -1145.706 6        37.977 6
G20  21954869.103 9 115373582.646 9      2575.479 9        55.311 9  21954869.431 6         0.000 6      2006.868 6        37.977 6
> 2019 07 03 12 00 38.0000000  0  8       0.000000000000
G07  25356031.864 9 133246800.609 9      2196.318 9        54.128 9  25356032.538 6         0.000 6      1711.417 6        37.977 6
G10  23823854.068 9 125195143.221 9      3532.290 9        54.664 9  23823857.809 6         0.000 6      2752.437 6        37.977 6
G21  21165753.209 9 111226763.173 9     -1243.383 9        55.711 9  21165752.494 6         0.000 6      -968.870 6        37.977 6
G29  24286937.547 9 127628662.064 9     -3118.243 9        54.479 9  24286939.108 6         0.000 6     -2429.802 6        37.977 6
G27  22014972.260 9 115689433.008 9      2504.480 9        55.370 9  22014974.197 6         0.000 6      1951.544 6        37.977 6
G16  20499555.551 9 107725871.198 9       570.099 9        55.976 9  20499554.725 6         0.000 6       444.233 6        37.977 6
G26  20648512.876 9 108508645.293 9     -1470.897 9        55.876 9  20648515.690 6         0.000 6     -1146.154 6        37.977 6
G20  21954379.047 9 115371007.387 9      2575.038 9        55.311 9  21954379.374 6         0.000 6      2006.524 6        37.977 6
> 2019 07 03 12 00 39.0000000  0  8       0.000000000000
G07  25355613.962 9 133244604.524 9      2195.860 9        54.129 9  25355614.636 6         0.000 6      1711.061 6        37.977 6
G10  23823181.908 9 125191611.009 9      3532.155 9        54.664 9  23823185.648 6         0.000 6      2752.331 6        37.977 6
G21  21165989.851 9 111228006.736 9     -1243.745 9        55.711 9  21165989.136 6         0.000 6      -969.152 6        37.977 6
G29  24287530.937 9 127631780.339 9     -3118.329 9        54.479 9  24287532.498 6         0.000 6     -2429.869 6        37.977 6
G27  22014495.696 9 115686928.648 9      2504.244 9        55.370 9  22014497.632 6         0.000 6      1951.360 6        37.977 6
G16  20499447.124 9 107725301.407 9       569.484 9        55.976 9  20499446.297 6         0.000 6       443.754 6        37.977 6
G26  20648792.833 9 108510116.476 9     -1471.473 9        55.875 9  20648795.647 6         0.000 6     -1146.603 6        37.977 6
G20  21953889.076 9 115368432.575 9      2574.597 9        55.312 9  21953889.403 6         0.000 6      2006.180 6        37.977 6
> 2019 07 03 12 00 40.0000000  0  8       0.000000000000
G07  25355196.148 9 133242408.901 9      2195.402 9        54.129 9  25355196.823 6         0.000 6      1710.704 6        37.977 6
G10  23822509.773 9 125188078.925 9      3532.020 9        54.665 9  23822513.512 6         0.000 6      2752.226 6        37.977 6
G21  21166226.562 9 111229250.656 9     -1244.107 9        55.711 9  21166225.846 6         0.000 6      -969.434 6        37.977 6
G29  24288124.342 9 127634898.696 9     -3118.415 9        54.479 9  24288125.905 6         0.000 6     -2429.936 6        37.977 6
G27  22014019.177 9 115684424.527 9      2504.008 9        55.371 9  22014021.113 6         0.000 6      1951.176 6        37.977 6
G16  20499338.813 9 107724732.228 9       568.869 9        55.976 9  20499337.986 6         0.000 6       443.274 6        37.977 6
G26  20649072.899 9 108511588.230 9     -1472.049 9        55.875 9  20649075.713 6         0.000 6     -1147.051 6        37.977 6
G20  21953399.187 9 115365858.196 9      2574.156 9        55.312 9  21953399.514 6         0.000 6      2005.837 6        37.977 6
> 2019 07 03 12 00 41.0000000  0  8       0.000000000000
G07  25354778.420 9 133240213.731 9      2194.945 9        54.129 9  25354779.095 6         0.000 6      1710.347 6        37.977 6
G10  23821837.665 9 125184546.984 9      3531.885 9        54.665 9  23821841.404 6         0.000 6      2752.121 6        37.977 6
G21  21166463.342 9 111230494.943 9     -1244.469 9        55.711 9  21166462.626 6         0.000 6      -969.716 6        37.977 6
G29  24288717.765 9 127638017.143 9     -3118.501 9        54.479 9  24288719.328 6         0.000 6     -2430.003 6        37.977 6
G27  22013542.702 9 115681920.639 9      2503.772 9        55.371 9  22013544.638 6         0.000 6      1950.992 6        37.977 6
G16  20499230.619 9 107724163.668 9       568.253 9        55.976 9  20499229.792 6         0.000 6       442.795 6        37.977 6
G26  20649353.075 9 108513060.565 9     -1472.624 9        55.875 9  20649355.889 6         0.000 6     -1147.500 6        37.977 6
G20  21952909.383 9 115363284.265 9      2573.714 9        55.312 9  21952909.710 6         0.000 6      2005.493 6        37.977 6
> 2019 07 03 12 00 42.0000000  0  8       0.000000000000
G07  25354360.780 9 133238019.019 9      2194.487 9        54.129 9  25354361.454 6         0.000 6      1709.991 6        37.977 6
G10  23821165.582 9 125181015.177 9      3531.750 9        54.665 9  23821169.320 6         0.000 6      2752.015 6        37.977 6
G21  21166700.191 9 111231739.592 9     -1244.831 9        55.711 9  21166699.475 6         0.000 6      -969.998 6        37.977 6
G29  24289311.204 9 127641135.677 9     -3118.587 9        54.479 9  24289312.768 6         0.000 6     -2430.070 6        37.977 6
G27  22013066.273 9 115679416.988 9      2503.536 9        55.371 9  22013068.209 6         0.000 6      1950.808 6        37.977 6
G16  20499122.543 9 107723595.722 9       567.638 9        55.976 9  20499121.716 6         0.000 6       442.315 6        37.977 6
G26  20649633.361 9 108514533.475 9     -1473.199 9        55.875 9  20649636.175 6         0.000 6     -1147.948 6        37.977 6
G20  21952419.664 9 115360710.776 9      2573.273 9        55.312 9  21952419.990 6         0.000 6      2005.149 6        37.977 6
> 2019 07 03 12 00 43.0000000  0  8       0.000000000000
G07  25353943.227 9 133235824.768 9      2194.029 9        54.129 9  25353943.901 6         0.000 6      1709.634 6        37.977 6
G10  23820493.525 9 125177483.501 9      3531.614 9        54.665 9  23820497.262 6         0.000 6      2751.910 6        37.977 6
G21  21166937.108 9 111232984.600 9     -1245.192 9        55.711 9  21166936.393 6         0.000 6      -970.280 6        37.977 6
G29  24289904.660 9 127644254.297 9     -3118.673 9        54.478 9  24289906.224 6         0.000 6     -2430.137 6        37.977 6
G27  22012589.888 9 115676913.571 9      2503.300 9        55.371 9  22012591.824 6         0.000 6      1950.624 6        37.977 6
G16  20499014.583 9 107723028.388 9       567.023 9        55.976 9  20499013.756 6         0.000 6       441.836 6        37.977 6
G26  20649913.755 9 108516006.955 9     -1473.775 9        55.875 9  20649916.570 6         0.000 6     -1148.396 6        37.977 6
G20  21951930.027 9 115358137.725 9      2572.831 9        55.312 9  21951930.353 6         0.000 6      2004.805 6        37.977 6
> 2019 07 03 12 00 44.0000000  0  8       0.000000000000
G07  25353525.761 9 133233630.971 9      2193.571 9        54.129 9  25353526.434 6         0.000 6      1709.277 6        37.977 6
G10  23819821.494 9 125173951.965 9      3531.479 9        54.666 9  23819825.230 6         0.000 6      2751.804 6        37.977 6
G21  21167174.095 9 111234229.973 9     -1245.554 9        55.711 9  21167173.380 6         0.000 6      -970.562 6        37.977 6
G29  24290498.132 9 127647373.002 9     -3118.759 9        54.478 9  24290499.696 6         0.000 6     -2430.204 6        37.977 6
G27  22012113.548 9 115674410.392 9      2503.063 9        55.371 9  22012115.484 6         0.000 6      1950.440 6        37.977 6
G16  20498906.740 9 107722461.673 9       566.407 9        55.976 9  20498905.914 6         0.000 6       441.356 6        37.977 6
G26  20650194.260 9 108517481.016 9     -1474.350 9        55.875 9  20650197.075 6         0.000 6     -1148.845 6        37.977 6
G20  21951440.476 9 115355565.119 9      2572.389 9        55.313 9  21951440.802 6         0.000 6      2004.460 6        37.977 6
> 2019 07 03 12 00 45.0000000  0  8       0.000000000000
G07  25353108.382 9 133231437.635 9      2193.113 9        54.129 9  25353109.055 6         0.000 6      1708.920 6        37.977 6
G10  23819149.488 9 125170420.560 9      3531.343 9        54.666 9  23819153.224 6         0.000 6      2751.699 6        37.977 6
G21  21167411.150 9 111235475.705 9     -1245.916 9        55.711 9  21167410.435 6         0.000 6      -970.844 6        37.977 6
G29  24291091.620 9 127650491.794 9     -3118.845 9        54.478 9  24291093.185 6         0.000 6     -2430.271 6        37.977 6
G27  22011637.253 9 115671907.448 9      2502.827 9        55.371 9  22011639.189 6         0.000 6      1950.256 6        37.977 6
G16  20498799.015 9 107721895.571 9       565.792 9        55.976 9  20498798.188 6         0.000 6       440.877 6        37.977 6
G26  20650474.873 9 108518955.648 9     -1474.926 9        55.875 9  20650477.688 6         0.000 6     -1149.293 6        37.977 6
G20  21950951.008 9 115352992.951 9      2571.948 9        55.313 9  21950951.333 6         0.000 6      2004.116 6        37.977 6
> 2019 07 03 12 00 46.0000000  0  8       0.000000000000
G07  25352691.090 9 133229244.755 9      2192.655 9        54.130 9  25352691.763 6         0.000 6      1708.563 6        37.977 6
G10  23818477.508 9 125166889.295 9      3531.208 9        54.666 9  23818481.244 6         0.000 6      2751.593 6        37.977 6
G21  21167648.274 9 111236721.801 9     -1246.277 9        55.711 9  21167647.559 6         0.000 6      -971.125 6        37.977 6
G29  24291685.125 9 127653610.671 9     -3118.931 9        54.478 9  24291686.690 6         0.000 6     -2430.338 6        37.977 6
G27  22011161.004 9 115669404.741 9      2502.591 9        55.372 9  22011162.939 6         0.000 6      1950.072 6        37.977 6
G16  20498691.407 9 107721330.087 9       565.176 9        55.976 9  20498690.580 6         0.000 6       440.397 6        37.977 6
G26  20650755.597 9 108520430.859 9     -1475.501 9        55.875 9  20650758.412 6         0.000 6     -1149.741 6        37.977 6
G20  21950461.624 9 115350421.229 9      2571.506 9        55.313 9  21950461.950 6         0.000 6      2003.772 6        37.977 6
> 2019 07 03 12 00 47.0000000  0  8       0.000000000000
G07  25352273.886 9 133227052.335 9      2192.197 9        54.130 9  25352274.559 6         0.000 6      1708.206 6        37.977 6
G10  23817805.554 9 125163358.162 9      3531.072 9        54.666 9  23817809.289 6         0.000 6      2751.487 6        37.977 6
G21  21167885.467 9 111237968.256 9     -1246.639 9        55.710 9  21167884.752 6         0.000 6      -971.407 6        37.977 6
G29  24292278.645 9 127656729.634 9     -3119.016 9        54.478 9  24292280.212 6         0.000 6     -2430.405 6        37.977 6
G27  22010684.799 9 115666902.270 9      2502.355 9        55.372 9  22010686.734 6         0.000 6      1949.887 6        37.977 6
G16  20498583.915 9 107720765.215 9       564.561 9        55.976 9  20498583.088 6         0.000 6       439.917 6        37.977 6
G26  20651036.429 9 108521906.641 9     -1476.076 9        55.875 9  20651039.244 6         0.000 6     -1150.190 6        37.977 6
G20  21949972.324 9 115347849.945 9      2571.064 9        55.313 9  21949972.649 6         0.000 6      2003.427 6        37.977 6
> 2019 07 03 12 00 48.0000000  0  8       0.000000000000
G07  25351856.769 9 133224860.374 9      2191.739 9        54.130 9  25351857.442 6         0.000 6      1707.849 6        37.977 6
G10  23817133.626 9 125159827.166 9      3530.936 9        54.667 9  23817137.360 6         0.000 6      2751.381 6        37.977 6
G21  21168122.728 9 111239215.073 9     -1247.001 9        55.710 9  21168122.013 6         0.000 6      -971.689 6        37.977 6
G29  24292872.182 9 127659848.678 9     -3119.102 9        54.477 9  24292873.749 6         0.000 6     -2430.472 6        37.977 6
G27  22010208.639 9 115664400.039 9      2502.118 9        55.372 9  22010210.574 6         0.000 6      1949.703 6        37.977 6
G16  20498476.542 9 107720200.964 9       563.945 9        55.976 9  20498475.715 6         0.000 6       439.438 6        37.977 6
G26  20651317.372 9 108523383.003 9     -1476.651 9        55.874 9  20651320.187 6         0.000 6     -1150.638 6        37.977 6
G20  21949483.109 9 115345279.103 9      2570.622 9        55.313 9  21949483.433 6         0.000 6      2003.083 6        37.977 6
> 2019 07 03 12 00 49.0000000  0  8       0.000000000000
G07  25351439.739 9 133222668.871 9      2191.280 9        54.130 9  25351440.411 6         0.000 6      1707.492 6        37.977 6
G10  23816461.723 9 125156296.304 9      3530.800 9        54.667 9  23816465.456 6         0.000 6      2751.276 6        37.977 6
G21  21168360.058 9 111240462.251 9     -1247.362 9        55.710 9  21168359.344 6         0.000 6      -971.971 6        37.977 6
G29  24293465.735 9 127662967.813 9     -3119.188 9        54.477 9  24293467.303 6         0.000 6     -2430.539 6        37.977 6
G27  22009732.524 9 115661898.040 9      2501.882 9        55.372 9  22009734.459 6         0.000 6      1949.519 6        37.977 6
G16  20498369.284 9 107719637.323 9       563.330 9        55.976 9  20498368.458 6         0.000 6       438.958 6        37.977 6
G26  20651598.423 9 108524859.936 9     -1477.227 9        55.874 9  20651601.238 6         0.000 6     -1151.086 6        37.977 6
G20  21948993.977 9 115342708.703 9      2570.180 9        55.314 9  21948994.301 6         0.000 6      2002.738 6        37.977 6
> 2019 07 03 12 00 50.0000000  0  8       0.000000000000
G07  25351022.796 9 133220477.823 9      2190.822 9        54.130 9  25351023.468 6         0.000 6      1707.135 6        37.977 6
G10  23815789.847 9 125152765.583 9      3530.664 9        54.667 9  23815793.580 6         0.000 6      2751.169 6        37.977 6
G21  21168597.458 9 111241709.793 9     -1247.724 9        55.710 9  21168596.743 6         0.000 6      -972.252 6        37.977 6
G29  24294059.305 9 127666087.034 9     -3119.274 9        54.477 9  24294060.874 6         0.000 6     -2430.606 6        37.977 6
G27  22009256.455 9 115659396.279 9      2501.645 9        55.372 9  22009258.389 6         0.000 6      1949.335 6        37.977 6
G16  20498262.145 9 107719074.302 9       562.714 9        55.976 9  20498261.318 6         0.000 6       438.478 6        37.977 6
G26  20651879.585 9 108526337.448 9     -1477.802 9        55.874 9  20651882.400 6         0.000 6     -1151.534 6        37.977 6
G20  21948504.930 9 115340138.749 9      2569.737 9        55.314 9  21948505.254 6         0.000 6      2002.394 6        37.977 6
> 2019 07 03 12 00 51.0000000  0  8       0.000000000000
G07  25350605.940 9 133218287.237 9      2190.363 9        54.130 9  25350606.612 6         0.000 6      1706.778 6        37.977 6
G10  23815117.996 9 125149234.993 9      3530.528 9        54.667 9  23815121.728 6         0.000 6      2751.063 6        37.977 6
G21  21168834.926 9 111242957.694 9     -1248.085 9        55.710 9  21168834.211 6         0.000 6      -972.534 6        37.977 6
G29  24294652.891 9 127669206.341 9     -3119.360 9        54.477 9  24294654.460 6         0.000 6     -2430.672 6        37.977 6
G27  22008780.429 9 115656894.753 9      2501.409 9        55.373 9  22008782.364 6         0.000 6      1949.151 6        37.977 6
G16  20498155.122 9 107718511.892 9       562.098 9        55.976 9  20498154.295 6         0.000 6       437.999 6        37.977 6
G26  20652160.855 9 108527815.531 9     -1478.377 9        55.874 9  20652163.670 6         0.000 6     -1151.982 6        37.977 6
G20  21948015.967 9 115337569.233 9      2569.295 9        55.314 9  21948016.290 6         0.000 6      2002.049 6        37.977 6
> 2019 07 03 12 00 52.0000000  0  8       0.000000000000
G07  25350189.172 9 133216097.107 9      2189.905 9        54.130 9  25350189.844 6         0.000 6      1706.420 6        37.977 6
G10  23814446.172 9 125145704.544 9      3530.392 9        54.668 9  23814449.903 6         0.000 6      2750.957 6        37.977 6
G21  21169072.463 9 111244205.959 9     -1248.446 9        55.710 9  21169071.748 6         0.000 6      -972.815 6        37.977 6
G29  24295246.494 9 127672325.733 9     -3119.445 9        54.477 9  24295248.064 6         0.000 6     -2430.739 6        37.977 6
G27  22008304.450 9 115654393.465 9      2501.172 9        55.373 9  22008306.384 6         0.000 6      1948.966 6        37.977 6
G16  20498048.217 9 107717950.102 9       561.482 9        55.976 9  20498047.390 6         0.000 6       437.519 6        37.977 6
G26  20652442.235 9 108529294.194 9     -1478.952 9        55.874 9  20652445.051 6         0.000 6     -1152.431 6        37.977 6
G20  21947527.088 9 115335000.164 9      2568.853 9        55.314 9  21947527.412 6         0.000 6      2001.704 6        37.977 6
> 2019 07 03 12 00 53.0000000  0  8       0.000000000000
G07  25349772.490 9 133213907.435 9      2189.446 9        54.131 9  25349773.162 6         0.000 6      1706.063 6        37.977 6
G10  23813774.374 9 125142174.231 9      3530.255 9        54.668 9  23813778.105 6         0.000 6      2750.851 6        37.977 6
G21  21169310.068 9 111245454.585 9     -1248.807 9        55.710 9  21169309.354 6         0.000 6      -973.097 6        37.977 6
G29  24295840.113 9 127675445.211 9     -3119.531 9        54.476 9  24295841.683 6         0.000 6     -2430.806 6        37.977 6
G27  22007828.515 9 115651892.413 9      2500.936 9        55.373 9  22007830.449 6         0.000 6      1948.782 6        37.977 6
G16  20497941.429 9 107717388.928 9       560.867 9        55.976 9  20497940.602 6         0.000 6       437.039 6        37.977 6
G26  20652723.725 9 108530773.432 9     -1479.527 9        55.874 9  20652726.541 6         0.000 6     -1152.879 6        37.977 6
G20  21947038.294 9 115332431.537 9      2568.410 9        55.314 9  21947038.617 6         0.000 6      2001.360 6        37.977 6
> 2019 07 03 12 00 54.0000000  0  8       0.000000000000
G07  25349355.897 9 133211718.224 9      2188.987 9        54.131 9  25349356.568 6         0.000 6      1705.705 6        37.977 6
G10  23813102.601 9 125138644.050 9      3530.119 9        54.668 9  23813106.331 6         0.000 6      2750.745 6        37.977 6
G21  21169547.743 9 111246703.570 9     -1249.169 9        55.710 9  21169547.028 6         0.000 6      -973.378 6        37.977 6
G29  24296433.748 9 127678564.775 9     -3119.617 9        54.476 9  24296435.319 6         0.000 6     -2430.873 6        37.977 6
G27  22007352.625 9 115649391.597 9      2500.699 9        55.373 9  22007354.559 6         0.000 6      1948.598 6        37.977 6
G16  20497834.758 9 107716828.366 9       560.251 9        55.976 9  20497833.931 6         0.000 6       436.559 6        37.977 6
G26  20653005.324 9 108532253.240 9     -1480.102 9        55.874 9  20653008.140 6         0.000 6     -1153.327 6        37.977 6
G20  21946549.583 9 115329863.349 9      2567.967 9        55.315 9  21946549.906 6         0.000 6      2001.015 6        37.977 6
> 2019 07 03 12 00 55.0000000  0  8       0.000000000000
G07  25348939.390 9 133209529.470 9      2188.529 9        54.131 9  25348940.061 6         0.000 6      1705.348 6        37.977 6
G10  23812430.854 9 125135114.011 9      3529.982 9        54.668 9  23812434.584 6         0.000 6      2750.638 6        37.977 6
G21  21169785.486 9 111247952.919 9     -1249.530 9        55.710 9  21169784.771 6         0.000 6      -973.660 6        37.977 6
G29  24297027.400 9 127681684.424 9     -3119.703 9        54.476 9  24297028.971 6         0.000 6     -2430.940 6        37.977 6
G27  22006876.780 9 115646891.018 9      2500.463 9        55.373 9  22006878.714 6         0.000 6      1948.413 6        37.977 6
G16  20497728.204 9 107716268.423 9       559.635 9        55.976 9  20497727.377 6         0.000 6       436.079 6        37.977 6
G26  20653287.033 9 108533733.628 9     -1480.677 9        55.874 9  20653289.848 6         0.000 6     -1153.775 6        37.977 6
G20  21946060.957 9 115327295.607 9      2567.525 9        55.315 9  21946061.280 6         0.000 6      2000.670 6        37.977 6
> 2019 07 03 12 00 56.0000000  0  8       0.000000000000
G07  25348522.972 9 133207341.180 9      2188.070 9        54.131 9  25348523.642 6         0.000 6      1704.990 6        37.977 6
G10  23811759.133 9 125131584.101 9      3529.845 9        54.669 9  23811762.862 6         0.000 6      2750.532 6        37.977 6
G21  21170023.297 9 111249202.624 9     -1249.891 9        55.710 9  21170022.582 6         0.000 6      -973.941 6        37.977 6
G29  24297621.066 9 127684804.154 9     -3119.788 9        54.476 9  24297622.639 6         0.000 6     -2431.006 6        37.977 6
G27  22006400.981 9 115644390.678 9      2500.226 9        55.374 9  22006402.914 6         0.000 6      1948.229 6        37.977 6
G16  20497621.767 9 107715709.094 9       559.019 9        55.976 9  20497620.940 6         0.000 6       435.599 6        37.977 6
G26  20653568.850 9 108535214.586 9     -1481.252 9        55.873 9  20653571.666 6         0.000 6     -1154.223 6        37.977 6
G20  21945572.414 9 115324728.301 9      2567.082 9        55.315 9  21945572.737 6         0.000 6      2000.325 6        37.977 6
> 2019 07 03 12 00 57.0000000  0  8       0.000000000000
G07  25348106.639 9 133205153.343 9      2187.611 9        54.131 9  25348107.310 6         0.000 6      1704.633 6        37.977 6
G10  23811087.439 9 125128054.334 9      3529.709 9        54.669 9  23811091.167 6         0.000 6      2750.425 6        37.977 6
G21  21170261.178 9 111250452.695 9     -1250.252 9        55.709 9  21170260.463 6         0.000 6      -974.222 6        37.977 6
G29  24298214.751 9 127687923.975 9     -3119.874 9        54.475 9  24298216.323 6         0.000 6     -2431.073 6        37.977 6
G27  22005925.226 9 115641890.573 9      2499.989 9        55.374 9  22005927.159 6         0.000 6      1948.044 6        37.977 6
G16  20497515.448 9 107715150.383 9       558.403 9        55.976 9  20497514.621 6         0.000 6       435.119 6        37.977 6
G26  20653850.777 9 108536696.123 9     -1481.827 9        55.873 9  20653853.594 6         0.000 6     -1154.671 6        37.977 6
G20  21945083.957 9 115322161.445 9      2566.639 9        55.315 9  21945084.279 6         0.000 6      1999.980 6        37.977 6
> 2019 07 03 12 00 58.0000000  0  8       0.000000000000
G07  25347690.395 9 133202965.968 9      2187.152 9        54.131 9  25347691.066 6         0.000 6      1704.275 6        37.977 6
G10  23810415.769 9 125124524.701 9      3529.572 9        54.669 9  23810419.497 6         0.000 6      2750.318 6        37.977 6
G21  21170499.127 9 111251703.124 9     -1250.613 9        55.709 9  21170498.412 6         0.000 6      -974.504 6        37.977 6
G29  24298808.451 9 127691043.882 9     -3119.959 9        54.475 9  24298810.024 6         0.000 6     -2431.140 6        37.977 6
G27  22005449.516 9 115639390.703 9      2499.753 9        55.374 9  22005451.449 6         0.000 6      1947.860 6        37.977 6
G16  20497409.245 9 107714592.285 9       557.787 9        55.976 9  20497408.419 6         0.000 6       434.639 6        37.977 6
G26  20654132.814 9 108538178.231 9     -1482.402 9        55.873 9  20654135.630 6         0.000 6     -1155.119 6        37.977 6
G20  21944595.583 9 115319595.028 9      2566.196 9        55.315 9  21944595.905 6         0.000 6      1999.634 6        37.977 6
> 2019 07 03 12 00 59.0000000  0  8       0.000000000000
G07  25347274.238 9 133200779.049 9      2186.693 9        54.131 9  25347274.908 6         0.000 6      1703.917 6        37.977 6
G10  23809744.127 9 125120995.208 9      3529.435 9        54.669 9  23809747.854 6         0.000 6      2750.211 6        37.977 6
G21  21170737.145 9 111252953.917 9     -1250.974 9        55.709 9  21170736.430 6         0.000 6      -974.785 6        37.977 6
G29  24299402.168 9 127694163.874 9     -3120.045 9        54.475 9  24299403.742 6         0.000 6     -2431.207 6        37.977 6
G27  22004973.851 9 115636891.072 9      2499.516 9        55.374 9  22004975.784 6         0.000 6      1947.675 6        37.977 6
G16  20497303.161 9 107714034.806 9       557.171 9        55.977 9  20497302.334 6         0.000 6       434.159 6        37.977 6
G26  20654414.960 9 108539660.919 9     -1482.977 9        55.873 9  20654417.776 6         0.000 6     -1155.567 6        37.977 6
G20  21944107.294 9 115317029.058 9      2565.753 9        55.316 9  21944107.616 6         0.000 6      1999.289 6        37.977 6
> 2019 07 03 12 01  0.0000000  0  8       0.000000000000
G07  25346858.168 9 133198592.593 9      2186.234 9        54.132 9  25346858.838 6         0.000 6      1703.560 6        37.977 6
G10  23809072.510 9 125117465.848 9      3529.298 9        54.669 9  23809076.237 6         0.000 6      2750.105 6        37.977 6
G21  21170975.231 9 111254205.068 9     -1251.335 9        55.709 9  21170974.517 6         0.000 6      -975.066 6        37.977 6
G29  24299995.901 9 127697283.951 9     -3120.131 9        54.475 9  24299997.475 6         0.000 6     -2431.273 6        37.977 6
G27  22004498.231 9 115634391.675 9      2499.279 9        55.374 9  22004500.164 6         0.000 6      1947.491 6        37.977 6
G16  20497197.193 9 107713477.939 9       556.555 9        55.977 9  20497196.366 6         0.000 6       433.679 6        37.977 6
G26  20654697.215 9 108541144.177 9     -1483.552 9        55.873 9  20654700.031 6         0.000 6     -1156.015 6        37.977 6
G20  21943619.089 9 115314463.527 9      2565.310 9        55.316 9  21943619.411 6         0.000 6      1998.944 6        37.977 6
> 2019 07 03 12 01  1.0000000  0  8       0.000000000000
G07  25346442.185 9 133196406.592 9      2185.774 9        54.132 9  25346442.855 6         0.000 6      1703.202 6        37.977 6
G10  23808400.921 9 125113936.630 9      3529.160 9        54.670 9  23808404.646 6         0.000 6      2749.998 6        37.977 6
G21  21171213.386 9 111255456.582 9     -1251.696 9        55.709 9  21171212.672 6         0.000 6      -975.347 6        37.977 6
G29  24300589.650 9 127700404.115 9     -3120.216 9        54.475 9  24300591.225 6         0.000 6     -2431.340 6        37.977 6
G27  22004022.657 9 115631892.517 9      2499.042 9        55.374 9  22004024.590 6         0.000 6      1947.306 6        37.977 6
G16  20497091.342 9 107712921.692 9       555.939 9        55.977 9  20497090.515 6         0.000 6       433.199 6        37.977 6
G26  20654979.580 9 108542628.014 9     -1484.127 9        55.873 9  20654982.397 6         0.000 6     -1156.463 6        37.977 6
G20  21943130.969 9 115311898.444 9      2564.866 9        55.316 9  21943131.290 6         0.000 6      1998.598 6        37.977 6
> 2019 07 03 12 01  2.0000000  0  8       0.000000000000
G07  25346026.290 9 133194221.051 9      2185.315 9        54.132 9  25346026.960 6         0.000 6      1702.844 6        37.977 6
G10  23807729.357 9 125110407.549 9      3529.023 9        54.670 9  23807733.082 6         0.000 6      2749.891 6        37.977 6
G21  21171451.610 9 111256708.457 9     -1252.056 9        55.709 9  21171450.896 6         0.000 6      -975.628 6        37.977 6
G29  24301183.415 9 127703524.363 9     -3120.302 9        54.474 9  24301184.991 6         0.000 6     -2431.407 6        37.977 6
G27  22003547.128 9 115629393.596 9      2498.805 9        55.375 9  22003549.060 6         0.000 6      1947.122 6        37.977 6
G16  20496985.609 9 107712366.062 9       555.323 9        55.977 9  20496984.782 6         0.000 6       432.719 6        37.977 6
G26  20655262.055 9 108544112.426 9     -1484.701 9        55.873 9  20655264.871 6         0.000 6     -1156.911 6        37.977 6
G20  21942642.934 9 115309333.804 9      2564.423 9        55.316 9  21942643.254 6         0.000 6      1998.253 6        37.977 6
> 2019 07 03 12 01  3.0000000  0  8       0.000000000000
G07  25345610.483 9 133192035.975 9      2184.856 9        54.132 9  25345611.152 6         0.000 6      1702.486 6        37.977 6
G10  23807057.818 9 125106878.599 9      3528.886 9        54.670 9  23807061.542 6         0.000 6      2749.784 6        37.977 6
G21  21171689.902 9 111257960.689 9     -1252.417 9        55.709 9  21171689.188 6         0.000 6      -975.910 6        37.977 6
G29  24301777.196 9 127706644.692 9     -3120.387 9        54.474 9  24301778.773 6         0.000 6     -2431.473 6        37.977 6
G27  22003071.644 9 115626894.914 9      2498.568 9        55.375 9  22003073.576 6         0.000 6      1946.937 6        37.977 6
G16  20496879.993 9 107711811.045 9       554.707 9        55.977 9  20496879.166 6         0.000 6       432.239 6        37.977 6
G26  20655544.638 9 108545597.408 9     -1485.276 9        55.873 9  20655547.454 6         0.000 6     -1157.358 6        37.977 6
G20  21942154.981 9 115306769.600 9      2563.980 9        55.316 9  21942155.301 6         0.000 6      1997.907 6        37.977 6
> 2019 07 03 12 01  4.0000000  0  8       0.000000000000
G07  25345194.763 9 133189851.353 9      2184.396 9        54.132 9  25345195.432 6         0.000 6      1702.128 6        37.977 6
G10  23806386.306 9 125103349.793 9      3528.748 9        54.670 9  23806390.030 6         0.000 6      2749.676 6        37.977 6
G21  21171928.264 9 111259213.286 9     -1252.778 9        55.709 9  21171927.549 6         0.000 6      -976.191 6        37.977 6
G29  24302370.994 9 127709765.112 9     -3120.473 9        54.474 9  24302372.571 6         0.000 6     -2431.540 6        37.977 6
G27  22002596.204 9 115624396.467 9      2498.331 9        55.375 9  22002598.137 6         0.000 6      1946.752 6        37.977 6
G16  20496774.495 9 107711256.647 9       554.090 9        55.977 9  20496773.668 6         0.000 6       431.759 6        37.977 6
G26  20655827.331 9 108547082.970 9     -1485.851 9        55.873 9  20655830.148 6         0.000 6     -1157.806 6        37.977 6
G20  21941667.114 9 115304205.846 9      2563.536 9        55.316 9  21941667.434 6         0.000 6      1997.562 6        37.977 6
> 2019 07 03 12 01  5.0000000  0  8       0.000000000000
G07  25344779.130 9 133187667.193 9      2183.937 9        54.132 9  25344779.799 6         0.000 6      1701.770 6        37.977 6
G10  23805714.820 9 125099821.120 9      3528.610 9        54.671 9  23805718.543 6         0.000 6      2749.569 6        37.977 6
G21  21172166.693 9 111260466.240 9     -1253.138 9        55.709 9  21172165.979 6         0.000 6      -976.472 6        37.977 6
G29  24302964.809 9 127712885.617 9     -3120.558 9        54.474 9  24302966.386 6         0.000 6     -2431.606 6        37.977 6
G27  22002120.810 9 115621898.255 9      2498.094 9        55.375 9  22002122.742 6         0.000 6      1946.568 6        37.977 6
G16  20496669.113 9 107710702.861 9       553.474 9        55.977 9  20496668.286 6         0.000 6       431.279 6        37.977 6
G26  20656110.133 9 108548569.101 9     -1486.425 9        55.872 9  20656112.950 6         0.000 6     -1158.254 6        37.977 6
G20  21941179.331 9 115301642.533 9      2563.092 9        55.317 9  21941179.651 6         0.000 6      1997.216 6        37.977 6
> 2019 07 03 12 01  6.0000000  0  8       0.000000000000
G07  25344363.585 9 133185483.490 9      2183.477 9        54.132 9  25344364.253 6         0.000 6      1701.411 6        37.977 6
G10  23805043.361 9 125096292.589 9      3528.473 9        54.671 9  23805047.083 6         0.000 6      2749.462 6        37.977 6
G21  21172405.192 9 111261719.558 9     -1253.499 9        55.709 9  21172404.478 6         0.000 6      -976.752 6        37.977 6
G29  24303558.639 9 127716006.208 9     -3120.644 9        54.474 9  24303560.218 6         0.000 6     -2431.673 6        37.977 6
G27  22001645.461 9 115619400.281 9      2497.857 9        55.375 9  22001647.393 6         0.000 6      1946.383 6        37.977 6
G16  20496563.849 9 107710149.695 9       552.858 9        55.977 9  20496563.022 6         0.000 6       430.798 6        37.977 6
G26  20656393.045 9 108550055.812 9     -1487.000 9        55.872 9  20656395.862 6         0.000 6     -1158.702 6        37.977 6
G20  21940691.633 9 115299079.667 9      2562.648 9        55.317 9  21940691.952 6         0.000 6      1996.870 6        37.977 6
> 2019 07 03 12 01  7.0000000  0  8       0.000000000000
G07  25343948.127 9 133183300.249 9      2183.017 9        54.133 9  25343948.796 6         0.000 6      1701.053 6        37.977 6
G10  23804371.927 9 125092764.191 9      3528.335 9        54.671 9  23804375.649 6         0.000 6      2749.354 6        37.977 6
G21  21172643.758 9 111262973.234 9     -1253.859 9        55.709 9  21172643.044 6         0.000 6      -977.033 6        37.977 6
G29  24304152.486 9 127719126.884 9     -3120.729 9        54.473 9  24304154.065 6         0.000 6     -2431.739 6        37.977 6
G27  22001170.157 9 115616902.543 9      2497.620 9        55.376 9  22001172.088 6         0.000 6      1946.198 6        37.977 6
G16  20496458.701 9 107709597.142 9       552.242 9        55.977 9  20496457.875 6         0.000 6       430.318 6        37.977 6
G26  20656676.065 9 108551543.093 9     -1487.575 9        55.872 9  20656678.882 6         0.000 6     -1159.149 6        37.977 6
G20  21940204.018 9 115296517.240 9      2562.205 9        55.317 9  21940204.338 6         0.000 6      1996.524 6        37.977 6
> 2019 07 03 12 01  8.0000000  0  8       0.000000000000
G07  25343532.757 9 133181117.466 9      2182.557 9        54.133 9  25343533.425 6         0.000 6      1700.695 6        37.977 6
G10  23803700.521 9 125089235.936 9      3528.197 9        54.671 9  23803704.242 6         0.000 6      2749.247 6        37.977 6
G21  21172882.394 9 111264227.273 9     -1254.220 9        55.708 9  21172881.680 6         0.000 6      -977.314 6        37.977 6
G29  24304746.349 9 127722247.646 9     -3120.814 9        54.473 9  24304747.929 6         0.000 6     -2431.806 6        37.977 6
G27  22000694.898 9 115614405.044 9      2497.383 9        55.376 9  22000696.829 6         0.000 6      1946.014 6        37.977 6
G16  20496353.672 9 107709045.209 9       551.625 9        55.977 9  20496352.845 6         0.000 6       429.838 6        37.977 6
G26  20656959.196 9 108553030.953 9     -1488.149 9        55.872 9  20656962.013 6         0.000 6     -1159.597 6        37.977 6
G20  21939716.489 9 115293955.262 9      2561.761 9        55.317 9  21939716.808 6         0.000 6      1996.178 6        37.977 6
> 2019 07 03 12 01  9.0000000  0  8       0.000000000000
G07  25343117.474 9 133178935.145 9      2182.097 9        54.133 9  25343118.142 6         0.000 6      1700.337 6        37.977 6
G10  23803029.139 9 125085707.815 9      3528.059 9        54.672 9  23803032.860 6         0.000 6      2749.139 6        37.977 6
G21  21173121.098 9 111265481.670 9     -1254.580 9        55.708 9  21173120.384 6         0.000 6      -977.595 6        37.977 6
G29  24305340.229 9 127725368.492 9     -3120.900 9        54.473 9  24305341.809 6         0.000 6     -2431.873 6        37.977 6
G27  22000219.684 9 115611907.781 9      2497.146 9        55.376 9  22000221.615 6         0.000 6      1945.829 6        37.977 6
G16  20496248.759 9 107708493.889 9       551.009 9        55.977 9  20496247.932 6         0.000 6       429.357 6        37.977 6
G26  20657242.435 9 108554519.383 9     -1488.724 9        55.872 9  20657245.252 6         0.000 6     -1160.045 6        37.977 6
G20  21939229.044 9 115291393.724 9      2561.317 9        55.317 9  21939229.363 6         0.000 6      1995.832 6        37.977 6
> 2019 07 03 12 01 10.0000000  0  8       0.000000000000
G07  25342702.278 9 133176753.281 9      2181.637 9        54.133 9  25342702.946 6         0.000 6      1699.978 6        37.977 6
G10  23802357.785 9 125082179.836 9      3527.920 9        54.672 9  23802361.505 6         0.000 6      2749.032 6        37.977 6
G21  21173359.871 9 111266736.429 9     -1254.940 9        55.708 9  21173359.157 6         0.000 6      -977.876 6        37.977 6
G29  24305934.124 9 127728489.425 9     -3120.985 9        54.473 9  24305935.705 6         0.000 6     -2431.939 6        37.977 6
G27  21999744.515 9 115609410.756 9      2496.909 9        55.376 9  21999746.447 6         0.000 6      1945.644 6        37.977 6
G16  20496143.964 9 107707943.188 9       550.392 9        55.977 9  20496143.138 6         0.000 6       428.877 6        37.977 6
G26  20657525.784 9 108556008.392 9     -1489.298 9        55.872 9  20657528.602 6         0.000 6     -1160.493 6        37.977 6
G20  21938741.684 9 115288832.634 9      2560.873 9        55.318 9  21938742.002 6         0.000 6      1995.486 6        37.977 6
> 2019 07 03 12 01 11.0000000  0  8       0.000000000000
G07  25342287.171 9 133174571.882 9      2181.178 9        54.133 9  25342287.839 6         0.000 6      1699.620 6        37.977 6
G10  23801686.456 9 125078651.989 9      3527.782 9        54.672 9  23801690.175 6         0.000 6      2748.924 6        37.977 6
G21  21173598.712 9 111267991.544 9     -1255.301 9        55.708 9  21173597.998 6         0.000 6      -978.156 6        37.977 6
G29  24306528.035 9 127731610.437 9     -3121.070 9        54.472 9  24306529.617 6         0.000 6     -2432.005 6        37.977 6
G27  21999269.392 9 115606913.970 9      2496.672 9        55.376 9  21999271.323 6         0.000 6      1945.459 6        37.977 6
G16  20496039.287 9 107707393.102 9       549.776 9        55.977 9  20496038.460 6         0.000 6       428.397 6        37.977 6
G26  20657809.242 9 108557497.971 9     -1489.873 9        55.872 9  20657812.060 6         0.000 6     -1160.940 6        37.977 6
G20  21938254.407 9 115286271.981 9      2560.428 9        55.318 9  21938254.725 6         0.000 6      1995.140 6        37.977 6
> 2019 07 03 12 01 12.0000000  0  8       0.000000000000
G07  25341872.151 9 133172390.938 9      2180.717 9        54.133 9  25341872.818 6         0.000 6      1699.261 6        37.977 6
G10  23801015.155 9 125075124.286 9      3527.644 9        54.672 9  23801018.873 6         0.000 6      2748.816 6        37.977 6
G21  21173837.622 9 111269247.024 9     -1255.661 9        55.708 9  21173836.908 6         0.000 6      -978.437 6        37.977 6
G29  24307121.963 9 127734731.540 9     -3121.156 9        54.472 9  24307123.545 6         0.000 6     -2432.072 6        37.977 6
G27  21998794.314 9 115604417.420 9      2496.434 9        55.377 9  21998796.245 6         0.000 6      1945.274 6        37.977 6
G16  20495934.726 9 107706843.635 9       549.159 9        55.977 9  20495933.899 6         0.000 6       427.916 6        37.977 6
G26  20658092.810 9 108558988.129 9     -1490.447 9        55.872 9  20658095.628 6         0.000 6     -1161.388 6        37.977 6
G20  21937767.216 9 115283711.779 9      2559.984 9        55.318 9  21937767.534 6         0.000 6      1994.794 6        37.977 6
> 2019 07 03 12 01 13.0000000  0  8       0.000000000000
G07  25341457.218 9 133170210.455 9      2180.257 9        54.133 9  25341457.885 6         0.000 6      1698.903 6        37.977 6
G10  23800343.880 9 125071596.722 9      3527.505 9        54.673 9  23800347.598 6         0.000 6      2748.708 6        37.977 6
G21  21174076.600 9 111270502.864 9     -1256.021 9        55.708 9  21174075.886 6         0.000 6      -978.718 6        37.977 6
G29  24307715.907 9 127737852.728 9     -3121.241 9        54.472 9  24307717.490 6         0.000 6     -2432.138 6        37.977 6
G27  21998319.281 9 115601921.107 9      2496.197 9        55.377 9  21998321.212 6         0.000 6      1945.089 6        37.977 6
G16  20495830.283 9 107706294.784 9       548.543 9        55.977 9  20495829.457 6         0.000 6       427.436 6        37.977 6
G26  20658376.487 9 108560478.861 9     -1491.021 9        55.871 9  20658379.305 6         0.000 6     -1161.835 6        37.977 6
G20  21937280.109 9 115281152.022 9      2559.540 9        55.318 9  21937280.427 6         0.000 6      1994.448 6        37.977 6
> 2019 07 03 12 01 14.0000000  0  8       0.000000000000
G07  25341042.373 9 133168030.434 9      2179.797 9        54.134 9  25341043.040 6         0.000 6      1698.544 6        37.977 6
G10  23799672.630 9 125068069.293 9      3527.367 9        54.673 9  23799676.347 6         0.000 6      2748.600 6        37.977 6
G21  21174315.647 9 111271759.062 9     -1256.381 9        55.708 9  21174314.933 6         0.000 6      -978.998 6        37.977 6
G29  24308309.868 9 127740974.001 9     -3121.326 9        54.472 9  24308311.451 6         0.000 6     -2432.205 6        37.977 6
G27  21997844.293 9 115599425.029 9      2495.960 9        55.377 9  21997846.223 6         0.000 6      1944.904 6        37.977 6
G16  20495725.957 9 107705746.546 9       547.926 9        55.977 9  20495725.130 6         0.000 6       426.955 6        37.977 6
G26  20658660.273 9 108561970.163 9     -1491.596 9        55.871 9  20658663.091 6         0.000 6     -1162.283 6        37.977 6
G20  21936793.087 9 115278592.705 9      2559.095 9        55.318 9  21936793.404 6         0.000 6      1994.101 6        37.977 6
> 2019 07 03 12 01 15.0000000  0  8       0.000000000000
G07  25340627.615 9 133165850.871 9      2179.337 9        54.134 9  25340628.282 6         0.000 6      1698.185 6        37.977 6
G10  23799001.408 9 125064542.006 9      3527.228 9        54.673 9  23799005.124 6         0.000 6      2748.492 6        37.977 6
G21  21174554.762 9 111273015.623 9     -1256.741 9        55.708 9  21174554.049 6         0.000 6      -979.279 6        37.977 6
G29  24308903.845 9 127744095.360 9     -3121.412 9        54.472 9  24308905.429 6         0.000 6     -2432.271 6        37.977 6
G27  21997369.350 9 115596929.191 9      2495.722 9        55.377 9  21997371.280 6         0.000 6      1944.719 6        37.977 6
G16  20495621.749 9 107705198.928 9       547.309 9        55.977 9  20495620.922 6         0.000 6       426.475 6        37.977 6
G26  20658944.169 9 108563462.045 9     -1492.170 9        55.871 9  20658946.987 6         0.000 6     -1162.730 6        37.977 6
G20  21936306.149 9 115276033.837 9      2558.650 9        55.319 9  21936306.467 6         0.000 6      1993.755 6        37.977 6
> 2019 07 03 12 01 16.0000000  0  8       0.000000000000
G07  25340212.946 9 133163671.771 9      2178.876 9        54.134 9  25340213.612 6         0.000 6      1697.827 6        37.977 6
G10  23798330.211 9 125061014.854 9      3527.089 9        54.673 9  23798333.927 6         0.000 6      2748.384 6        37.977 6
G21  21174793.946 9 111274272.541 9     -1257.101 9        55.708 9  21174793.233 6         0.000 6      -979.559 6        37.977 6
G29  24309497.838 9 127747216.804 9     -3121.497 9        54.471 9  24309499.422 6         0.000 6     -2432.338 6        37.977 6
G27  21996894.452 9 115594433.588 9      2495.485 9        55.377 9  21996896.382 6         0.000 6      1944.534 6        37.977 6
G16  20495517.658 9 107704651.924 9       546.693 9        55.977 9  20495516.831 6         0.000 6       425.994 6        37.977 6
G26  20659228.173 9 108564954.495 9     -1492.744 9        55.871 9  20659230.991 6         0.000 6     -1163.178 6        37.977 6
G20  21935819.296 9 115273475.409 9      2558.206 9        55.319 9  21935819.613 6         0.000 6      1993.408 6        37.977 6
> 2019 07 03 12 01 17.0000000  0  8       0.000000000000
G07  25339798.363 9 133161493.128 9      2178.416 9        54.134 9  25339799.029 6         0.000 6      1697.468 6        37.977 6
G10  23797659.041 9 125057487.844 9      3526.950 9        54.674 9  23797662.757 6         0.000 6      2748.276 6        37.977 6
G21  21175033.199 9 111275529.821 9     -1257.461 9        55.708 9  21175032.485 6         0.000 6      -979.840 6        37.977 6
G29  24310091.847 9 127750338.333 9     -3121.582 9        54.471 9  24310093.432 6         0.000 6     -2432.404 6        37.977 6
G27  21996419.600 9 115591938.224 9      2495.248 9        55.378 9  21996421.530 6         0.000 6      1944.349 6        37.977 6
G16  20495413.684 9 107704105.540 9       546.076 9        55.977 9  20495412.857 6         0.000 6       425.514 6        37.977 6
G26  20659512.288 9 108566447.525 9     -1493.319 9        55.871 9  20659515.106 6         0.000 6     -1163.625 6        37.977 6
G20  21935332.528 9 115270917.430 9      2557.761 9        55.319 9  21935332.844 6         0.000 6      1993.062 6        37.977 6
> 2019 07 03 12 01 18.0000000  0  8       0.000000000000
G07  25339383.869 9 133159314.949 9      2177.955 9        54.134 9  25339384.535 6         0.000 6      1697.109 6        37.977 6
G10  23796987.898 9 125053960.970 9      3526.811 9        54.674 9  23796991.612 6         0.000 6      2748.167 6        37.977 6
G21  21175272.519 9 111276787.459 9     -1257.821 9        55.707 9  21175271.806 6         0.000 6      -980.120 6        37.977 6
G29  24310685.872 9 127753459.947 9     -3121.667 9        54.471 9  24310687.458 6         0.000 6     -2432.470 6        37.977 6
G27  21995944.792 9 115589443.096 9      2495.010 9        55.378 9  21995946.722 6         0.000 6      1944.164 6        37.977 6
G16  20495309.827 9 107703559.769 9       545.459 9        55.977 9  20495309.001 6         0.000 6       425.033 6        37.977 6
G26  20659796.510 9 108567941.124 9     -1493.893 9        55.871 9  20659799.329 6         0.000 6     -1164.073 6        37.977 6
G20  21934845.844 9 115268359.892 9      2557.316 9        55.319 9  21934846.160 6         0.000 6      1992.715 6        37.977 6
> 2019 07 03 12 01 19.0000000  0  8       0.000000000000
G07  25338969.462 9 133157137.231 9      2177.494 9        54.134 9  25338970.128 6         0.000 6      1696.750 6        37.977 6
G10  23796316.780 9 125050434.237 9      3526.672 9        54.674 9  23796320.494 6         0.000 6      2748.059 6        37.977 6
G21  21175511.909 9 111278045.456 9     -1258.181 9        55.707 9  21175511.195 6         0.000 6      -980.401 6        37.977 6
G29  24311279.913 9 127756581.641 9     -3121.752 9        54.471 9  24311281.499 6         0.000 6     -2432.537 6        37.977 6
G27  21995470.031 9 115586948.211 9      2494.773 9        55.378 9  21995471.960 6         0.000 6      1943.979 6        37.977 6
G16  20495206.089 9 107703014.619 9       544.842 9        55.977 9  20495205.262 6         0.000 6       424.553 6        37.977 6
G26  20660080.843 9 108569435.302 9     -1494.467 9        55.871 9  20660083.662 6         0.000 6     -1164.520 6        37.977 6
G20  21934359.244 9 115265802.800 9      2556.871 9        55.319 9  21934359.560 6         0.000 6      1992.368 6        37.977 6
> 2019 07 03 12 01 20.0000000  0  8       0.000000000000
G07  25338555.143 9 133154959.973 9      2177.034 9        54.134 9  25338555.809 6         0.000 6      1696.391 6        37.977 6
G10  23795645.690 9 125046907.640 9      3526.533 9        54.674 9  23795649.403 6         0.000 6      2747.950 6        37.977 6
G21  21175751.366 9 111279303.814 9     -1258.540 9        55.707 9  21175750.653 6         0.000 6      -980.681 6        37.977 6
G29  24311873.970 9 127759703.425 9     -3121.837 9        54.471 9  24311875.558 6         0.000 6     -2432.603 6        37.977 6
G27  21994995.313 9 115584453.558 9      2494.535 9        55.378 9  21994997.243 6         0.000 6      1943.794 6        37.977 6
G16  20495102.467 9 107702470.082 9       544.226 9        55.977 9  20495101.640 6         0.000 6       424.072 6        37.977 6
G26  20660365.285 9 108570930.049 9     -1495.041 9        55.871 9  20660368.103 6         0.000 6     -1164.968 6        37.977 6
G20  21933872.730 9 115263246.152 9      2556.426 9        55.320 9  21933873.045 6         0.000 6      1992.021 6        37.977 6
> 2019 07 03 12 01 21.0000000  0  8       0.000000000000
G07  25338140.911 9 133152783.173 9      2176.573 9        54.135 9  25338141.576 6         0.000 6      1696.032 6        37.977 6
G10  23794974.626 9 125043381.188 9      3526.394 9        54.675 9  23794978.338 6         0.000 6      2747.842 6        37.977 6
G21  21175990.893 9 111280562.533 9     -1258.900 9        55.707 9  21175990.179 6         0.000 6      -980.961 6        37.977 6
G29  24312468.044 9 127762825.295 9     -3121.922 9        54.470 9  24312469.632 6         0.000 6     -2432.669 6        37.977 6
G27  21994520.642 9 115581959.145 9      2494.297 9        55.378 9  21994522.571 6         0.000 6      1943.609 6        37.977 6
G16  20494998.963 9 107701926.165 9       543.609 9        55.978 9  20494998.136 6         0.000 6       423.591 6        37.977 6
G26  20660649.836 9 108572425.376 9     -1495.615 9        55.870 9  20660652.655 6         0.000 6     -1165.415 6        37.977 6
G20  21933386.300 9 115260689.953 9      2555.981 9        55.320 9  21933386.616 6         0.000 6      1991.674 6        37.977 6
> 2019 07 03 12 01 22.0000000  0  8       0.000000000000
G07  25337726.767 9 133150606.835 9      2176.112 9        54.135 9  25337727.432 6         0.000 6      1695.673 6        37.977 6
G10  23794303.589 9 125039854.874 9      3526.254 9        54.675 9  23794307.301 6         0.000 6      2747.733 6        37.977 6
G21  21176230.488 9 111281821.612 9     -1259.260 9        55.707 9  21176229.774 6         0.000 6      -981.241 6        37.977 6
G29  24313062.135 9 127765947.250 9     -3122.007 9        54.470 9  24313063.723 6         0.000 6     -2432.736 6        37.977 6
G27  21994046.015 9 115579464.969 9      2494.060 9        55.378 9  21994047.945 6         0.000 6      1943.424 6        37.977 6
G16  20494895.576 9 107701382.865 9       542.992 9        55.978 9  20494894.749 6         0.000 6       423.111 6        37.977 6
G26  20660934.497 9 108573921.276 9     -1496.189 9        55.870 9  20660937.316 6         0.000 6     -1165.862 6        37.977 6
G20  21932899.956 9 115258134.199 9      2555.535 9        55.320 9  21932900.271 6         0.000 6      1991.327 6        37.977 6
> 2019 07 03 12 01 23.0000000  0  8       0.000000000000
G07  25337312.711 9 133148430.959 9      2175.651 9        54.135 9  25337313.376 6         0.000 6      1695.313 6        37.977 6
G10  23793632.577 9 125036328.696 9      3526.115 9        54.675 9  23793636.289 6         0.000 6      2747.624 6        37.977 6
G21  21176470.150 9 111283081.049 9     -1259.619 9        55.707 9  21176469.437 6         0.000 6      -981.522 6        37.977 6
G29  24313656.241 9 127769069.289 9     -3122.092 9        54.470 9  24313657.830 6         0.000 6     -2432.802 6        37.977 6
G27  21993571.434 9 115576971.029 9      2493.822 9        55.379 9  21993573.363 6         0.000 6      1943.239 6        37.977 6
G16  20494792.306 9 107700840.178 9       542.375 9        55.978 9  20494791.480 6         0.000 6       422.630 6        37.977 6
G26  20661219.266 9 108575417.746 9     -1496.763 9        55.870 9  20661222.085 6         0.000 6     -1166.310 6        37.977 6
G20  21932413.695 9 115255578.887 9      2555.090 9        55.320 9  21932414.010 6         0.000 6      1990.980 6        37.977 6
> 2019 07 03 12 01 24.0000000  0  8       0.000000000000
G07  25336898.742 9 133146255.542 9      2175.190 9        54.135 9  25336899.407 6         0.000 6      1694.954 6        37.977 6
G10  23792961.593 9 125032802.662 9      3525.975 9        54.675 9  23792965.304 6         0.000 6      2747.516 6        37.977 6
G21  21176709.882 9 111284340.847 9     -1259.979 9        55.707 9  21176709.169 6         0.000 6      -981.802 6        37.977 6
G29  24314250.364 9 127772191.414 9     -3122.178 9        54.470 9  24314251.953 6         0.000 6     -2432.868 6        37.977 6
G27  21993096.898 9 115574477.329 9      2493.584 9        55.379 9  21993098.827 6         0.000 6      1943.053 6        37.977 6
G16  20494689.155 9 107700298.112 9       541.758 9        55.978 9  20494688.328 6         0.000 6       422.149 6        37.977 6
G26  20661504.145 9 108576914.795 9     -1497.337 9        55.870 9  20661506.964 6         0.000 6     -1166.757 6        37.977 6
G20  21931927.520 9 115253024.024 9      2554.645 9        55.320 9  21931927.835 6         0.000 6      1990.633 6        37.977 6
> 2019 07 03 12 01 25.0000000  0  8       0.000000000000
G07  25336484.862 9 133144080.589 9      2174.729 9        54.135 9  25336485.526 6         0.000 6      1694.595 6        37.977 6
G10  23792290.635 9 125029276.763 9      3525.835 9        54.676 9  23792294.345 6         0.000 6      2747.407 6        37.977 6
G21  21176949.682 9 111285601.003 9     -1260.338 9        55.707 9  21176948.969 6         0.000 6      -982.082 6        37.977 6
G29  24314844.502 9 127775313.624 9     -3122.262 9        54.470 9  24314846.093 6         0.000 6     -2432.934 6        37.977 6
G27  21992622.407 9 115571983.864 9      2493.347 9        55.379 9  21992624.336 6         0.000 6      1942.868 6        37.977 6
G16  20494586.120 9 107699756.659 9       541.141 9        55.978 9  20494585.293 6         0.000 6       421.668 6        37.977 6
G26  20661789.133 9 108578412.413 9     -1497.911 9        55.870 9  20661791.952 6         0.000 6     -1167.204 6        37.977 6
G20  21931441.429 9 115250469.602 9      2554.199 9        55.321 9  21931441.743 6         0.000 6      1990.286 6        37.977 6
> 2019 07 03 12 01 26.0000000  0  8       0.000000000000
G07  25336071.068 9 133141906.094 9      2174.268 9        54.135 9  25336071.733 6         0.000 6      1694.235 6        37.977 6
G10  23791619.704 9 125025751.009 9      3525.695 9        54.676 9  23791623.414 6         0.000 6      2747.298 6        37.977 6
G21  21177189.551 9 111286861.520 9     -1260.698 9        55.707 9  21177188.837 6         0.000 6      -982.362 6        37.977 6
G29  24315438.657 9 127778435.919 9     -3122.348 9        54.469 9  24315440.248 6         0.000 6     -2433.001 6        37.977 6
G27  21992147.961 9 115569490.639 9      2493.109 9        55.379 9  21992149.890 6         0.000 6      1942.683 6        37.977 6
G16  20494483.203 9 107699215.827 9       540.524 9        55.978 9  20494482.376 6         0.000 6       421.187 6        37.977 6
G26  20662074.230 9 108579910.609 9     -1498.485 9        55.870 9  20662077.050 6         0.000 6     -1167.651 6        37.977 6
G20  21930955.423 9 115247915.630 9      2553.753 9        55.321 9  21930955.737 6         0.000 6      1989.939 6        37.977 6
> 2019 07 03 12 01 27.0000000  0  8       0.000000000000
G07  25335657.364 9 133139732.066 9      2173.807 9        54.135 9  25335658.028 6         0.000 6      1693.876 6        37.977 6
G10  23790948.799 9 125022225.387 9      3525.555 9        54.676 9  23790952.508 6         0.000 6      2747.189 6        37.977 6
G21  21177429.487 9 111288122.392 9     -1261.057 9        55.707 9  21177428.774 6         0.000 6      -982.642 6        37.977 6
G29  24316032.827 9 127781558.293 9     -3122.432 9        54.469 9  24316034.419 6         0.000 6     -2433.067 6        37.977 6
G27  21991673.562 9 115566997.654 9      2492.871 9        55.379 9  21991675.490 6         0.000 6      1942.498 6        37.977 6
G16  20494380.403 9 107698675.610 9       539.907 9        55.978 9  20494379.576 6         0.000 6       420.706 6        37.977 6
G26  20662359.436 9 108581409.374 9     -1499.059 9        55.870 9  20662362.256 6         0.000 6     -1168.098 6        37.977 6
G20  21930469.501 9 115245362.097 9      2553.308 9        55.321 9  21930469.815 6         0.000 6      1989.592 6        37.977 6
> 2019 07 03 12 01 28.0000000  0  8       0.000000000000
G07  25335243.746 9 133137558.494 9      2173.345 9        54.136 9  25335244.410 6         0.000 6      1693.517 6        37.977 6
G10  23790277.921 9 125018699.913 9      3525.415 9        54.676 9  23790281.629 6         0.000 6      2747.079 6        37.977 6
G21  21177669.492 9 111289383.628 9     -1261.416 9        55.706 9  21177668.779 6         0.000 6      -982.922 6        37.977 6
G29  24316627.014 9 127784680.758 9     -3122.517 9        54.469 9  24316628.607 6         0.000 6     -2433.133 6        37.977 6
G27  21991199.207 9 115564504.904 9      2492.633 9        55.380 9  21991201.135 6         0.000 6      1942.312 6        37.977 6
G16  20494277.721 9 107698136.012 9       539.289 9        55.978 9  20494276.894 6         0.000 6       420.226 6        37.977 6
G26  20662644.752 9 108582908.719 9     -1499.633 9        55.870 9  20662647.572 6         0.000 6     -1168.546 6        37.977 6
G20  21929983.665 9 115242809.017 9      2552.862 9        55.321 9  21929983.979 6         0.000 6      1989.244 6        37.977 6
> 2019 07 03 12 01 29.0000000  0  8       0.000000000000
G07  25334830.217 9 133135385.386 9      2172.884 9        54.136 9  25334830.880 6         0.000 6      1693.157 6        37.977 6
G10  23789607.070 9 125015174.574 9      3525.275 9        54.677 9  23789610.777 6         0.000 6      2746.970 6        37.977 6
G21  21177909.565 9 111290645.221 9     -1261.776 9        55.706 9  21177908.852 6         0.000 6      -983.202 6        37.977 6
G29  24317221.218 9 127787803.307 9     -3122.602 9        54.469 9  24317222.811 6         0.000 6     -2433.199 6        37.977 6
G27  21990724.897 9 115562012.391 9      2492.395 9        55.380 9  21990726.825 6         0.000 6      1942.127 6        37.977 6
G16  20494175.155 9 107697597.028 9       538.672 9        55.978 9  20494174.329 6         0.000 6       419.745 6        37.977 6
G26  20662930.177 9 108584408.632 9     -1500.207 9        55.870 9  20662932.996 6         0.000 6     -1168.993 6        37.977 6
G20  21929497.914 9 115240256.378 9      2552.416 9        55.321 9  21929498.227 6         0.000 6      1988.897 6        37.977 6
> 2019 07 03 12 01 30.0000000  0  8       0.000000000000
G07  25334416.775 9 133133212.736 9      2172.422 9        54.136 9  25334417.438 6         0.000 6      1692.797 6        37.977 6
G10  23788936.245 9 125011649.379 9      3525.135 9        54.677 9  23788939.952 6         0.000 6      2746.861 6        37.977 6
G21  21178149.707 9 111291907.175 9     -1262.135 9        55.706 9  21178148.994 6         0.000 6      -983.482 6        37.977 6
G29  24317815.437 9 127790925.942 9     -3122.687 9        54.468 9  24317817.031 6         0.000 6     -2433.265 6        37.977 6
G27  21990250.632 9 115559520.117 9      2492.157 9        55.380 9  21990252.560 6         0.000 6      1941.941 6        37.977 6
G16  20494072.708 9 107697058.664 9       538.055 9        55.978 9  20494071.881 6         0.000 6       419.264 6        37.977 6
G26  20663215.711 9 108585909.124 9     -1500.781 9        55.869 9  20663218.531 6         0.000 6     -1169.440 6        37.977 6
G20  21929012.247 9 115237704.190 9      2551.970 9        55.321 9  21929012.560 6         0.000 6      1988.549 6        37.977 6
> 2019 07 03 12 01 31.0000000  0  8       0.000000000000
G07  25334003.420 9 133131040.548 9      2171.961 9        54.136 9  25334004.084 6         0.000 6      1692.438 6        37.977 6
G10  23788265.448 9 125008124.325 9      3524.994 9        54.677 9  23788269.154 6         0.000 6      2746.752 6        37.977 6
G21  21178389.918 9 111293169.489 9     -1262.494 9        55.706 9  21178389.205 6         0.000 6      -983.762 6        37.977 6
G29  24318409.673 9 127794048.661 9     -3122.772 9        54.468 9  24318411.267 6         0.000 6     -2433.331 6        37.977 6
G27  21989776.413 9 115557028.082 9      2491.919 9        55.380 9  21989778.341 6         0.000 6      1941.756 6        37.977 6
G16  20493970.378 9 107696520.918 9       537.438 9        55.978 9  20493969.552 6         0.000 6       418.783 6        37.977 6
G26  20663501.355 9 108587410.190 9     -1501.354 9        55.869 9  20663504.175 6         0.000 6     -1169.887 6        37.977 6
G20  21928526.666 9 115235152.447 9      2551.524 9        55.322 9  21928526.979 6         0.000 6      1988.201 6        37.977 6
> 2019 07 03 12 01 32.0000000  0  8       0.000000000000
G07  25333590.154 9 133128868.825 9      2171.499 9        54.136 9  25333590.817 6         0.000 6      1692.078 6        37.977 6
G10  23787594.676 9 125004599.407 9      3524.854 9        54.677 9  23787598.382 6         0.000 6      2746.642 6        37.977 6
G21  21178630.196 9 111294432.159 9     -1262.853 9        55.706 9  21178629.483 6         0.000 6      -984.041 6        37.977 6
G29  24319003.925 9 127797171.465 9     -3122.857 9        54.468 9  24319005.520 6         0.000 6     -2433.398 6        37.977 6
G27  21989302.239 9 115554536.282 9      2491.681 9        55.380 9  21989304.166 6         0.000 6      1941.571 6        37.977 6
G16  20493868.166 9 107695983.785 9       536.820 9        55.978 9  20493867.339 6         0.000 6       418.302 6        37.977 6
G26  20663787.107 9 108588911.825 9     -1501.928 9        55.869 9  20663789.927 6         0.000 6     -1170.334 6        37.977 6
G20  21928041.169 9 115232601.147 9      2551.078 9        55.322 9  21928041.481 6         0.000 6      1987.854 6        37.977 6
> 2019 07 03 12 01 33.0000000  0  8       0.000000000000
G07  25333176.976 9 133126697.560 9      2171.037 9        54.136 9  25333177.639 6         0.000 6      1691.718 6        37.977 6
G10  23786923.932 9 125001074.634 9      3524.713 9        54.678 9  23786927.637 6         0.000 6      2746.532 6        37.977 6
G21  21178870.543 9 111295695.191 9     -1263.212 9        55.706 9  21178869.830 6         0.000 6      -984.321 6        37.977 6
G29  24319598.193 9 127800294.354 9     -3122.942 9        54.468 9  24319599.788 6         0.000 6     -2433.464 6        37.977 6
G27  21988828.110 9 115552044.723 9      2491.443 9        55.381 9  21988830.038 6         0.000 6      1941.385 6        37.977 6
G16  20493766.071 9 107695447.274 9       536.203 9        55.978 9  20493765.244 6         0.000 6       417.821 6        37.977 6
G26  20664072.969 9 108590414.038 9     -1502.502 9        55.869 9  20664075.789 6         0.000 6     -1170.781 6        37.977 6
G20  21927555.757 9 115230050.297 9      2550.631 9        55.322 9  21927556.070 6         0.000 6      1987.506 6        37.977 6
> 2019 07 03 12 01 34.0000000  0  8       0.000000000000
G07  25332763.886 9 133124526.763 9      2170.576 9        54.136 9  25332764.549 6         0.000 6      1691.358 6        37.977 6
G10  23786253.214 9 124997549.995 9      3524.573 9        54.678 9  23786256.918 6         0.000 6      2746.423 6        37.977 6
G21  21179110.958 9 111296958.577 9     -1263.571 9        55.706 9  21179110.245 6         0.000 6      -984.601 6        37.977 6
G29  24320192.476 9 127803417.323 9     -3123.026 9        54.468 9  24320194.072 6         0.000 6     -2433.530 6        37.977 6
G27  21988354.027 9 115549553.403 9      2491.205 9        55.381 9  21988355.955 6         0.000 6      1941.200 6        37.977 6
G16  20493664.093 9 107694911.377 9       535.586 9        55.978 9  20493663.266 6         0.000 6       417.340 6        37.977 6
G26  20664358.939 9 108591916.820 9     -1503.075 9        55.869 9  20664361.759 6         0.000 6     -1171.228 6        37.977 6
G20  21927070.430 9 115227499.886 9      2550.185 9        55.322 9  21927070.741 6         0.000 6      1987.158 6        37.977 6
> 2019 07 03 12 01 35.0000000  0  8       0.000000000000
G07  25332350.883 9 133122356.422 9      2170.114 9        54.137 9  25332351.546 6         0.000 6      1690.998 6        37.977 6
G10  23785582.523 9 124994025.503 9      3524.432 9        54.678 9  23785586.227 6         0.000 6      2746.313 6        37.977 6
G21  21179351.441 9 111298222.327 9     -1263.930 9        55.706 9  21179350.729 6         0.000 6      -984.881 6        37.977 6
G29  24320786.776 9 127806540.381 9     -3123.111 9        54.467 9  24320788.373 6         0.000 6     -2433.596 6        37.977 6
G27  21987879.990 9 115547062.319 9      2490.967 9        55.381 9  21987881.917 6         0.000 6      1941.014 6        37.977 6
G16  20493562.233 9 107694376.100 9       534.968 9        55.978 9  20493561.406 6         0.000 6       416.858 6        37.977 6
G26  20664645.019 9 108593420.180 9     -1503.649 9        55.869 9  20664647.840 6         0.000 6     -1171.675 6        37.977 6
G20  21926585.188 9 115224949.929 9      2549.738 9        55.322 9  21926585.500 6         0.000 6      1986.810 6        37.977 6
> 2019 07 03 12 01 36.0000000  0  8       0.000000000000
G07  25331937.969 9 133120186.546 9      2169.652 9        54.137 9  25331938.631 6         0.000 6      1690.639 6        37.977 6
G10  23784911.859 9 124990501.148 9      3524.291 9        54.678 9  23784915.562 6         0.000 6      2746.203 6        37.977 6
G21  21179591.993 9 111299486.433 9     -1264.289 9        55.706 9  21179591.280 6         0.000 6      -985.160 6        37.977 6
G29  24321381.092 9 127809663.524 9     -3123.196 9        54.467 9  24321382.690 6         0.000 6     -2433.662 6        37.977 6
G27  21987405.997 9 115544571.472 9      2490.729 9        55.381 9  21987407.923 6         0.000 6      1940.828 6        37.977 6
G16  20493460.490 9 107693841.437 9       534.351 9        55.978 9  20493459.663 6         0.000 6       416.377 6        37.977 6
G26  20664931.208 9 108594924.109 9     -1504.223 9        55.869 9  20664934.028 6         0.000 6     -1172.122 6        37.977 6
G20  21926100.031 9 115222400.414 9      2549.292 9        55.323 9  21926100.342 6         0.000 6      1986.462 6        37.977 6
> 2019 07 03 12 01 37.0000000  0  8       0.000000000000
G07  25331525.142 9 133118017.128 9      2169.190 9        54.137 9  25331525.804 6         0.000 6      1690.279 6        37.977 6
G10  23784241.222 9 124986976.938 9      3524.150 9        54.679 9  23784244.924 6         0.000 6      2746.093 6        37.977 6
G21  21179832.613 9 111300750.900 9     -1264.648 9        55.706 9  21179831.901 6         0.000 6      -985.440 6        37.977 6
G29  24321975.425 9 127812786.752 9     -3123.281 9        54.467 9  24321977.023 6         0.000 6     -2433.728 6        37.977 6
G27  21986932.049 9 115542080.865 9      2490.491 9        55.381 9  21986933.976 6         0.000 6      1940.643 6        37.977 6
G16  20493358.865 9 107693307.395 9       533.733 9        55.978 9  20493358.039 6         0.000 6       415.896 6        37.977 6
G26  20665217.507 9 108596428.617 9     -1504.796 9        55.869 9  20665220.327 6         0.000 6     -1172.569 6        37.977 6
G20  21925614.959 9 115219851.350 9      2548.845 9        55.323 9  21925615.270 6         0.000 6      1986.114 6        37.977 6
> 2019 07 03 12 01 38.0000000  0  8       0.000000000000
G07  25331112.403 9 133115848.176 9      2168.728 9        54.137 9  25331113.065 6         0.000 6      1689.918 6        37.977 6
G10  23783570.611 9 124983452.865 9      3524.009 9        54.679 9  23783574.313 6         0.000 6      2745.984 6        37.977 6
G21  21180073.301 9 111302015.724 9     -1265.006 9        55.705 9  21180072.589 6         0.000 6      -985.719 6        37.977 6
G29  24322569.774 9 127815910.065 9     -3123.365 9        54.467 9  24322571.372 6         0.000 6     -2433.794 6        37.977 6
G27  21986458.147 9 115539590.494 9      2490.252 9        55.381 9  21986460.074 6         0.000 6      1940.457 6        37.977 6
G16  20493257.358 9 107692773.968 9       533.116 9        55.978 9  20493256.531 6         0.000 6       415.415 6        37.977 6
G26  20665503.913 9 108597933.693 9     -1505.370 9        55.868 9  20665506.734 6         0.000 6     -1173.016 6        37.977 6
G20  21925129.972 9 115217302.729 9      2548.398 9        55.323 9  21925130.282 6         0.000 6      1985.766 6        37.977 6
> 2019 07 03 12 01 39.0000000  0  8       0.000000000000
G07  25330699.752 9 133113679.683 9      2168.265 9        54.137 9  25330700.414 6         0.000 6      1689.558 6        37.977 6
G10  23782900.028 9 124979928.938 9      3523.867 9        54.679 9  23782903.729 6         0.000 6      2745.873 6        37.977 6
G21  21180314.058 9 111303280.909 9     -1265.365 9        55.705 9  21180313.346 6         0.000 6      -985.999 6        37.977 6
G29  24323164.138 9 127819033.463 9     -3123.450 9        54.467 9  24323165.738 6         0.000 6     -2433.860 6        37.977 6
G27  21985984.290 9 115537100.364 9      2490.014 9        55.382 9  21985986.217 6         0.000 6      1940.271 6        37.977 6
G16  20493155.968 9 107692241.161 9       532.498 9        55.978 9  20493155.141 6         0.000 6       414.934 6        37.977 6
G26  20665790.430 9 108599439.348 9     -1505.943 9        55.868 9  20665793.251 6         0.000 6     -1173.463 6        37.977 6
G20  21924645.070 9 115214754.558 9      2547.951 9        55.323 9  21924645.381 6         0.000 6      1985.418 6        37.977 6
> 2019 07 03 12 01 40.0000000  0  8       0.000000000000
G07  25330287.189 9 133111511.655 9      2167.803 9        54.137 9  25330287.851 6         0.000 6      1689.198 6        37.977 6
G10  23782229.471 9 124976405.147 9      3523.726 9        54.679 9  23782233.171 6         0.000 6      2745.763 6        37.977 6
G21  21180554.883 9 111304546.450 9     -1265.724 9        55.705 9  21180554.170 6         0.000 6      -986.278 6        37.977 6
G29  24323758.519 9 127822156.945 9     -3123.535 9        54.466 9  24323760.119 6         0.000 6     -2433.926 6        37.977 6
G27  21985510.479 9 115534610.470 9      2489.776 9        55.382 9  21985512.405 6         0.000 6      1940.086 6        37.977 6
G16  20493054.695 9 107691708.968 9       531.881 9        55.978 9  20493053.868 6         0.000 6       414.452 6        37.977 6
G26  20666077.055 9 108600945.571 9     -1506.517 9        55.868 9  20666079.876 6         0.000 6     -1173.910 6        37.977 6
G20  21924160.253 9 115212206.831 9      2547.504 9        55.323 9  21924160.563 6         0.000 6      1985.070 6        37.977 6
> 2019 07 03 12 01 41.0000000  0  8       0.000000000000
G07  25329874.714 9 133109344.087 9      2167.341 9        54.137 9  25329875.375 6         0.000 6      1688.838 6        37.977 6
G10  23781558.942 9 124972881.502 9      3523.585 9        54.680 9  23781562.641 6         0.000 6      2745.653 6        37.977 6
G21  21180795.776 9 111305812.352 9     -1266.082 9        55.705 9  21180795.064 6         0.000 6      -986.558 6        37.977 6
G29  24324352.916 9 127825280.511 9     -3123.619 9        54.466 9  24324354.517 6         0.000 6     -2433.992 6        37.977 6
G27  21985036.713 9 115532120.816 9      2489.537 9        55.382 9  21985038.639 6         0.000 6      1939.900 6        37.977 6
G16  20492953.540 9 107691177.396 9       531.263 9        55.978 9  20492952.713 6         0.000 6       413.971 6        37.977 6
G26  20666363.791 9 108602452.373 9     -1507.090 9        55.868 9  20666366.611 6         0.000 6     -1174.356 6        37.977 6
G20  21923675.521 9 115209659.554 9      2547.057 9        55.324 9  21923675.831 6         0.000 6      1984.721 6        37.977 6
> 2019 07 03 12 01 42.0000000  0  8       0.000000000000
G07  25329462.328 9 133107176.984 9      2166.878 9        54.138 9  25329462.988 6         0.000 6      1688.477 6        37.977 6
G10  23780888.439 9 124969357.996 9      3523.443 9        54.680 9  23780892.138 6         0.000 6      2745.543 6        37.977 6
G21  21181036.737 9 111307078.611 9     -1266.441 9        55.705 9  21181036.025 6         0.000 6      -986.837 6        37.977 6
G29  24324947.328 9 127828404.158 9     -3123.704 9        54.466 9  24324948.929 6         0.000 6     -2434.058 6        37.977 6
G27  21984562.993 9 115529631.404 9      2489.299 9        55.382 9  21984564.919 6         0.000 6      1939.714 6        37.977 6
G16  20492852.503 9 107690646.443 9       530.645 9        55.978 9  20492851.676 6         0.000 6       413.490 6        37.977 6
G26  20666650.635 9 108603959.747 9     -1507.663 9        55.868 9  20666653.456 6         0.000 6     -1174.803 6        37.977 6
G20  21923190.874 9 115207112.722 9      2546.610 9        55.324 9  21923191.184 6         0.000 6      1984.373 6        37.977 6
> 2019 07 03 12 01 43.0000000  0  8       0.000000000000
G07  25329050.029 9 133105010.343 9      2166.416 9        54.138 9  25329050.689 6         0.000 6      1688.117 6        37.977 6
G10  23780217.962 9 124965834.630 9      3523.302 9        54.680 9  23780221.661 6         0.000 6      2745.432 6        37.977 6
G21  21181277.767 9 111308345.227 9     -1266.799 9        55.705 9  21181277.054 6         0.000 6      -987.116 6        37.977 6
G29  24325541.757 9 127831527.894 9     -3123.789 9        54.466 9  24325543.359 6         0.000 6     -2434.124 6        37.977 6
G27  21984089.317 9 115527142.225 9      2489.061 9        55.382 9  21984091.243 6         0.000 6      1939.528 6        37.977 6
G16  20492751.583 9 107690116.104 9       530.028 9        55.978 9  20492750.756 6         0.000 6       413.008 6        37.977 6
G26  20666937.587 9 108605467.691 9     -1508.237 9        55.868 9  20666940.408 6         0.000 6     -1175.250 6        37.977 6
G20  21922706.312 9 115204566.336 9      2546.163 9        55.324 9  21922706.622 6         0.000 6      1984.024 6        37.977 6
> 2019 07 03 12 01 44.0000000  0  8       0.000000000000
G07  25328637.818 9 133102844.162 9      2165.953 9        54.138 9  25328638.478 6         0.000 6      1687.757 6        37.977 6
G10  23779547.514 9 124962311.410 9      3523.160 9        54.680 9  23779551.212 6         0.000 6      2745.322 6        37.977 6
G21  21181518.864 9 111309612.205 9     -1267.157 9        55.705 9  21181518.152 6         0.000 6      -987.396 6        37.977 6
G29  24326136.203 9 127834651.714 9     -3123.873 9        54.465 9  24326137.805 6         0.000 6     -2434.189 6        37.977 6
G27  21983615.688 9 115524653.286 9      2488.822 9        55.383 9  21983617.613 6         0.000 6      1939.343 6        37.977 6
G16  20492650.781 9 107689586.385 9       529.410 9        55.979 9  20492649.954 6         0.000 6       412.527 6        37.977 6
G26  20667224.650 9 108606976.212 9     -1508.810 9        55.868 9  20667227.471 6         0.000 6     -1175.697 6        37.977 6
G20  21922221.836 9 115202020.401 9      2545.716 9        55.324 9  21922222.145 6         0.000 6      1983.676 6        37.977 6
> 2019 07 03 12 01 45.0000000  0  8       0.000000000000
G07  25328225.695 9 133100678.446 9      2165.491 9        54.138 9  25328226.355 6         0.000 6      1687.396 6        37.977 6
G10  23778877.092 9 124958788.327 9      3523.018 9        54.681 9  23778880.789 6         0.000 6      2745.211 6        37.977 6
G21  21181760.030 9 111310879.539 9     -1267.516 9        55.705 9  21181759.318 6         0.000 6      -987.675 6        37.977 6
G29  24326730.664 9 127837775.619 9     -3123.958 9        54.465 9  24326732.267 6         0.000 6     -2434.255 6        37.977 6
G27  21983142.103 9 115522164.584 9      2488.584 9        55.383 9  21983144.028 6         0.000 6      1939.157 6        37.977 6
G16  20492550.096 9 107689057.281 9       528.792 9        55.979 9  20492549.269 6         0.000 6       412.046 6        37.977 6
G26  20667511.820 9 108608485.303 9     -1509.383 9        55.868 9  20667514.642 6         0.000 6     -1176.143 6        37.977 6
G20  21921737.444 9 115199474.909 9      2545.268 9        55.324 9  21921737.753 6         0.000 6      1983.327 6        37.977 6
> 2019 07 03 12 01 46.0000000  0  8       0.000000000000
G07  25327813.660 9 133098513.191 9      2165.028 9        54.138 9  25327814.320 6         0.000 6      1687.036 6        37.977 6
G10  23778206.697 9 124955265.391 9      3522.876 9        54.681 9  23778210.393 6         0.000 6      2745.101 6        37.977 6
G21  21182001.265 9 111312147.233 9     -1267.874 9        55.705 9  21182000.552 6         0.000 6      -987.954 6        37.977 6
G29  24327325.141 9 127840899.609 9     -3124.042 9        54.465 9  24327326.745 6         0.000 6     -2434.321 6        37.977 6
G27  21982668.564 9 115519676.122 9      2488.345 9        55.383 9  21982670.489 6         0.000 6      1938.971 6        37.977 6
G16  20492449.529 9 107688528.798 9       528.174 9        55.979 9  20492448.702 6         0.000 6       411.564 6        37.977 6
G26  20667799.101 9 108609994.971 9     -1509.957 9        55.867 9  20667801.922 6         0.000 6     -1176.590 6        37.977 6
G20  21921253.139 9 115196929.869 9      2544.821 9        55.325 9  21921253.447 6         0.000 6      1982.978 6        37.977 6
> 2019 07 03 12 01 47.0000000  0  8       0.000000000000
G07  25327401.713 9 133096348.400 9      2164.565 9        54.138 9  25327402.373 6         0.000 6      1686.675 6        37.977 6
G10  23777536.329 9 124951742.592 9      3522.734 9        54.681 9  23777540.024 6         0.000 6      2744.990 6        37.977 6
G21  21182242.567 9 111313415.283 9     -1268.232 9        55.705 9  21182241.854 6         0.000 6      -988.233 6        37.977 6
G29  24327919.635 9 127844023.683 9     -3124.127 9        54.465 9  24327921.239 6         0.000 6     -2434.387 6        37.977 6
G27  21982195.070 9 115517187.897 9      2488.107 9        55.383 9  21982196.995 6         0.000 6      1938.785 6        37.977 6
G16  20492349.079 9 107688000.930 9       527.556 9        55.979 9  20492348.252 6         0.000 6       411.083 6        37.977 6
G26  20668086.490 9 108611505.207 9     -1510.530 9        55.867 9  20668089.311 6         0.000 6     -1177.037 6        37.977 6
G20  21920768.917 9 115194385.273 9      2544.373 9        55.325 9  21920769.225 6         0.000 6      1982.629 6        37.977 6
> 2019 07 03 12 01 48.0000000  0  8       0.000000000000
G07  25326989.854 9 133094184.070 9      2164.102 9        54.138 9  25326990.514 6         0.000 6      1686.314 6        37.977 6
G10  23776865.988 9 124948219.940 9      3522.592 9        54.681 9  23776869.683 6         0.000 6      2744.879 6        37.977 6
G21  21182483.937 9 111314683.694 9     -1268.591 9        55.704 9  21182483.225 6         0.000 6      -988.512 6        37.977 6
G29  24328514.144 9 127847147.842 9     -3124.211 9        54.465 9  24328515.749 6         0.000 6     -2434.453 6        37.977 6
G27  21981721.622 9 115514699.912 9      2487.868 9        55.383 9  21981723.546 6         0.000 6      1938.599 6        37.977 6
G16  20492248.747 9 107687473.683 9       526.938 9        55.979 9  20492247.920 6         0.000 6       410.601 6        37.977 6
G26  20668373.988 9 108613016.022 9     -1511.103 9        55.867 9  20668376.810 6         0.000 6     -1177.483 6        37.977 6
G20  21920284.782 9 115191841.128 9      2543.925 9        55.325 9  21920285.090 6         0.000 6      1982.281 6        37.977 6
> 2019 07 03 12 01 49.0000000  0  8       0.000000000000
G07  25326578.084 9 133092020.206 9      2163.639 9        54.139 9  25326578.743 6         0.000 6      1685.954 6        37.977 6
G10  23776195.674 9 124944697.425 9      3522.449 9        54.681 9  23776199.368 6         0.000 6      2744.768 6        37.977 6
G21  21182725.376 9 111315952.460 9     -1268.949 9        55.704 9  21182724.663 6         0.000 6      -988.791 6        37.977 6
G29  24329108.670 9 127850272.085 9     -3124.296 9        54.464 9  24329110.276 6         0.000 6     -2434.519 6        37.977 6
G27  21981248.218 9 115512212.164 9      2487.629 9        55.384 9  21981250.143 6         0.000 6      1938.413 6        37.977 6
G16  20492148.532 9 107686947.050 9       526.320 9        55.979 9  20492147.705 6         0.000 6       410.120 6        37.977 6
G26  20668661.595 9 108614527.404 9     -1511.676 9        55.867 9  20668664.417 6         0.000 6     -1177.930 6        37.977 6
G20  21919800.731 9 115189297.427 9      2543.477 9        55.325 9  21919801.038 6         0.000 6      1981.932 6        37.977 6
> 2019 07 03 12 01 50.0000000  0  8       0.000000000000
G07  25326166.402 9 133089856.804 9      2163.176 9        54.139 9  25326167.061 6         0.000 6      1685.593 6        37.977 6
G10  23775525.387 9 124941175.055 9      3522.307 9        54.682 9  23775529.081 6         0.000 6      2744.657 6        37.977 6
G21  21182966.882 9 111317221.585 9     -1269.307 9        55.704 9  21182966.170 6         0.000 6      -989.070 6        37.977 6
G29  24329703.211 9 127853396.407 9     -3124.380 9        54.464 9  24329704.817 6         0.000 6     -2434.584 6        37.977 6
G27  21980774.862 9 115509724.661 9      2487.391 9        55.384 9  21980776.786 6         0.000 6      1938.227 6        37.977 6
G16  20492048.436 9 107686421.040 9       525.702 9        55.979 9  20492047.609 6         0.000 6       409.638 6        37.977 6
G26  20668949.312 9 108616039.365 9     -1512.249 9        55.867 9  20668952.134 6         0.000 6     -1178.376 6        37.977 6
G20  21919316.765 9 115186754.174 9      2543.030 9        55.325 9  21919317.072 6         0.000 6      1981.583 6        37.977 6
> 2019 07 03 12 01 51.0000000  0  8       0.000000000000
G07  25325754.807 9 133087693.863 9      2162.713 9        54.139 9  25325755.466 6         0.000 6      1685.232 6        37.977 6
G10  23774855.128 9 124937652.830 9      3522.165 9        54.682 9  23774858.821 6         0.000 6      2744.546 6        37.977 6
G21  21183208.457 9 111318491.070 9     -1269.665 9        55.704 9  21183207.745 6         0.000 6      -989.349 6        37.977 6
G29  24330297.769 9 127856520.819 9     -3124.464 9        54.464 9  24330299.375 6         0.000 6     -2434.650 6        37.977 6
G27  21980301.550 9 115507237.392 9      2487.152 9        55.384 9  21980303.474 6         0.000 6      1938.041 6        37.977 6
G16  20491948.457 9 107685895.647 9       525.084 9        55.979 9  20491947.630 6         0.000 6       409.157 6        37.977 6
G26  20669237.138 9 108617551.899 9     -1512.822 9        55.867 9  20669239.960 6         0.000 6     -1178.823 6        37.977 6
G20  21918832.885 9 115184211.373 9      2542.582 9        55.325 9  21918833.192 6         0.000 6      1981.234 6        37.977 6
> 2019 07 03 12 01 52.0000000  0  8       0.000000000000
G07  25325343.301 9 133085531.388 9      2162.250 9        54.139 9  25325343.959 6         0.000 6      1684.871 6        37.977 6
G10  23774184.895 9 124934130.743 9      3522.022 9        54.682 9  23774188.588 6         0.000 6      2744.435 6        37.977 6
G21  21183450.100 9 111319760.911 9     -1270.023 9        55.704 9  21183449.388 6         0.000 6      -989.628 6        37.977 6
G29  24330892.342 9 127859645.315 9     -3124.549 9        54.464 9  24330893.950 6         0.000 6     -2434.716 6        37.977 6
G27  21979828.283 9 115504750.360 9      2486.913 9        55.384 9  21979830.207 6         0.000 6      1937.855 6        37.977 6
G16  20491848.595 9 107685370.868 9       524.466 9        55.979 9  20491847.768 6         0.000 6       408.675 6        37.977 6
G26  20669525.072 9 108619065.001 9     -1513.395 9        55.867 9  20669527.894 6         0.000 6     -1179.269 6        37.977 6
G20  21918349.090 9 115181669.016 9      2542.133 9        55.326 9  21918349.397 6         0.000 6      1980.884 6        37.977 6
> 2019 07 03 12 01 53.0000000  0  8       0.000000000000
G07  25324931.882 9 133083369.373 9      2161.787 9        54.139 9  25324932.541 6         0.000 6      1684.510 6        37.977 6
G10  23773514.690 9 124930608.803 9      3521.879 9        54.682 9  23773518.382 6         0.000 6      2744.324 6        37.977 6
G21  21183691.811 9 111321031.112 9     -1270.381 9        55.704 9  21183691.099 6         0.000 6      -989.907 6        37.977 6
G29  24331486.932 9 127862769.896 9     -3124.633 9        54.464 9  24331488.540 6         0.000 6     -2434.782 6        37.977 6
G27  21979355.062 9 115502263.569 9      2486.674 9        55.384 9  21979356.986 6         0.000 6      1937.669 6        37.977 6
G16  20491748.851 9 107684846.711 9       523.848 9        55.979 9  20491748.024 6         0.000 6       408.193 6        37.977 6
G26  20669813.116 9 108620578.681 9     -1513.968 9        55.867 9  20669815.939 6         0.000 6     -1179.716 6        37.977 6
G20  21917865.380 9 115179127.111 9      2541.685 9        55.326 9  21917865.687 6         0.000 6      1980.535 6        37.977 6
> 2019 07 03 12 01 54.0000000  0  8       0.000000000000
G07  25324520.553 9 133081207.824 9      2161.323 9        54.139 9  25324521.211 6         0.000 6      1684.149 6        37.977 6
G10  23772844.512 9 124927087.001 9      3521.736 9        54.683 9  23772848.203 6         0.000 6      2744.213 6        37.977 6
G21  21183933.590 9 111322301.668 9     -1270.738 9        55.704 9  21183932.878 6         0.000 6      -990.186 6        37.977 6
G29  24332081.538 9 127865894.561 9     -3124.717 9        54.463 9  24332083.147 6         0.000 6     -2434.847 6        37.977 6
G27  21978881.886 9 115499777.015 9      2486.436 9        55.384 9  21978883.809 6         0.000 6      1937.483 6        37.977 6
G16  20491649.224 9 107684323.169 9       523.230 9        55.979 9  20491648.397 6         0.000 6       407.712 6        37.977 6
G26  20670101.268 9 108622092.929 9     -1514.541 9        55.867 9  20670104.091 6         0.000 6     -1180.162 6        37.977 6
G20  21917381.756 9 115176585.650 9      2541.237 9        55.326 9  21917382.062 6         0.000 6      1980.186 6        37.977 6
> 2019 07 03 12 01 55.0000000  0  8       0.000000000000
G07  25324109.311 9 133079046.736 9      2160.860 9        54.139 9  25324109.969 6         0.000 6      1683.788 6        37.977 6
G10  23772174.361 9 124923565.347 9      3521.594 9        54.683 9  23772178.052 6         0.000 6      2744.101 6        37.977 6
G21  21184175.438 9 111323572.585 9     -1271.096 9        55.704 9  21184174.726 6         0.000 6      -990.465 6        37.977 6
G29  24332676.160 9 127869019.310 9     -3124.802 9        54.463 9  24332677.770 6         0.000 6     -2434.913 6        37.977 6
G27  21978408.755 9 115497290.702 9      2486.197 9        55.385 9  21978410.679 6         0.000 6      1937.297 6        37.977 6
G16  20491549.716 9 107683800.248 9       522.612 9        55.979 9  20491548.889 6         0.000 6       407.230 6        37.977 6
G26  20670389.531 9 108623607.754 9     -1515.114 9        55.866 9  20670392.353 6         0.000 6     -1180.609 6        37.977 6
G20  21916898.217 9 115174044.642 9      2540.789 9        55.326 9  21916898.523 6         0.000 6      1979.836 6        37.977 6
> 2019 07 03 12 01 56.0000000  0  8       0.000000000000
G07  25323698.157 9 133076886.114 9      2160.396 9        54.140 9  25323698.815 6         0.000 6      1683.427 6        37.977 6
G10  23771504.237 9 124920043.831 9      3521.451 9        54.683 9  23771507.927 6         0.000 6      2743.990 6        37.977 6
G21  21184417.353 9 111324843.857 9     -1271.454 9        55.704 9  21184416.641 6         0.000 6      -990.744 6        37.977 6
G29  24333270.798 9 127872144.144 9     -3124.886 9        54.463 9  24333272.408 6         0.000 6     -2434.979 6        37.977 6
G27  21977935.670 9 115494804.625 9      2485.958 9        55.385 9  21977937.594 6         0.000 6      1937.111 6        37.977 6
G16  20491450.324 9 107683277.943 9       521.993 9        55.979 9  20491449.497 6         0.000 6       406.748 6        37.977 6
G26  20670677.901 9 108625123.148 9     -1515.687 9        55.866 9  20670680.723 6         0.000 6     -1181.055 6        37.977 6
G20  21916414.763 9 115171504.078 9      2540.340 9        55.326 9  21916415.069 6         0.000 6      1979.487 6        37.977 6
> 2019 07 03 12 01 57.0000000  0  8       0.000000000000
G07  25323287.092 9 133074725.953 9      2159.933 9        54.140 9  25323287.749 6         0.000 6      1683.065 6        37.977 6
G10  23770834.141 9 124916522.462 9      3521.307 9        54.683 9  23770837.830 6         0.000 6      2743.879 6        37.977 6
G21  21184659.337 9 111326115.489 9     -1271.812 9        55.704 9  21184658.625 6         0.000 6      -991.022 6        37.977 6
G29  24333865.452 9 127875269.062 9     -3124.970 9        54.463 9  24333867.063 6         0.000 6     -2435.044 6        37.977 6
G27  21977462.631 9 115492318.790 9      2485.719 9        55.385 9  21977464.554 6         0.000 6      1936.924 6        37.977 6
G16  20491351.051 9 107682756.258 9       521.375 9        55.979 9  20491350.224 6         0.000 6       406.266 6        37.977 6
G26  20670966.381 9 108626639.120 9     -1516.260 9        55.866 9  20670969.204 6         0.000 6     -1181.502 6        37.977 6
G20  21915931.395 9 115168963.966 9      2539.892 9        55.327 9  21915931.700 6         0.000 6      1979.137 6        37.977 6
> 2019 07 03 12 01 58.0000000  0  8       0.000000000000
G07  25322876.115 9 133072566.261 9      2159.469 9        54.140 9  25322876.772 6         0.000 6      1682.704 6        37.977 6
G10  23770164.071 9 124913001.230 9      3521.164 9        54.684 9  23770167.759 6         0.000 6      2743.767 6        37.977 6
G21  21184901.388 9 111327387.474 9     -1272.169 9        55.703 9  21184900.676 6         0.000 6      -991.301 6        37.977 6
G29  24334460.121 9 127878394.058 9     -3125.055 9        54.463 9  24334461.733 6         0.000 6     -2435.110 6        37.977 6
G27  21976989.637 9 115489833.195 9      2485.480 9        55.385 9  21976991.561 6         0.000 6      1936.738 6        37.977 6
G16  20491251.895 9 107682235.190 9       520.757 9        55.979 9  20491251.068 6         0.000 6       405.785 6        37.977 6
G26  20671254.969 9 108628155.659 9     -1516.832 9        55.866 9  20671257.792 6         0.000 6     -1181.948 6        37.977 6
G20  21915448.111 9 115166424.296 9      2539.443 9        55.327 9  21915448.416 6         0.000 6      1978.788 6        37.977 6
> 2019 07 03 12 01 59.0000000  0  8       0.000000000000
G07  25322465.226 9 133070407.027 9      2159.005 9        54.140 9  25322465.883 6         0.000 6      1682.343 6        37.977 6
G10  23769494.029 9 124909480.148 9      3521.021 9        54.684 9  23769497.717 6         0.000 6      2743.655 6        37.977 6
G21  21185143.507 9 111328659.821 9     -1272.527 9        55.703 9  21185142.796 6         0.000 6      -991.580 6        37.977 6
G29  24335054.808 9 127881519.145 9     -3125.139 9        54.462 9  24335056.419 6         0.000 6     -2435.176 6        37.977 6
G27  21976516.689 9 115487347.837 9      2485.241 9        55.385 9  21976518.612 6         0.000 6      1936.552 6        37.977 6
G16  20491152.857 9 107681714.743 9       520.138 9        55.979 9  20491152.030 6         0.000 6       405.303 6        37.977 6
G26  20671543.667 9 108629672.776 9     -1517.405 9        55.866 9  20671546.490 6         0.000 6     -1182.394 6        37.977 6
G20  21914964.914 9 115163885.082 9      2538.994 9        55.327 9  21914965.219 6         0.000 6      1978.438 6        37.977 6
> 2019 07 03 12 02  0.0000000  0  8       0.000000000000
G07  25322054.425 9 133068248.259 9      2158.542 9        54.140 9  25322055.082 6         0.000 6      1681.981 6        37.977 6
G10  23768824.014 9 124905959.208 9      3520.877 9        54.684 9  23768827.702 6         0.000 6      2743.543 6        37.977 6
G21  21185385.695 9 111329932.525 9     -1272.884 9        55.703 9  21185384.983 6         0.000 6      -991.858 6        37.977 6
G29  24335649.509 9 127884644.314 9     -3125.223 9        54.462 9  24335651.122 6         0.000 6     -2435.241 6        37.977 6
G27  21976043.786 9 115484862.719 9      2485.002 9        55.386 9  21976045.709 6         0.000 6      1936.366 6        37.977 6
G16  20491053.937 9 107681194.913 9       519.520 9        55.979 9  20491053.110 6         0.000 6       404.821 6        37.977 6
G26  20671832.474 9 108631190.465 9     -1517.978 9        55.866 9  20671835.297 6         0.000 6     -1182.840 6        37.977 6
G20  21914481.802 9 115161346.315 9      2538.545 9        55.327 9  21914482.106 6         0.000 6      1978.088 6        37.977 6
