     3.00           Observation Data    M (Mixed)           RINEX VERSION / TYPE
SimGEN V6.06.00     Spirent             03-Jul-19 12:00     PGM / RUN BY / DATE 
                                                            MARKER NAME         
1                                                           MARKER NUMBER       
GROUND_CRAFT                                                MARKER TYPE         
jin4hi              Spirent                                 OBSERVER / AGENCY   
rec_num             rec_type            rec_vers            REC # / TYPE / VERS 
1                   ant_type                                ANT # / TYPE        
  1000.000                                                  INTERVAL            
  2019     7     3    12     0    1.0000000     GPS         TIME OF FIRST OBS   
  4162651.3790   664409.1060  4770549.9870                  APPROX POSITION XYZ 
        0.0000        0.0000        0.0000                  ANTENNA: DELTA H/E/N
G    8 C1C L1C D1C S1C C2C L2C D2C S2C                      SYS / # / OBS TYPES 
        0.0000        0.0000        0.0000                  ANTENNA: DELTA X/Y/Z
DBHZ                                                        SIGNAL STRENGTH UNIT
                                                            END OF HEADER       
> 2019 07 03 12 00  1.0000000  0  8       0.000000000000
G07  25371577.523 9 133328493.465 9      2213.138 9        54.123 9  25371578.206 6         0.000 6      1724.523 6        37.977 6
G10  23848721.002 9 125325819.442 9      3537.185 9        54.655 9  23848724.767 6         0.000 6      2756.248 6        37.977 6
G21  21157045.330 9 111181002.983 9     -1229.952 9        55.715 9  21157044.613 6         0.000 6      -958.404 6        37.977 6
G29  24264983.659 9 127513293.979 9     -3115.006 9        54.487 9  24264985.197 6         0.000 6     -2427.278 6        37.977 6
G27  22032648.565 9 115782322.516 9      2513.183 9        55.363 9  22032650.508 6         0.000 6      1958.324 6        37.977 6
G16  20503654.680 9 107747412.263 9       592.850 9        55.974 9  20503653.853 6         0.000 6       461.961 6        37.977 6
G26  20638224.380 9 108454578.945 9     -1449.561 9        55.880 9  20638227.190 6         0.000 6     -1129.528 6        37.977 6
G20  21972549.848 9 115466495.420 9      2591.281 9        55.304 9  21972550.185 6         0.000 6      2019.180 6        37.977 6
> 2019 07 03 12 00  2.0000000  0  8       0.000000000000
G07  25371156.410 9 133326280.503 9      2212.738 9        54.123 9  25371157.093 6         0.000 6      1724.213 6        37.977 6
G10  23848047.906 9 125322282.314 9      3537.073 9        54.655 9  23848051.671 6         0.000 6      2756.164 6        37.977 6
G21  21157279.416 9 111182233.117 9     -1230.317 9        55.715 9  21157278.700 6         0.000 6      -958.689 6        37.977 6
G29  24265576.439 9 127516409.046 9     -3115.120 9        54.487 9  24265577.977 6         0.000 6     -2427.369 6        37.977 6
G27  22032170.344 9 115779809.449 9      2512.952 9        55.363 9  22032172.286 6         0.000 6      1958.145 6        37.977 6
G16  20503541.923 9 107746819.719 9       592.237 9        55.974 9  20503541.096 6         0.000 6       461.483 6        37.977 6
G26  20638500.277 9 108456028.795 9     -1450.140 9        55.880 9  20638503.087 6         0.000 6     -1129.979 6        37.977 6
G20  21972056.784 9 115463904.358 9      2590.848 9        55.305 9  21972057.122 6         0.000 6      2018.844 6        37.977 6
> 2019 07 03 12 00  3.0000000  0  8       0.000000000000
G07  25370735.383 9 133324067.996 9      2212.284 9        54.123 9  25370736.066 6         0.000 6      1723.858 6        37.977 6
G10  23847374.836 9 125318745.318 9      3536.942 9        54.656 9  23847378.600 6         0.000 6      2756.061 6        37.977 6
G21  21157513.573 9 111183463.615 9     -1230.681 9        55.715 9  21157512.856 6         0.000 6      -958.972 6        37.977 6
G29  24266169.235 9 127519524.199 9     -3115.207 9        54.487 9  24266170.774 6         0.000 6     -2427.437 6        37.977 6
G27  22031692.167 9 115777296.616 9      2512.718 9        55.364 9  22031694.110 6         0.000 6      1957.963 6        37.977 6
G16  20503429.282 9 107746227.790 9       591.623 9        55.974 9  20503428.456 6         0.000 6       461.005 6        37.977 6
G26  20638776.284 9 108457479.221 9     -1450.716 9        55.880 9  20638779.095 6         0.000 6     -1130.429 6        37.977 6
G20  21971563.804 9 115461313.733 9      2590.410 9        55.305 9  21971564.141 6         0.000 6      2018.503 6        37.977 6
> 2019 07 03 12 00  4.0000000  0  8       0.000000000000
G07  25370314.443 9 133321855.946 9      2211.829 9        54.124 9  25370315.126 6         0.000 6      1723.504 6        37.977 6
G10  23846701.790 9 125315208.447 9      3536.811 9        54.656 9  23846705.554 6         0.000 6      2755.959 6        37.977 6
G21  21157747.798 9 111184694.475 9     -1231.045 9        55.715 9  21157747.081 6         0.000 6      -959.256 6        37.977 6
G29  24266762.047 9 127522639.439 9     -3115.294 9        54.487 9  24266763.587 6         0.000 6     -2427.504 6        37.977 6
G27  22031214.035 9 115774784.017 9      2512.483 9        55.364 9  22031215.977 6         0.000 6      1957.780 6        37.977 6
G16  20503316.758 9 107745636.471 9       591.009 9        55.974 9  20503315.931 6         0.000 6       460.526 6        37.977 6
G26  20639052.400 9 108458930.219 9     -1451.293 9        55.880 9  20639055.211 6         0.000 6     -1130.878 6        37.977 6
G20  21971070.906 9 115458723.542 9      2589.972 9        55.305 9  21971071.243 6         0.000 6      2018.161 6        37.977 6
> 2019 07 03 12 00  5.0000000  0  8       0.000000000000
G07  25369893.589 9 133319644.349 9      2211.374 9        54.124 9  25369894.272 6         0.000 6      1723.149 6        37.977 6
G10  23846028.770 9 125311671.713 9      3536.679 9        54.656 9  23846032.533 6         0.000 6      2755.857 6        37.977 6
G21  21157982.092 9 111185925.701 9     -1231.409 9        55.715 9  21157981.376 6         0.000 6      -959.539 6        37.977 6
G29  24267354.876 9 127525754.766 9     -3115.381 9        54.486 9  24267356.416 6         0.000 6     -2427.572 6        37.977 6
G27  22030735.948 9 115772271.654 9      2512.248 9        55.364 9  22030737.890 6         0.000 6      1957.597 6        37.977 6
G16  20503204.351 9 107745045.769 9       590.395 9        55.974 9  20503203.525 6         0.000 6       460.048 6        37.977 6
G26  20639328.627 9 108460381.799 9     -1451.870 9        55.879 9  20639331.438 6         0.000 6     -1131.328 6        37.977 6
G20  21970578.092 9 115456133.793 9      2589.534 9        55.305 9  21970578.429 6         0.000 6      2017.820 6        37.977 6
> 2019 07 03 12 00  6.0000000  0  8       0.000000000000
G07  25369472.823 9 133317433.209 9      2210.919 9        54.124 9  25369473.505 6         0.000 6      1722.795 6        37.977 6
G10  23845355.774 9 125308135.106 9      3536.548 9        54.656 9  23845359.536 6         0.000 6      2755.754 6        37.977 6
G21  21158216.456 9 111187157.289 9     -1231.773 9        55.714 9  21158215.739 6         0.000 6      -959.823 6        37.977 6
G29  24267947.721 9 127528870.180 9     -3115.467 9        54.486 9  24267949.262 6         0.000 6     -2427.639 6        37.977 6
G27  22030257.905 9 115769759.524 9      2512.013 9        55.364 9  22030259.847 6         0.000 6      1957.414 6        37.977 6
G16  20503092.061 9 107744455.678 9       589.781 9        55.974 9  20503091.234 6         0.000 6       459.570 6        37.977 6
G26  20639604.963 9 108461833.951 9     -1452.446 9        55.879 9  20639607.773 6         0.000 6     -1131.777 6        37.977 6
G20  21970085.361 9 115453544.479 9      2589.096 9        55.305 9  21970085.697 6         0.000 6      2017.479 6        37.977 6
> 2019 07 03 12 00  7.0000000  0  8       0.000000000000
G07  25369052.142 9 133315222.521 9      2210.464 9        54.124 9  25369052.824 6         0.000 6      1722.440 6        37.977 6
G10  23844682.804 9 125304598.634 9      3536.416 9        54.657 9  23844686.565 6         0.000 6      2755.652 6        37.977 6
G21  21158450.889 9 111188389.243 9     -1232.136 9        55.714 9  21158450.172 6         0.000 6      -960.106 6        37.977 6
G29  24268540.583 9 127531985.681 9     -3115.554 9        54.486 9  24268542.125 6         0.000 6     -2427.707 6        37.977 6
G27  22029779.907 9 115767247.630 9      2511.779 9        55.364 9  22029781.849 6         0.000 6      1957.231 6        37.977 6
G16  20502979.887 9 107743866.203 9       589.167 9        55.974 9  20502979.061 6         0.000 6       459.091 6        37.977 6
G26  20639881.409 9 108463286.684 9     -1453.023 9        55.879 9  20639884.220 6         0.000 6     -1132.226 6        37.977 6
G20  21969592.714 9 115450955.606 9      2588.658 9        55.306 9  21969593.050 6         0.000 6      2017.137 6        37.977 6
> 2019 07 03 12 00  8.0000000  0  8       0.000000000000
G07  25368631.549 9 133313012.291 9      2210.009 9        54.124 9  25368632.230 6         0.000 6      1722.086 6        37.977 6
G10  23844009.858 9 125301062.290 9      3536.285 9        54.657 9  23844013.618 6         0.000 6      2755.549 6        37.977 6
G21  21158685.391 9 111189621.558 9     -1232.500 9        55.714 9  21158684.674 6         0.000 6      -960.390 6        37.977 6
G29  24269133.462 9 127535101.269 9     -3115.641 9        54.486 9  24269135.004 6         0.000 6     -2427.775 6        37.977 6
G27  22029301.953 9 115764735.970 9      2511.544 9        55.365 9  22029303.895 6         0.000 6      1957.048 6        37.977 6
G16  20502867.830 9 107743277.340 9       588.553 9        55.974 9  20502867.004 6         0.000 6       458.613 6        37.977 6
G26  20640157.964 9 108464739.988 9     -1453.600 9        55.879 9  20640160.775 6         0.000 6     -1132.675 6        37.977 6
G20  21969100.150 9 115448367.167 9      2588.220 9        55.306 9  21969100.486 6         0.000 6      2016.796 6        37.977 6
> 2019 07 03 12 00  9.0000000  0  8       0.000000000000
G07  25368211.042 9 133310802.517 9      2209.553 9        54.124 9  25368211.723 6         0.000 6      1721.731 6        37.977 6
G10  23843336.937 9 125297526.080 9      3536.153 9        54.657 9  23843340.697 6         0.000 6      2755.447 6        37.977 6
G21  21158919.962 9 111190854.237 9     -1232.864 9        55.714 9  21158919.245 6         0.000 6      -960.673 6        37.977 6
G29  24269726.356 9 127538216.938 9     -3115.728 9        54.486 9  24269727.899 6         0.000 6     -2427.842 6        37.977 6
G27  22028824.045 9 115762224.550 9      2511.309 9        55.365 9  22028825.987 6         0.000 6      1956.865 6        37.977 6
G16  20502755.891 9 107742689.095 9       587.939 9        55.974 9  20502755.064 6         0.000 6       458.135 6        37.977 6
G26  20640434.630 9 108466193.874 9     -1454.176 9        55.879 9  20640437.441 6         0.000 6     -1133.125 6        37.977 6
G20  21968607.669 9 115445779.168 9      2587.782 9        55.306 9  21968608.005 6         0.000 6      2016.454 6        37.977 6
> 2019 07 03 12 00 10.0000000  0  8       0.000000000000
G07  25367790.622 9 133308593.197 9      2209.098 9        54.124 9  25367791.303 6         0.000 6      1721.376 6        37.977 6
G10  23842664.041 9 125293989.999 9      3536.021 9        54.657 9  23842667.801 6         0.000 6      2755.344 6        37.977 6
G21  21159154.602 9 111192087.280 9     -1233.228 9        55.714 9  21159153.886 6         0.000 6      -960.957 6        37.977 6
G29  24270319.267 9 127541332.699 9     -3115.814 9        54.485 9  24270320.811 6         0.000 6     -2427.910 6        37.977 6
G27  22028346.181 9 115759713.360 9      2511.074 9        55.365 9  22028348.122 6         0.000 6      1956.682 6        37.977 6
G16  20502644.068 9 107742101.460 9       587.325 9        55.974 9  20502643.241 6         0.000 6       457.656 6        37.977 6
G26  20640711.404 9 108467648.332 9     -1454.753 9        55.879 9  20640714.215 6         0.000 6     -1133.574 6        37.977 6
G20  21968115.271 9 115443191.606 9      2587.343 9        55.306 9  21968115.607 6         0.000 6      2016.113 6        37.977 6
> 2019 07 03 12 00 11.0000000  0  8       0.000000000000
G07  25367370.288 9 133306384.330 9      2208.643 9        54.125 9  25367370.968 6         0.000 6      1721.021 6        37.977 6
G10  23841991.172 9 125290454.055 9      3535.889 9        54.657 9  23841994.930 6         0.000 6      2755.241 6        37.977 6
G21  21159389.312 9 111193320.689 9     -1233.591 9        55.714 9  21159388.596 6         0.000 6      -961.240 6        37.977 6
G29  24270912.195 9 127544448.546 9     -3115.901 9        54.485 9  24270913.740 6         0.000 6     -2427.978 6        37.977 6
G27  22027868.362 9 115757202.406 9      2510.839 9        55.365 9  22027870.303 6         0.000 6      1956.499 6        37.977 6
G16  20502532.362 9 107741514.442 9       586.711 9        55.974 9  20502531.535 6         0.000 6       457.178 6        37.977 6
G26  20640988.289 9 108469103.372 9     -1455.329 9        55.879 9  20640991.100 6         0.000 6     -1134.023 6        37.977 6
G20  21967622.958 9 115440604.487 9      2586.905 9        55.306 9  21967623.293 6         0.000 6      2015.771 6        37.977 6
> 2019 07 03 12 00 12.0000000  0  8       0.000000000000
G07  25366950.041 9 133304175.922 9      2208.187 9        54.125 9  25366950.721 6         0.000 6      1720.666 6        37.977 6
G10  23841318.326 9 125286918.238 9      3535.757 9        54.658 9  23841322.084 6         0.000 6      2755.138 6        37.977 6
G21  21159624.091 9 111194554.458 9     -1233.955 9        55.714 9  21159623.375 6         0.000 6      -961.523 6        37.977 6
G29  24271505.140 9 127547564.481 9     -3115.988 9        54.485 9  24271506.685 6         0.000 6     -2428.045 6        37.977 6
G27  22027390.587 9 115754691.685 9      2510.604 9        55.365 9  22027392.528 6         0.000 6      1956.315 6        37.977 6
G16  20502420.772 9 107740928.034 9       586.097 9        55.974 9  20502419.946 6         0.000 6       456.699 6        37.977 6
G26  20641265.283 9 108470558.983 9     -1455.906 9        55.879 9  20641268.094 6         0.000 6     -1134.472 6        37.977 6
G20  21967130.728 9 115438017.802 9      2586.466 9        55.306 9  21967131.062 6         0.000 6      2015.429 6        37.977 6
> 2019 07 03 12 00 13.0000000  0  8       0.000000000000
G07  25366529.880 9 133301967.966 9      2207.732 9        54.125 9  25366530.560 6         0.000 6      1720.311 6        37.977 6
G10  23840645.506 9 125283382.558 9      3535.625 9        54.658 9  23840649.264 6         0.000 6      2755.035 6        37.977 6
G21  21159858.939 9 111195788.594 9     -1234.318 9        55.714 9  21159858.223 6         0.000 6      -961.807 6        37.977 6
G29  24272098.101 9 127550680.502 9     -3116.075 9        54.485 9  24272099.646 6         0.000 6     -2428.113 6        37.977 6
G27  22026912.857 9 115752181.202 9      2510.369 9        55.365 9  22026914.798 6         0.000 6      1956.132 6        37.977 6
G16  20502309.300 9 107740342.245 9       585.483 9        55.974 9  20502308.474 6         0.000 6       456.220 6        37.977 6
G26  20641542.388 9 108472015.175 9     -1456.482 9        55.878 9  20641545.199 6         0.000 6     -1134.922 6        37.977 6
G20  21966638.581 9 115435431.560 9      2586.027 9        55.307 9  21966638.916 6         0.000 6      2015.087 6        37.977 6
> 2019 07 03 12 00 14.0000000  0  8       0.000000000000
G07  25366109.806 9 133299760.465 9      2207.276 9        54.125 9  25366110.486 6         0.000 6      1719.956 6        37.977 6
G10  23839972.712 9 125279847.010 9      3535.493 9        54.658 9  23839976.468 6         0.000 6      2754.932 6        37.977 6
G21  21160093.857 9 111197023.094 9     -1234.682 9        55.714 9  21160093.141 6         0.000 6      -962.090 6        37.977 6
G29  24272691.079 9 127553796.610 9     -3116.161 9        54.485 9  24272692.624 6         0.000 6     -2428.180 6        37.977 6
G27  22026435.173 9 115749670.953 9      2510.134 9        55.366 9  22026437.113 6         0.000 6      1955.949 6        37.977 6
G16  20502197.945 9 107739757.069 9       584.869 9        55.974 9  20502197.118 6         0.000 6       455.742 6        37.977 6
G26  20641819.602 9 108473471.944 9     -1457.059 9        55.878 9  20641822.413 6         0.000 6     -1135.371 6        37.977 6
G20  21966146.518 9 115432845.757 9      2585.588 9        55.307 9  21966146.852 6         0.000 6      2014.745 6        37.977 6
> 2019 07 03 12 00 15.0000000  0  8       0.000000000000
G07  25365689.819 9 133297553.424 9      2206.821 9        54.125 9  25365690.499 6         0.000 6      1719.601 6        37.977 6
G10  23839299.942 9 125276311.590 9      3535.360 9        54.658 9  23839303.698 6         0.000 6      2754.829 6        37.977 6
G21  21160328.843 9 111198257.954 9     -1235.045 9        55.714 9  21160328.127 6         0.000 6      -962.373 6        37.977 6
G29  24273284.073 9 127556912.804 9     -3116.248 9        54.484 9  24273285.619 6         0.000 6     -2428.248 6        37.977 6
G27  22025957.532 9 115747160.938 9      2509.899 9        55.366 9  22025959.472 6         0.000 6      1955.766 6        37.977 6
G16  20502086.706 9 107739172.504 9       584.254 9        55.975 9  20502085.879 6         0.000 6       455.263 6        37.977 6
G26  20642096.925 9 108474929.284 9     -1457.635 9        55.878 9  20642099.736 6         0.000 6     -1135.820 6        37.977 6
G20  21965654.538 9 115430260.388 9      2585.149 9        55.307 9  21965654.872 6         0.000 6      2014.403 6        37.977 6
> 2019 07 03 12 00 16.0000000  0  8       0.000000000000
G07  25365269.918 9 133295346.835 9      2206.365 9        54.125 9  25365270.598 6         0.000 6      1719.246 6        37.977 6
G10  23838627.198 9 125272776.306 9      3535.228 9        54.659 9  23838630.953 6         0.000 6      2754.726 6        37.977 6
G21  21160563.899 9 111199493.180 9     -1235.408 9        55.713 9  21160563.183 6         0.000 6      -962.656 6        37.977 6
G29  24273877.083 9 127560029.085 9     -3116.334 9        54.484 9  24273878.630 6         0.000 6     -2428.315 6        37.977 6
G27  22025479.936 9 115744651.159 9      2509.664 9        55.366 9  22025481.877 6         0.000 6      1955.583 6        37.977 6
G16  20501975.585 9 107738588.557 9       583.640 9        55.975 9  20501974.758 6         0.000 6       454.784 6        37.977 6
G26  20642374.358 9 108476387.205 9     -1458.211 9        55.878 9  20642377.170 6         0.000 6     -1136.269 6        37.977 6
G20  21965162.642 9 115427675.463 9      2584.710 9        55.307 9  21965162.976 6         0.000 6      2014.061 6        37.977 6
> 2019 07 03 12 00 17.0000000  0  8       0.000000000000
G07  25364850.106 9 133293140.707 9      2205.909 9        54.125 9  25364850.785 6         0.000 6      1718.891 6        37.977 6
G10  23837954.478 9 125269241.149 9      3535.095 9        54.659 9  23837958.232 6         0.000 6      2754.622 6        37.977 6
G21  21160799.023 9 111200728.765 9     -1235.772 9        55.713 9  21160798.307 6         0.000 6      -962.939 6        37.977 6
G29  24274470.109 9 127563145.447 9     -3116.421 9        54.484 9  24274471.657 6         0.000 6     -2428.382 6        37.977 6
G27  22025002.386 9 115742141.618 9      2509.428 9        55.366 9  22025004.326 6         0.000 6      1955.399 6        37.977 6
G16  20501864.580 9 107738005.223 9       583.026 9        55.975 9  20501863.753 6         0.000 6       454.306 6        37.977 6
G26  20642651.901 9 108477845.698 9     -1458.788 9        55.878 9  20642654.712 6         0.000 6     -1136.718 6        37.977 6
G20  21964670.829 9 115425090.969 9      2584.271 9        55.307 9  21964671.162 6         0.000 6      2013.719 6        37.977 6
> 2019 07 03 12 00 18.0000000  0  8       0.000000000000
G07  25364430.379 9 133290935.030 9      2205.453 9        54.126 9  25364431.058 6         0.000 6      1718.536 6        37.977 6
G10  23837281.784 9 125265706.131 9      3534.962 9        54.659 9  23837285.538 6         0.000 6      2754.519 6        37.977 6
G21  21161034.217 9 111201964.717 9     -1236.135 9        55.713 9  21161033.501 6         0.000 6      -963.222 6        37.977 6
G29  24275063.152 9 127566261.901 9     -3116.507 9        54.484 9  24275064.701 6         0.000 6     -2428.450 6        37.977 6
G27  22024524.880 9 115739632.310 9      2509.193 9        55.366 9  22024526.820 6         0.000 6      1955.216 6        37.977 6
G16  20501753.692 9 107737422.504 9       582.411 9        55.975 9  20501752.865 6         0.000 6       453.827 6        37.977 6
G26  20642929.553 9 108479304.772 9     -1459.364 9        55.878 9  20642932.365 6         0.000 6     -1137.167 6        37.977 6
G20  21964179.100 9 115422506.922 9      2583.832 9        55.308 9  21964179.433 6         0.000 6      2013.377 6        37.977 6
> 2019 07 03 12 00 19.0000000  0  8       0.000000000000
G07  25364010.739 9 133288729.811 9      2204.997 9        54.126 9  25364011.418 6         0.000 6      1718.180 6        37.977 6
G10  23836609.115 9 125262171.242 9      3534.830 9        54.659 9  23836612.868 6         0.000 6      2754.415 6        37.977 6
G21  21161269.480 9 111203201.031 9     -1236.498 9        55.713 9  21161268.764 6         0.000 6      -963.505 6        37.977 6
G29  24275656.212 9 127569378.442 9     -3116.594 9        54.483 9  24275657.761 6         0.000 6     -2428.517 6        37.977 6
G27  22024047.419 9 115737123.235 9      2508.958 9        55.367 9  22024049.358 6         0.000 6      1955.033 6        37.977 6
G16  20501642.921 9 107736840.397 9       581.797 9        55.975 9  20501642.094 6         0.000 6       453.348 6        37.977 6
G26  20643207.315 9 108480764.417 9     -1459.940 9        55.878 9  20643210.127 6         0.000 6     -1137.616 6        37.977 6
G20  21963687.454 9 115419923.310 9      2583.393 9        55.308 9  21963687.787 6         0.000 6      2013.034 6        37.977 6
> 2019 07 03 12 00 20.0000000  0  8       0.000000000000
G07  25363591.185 9 133286525.046 9      2204.541 9        54.126 9  25363591.864 6         0.000 6      1717.825 6        37.977 6
G10  23835936.472 9 125258636.489 9      3534.697 9        54.660 9  23835940.224 6         0.000 6      2754.312 6        37.977 6
G21  21161504.812 9 111204437.710 9     -1236.861 9        55.713 9  21161504.096 6         0.000 6      -963.788 6        37.977 6
G29  24276249.289 9 127572495.069 9     -3116.680 9        54.483 9  24276250.838 6         0.000 6     -2428.585 6        37.977 6
G27  22023570.002 9 115734614.398 9      2508.723 9        55.367 9  22023571.942 6         0.000 6      1954.849 6        37.977 6
G16  20501532.267 9 107736258.907 9       581.182 9        55.975 9  20501531.440 6         0.000 6       452.869 6        37.977 6
G26  20643485.187 9 108482224.643 9     -1460.516 9        55.878 9  20643487.999 6         0.000 6     -1138.065 6        37.977 6
G20  21963195.893 9 115417340.142 9      2582.953 9        55.308 9  21963196.225 6         0.000 6      2012.692 6        37.977 6
> 2019 07 03 12 00 21.0000000  0  8       0.000000000000
G07  25363171.719 9 133284320.739 9      2204.085 9        54.126 9  25363172.397 6         0.000 6      1717.470 6        37.977 6
G10  23835263.853 9 125255101.866 9      3534.564 9        54.660 9  23835267.605 6         0.000 6      2754.208 6        37.977 6
G21  21161740.213 9 111205674.749 9     -1237.224 9        55.713 9  21161739.497 6         0.000 6      -964.071 6        37.977 6
G29  24276842.381 9 127575611.782 9     -3116.767 9        54.483 9  24276843.932 6         0.000 6     -2428.652 6        37.977 6
G27  22023092.630 9 115732105.794 9      2508.487 9        55.367 9  22023094.570 6         0.000 6      1954.666 6        37.977 6
G16  20501421.729 9 107735678.029 9       580.568 9        55.975 9  20501420.903 6         0.000 6       452.391 6        37.977 6
G26  20643763.168 9 108483685.441 9     -1461.092 9        55.878 9  20643765.980 6         0.000 6     -1138.514 6        37.977 6
G20  21962704.414 9 115414757.409 9      2582.514 9        55.308 9  21962704.746 6         0.000 6      2012.350 6        37.977 6
> 2019 07 03 12 00 22.0000000  0  8       0.000000000000
G07  25362752.339 9 133282116.886 9      2203.629 9        54.126 9  25362753.017 6         0.000 6      1717.114 6        37.977 6
G10  23834591.261 9 125251567.379 9      3534.430 9        54.660 9  23834595.012 6         0.000 6      2754.104 6        37.977 6
G21  21161975.684 9 111206912.154 9     -1237.587 9        55.713 9  21161974.968 6         0.000 6      -964.354 6        37.977 6
G29  24277435.491 9 127578728.582 9     -3116.853 9        54.483 9  24277437.041 6         0.000 6     -2428.719 6        37.977 6
G27  22022615.303 9 115729597.427 9      2508.252 9        55.367 9  22022617.243 6         0.000 6      1954.483 6        37.977 6
G16  20501311.310 9 107735097.768 9       579.953 9        55.975 9  20501310.483 6         0.000 6       451.912 6        37.977 6
G26  20644041.260 9 108485146.820 9     -1461.669 9        55.877 9  20644044.072 6         0.000 6     -1138.963 6        37.977 6
G20  21962213.020 9 115412175.119 9      2582.074 9        55.308 9  21962213.352 6         0.000 6      2012.007 6        37.977 6
> 2019 07 03 12 00 23.0000000  0  8       0.000000000000
G07  25362333.046 9 133279913.489 9      2203.172 9        54.126 9  25362333.724 6         0.000 6      1716.758 6        37.977 6
G10  23833918.694 9 125248033.026 9      3534.297 9        54.660 9  23833922.444 6         0.000 6      2754.000 6        37.977 6
G21  21162211.223 9 111208149.922 9     -1237.950 9        55.713 9  21162210.507 6         0.000 6      -964.637 6        37.977 6
G29  24278028.616 9 127581845.469 9     -3116.940 9        54.483 9  24278030.168 6         0.000 6     -2428.787 6        37.977 6
G27  22022138.021 9 115727089.296 9      2508.016 9        55.367 9  22022139.960 6         0.000 6      1954.299 6        37.977 6
G16  20501201.007 9 107734518.122 9       579.339 9        55.975 9  20501200.180 6         0.000 6       451.433 6        37.977 6
G26  20644319.461 9 108486608.775 9     -1462.245 9        55.877 9  20644322.273 6         0.000 6     -1139.412 6        37.977 6
G20  21961721.709 9 115409593.269 9      2581.635 9        55.309 9  21961722.041 6         0.000 6      2011.664 6        37.977 6
> 2019 07 03 12 00 24.0000000  0  8       0.000000000000
G07  25361913.840 9 133277710.552 9      2202.716 9        54.126 9  25361914.518 6         0.000 6      1716.403 6        37.977 6
G10  23833246.151 9 125244498.802 9      3534.164 9        54.661 9  23833249.901 6         0.000 6      2753.897 6        37.977 6
G21  21162446.831 9 111209388.051 9     -1238.313 9        55.713 9  21162446.116 6         0.000 6      -964.919 6        37.977 6
G29  24278621.758 9 127584962.442 9     -3117.026 9        54.482 9  24278623.311 6         0.000 6     -2428.854 6        37.977 6
G27  22021660.784 9 115724581.398 9      2507.781 9        55.368 9  22021662.723 6         0.000 6      1954.116 6        37.977 6
G16  20501090.820 9 107733939.087 9       578.724 9        55.975 9  20501089.993 6         0.000 6       450.954 6        37.977 6
G26  20644597.770 9 108488071.301 9     -1462.821 9        55.877 9  20644600.583 6         0.000 6     -1139.861 6        37.977 6
G20  21961230.482 9 115407011.855 9      2581.195 9        55.309 9  21961230.813 6         0.000 6      2011.322 6        37.977 6
> 2019 07 03 12 00 25.0000000  0  8       0.000000000000
G07  25361494.721 9 133275508.070 9      2202.259 9        54.127 9  25361495.399 6         0.000 6      1716.047 6        37.977 6
G10  23832573.634 9 125240964.714 9      3534.030 9        54.661 9  23832577.384 6         0.000 6      2753.793 6        37.977 6
G21  21162682.509 9 111210626.542 9     -1238.676 9        55.713 9  21162681.793 6         0.000 6      -965.202 6        37.977 6
G29  24279214.916 9 127588079.496 9     -3117.113 9        54.482 9  24279216.469 6         0.000 6     -2428.921 6        37.977 6
G27  22021183.592 9 115722073.741 9      2507.545 9        55.368 9  22021185.531 6         0.000 6      1953.932 6        37.977 6
G16  20500980.751 9 107733360.672 9       578.110 9        55.975 9  20500979.924 6         0.000 6       450.475 6        37.977 6
G26  20644876.191 9 108489534.408 9     -1463.397 9        55.877 9  20644879.003 6         0.000 6     -1140.310 6        37.977 6
G20  21960739.338 9 115404430.881 9      2580.755 9        55.309 9  21960739.669 6         0.000 6      2010.979 6        37.977 6
> 2019 07 03 12 00 26.0000000  0  8       0.000000000000
G07  25361075.689 9 133273306.046 9      2201.803 9        54.127 9  25361076.366 6         0.000 6      1715.692 6        37.977 6
G10  23831901.143 9 125237430.756 9      3533.897 9        54.661 9  23831904.891 6         0.000 6      2753.689 6        37.977 6
G21  21162918.255 9 111211865.397 9     -1239.039 9        55.713 9  21162917.539 6         0.000 6      -965.485 6        37.977 6
G29  24279808.091 9 127591196.641 9     -3117.199 9        54.482 9  24279809.644 6         0.000 6     -2428.989 6        37.977 6
G27  22020706.444 9 115719566.314 9      2507.310 9        55.368 9  22020708.383 6         0.000 6      1953.749 6        37.977 6
G16  20500870.798 9 107732782.867 9       577.495 9        55.975 9  20500869.972 6         0.000 6       449.996 6        37.977 6
G26  20645154.720 9 108490998.086 9     -1463.973 9        55.877 9  20645157.533 6         0.000 6     -1140.758 6        37.977 6
G20  21960248.277 9 115401850.347 9      2580.315 9        55.309 9  21960248.608 6         0.000 6      2010.636 6        37.977 6
> 2019 07 03 12 00 27.0000000  0  8       0.000000000000
G07  25360656.743 9 133271104.475 9      2201.346 9        54.127 9  25360657.420 6         0.000 6      1715.336 6        37.977 6
G10  23831228.677 9 125233896.937 9      3533.763 9        54.661 9  23831232.425 6         0.000 6      2753.584 6        37.977 6
G21  21163154.071 9 111213104.616 9     -1239.401 9        55.712 9  21163153.355 6         0.000 6      -965.767 6        37.977 6
G29  24280401.282 9 127594313.873 9     -3117.285 9        54.482 9  24280402.836 6         0.000 6     -2429.056 6        37.977 6
G27  22020229.341 9 115717059.125 9      2507.074 9        55.368 9  22020231.280 6         0.000 6      1953.565 6        37.977 6
G16  20500760.963 9 107732205.679 9       576.880 9        55.975 9  20500760.136 6         0.000 6       449.517 6        37.977 6
G26  20645433.359 9 108492462.345 9     -1464.549 9        55.877 9  20645436.172 6         0.000 6     -1141.207 6        37.977 6
G20  21959757.302 9 115399270.256 9      2579.875 9        55.309 9  21959757.632 6         0.000 6      2010.293 6        37.977 6
> 2019 07 03 12 00 28.0000000  0  8       0.000000000000
G07  25360237.885 9 133268903.363 9      2200.890 9        54.127 9  25360238.562 6         0.000 6      1714.980 6        37.977 6
G10  23830556.236 9 125230363.247 9      3533.629 9        54.662 9  23830559.984 6         0.000 6      2753.480 6        37.977 6
G21  21163389.955 9 111214344.195 9     -1239.764 9        55.712 9  21163389.239 6         0.000 6      -966.050 6        37.977 6
G29  24280994.490 9 127597431.191 9     -3117.372 9        54.482 9  24280996.045 6         0.000 6     -2429.123 6        37.977 6
G27  22019752.283 9 115714552.169 9      2506.839 9        55.368 9  22019754.221 6         0.000 6      1953.381 6        37.977 6
G16  20500651.244 9 107731629.103 9       576.265 9        55.975 9  20500650.418 6         0.000 6       449.038 6        37.977 6
G26  20645712.107 9 108493927.175 9     -1465.125 9        55.877 9  20645714.921 6         0.000 6     -1141.656 6        37.977 6
G20  21959266.409 9 115396690.602 9      2579.435 9        55.310 9  21959266.739 6         0.000 6      2009.950 6        37.977 6
> 2019 07 03 12 00 29.0000000  0  8       0.000000000000
G07  25359819.113 9 133266702.706 9      2200.433 9        54.127 9  25359819.790 6         0.000 6      1714.624 6        37.977 6
G10  23829883.822 9 125226829.695 9      3533.495 9        54.662 9  23829887.568 6         0.000 6      2753.376 6        37.977 6
G21  21163625.909 9 111215584.140 9     -1240.127 9        55.712 9  21163625.193 6         0.000 6      -966.333 6        37.977 6
G29  24281587.715 9 127600548.596 9     -3117.458 9        54.481 9  24281589.270 6         0.000 6     -2429.191 6        37.977 6
G27  22019275.270 9 115712045.451 9      2506.603 9        55.368 9  22019277.208 6         0.000 6      1953.198 6        37.977 6
G16  20500541.643 9 107731053.145 9       575.650 9        55.975 9  20500540.817 6         0.000 6       448.559 6        37.977 6
G26  20645990.966 9 108495392.585 9     -1465.700 9        55.877 9  20645993.779 6         0.000 6     -1142.105 6        37.977 6
G20  21958775.601 9 115394111.392 9      2578.994 9        55.310 9  21958775.931 6         0.000 6      2009.607 6        37.977 6
> 2019 07 03 12 00 30.0000000  0  8       0.000000000000
G07  25359400.429 9 133264502.508 9      2199.976 9        54.127 9  25359401.105 6         0.000 6      1714.268 6        37.977 6
G10  23829211.432 9 125223296.273 9      3533.362 9        54.662 9  23829215.178 6         0.000 6      2753.271 6        37.977 6
G21  21163861.931 9 111216824.445 9     -1240.489 9        55.712 9  21163861.215 6         0.000 6      -966.615 6        37.977 6
G29  24282180.955 9 127603666.087 9     -3117.544 9        54.481 9  24282182.511 6         0.000 6     -2429.258 6        37.977 6
G27  22018798.301 9 115709538.967 9      2506.367 9        55.369 9  22018800.239 6         0.000 6      1953.014 6        37.977 6
G16  20500432.159 9 107730477.799 9       575.036 9        55.975 9  20500431.332 6         0.000 6       448.080 6        37.977 6
G26  20646269.934 9 108496858.567 9     -1466.276 9        55.877 9  20646272.747 6         0.000 6     -1142.553 6        37.977 6
G20  21958284.876 9 115391532.618 9      2578.554 9        55.310 9  21958285.205 6         0.000 6      2009.264 6        37.977 6
> 2019 07 03 12 00 31.0000000  0  8       0.000000000000
G07  25358981.831 9 133262302.764 9      2199.519 9        54.127 9  25358982.507 6         0.000 6      1713.912 6        37.977 6
G10  23828539.068 9 125219762.989 9      3533.227 9        54.662 9  23828542.814 6         0.000 6      2753.167 6        37.977 6
G21  21164098.023 9 111218065.115 9     -1240.852 9        55.712 9  21164097.307 6         0.000 6      -966.898 6        37.977 6
G29  24282774.212 9 127606783.664 9     -3117.630 9        54.481 9  24282775.769 6         0.000 6     -2429.325 6        37.977 6
G27  22018321.378 9 115707032.720 9      2506.132 9        55.369 9  22018323.315 6         0.000 6      1952.831 6        37.977 6
G16  20500322.791 9 107729903.071 9       574.421 9        55.975 9  20500321.965 6         0.000 6       447.601 6        37.977 6
G26  20646549.011 9 108498325.130 9     -1466.852 9        55.876 9  20646551.825 6         0.000 6     -1143.002 6        37.977 6
G20  21957794.235 9 115388954.289 9      2578.114 9        55.310 9  21957794.564 6         0.000 6      2008.921 6        37.977 6
> 2019 07 03 12 00 32.0000000  0  8       0.000000000000
G07  25358563.319 9 133260103.477 9      2199.062 9        54.128 9  25358563.996 6         0.000 6      1713.556 6        37.977 6
G10  23827866.730 9 125216229.840 9      3533.093 9        54.663 9  23827870.475 6         0.000 6      2753.062 6        37.977 6
G21  21164334.183 9 111219306.147 9     -1241.214 9        55.712 9  21164333.468 6         0.000 6      -967.180 6        37.977 6
G29  24283367.486 9 127609901.327 9     -3117.717 9        54.481 9  24283369.043 6         0.000 6     -2429.392 6        37.977 6
G27  22017844.499 9 115704526.709 9      2505.896 9        55.369 9  22017846.437 6         0.000 6      1952.647 6        37.977 6
G16  20500213.541 9 107729328.958 9       573.806 9        55.975 9  20500212.715 6         0.000 6       447.121 6        37.977 6
G26  20646828.199 9 108499792.268 9     -1467.428 9        55.876 9  20646831.012 6         0.000 6     -1143.451 6        37.977 6
G20  21957303.678 9 115386376.400 9      2577.673 9        55.310 9  21957304.007 6         0.000 6      2008.578 6        37.977 6
> 2019 07 03 12 00 33.0000000  0  8       0.000000000000
G07  25358144.896 9 133257904.653 9      2198.605 9        54.128 9  25358145.572 6         0.000 6      1713.200 6        37.977 6
G10  23827194.416 9 125212696.818 9      3532.959 9        54.663 9  23827198.160 6         0.000 6      2752.958 6        37.977 6
G21  21164570.412 9 111220547.537 9     -1241.576 9        55.712 9  21164569.697 6         0.000 6      -967.462 6        37.977 6
G29  24283960.775 9 127613019.072 9     -3117.803 9        54.481 9  24283962.333 6         0.000 6     -2429.459 6        37.977 6
G27  22017367.666 9 115702020.936 9      2505.660 9        55.369 9  22017369.603 6         0.000 6      1952.463 6        37.977 6
G16  20500104.408 9 107728755.458 9       573.191 9        55.975 9  20500103.581 6         0.000 6       446.642 6        37.977 6
G26  20647107.495 9 108501259.977 9     -1468.004 9        55.876 9  20647110.309 6         0.000 6     -1143.899 6        37.977 6
G20  21956813.204 9 115383798.944 9      2577.233 9        55.311 9  21956813.532 6         0.000 6      2008.234 6        37.977 6
> 2019 07 03 12 00 34.0000000  0  8       0.000000000000
G07  25357726.559 9 133255706.280 9      2198.148 9        54.128 9  25357727.235 6         0.000 6      1712.843 6        37.977 6
G10  23826522.129 9 125209163.937 9      3532.825 9        54.663 9  23826525.873 6         0.000 6      2752.853 6        37.977 6
G21  21164806.711 9 111221789.294 9     -1241.939 9        55.712 9  21164805.995 6         0.000 6      -967.745 6        37.977 6
G29  24284554.081 9 127616136.907 9     -3117.889 9        54.480 9  24284555.640 6         0.000 6     -2429.526 6        37.977 6
G27  22016890.877 9 115699515.396 9      2505.424 9        55.369 9  22016892.814 6         0.000 6      1952.279 6        37.977 6
G16  20499995.392 9 107728182.575 9       572.576 9        55.975 9  20499994.565 6         0.000 6       446.163 6        37.977 6
G26  20647386.902 9 108502728.267 9     -1468.579 9        55.876 9  20647389.715 6         0.000 6     -1144.348 6        37.977 6
G20  21956322.815 9 115381221.936 9      2576.792 9        55.311 9  21956323.143 6         0.000 6      2007.891 6        37.977 6
> 2019 07 03 12 00 35.0000000  0  8       0.000000000000
G07  25357308.310 9 133253508.367 9      2197.691 9        54.128 9  25357308.985 6         0.000 6      1712.487 6        37.977 6
G10  23825849.867 9 125205631.186 9      3532.690 9        54.663 9  23825853.610 6         0.000 6      2752.748 6        37.977 6
G21  21165043.078 9 111223031.411 9     -1242.301 9        55.712 9  21165042.362 6         0.000 6      -968.027 6        37.977 6
G29  24285147.404 9 127619254.829 9     -3117.975 9        54.480 9  24285148.963 6         0.000 6     -2429.594 6        37.977 6
G27  22016414.133 9 115697010.091 9      2505.188 9        55.370 9  22016416.070 6         0.000 6      1952.096 6        37.977 6
G16  20499886.492 9 107727610.303 9       571.961 9        55.975 9  20499885.665 6         0.000 6       445.684 6        37.977 6
G26  20647666.417 9 108504197.128 9     -1469.155 9        55.876 9  20647669.231 6         0.000 6     -1144.797 6        37.977 6
G20  21955832.509 9 115378645.365 9      2576.351 9        55.311 9  21955832.837 6         0.000 6      2007.547 6        37.977 6
> 2019 07 03 12 00 36.0000000  0  8       0.000000000000
G07  25356890.147 9 133251310.909 9      2197.233 9        54.128 9  25356890.822 6         0.000 6      1712.131 6        37.977 6
G10  23825177.631 9 125202098.574 9      3532.555 9        54.664 9  23825181.374 6         0.000 6      2752.643 6        37.977 6
G21  21165279.514 9 111224273.892 9     -1242.663 9        55.712 9  21165278.799 6         0.000 6      -968.309 6        37.977 6
G29  24285740.743 9 127622372.837 9     -3118.061 9        54.480 9  24285742.303 6         0.000 6     -2429.661 6        37.977 6
G27  22015937.434 9 115694505.023 9      2504.952 9        55.370 9  22015939.371 6         0.000 6      1951.912 6        37.977 6
G16  20499777.710 9 107727038.650 9       571.346 9        55.975 9  20499776.883 6         0.000 6       445.204 6        37.977 6
G26  20647946.043 9 108505666.569 9     -1469.731 9        55.876 9  20647948.856 6         0.000 6     -1145.245 6        37.977 6
G20  21955342.287 9 115376069.240 9      2575.910 9        55.311 9  21955342.615 6         0.000 6      2007.204 6        37.977 6
> 2019 07 03 12 00 37.0000000  0  8       0.000000000000
G07  25356472.071 9 133249113.911 9      2196.776 9        54.128 9  25356472.746 6         0.000 6      1711.774 6        37.977 6
G10  23824505.420 9 125198566.092 9      3532.421 9        54.664 9  23824509.162 6         0.000 6      2752.538 6        37.977 6
G21  21165516.019 9 111225516.733 9     -1243.025 9        55.711 9  21165515.304 6         0.000 6      -968.591 6        37.977 6
G29  24286334.099 9 127625490.931 9     -3118.147 9        54.480 9  24286335.659 6         0.000 6     -2429.728 6        37.977 6
G27  22015460.779 9 115692000.189 9      2504.717 9        55.370 9  22015462.716 6         0.000 6      1951.728 6        37.977 6
G16  20499669.045 9 107726467.609 9       570.730 9        55.976 9  20499668.218 6         0.000 6       444.725 6        37.977 6
G26  20648225.777 9 108507136.581 9     -1470.306 9        55.876 9  20648228.591 6         0.000 6     -1145.694 6        37.977 6
G20  21954852.149 9 115373493.550 9      2575.469 9        55.311 9  21954852.477 6         0.000 6      2006.860 6        37.977 6
> 2019 07 03 12 00 38.0000000  0  8       0.000000000000
G07  25356054.082 9 133246917.367 9      2196.318 9        54.128 9  25356054.757 6         0.000 6      1711.418 6        37.977 6
G10  23823833.236 9 125195033.749 9      3532.286 9        54.664 9  23823836.977 6         0.000 6      2752.433 6        37.977 6
G21  21165752.594 9 111226759.939 9     -1243.388 9        55.711 9  21165751.878 6         0.000 6      -968.874 6        37.977 6
G29  24286927.471 9 127628609.111 9     -3118.233 9        54.479 9  24286929.031 6         0.000 6     -2429.795 6        37.977 6
G27  22014984.170 9 115689495.593 9      2504.481 9        55.370 9  22014986.106 6         0.000 6      1951.544 6        37.977 6
G16  20499560.497 9 107725897.186 9       570.115 9        55.976 9  20499559.670 6         0.000 6       444.246 6        37.977 6
G26  20648505.622 9 108508607.173 9     -1470.882 9        55.876 9  20648508.436 6         0.000 6     -1146.142 6        37.977 6
G20  21954362.096 9 115370918.306 9      2575.028 9        55.311 9  21954362.423 6         0.000 6      2006.516 6        37.977 6
> 2019 07 03 12 00 39.0000000  0  8       0.000000000000
G07  25355636.181 9 133244721.284 9      2195.861 9        54.129 9  25355636.855 6         0.000 6      1711.061 6        37.977 6
G10  23823161.076 9 125191501.537 9      3532.151 9        54.664 9  23823164.816 6         0.000 6      2752.328 6        37.977 6
G21  21165989.236 9 111228003.504 9     -1243.750 9        55.711 9  21165988.521 6         0.000 6      -969.156 6        37.977 6
G29  24287520.859 9 127631727.378 9     -3118.319 9        54.479 9  24287522.420 6         0.000 6     -2429.862 6        37.977 6
G27  22014507.605 9 115686991.232 9      2504.245 9        55.370 9  22014509.542 6         0.000 6      1951.360 6        37.977 6
G16  20499452.065 9 107725327.375 9       569.500 9        55.976 9  20499451.239 6         0.000 6       443.766 6        37.977 6
G26  20648785.575 9 108510078.336 9     -1471.458 9        55.875 9  20648788.389 6         0.000 6     -1146.591 6        37.977 6
G20  21953872.125 9 115368343.500 9      2574.587 9        55.312 9  21953872.452 6         0.000 6      2006.173 6        37.977 6
> 2019 07 03 12 00 40.0000000  0  8       0.000000000000
G07  25355218.366 9 133242525.659 9      2195.403 9        54.129 9  25355219.041 6         0.000 6      1710.705 6        37.977 6
G10  23822488.943 9 125187969.462 9      3532.016 9        54.665 9  23822492.682 6         0.000 6      2752.223 6        37.977 6
G21  21166225.948 9 111229247.432 9     -1244.112 9        55.711 9  21166225.233 6         0.000 6      -969.438 6        37.977 6
G29  24288114.262 9 127634845.725 9     -3118.406 9        54.479 9  24288115.825 6         0.000 6     -2429.929 6        37.977 6
G27  22014031.086 9 115684487.112 9      2504.008 9        55.371 9  22014033.023 6         0.000 6      1951.176 6        37.977 6
G16  20499343.752 9 107724758.184 9       568.885 9        55.976 9  20499342.925 6         0.000 6       443.287 6        37.977 6
G26  20649065.639 9 108511550.080 9     -1472.033 9        55.875 9  20649068.453 6         0.000 6     -1147.039 6        37.977 6
G20  21953382.239 9 115365769.135 9      2574.145 9        55.312 9  21953382.566 6         0.000 6      2005.829 6        37.977 6
> 2019 07 03 12 00 41.0000000  0  8       0.000000000000
G07  25354800.639 9 133240330.491 9      2194.945 9        54.129 9  25354801.313 6         0.000 6      1710.348 6        37.977 6
G10  23821816.834 9 125184437.520 9      3531.881 9        54.665 9  23821820.573 6         0.000 6      2752.118 6        37.977 6
G21  21166462.729 9 111230491.722 9     -1244.473 9        55.711 9  21166462.014 6         0.000 6      -969.720 6        37.977 6
G29  24288707.683 9 127637964.163 9     -3118.491 9        54.479 9  24288709.246 6         0.000 6     -2429.996 6        37.977 6
G27  22013554.612 9 115681983.222 9      2503.772 9        55.371 9  22013556.548 6         0.000 6      1950.992 6        37.977 6
G16  20499235.555 9 107724189.604 9       568.270 9        55.976 9  20499234.728 6         0.000 6       442.807 6        37.977 6
G26  20649345.811 9 108513022.394 9     -1472.609 9        55.875 9  20649348.626 6         0.000 6     -1147.488 6        37.977 6
G20  21952892.437 9 115363195.210 9      2573.704 9        55.312 9  21952892.763 6         0.000 6      2005.485 6        37.977 6
> 2019 07 03 12 00 42.0000000  0  8       0.000000000000
G07  25354382.998 9 133238135.778 9      2194.488 9        54.129 9  25354383.672 6         0.000 6      1709.991 6        37.977 6
G10  23821144.753 9 125180905.717 9      3531.746 9        54.665 9  23821148.491 6         0.000 6      2752.012 6        37.977 6
G21  21166699.578 9 111231736.375 9     -1244.835 9        55.711 9  21166698.863 6         0.000 6      -970.002 6        37.977 6
G29  24289301.121 9 127641082.687 9     -3118.578 9        54.479 9  24289302.684 6         0.000 6     -2430.063 6        37.977 6
G27  22013078.182 9 115679479.571 9      2503.536 9        55.371 9  22013080.118 6         0.000 6      1950.808 6        37.977 6
G16  20499127.475 9 107723621.642 9       567.654 9        55.976 9  20499126.648 6         0.000 6       442.328 6        37.977 6
G26  20649626.094 9 108514495.288 9     -1473.184 9        55.875 9  20649628.909 6         0.000 6     -1147.936 6        37.977 6
G20  21952402.719 9 115360621.732 9      2573.263 9        55.312 9  21952403.045 6         0.000 6      2005.141 6        37.977 6
> 2019 07 03 12 00 43.0000000  0  8       0.000000000000
G07  25353965.445 9 133235941.523 9      2194.030 9        54.129 9  25353966.119 6         0.000 6      1709.634 6        37.977 6
G10  23820472.697 9 125177374.050 9      3531.610 9        54.665 9  23820476.434 6         0.000 6      2751.907 6        37.977 6
G21  21166936.497 9 111232981.391 9     -1245.197 9        55.711 9  21166935.782 6         0.000 6      -970.284 6        37.977 6
G29  24289894.575 9 127644201.298 9     -3118.663 9        54.478 9  24289896.139 6         0.000 6     -2430.130 6        37.977 6
G27  22012601.797 9 115676976.155 9      2503.300 9        55.371 9  22012603.733 6         0.000 6      1950.624 6        37.977 6
G16  20499019.513 9 107723054.296 9       567.039 9        55.976 9  20499018.686 6         0.000 6       441.848 6        37.977 6
G26  20649906.486 9 108515968.758 9     -1473.759 9        55.875 9  20649909.301 6         0.000 6     -1148.384 6        37.977 6
G20  21951913.086 9 115358048.695 9      2572.821 9        55.312 9  21951913.411 6         0.000 6      2004.797 6        37.977 6
> 2019 07 03 12 00 44.0000000  0  8       0.000000000000
G07  25353547.979 9 133233747.728 9      2193.572 9        54.129 9  25353548.652 6         0.000 6      1709.278 6        37.977 6
G10  23819800.666 9 125173842.514 9      3531.475 9        54.666 9  23819804.403 6         0.000 6      2751.801 6        37.977 6
G21  21167173.484 9 111234226.766 9     -1245.559 9        55.711 9  21167172.769 6         0.000 6      -970.566 6        37.977 6
G29  24290488.045 9 127647319.994 9     -3118.749 9        54.478 9  24290489.609 6         0.000 6     -2430.197 6        37.977 6
G27  22012125.457 9 115674472.974 9      2503.064 9        55.371 9  22012127.393 6         0.000 6      1950.440 6        37.977 6
G16  20498911.667 9 107722487.561 9       566.423 9        55.976 9  20498910.840 6         0.000 6       441.369 6        37.977 6
G26  20650186.987 9 108517442.799 9     -1474.335 9        55.875 9  20650189.802 6         0.000 6     -1148.833 6        37.977 6
G20  21951423.535 9 115355476.095 9      2572.379 9        55.313 9  21951423.861 6         0.000 6      2004.453 6        37.977 6
> 2019 07 03 12 00 45.0000000  0  8       0.000000000000
G07  25353130.600 9 133231554.389 9      2193.114 9        54.129 9  25353131.273 6         0.000 6      1708.921 6        37.977 6
G10  23819128.661 9 125170311.118 9      3531.339 9        54.666 9  23819132.398 6         0.000 6      2751.696 6        37.977 6
G21  21167410.541 9 111235472.505 9     -1245.921 9        55.711 9  21167409.826 6         0.000 6      -970.847 6        37.977 6
G29  24291081.531 9 127650438.776 9     -3118.835 9        54.478 9  24291083.096 6         0.000 6     -2430.264 6        37.977 6
G27  22011649.163 9 115671970.031 9      2502.828 9        55.371 9  22011651.098 6         0.000 6      1950.256 6        37.977 6
G16  20498803.939 9 107721921.446 9       565.808 9        55.976 9  20498803.112 6         0.000 6       440.889 6        37.977 6
G26  20650467.599 9 108518917.420 9     -1474.910 9        55.875 9  20650470.413 6         0.000 6     -1149.281 6        37.977 6
G20  21950934.070 9 115352903.941 9      2571.937 9        55.313 9  21950934.395 6         0.000 6      2004.108 6        37.977 6
> 2019 07 03 12 00 46.0000000  0  8       0.000000000000
G07  25352713.308 9 133229361.511 9      2192.656 9        54.130 9  25352713.981 6         0.000 6      1708.564 6        37.977 6
G10  23818456.682 9 125166779.852 9      3531.204 9        54.666 9  23818460.417 6         0.000 6      2751.590 6        37.977 6
G21  21167647.665 9 111236718.603 9     -1246.282 9        55.711 9  21167646.951 6         0.000 6      -971.129 6        37.977 6
G29  24291675.034 9 127653557.644 9     -3118.921 9        54.478 9  24291676.600 6         0.000 6     -2430.331 6        37.977 6
G27  22011172.912 9 115669467.322 9      2502.591 9        55.372 9  22011174.848 6         0.000 6      1950.072 6        37.977 6
G16  20498696.327 9 107721355.942 9       565.192 9        55.976 9  20498695.500 6         0.000 6       440.410 6        37.977 6
G26  20650748.319 9 108520392.611 9     -1475.485 9        55.875 9  20650751.133 6         0.000 6     -1149.729 6        37.977 6
G20  21950444.688 9 115350332.225 9      2571.496 9        55.313 9  21950445.013 6         0.000 6      2003.764 6        37.977 6
> 2019 07 03 12 00 47.0000000  0  8       0.000000000000
G07  25352296.103 9 133227169.088 9      2192.198 9        54.130 9  25352296.776 6         0.000 6      1708.207 6        37.977 6
G10  23817784.729 9 125163248.727 9      3531.068 9        54.666 9  23817788.464 6         0.000 6      2751.484 6        37.977 6
G21  21167884.860 9 111237965.066 9     -1246.644 9        55.710 9  21167884.145 6         0.000 6      -971.411 6        37.977 6
G29  24292268.553 9 127656676.598 9     -3119.007 9        54.478 9  24292270.120 6         0.000 6     -2430.398 6        37.977 6
G27  22010696.708 9 115666964.852 9      2502.355 9        55.372 9  22010698.643 6         0.000 6      1949.888 6        37.977 6
G16  20498588.833 9 107720791.058 9       564.577 9        55.976 9  20498588.006 6         0.000 6       439.930 6        37.977 6
G26  20651029.149 9 108521868.382 9     -1476.061 9        55.875 9  20651031.964 6         0.000 6     -1150.178 6        37.977 6
G20  21949955.390 9 115347760.955 9      2571.054 9        55.313 9  21949955.715 6         0.000 6      2003.420 6        37.977 6
> 2019 07 03 12 00 48.0000000  0  8       0.000000000000
G07  25351878.987 9 133224977.128 9      2191.739 9        54.130 9  25351879.659 6         0.000 6      1707.850 6        37.977 6
G10  23817112.801 9 125159717.732 9      3530.932 9        54.667 9  23817116.535 6         0.000 6      2751.378 6        37.977 6
G21  21168122.121 9 111239211.885 9     -1247.005 9        55.710 9  21168121.407 6         0.000 6      -971.693 6        37.977 6
G29  24292862.088 9 127659795.633 9     -3119.093 9        54.477 9  24292863.655 6         0.000 6     -2430.465 6        37.977 6
G27  22010220.548 9 115664462.620 9      2502.119 9        55.372 9  22010222.483 6         0.000 6      1949.704 6        37.977 6
G16  20498481.456 9 107720226.787 9       563.961 9        55.976 9  20498480.629 6         0.000 6       439.450 6        37.977 6
G26  20651310.088 9 108523344.724 9     -1476.636 9        55.874 9  20651312.903 6         0.000 6     -1150.626 6        37.977 6
G20  21949466.176 9 115345190.119 9      2570.612 9        55.313 9  21949466.500 6         0.000 6      2003.075 6        37.977 6
> 2019 07 03 12 00 49.0000000  0  8       0.000000000000
G07  25351461.956 9 133222785.622 9      2191.281 9        54.130 9  25351462.628 6         0.000 6      1707.493 6        37.977 6
G10  23816440.900 9 125156186.878 9      3530.796 9        54.667 9  23816444.633 6         0.000 6      2751.272 6        37.977 6
G21  21168359.453 9 111240459.071 9     -1247.367 9        55.710 9  21168358.738 6         0.000 6      -971.974 6        37.977 6
G29  24293455.639 9 127662914.758 9     -3119.179 9        54.477 9  24293457.207 6         0.000 6     -2430.531 6        37.977 6
G27  22009744.433 9 115661960.622 9      2501.882 9        55.372 9  22009746.368 6         0.000 6      1949.519 6        37.977 6
G16  20498374.196 9 107719663.134 9       563.346 9        55.976 9  20498373.369 6         0.000 6       438.971 6        37.977 6
G26  20651591.137 9 108524821.646 9     -1477.211 9        55.874 9  20651593.952 6         0.000 6     -1151.074 6        37.977 6
G20  21948977.047 9 115342619.733 9      2570.169 9        55.314 9  21948977.371 6         0.000 6      2002.731 6        37.977 6
> 2019 07 03 12 00 50.0000000  0  8       0.000000000000
G07  25351045.013 9 133220594.576 9      2190.823 9        54.130 9  25351045.685 6         0.000 6      1707.135 6        37.977 6
G10  23815769.024 9 125152656.157 9      3530.660 9        54.667 9  23815772.757 6         0.000 6      2751.166 6        37.977 6
G21  21168596.853 9 111241706.615 9     -1247.728 9        55.710 9  21168596.138 6         0.000 6      -972.256 6        37.977 6
G29  24294049.207 9 127666033.970 9     -3119.265 9        54.477 9  24294050.776 6         0.000 6     -2430.598 6        37.977 6
G27  22009268.363 9 115659458.859 9      2501.646 9        55.372 9  22009270.298 6         0.000 6      1949.335 6        37.977 6
G16  20498267.053 9 107719100.093 9       562.730 9        55.976 9  20498266.226 6         0.000 6       438.491 6        37.977 6
G26  20651872.295 9 108526299.138 9     -1477.786 9        55.874 9  20651875.110 6         0.000 6     -1151.522 6        37.977 6
G20  21948488.001 9 115340049.785 9      2569.727 9        55.314 9  21948488.325 6         0.000 6      2002.386 6        37.977 6
> 2019 07 03 12 00 51.0000000  0  8       0.000000000000
G07  25350628.157 9 133218403.986 9      2190.364 9        54.130 9  25350628.829 6         0.000 6      1706.778 6        37.977 6
G10  23815097.175 9 125149125.575 9      3530.524 9        54.667 9  23815100.907 6         0.000 6      2751.060 6        37.977 6
G21  21168834.322 9 111242954.523 9     -1248.090 9        55.710 9  21168833.608 6         0.000 6      -972.538 6        37.977 6
G29  24294642.792 9 127669153.267 9     -3119.350 9        54.477 9  24294644.361 6         0.000 6     -2430.665 6        37.977 6
G27  22008792.338 9 115656957.334 9      2501.409 9        55.373 9  22008794.273 6         0.000 6      1949.151 6        37.977 6
G16  20498160.027 9 107718537.670 9       562.114 9        55.976 9  20498159.201 6         0.000 6       438.011 6        37.977 6
G26  20652153.563 9 108527777.210 9     -1478.362 9        55.874 9  20652156.378 6         0.000 6     -1151.970 6        37.977 6
G20  21947999.040 9 115337480.284 9      2569.285 9        55.314 9  21947999.364 6         0.000 6      2002.041 6        37.977 6
> 2019 07 03 12 00 52.0000000  0  8       0.000000000000
G07  25350211.388 9 133216213.855 9      2189.906 9        54.130 9  25350212.060 6         0.000 6      1706.421 6        37.977 6
G10  23814425.351 9 125145595.131 9      3530.387 9        54.668 9  23814429.083 6         0.000 6      2750.954 6        37.977 6
G21  21169071.860 9 111244202.793 9     -1248.451 9        55.710 9  21169071.146 6         0.000 6      -972.819 6        37.977 6
G29  24295236.393 9 127672272.650 9     -3119.436 9        54.477 9  24295237.962 6         0.000 6     -2430.732 6        37.977 6
G27  22008316.358 9 115654456.045 9      2501.173 9        55.373 9  22008318.293 6         0.000 6      1948.967 6        37.977 6
G16  20498053.119 9 107717975.864 9       561.499 9        55.976 9  20498052.292 6         0.000 6       437.531 6        37.977 6
G26  20652434.940 9 108529255.857 9     -1478.937 9        55.874 9  20652437.756 6         0.000 6     -1152.419 6        37.977 6
G20  21947510.164 9 115334911.225 9      2568.842 9        55.314 9  21947510.487 6         0.000 6      2001.697 6        37.977 6
> 2019 07 03 12 00 53.0000000  0  8       0.000000000000
G07  25349794.707 9 133214024.185 9      2189.447 9        54.131 9  25349795.379 6         0.000 6      1706.063 6        37.977 6
G10  23813753.553 9 125142064.818 9      3530.251 9        54.668 9  23813757.284 6         0.000 6      2750.848 6        37.977 6
G21  21169309.466 9 111245451.422 9     -1248.812 9        55.710 9  21169308.752 6         0.000 6      -973.101 6        37.977 6
G29  24295830.010 9 127675392.119 9     -3119.522 9        54.476 9  24295831.580 6         0.000 6     -2430.799 6        37.977 6
G27  22007840.423 9 115651954.992 9      2500.936 9        55.373 9  22007842.357 6         0.000 6      1948.782 6        37.977 6
G16  20497946.328 9 107717414.670 9       560.883 9        55.976 9  20497945.501 6         0.000 6       437.052 6        37.977 6
G26  20652716.426 9 108530735.075 9     -1479.512 9        55.874 9  20652719.242 6         0.000 6     -1152.867 6        37.977 6
G20  21947021.370 9 115332342.604 9      2568.400 9        55.314 9  21947021.694 6         0.000 6      2001.352 6        37.977 6
> 2019 07 03 12 00 54.0000000  0  8       0.000000000000
G07  25349378.113 9 133211834.971 9      2188.988 9        54.131 9  25349378.784 6         0.000 6      1705.706 6        37.977 6
G10  23813081.781 9 125138534.646 9      3530.115 9        54.668 9  23813085.512 6         0.000 6      2750.741 6        37.977 6
G21  21169547.142 9 111246700.414 9     -1249.173 9        55.710 9  21169546.427 6         0.000 6      -973.382 6        37.977 6
G29  24296423.643 9 127678511.673 9     -3119.608 9        54.476 9  24296425.214 6         0.000 6     -2430.866 6        37.977 6
G27  22007364.533 9 115649454.176 9      2500.700 9        55.373 9  22007366.467 6         0.000 6      1948.598 6        37.977 6
G16  20497839.654 9 107716854.095 9       560.267 9        55.976 9  20497838.827 6         0.000 6       436.572 6        37.977 6
G26  20652998.023 9 108532214.872 9     -1480.087 9        55.874 9  20653000.839 6         0.000 6     -1153.315 6        37.977 6
G20  21946532.662 9 115329774.430 9      2567.957 9        55.315 9  21946532.985 6         0.000 6      2001.007 6        37.977 6
> 2019 07 03 12 00 55.0000000  0  8       0.000000000000
G07  25348961.607 9 133209646.219 9      2188.529 9        54.131 9  25348962.278 6         0.000 6      1705.349 6        37.977 6
G10  23812410.035 9 125135004.606 9      3529.978 9        54.668 9  23812413.765 6         0.000 6      2750.635 6        37.977 6
G21  21169784.886 9 111247949.765 9     -1249.535 9        55.710 9  21169784.171 6         0.000 6      -973.664 6        37.977 6
G29  24297017.293 9 127681631.313 9     -3119.693 9        54.476 9  24297018.864 6         0.000 6     -2430.932 6        37.977 6
G27  22006888.688 9 115646953.596 9      2500.463 9        55.373 9  22006890.622 6         0.000 6      1948.413 6        37.977 6
G16  20497733.096 9 107716294.133 9       559.651 9        55.976 9  20497732.270 6         0.000 6       436.092 6        37.977 6
G26  20653279.728 9 108533695.240 9     -1480.662 9        55.874 9  20653282.544 6         0.000 6     -1153.763 6        37.977 6
G20  21946044.038 9 115327206.694 9      2567.515 9        55.315 9  21946044.360 6         0.000 6      2000.662 6        37.977 6
> 2019 07 03 12 00 56.0000000  0  8       0.000000000000
G07  25348545.188 9 133207457.925 9      2188.070 9        54.131 9  25348545.858 6         0.000 6      1704.991 6        37.977 6
G10  23811738.315 9 125131474.704 9      3529.841 9        54.669 9  23811742.044 6         0.000 6      2750.528 6        37.977 6
G21  21170022.698 9 111249199.477 9     -1249.896 9        55.710 9  21170021.984 6         0.000 6      -973.945 6        37.977 6
G29  24297610.958 9 127684751.034 9     -3119.779 9        54.476 9  24297612.530 6         0.000 6     -2430.999 6        37.977 6
G27  22006412.889 9 115644453.257 9      2500.226 9        55.374 9  22006414.823 6         0.000 6      1948.229 6        37.977 6
G16  20497626.657 9 107715734.791 9       559.035 9        55.976 9  20497625.830 6         0.000 6       435.612 6        37.977 6
G26  20653561.543 9 108535176.187 9     -1481.237 9        55.873 9  20653564.359 6         0.000 6     -1154.211 6        37.977 6
G20  21945555.497 9 115324639.403 9      2567.072 9        55.315 9  21945555.820 6         0.000 6      2000.317 6        37.977 6
> 2019 07 03 12 00 57.0000000  0  8       0.000000000000
G07  25348128.856 9 133205270.091 9      2187.612 9        54.131 9  25348129.526 6         0.000 6      1704.633 6        37.977 6
G10  23811066.621 9 125127944.938 9      3529.704 9        54.669 9  23811070.349 6         0.000 6      2750.422 6        37.977 6
G21  21170260.579 9 111250449.550 9     -1250.257 9        55.709 9  21170259.865 6         0.000 6      -974.226 6        37.977 6
G29  24298204.640 9 127687870.846 9     -3119.865 9        54.475 9  24298206.213 6         0.000 6     -2431.066 6        37.977 6
G27  22005937.134 9 115641953.150 9      2499.990 9        55.374 9  22005939.067 6         0.000 6      1948.045 6        37.977 6
G16  20497520.334 9 107715176.061 9       558.419 9        55.976 9  20497519.508 6         0.000 6       435.132 6        37.977 6
G26  20653843.467 9 108536657.705 9     -1481.812 9        55.873 9  20653846.283 6         0.000 6     -1154.659 6        37.977 6
G20  21945067.041 9 115322072.553 9      2566.629 9        55.315 9  21945067.363 6         0.000 6      1999.972 6        37.977 6
> 2019 07 03 12 00 58.0000000  0  8       0.000000000000
G07  25347712.611 9 133203082.712 9      2187.153 9        54.131 9  25347713.281 6         0.000 6      1704.276 6        37.977 6
G10  23810394.954 9 125124415.313 9      3529.567 9        54.669 9  23810398.681 6         0.000 6      2750.315 6        37.977 6
G21  21170498.530 9 111251699.987 9     -1250.618 9        55.709 9  21170497.815 6         0.000 6      -974.508 6        37.977 6
G29  24298798.339 9 127690990.743 9     -3119.950 9        54.475 9  24298799.912 6         0.000 6     -2431.133 6        37.977 6
G27  22005461.424 9 115639453.282 9      2499.753 9        55.374 9  22005463.357 6         0.000 6      1947.860 6        37.977 6
G16  20497414.129 9 107714617.950 9       557.803 9        55.976 9  20497413.303 6         0.000 6       434.652 6        37.977 6
G26  20654125.501 9 108538139.802 9     -1482.387 9        55.873 9  20654128.317 6         0.000 6     -1155.107 6        37.977 6
G20  21944578.670 9 115319506.150 9      2566.186 9        55.315 9  21944578.992 6         0.000 6      1999.626 6        37.977 6
> 2019 07 03 12 00 59.0000000  0  8       0.000000000000
G07  25347296.454 9 133200895.795 9      2186.694 9        54.131 9  25347297.124 6         0.000 6      1703.918 6        37.977 6
G10  23809723.311 9 125120885.820 9      3529.430 9        54.669 9  23809727.038 6         0.000 6      2750.208 6        37.977 6
G21  21170736.548 9 111252950.782 9     -1250.979 9        55.709 9  21170735.834 6         0.000 6      -974.789 6        37.977 6
G29  24299392.054 9 127694110.725 9     -3120.036 9        54.475 9  24299393.628 6         0.000 6     -2431.199 6        37.977 6
G27  22004985.759 9 115636953.648 9      2499.516 9        55.374 9  22004987.692 6         0.000 6      1947.676 6        37.977 6
G16  20497308.041 9 107714060.451 9       557.187 9        55.977 9  20497307.214 6         0.000 6       434.172 6        37.977 6
G26  20654407.643 9 108539622.470 9     -1482.961 9        55.873 9  20654410.460 6         0.000 6     -1155.555 6        37.977 6
G20  21944090.383 9 115316940.186 9      2565.743 9        55.316 9  21944090.704 6         0.000 6      1999.281 6        37.977 6
> 2019 07 03 12 01  0.0000000  0  8       0.000000000000
G07  25346880.383 9 133198709.335 9      2186.234 9        54.132 9  25346881.053 6         0.000 6      1703.560 6        37.977 6
G10  23809051.696 9 125117356.469 9      3529.293 9        54.669 9  23809055.423 6         0.000 6      2750.101 6        37.977 6
G21  21170974.636 9 111254201.940 9     -1251.340 9        55.709 9  21170973.921 6         0.000 6      -975.070 6        37.977 6
G29  24299985.785 9 127697230.794 9     -3120.121 9        54.475 9  24299987.360 6         0.000 6     -2431.266 6        37.977 6
G27  22004510.140 9 115634454.253 9      2499.279 9        55.374 9  22004512.072 6         0.000 6      1947.491 6        37.977 6
G16  20497202.070 9 107713503.572 9       556.571 9        55.977 9  20497201.244 6         0.000 6       433.692 6        37.977 6
G26  20654689.896 9 108541105.717 9     -1483.536 9        55.873 9  20654692.713 6         0.000 6     -1156.003 6        37.977 6
G20  21943602.180 9 115314374.669 9      2565.299 9        55.316 9  21943602.501 6         0.000 6      1998.936 6        37.977 6
> 2019 07 03 12 01  1.0000000  0  8       0.000000000000
G07  25346464.401 9 133196523.337 9      2185.775 9        54.132 9  25346465.071 6         0.000 6      1703.202 6        37.977 6
G10  23808380.106 9 125113827.250 9      3529.156 9        54.670 9  23808383.832 6         0.000 6      2749.994 6        37.977 6
G21  21171212.792 9 111255453.457 9     -1251.700 9        55.709 9  21171212.077 6         0.000 6      -975.351 6        37.977 6
G29  24300579.533 9 127700350.948 9     -3120.207 9        54.475 9  24300581.108 6         0.000 6     -2431.333 6        37.977 6
G27  22004034.565 9 115631955.092 9      2499.043 9        55.374 9  22004036.497 6         0.000 6      1947.307 6        37.977 6
G16  20497096.216 9 107712947.306 9       555.955 9        55.977 9  20497095.390 6         0.000 6       433.212 6        37.977 6
G26  20654972.258 9 108542589.534 9     -1484.111 9        55.873 9  20654975.074 6         0.000 6     -1156.451 6        37.977 6
G20  21943114.061 9 115311809.592 9      2564.856 9        55.316 9  21943114.382 6         0.000 6      1998.590 6        37.977 6
> 2019 07 03 12 01  2.0000000  0  8       0.000000000000
G07  25346048.506 9 133194337.795 9      2185.316 9        54.132 9  25346049.175 6         0.000 6      1702.844 6        37.977 6
G10  23807708.543 9 125110298.173 9      3529.019 9        54.670 9  23807712.268 6         0.000 6      2749.887 6        37.977 6
G21  21171451.017 9 111256705.337 9     -1252.061 9        55.709 9  21171450.302 6         0.000 6      -975.632 6        37.977 6
G29  24301173.296 9 127703471.187 9     -3120.292 9        54.474 9  24301174.872 6         0.000 6     -2431.399 6        37.977 6
G27  22003559.035 9 115629456.171 9      2498.806 9        55.375 9  22003560.968 6         0.000 6      1947.122 6        37.977 6
G16  20496990.480 9 107712391.659 9       555.339 9        55.977 9  20496989.653 6         0.000 6       432.732 6        37.977 6
G26  20655254.729 9 108544073.931 9     -1484.686 9        55.873 9  20655257.546 6         0.000 6     -1156.898 6        37.977 6
G20  21942626.028 9 115309244.962 9      2564.413 9        55.316 9  21942626.348 6         0.000 6      1998.245 6        37.977 6
> 2019 07 03 12 01  3.0000000  0  8       0.000000000000
G07  25345632.698 9 133192152.713 9      2184.856 9        54.132 9  25345633.367 6         0.000 6      1702.486 6        37.977 6
G10  23807037.006 9 125106769.234 9      3528.881 9        54.670 9  23807040.731 6         0.000 6      2749.780 6        37.977 6
G21  21171689.310 9 111257957.578 9     -1252.422 9        55.709 9  21171688.596 6         0.000 6      -975.913 6        37.977 6
G29  24301767.076 9 127706591.512 9     -3120.378 9        54.474 9  24301768.653 6         0.000 6     -2431.466 6        37.977 6
G27  22003083.551 9 115626957.486 9      2498.569 9        55.375 9  22003085.483 6         0.000 6      1946.937 6        37.977 6
G16  20496884.861 9 107711836.628 9       554.723 9        55.977 9  20496884.035 6         0.000 6       432.252 6        37.977 6
G26  20655537.310 9 108545558.902 9     -1485.261 9        55.873 9  20655540.127 6         0.000 6     -1157.346 6        37.977 6
G20  21942138.078 9 115306680.775 9      2563.969 9        55.316 9  21942138.399 6         0.000 6      1997.899 6        37.977 6
> 2019 07 03 12 01  4.0000000  0  8       0.000000000000
G07  25345216.978 9 133189968.095 9      2184.397 9        54.132 9  25345217.647 6         0.000 6      1702.128 6        37.977 6
G10  23806365.494 9 125103240.426 9      3528.744 9        54.670 9  23806369.218 6         0.000 6      2749.673 6        37.977 6
G21  21171927.672 9 111259210.175 9     -1252.782 9        55.709 9  21171926.957 6         0.000 6      -976.194 6        37.977 6
G29  24302360.872 9 127709711.917 9     -3120.463 9        54.474 9  24302362.449 6         0.000 6     -2431.532 6        37.977 6
G27  22002608.112 9 115624459.041 9      2498.332 9        55.375 9  22002610.044 6         0.000 6      1946.753 6        37.977 6
G16  20496779.359 9 107711282.211 9       554.107 9        55.977 9  20496778.533 6         0.000 6       431.771 6        37.977 6
G26  20655820.000 9 108547044.443 9     -1485.835 9        55.873 9  20655822.816 6         0.000 6     -1157.794 6        37.977 6
G20  21941650.212 9 115304117.025 9      2563.526 9        55.316 9  21941650.532 6         0.000 6      1997.554 6        37.977 6
> 2019 07 03 12 01  5.0000000  0  8       0.000000000000
G07  25344801.345 9 133187783.932 9      2183.937 9        54.132 9  25344802.014 6         0.000 6      1701.770 6        37.977 6
G10  23805694.010 9 125099711.761 9      3528.606 9        54.671 9  23805697.733 6         0.000 6      2749.566 6        37.977 6
G21  21172166.102 9 111260463.137 9     -1253.143 9        55.709 9  21172165.388 6         0.000 6      -976.475 6        37.977 6
G29  24302954.684 9 127712832.413 9     -3120.549 9        54.474 9  24302956.262 6         0.000 6     -2431.599 6        37.977 6
G27  22002132.718 9 115621960.830 9      2498.095 9        55.375 9  22002134.650 6         0.000 6      1946.568 6        37.977 6
G16  20496673.975 9 107710728.413 9       553.490 9        55.977 9  20496673.148 6         0.000 6       431.291 6        37.977 6
G26  20656102.799 9 108548530.564 9     -1486.410 9        55.872 9  20656105.616 6         0.000 6     -1158.242 6        37.977 6
G20  21941162.431 9 115301553.726 9      2563.082 9        55.317 9  21941162.751 6         0.000 6      1997.208 6        37.977 6
> 2019 07 03 12 01  6.0000000  0  8       0.000000000000
G07  25344385.800 9 133185600.231 9      2183.478 9        54.132 9  25344386.468 6         0.000 6      1701.412 6        37.977 6
G10  23805022.551 9 125096183.230 9      3528.468 9        54.671 9  23805026.273 6         0.000 6      2749.459 6        37.977 6
G21  21172404.602 9 111261716.457 9     -1253.504 9        55.709 9  21172403.887 6         0.000 6      -976.756 6        37.977 6
G29  24303548.513 9 127715952.994 9     -3120.634 9        54.474 9  24303550.091 6         0.000 6     -2431.666 6        37.977 6
G27  22001657.368 9 115619462.855 9      2497.858 9        55.375 9  22001659.300 6         0.000 6      1946.383 6        37.977 6
G16  20496568.707 9 107710175.228 9       552.874 9        55.977 9  20496567.881 6         0.000 6       430.811 6        37.977 6
G26  20656385.707 9 108550017.255 9     -1486.985 9        55.872 9  20656388.525 6         0.000 6     -1158.690 6        37.977 6
G20  21940674.735 9 115298990.866 9      2562.638 9        55.317 9  21940675.054 6         0.000 6      1996.862 6        37.977 6
> 2019 07 03 12 01  7.0000000  0  8       0.000000000000
G07  25343970.342 9 133183416.987 9      2183.018 9        54.133 9  25343971.010 6         0.000 6      1701.054 6        37.977 6
G10  23804351.119 9 125092654.842 9      3528.330 9        54.671 9  23804354.840 6         0.000 6      2749.351 6        37.977 6
G21  21172643.170 9 111262970.140 9     -1253.864 9        55.709 9  21172642.456 6         0.000 6      -977.037 6        37.977 6
G29  24304142.358 9 127719073.661 9     -3120.720 9        54.473 9  24304143.937 6         0.000 6     -2431.732 6        37.977 6
G27  22001182.064 9 115616965.118 9      2497.621 9        55.376 9  22001183.996 6         0.000 6      1946.199 6        37.977 6
G16  20496463.558 9 107709622.662 9       552.258 9        55.977 9  20496462.731 6         0.000 6       430.331 6        37.977 6
G26  20656668.726 9 108551504.525 9     -1487.559 9        55.872 9  20656671.543 6         0.000 6     -1159.137 6        37.977 6
G20  21940187.123 9 115296428.454 9      2562.194 9        55.317 9  21940187.442 6         0.000 6      1996.516 6        37.977 6
> 2019 07 03 12 01  8.0000000  0  8       0.000000000000
G07  25343554.971 9 133181234.205 9      2182.558 9        54.133 9  25343555.640 6         0.000 6      1700.696 6        37.977 6
G10  23803679.712 9 125089126.586 9      3528.192 9        54.671 9  23803683.433 6         0.000 6      2749.244 6        37.977 6
G21  21172881.806 9 111264224.181 9     -1254.224 9        55.708 9  21172881.092 6         0.000 6      -977.318 6        37.977 6
G29  24304736.219 9 127722194.413 9     -3120.805 9        54.473 9  24304737.799 6         0.000 6     -2431.799 6        37.977 6
G27  22000706.805 9 115614467.617 9      2497.384 9        55.376 9  22000708.737 6         0.000 6      1946.014 6        37.977 6
G16  20496358.525 9 107709070.709 9       551.641 9        55.977 9  20496357.698 6         0.000 6       429.850 6        37.977 6
G26  20656951.853 9 108552992.364 9     -1488.134 9        55.872 9  20656954.670 6         0.000 6     -1159.585 6        37.977 6
G20  21939699.595 9 115293866.482 9      2561.751 9        55.317 9  21939699.914 6         0.000 6      1996.170 6        37.977 6
> 2019 07 03 12 01  9.0000000  0  8       0.000000000000
G07  25343139.688 9 133179051.880 9      2182.098 9        54.133 9  25343140.356 6         0.000 6      1700.337 6        37.977 6
G10  23803008.332 9 125085598.473 9      3528.054 9        54.672 9  23803012.053 6         0.000 6      2749.136 6        37.977 6
G21  21173120.511 9 111265478.585 9     -1254.585 9        55.708 9  21173119.797 6         0.000 6      -977.599 6        37.977 6
G29  24305330.097 9 127725315.251 9     -3120.890 9        54.473 9  24305331.677 6         0.000 6     -2431.865 6        37.977 6
G27  22000231.591 9 115611970.354 9      2497.146 9        55.376 9  22000233.523 6         0.000 6      1945.829 6        37.977 6
G16  20496253.609 9 107708519.376 9       551.025 9        55.977 9  20496252.782 6         0.000 6       429.370 6        37.977 6
G26  20657235.090 9 108554480.784 9     -1488.708 9        55.872 9  20657237.907 6         0.000 6     -1160.033 6        37.977 6
G20  21939212.152 9 115291304.958 9      2561.306 9        55.317 9  21939212.471 6         0.000 6      1995.824 6        37.977 6
> 2019 07 03 12 01 10.0000000  0  8       0.000000000000
G07  25342724.493 9 133176870.019 9      2181.638 9        54.133 9  25342725.161 6         0.000 6      1699.979 6        37.977 6
G10  23802336.978 9 125082070.494 9      3527.916 9        54.672 9  23802340.698 6         0.000 6      2749.028 6        37.977 6
G21  21173359.284 9 111266733.347 9     -1254.945 9        55.708 9  21173358.571 6         0.000 6      -977.879 6        37.977 6
G29  24305923.991 9 127728436.174 9     -3120.976 9        54.473 9  24305925.572 6         0.000 6     -2431.932 6        37.977 6
G27  21999756.422 9 115609473.327 9      2496.909 9        55.376 9  21999758.354 6         0.000 6      1945.644 6        37.977 6
G16  20496148.811 9 107707968.656 9       550.408 9        55.977 9  20496147.984 6         0.000 6       428.890 6        37.977 6
G26  20657518.435 9 108555969.773 9     -1489.283 9        55.872 9  20657521.253 6         0.000 6     -1160.480 6        37.977 6
G20  21938724.793 9 115288743.874 9      2560.862 9        55.318 9  21938725.112 6         0.000 6      1995.478 6        37.977 6
> 2019 07 03 12 01 11.0000000  0  8       0.000000000000
G07  25342309.385 9 133174688.617 9      2181.178 9        54.133 9  25342310.053 6         0.000 6      1699.620 6        37.977 6
G10  23801665.651 9 125078542.656 9      3527.778 9        54.672 9  23801669.370 6         0.000 6      2748.921 6        37.977 6
G21  21173598.126 9 111267988.469 9     -1255.305 9        55.708 9  21173597.413 6         0.000 6      -978.160 6        37.977 6
G29  24306517.900 9 127731557.177 9     -3121.061 9        54.472 9  24306519.481 6         0.000 6     -2431.998 6        37.977 6
G27  21999281.300 9 115606976.543 9      2496.672 9        55.376 9  21999283.231 6         0.000 6      1945.459 6        37.977 6
G16  20496044.130 9 107707418.557 9       549.792 9        55.977 9  20496043.304 6         0.000 6       428.409 6        37.977 6
G26  20657801.891 9 108557459.340 9     -1489.857 9        55.872 9  20657804.709 6         0.000 6     -1160.928 6        37.977 6
G20  21938237.519 9 115286183.235 9      2560.418 9        55.318 9  21938237.837 6         0.000 6      1995.132 6        37.977 6
> 2019 07 03 12 01 12.0000000  0  8       0.000000000000
G07  25341894.365 9 133172507.672 9      2180.718 9        54.133 9  25341895.032 6         0.000 6      1699.262 6        37.977 6
G10  23800994.350 9 125075014.957 9      3527.640 9        54.672 9  23800998.069 6         0.000 6      2748.813 6        37.977 6
G21  21173837.037 9 111269243.954 9     -1255.666 9        55.708 9  21173836.324 6         0.000 6      -978.441 6        37.977 6
G29  24307111.826 9 127734678.270 9     -3121.146 9        54.472 9  24307113.408 6         0.000 6     -2432.065 6        37.977 6
G27  21998806.221 9 115604479.992 9      2496.435 9        55.377 9  21998808.152 6         0.000 6      1945.275 6        37.977 6
G16  20495939.567 9 107706869.074 9       549.175 9        55.977 9  20495938.740 6         0.000 6       427.929 6        37.977 6
G26  20658085.456 9 108558949.483 9     -1490.432 9        55.872 9  20658088.274 6         0.000 6     -1161.376 6        37.977 6
G20  21937750.330 9 115283623.043 9      2559.974 9        55.318 9  21937750.648 6         0.000 6      1994.786 6        37.977 6
> 2019 07 03 12 01 13.0000000  0  8       0.000000000000
G07  25341479.432 9 133170327.190 9      2180.258 9        54.133 9  25341480.099 6         0.000 6      1698.903 6        37.977 6
G10  23800323.075 9 125071487.393 9      3527.501 9        54.673 9  23800326.793 6         0.000 6      2748.705 6        37.977 6
G21  21174076.016 9 111270499.797 9     -1256.026 9        55.708 9  21174075.303 6         0.000 6      -978.721 6        37.977 6
G29  24307705.769 9 127737799.449 9     -3121.232 9        54.472 9  24307707.352 6         0.000 6     -2432.131 6        37.977 6
G27  21998331.188 9 115601983.677 9      2496.198 9        55.377 9  21998333.118 6         0.000 6      1945.090 6        37.977 6
G16  20495835.121 9 107706320.203 9       548.559 9        55.977 9  20495834.294 6         0.000 6       427.448 6        37.977 6
G26  20658369.129 9 108560440.195 9     -1491.006 9        55.871 9  20658371.947 6         0.000 6     -1161.823 6        37.977 6
G20  21937263.225 9 115281063.292 9      2559.529 9        55.318 9  21937263.542 6         0.000 6      1994.440 6        37.977 6
> 2019 07 03 12 01 14.0000000  0  8       0.000000000000
G07  25341064.587 9 133168147.166 9      2179.798 9        54.134 9  25341065.253 6         0.000 6      1698.545 6        37.977 6
G10  23799651.827 9 125067959.972 9      3527.362 9        54.673 9  23799655.544 6         0.000 6      2748.597 6        37.977 6
G21  21174315.064 9 111271756.002 9     -1256.386 9        55.708 9  21174314.351 6         0.000 6      -979.002 6        37.977 6
G29  24308299.728 9 127740920.713 9     -3121.317 9        54.472 9  24308301.311 6         0.000 6     -2432.198 6        37.977 6
G27  21997856.200 9 115599487.601 9      2495.960 9        55.377 9  21997858.130 6         0.000 6      1944.905 6        37.977 6
G16  20495730.792 9 107705771.953 9       547.942 9        55.977 9  20495729.965 6         0.000 6       426.968 6        37.977 6
G26  20658652.913 9 108561931.487 9     -1491.580 9        55.871 9  20658655.731 6         0.000 6     -1162.271 6        37.977 6
G20  21936776.205 9 115278503.989 9      2559.085 9        55.318 9  21936776.522 6         0.000 6      1994.093 6        37.977 6
> 2019 07 03 12 01 15.0000000  0  8       0.000000000000
G07  25340649.829 9 133165967.605 9      2179.337 9        54.134 9  25340650.496 6         0.000 6      1698.186 6        37.977 6
G10  23798980.605 9 125064432.685 9      3527.224 9        54.673 9  23798984.321 6         0.000 6      2748.489 6        37.977 6
G21  21174554.181 9 111273012.564 9     -1256.746 9        55.708 9  21174553.467 6         0.000 6      -979.283 6        37.977 6
G29  24308893.702 9 127744042.062 9     -3121.402 9        54.472 9  24308895.287 6         0.000 6     -2432.264 6        37.977 6
G27  21997381.257 9 115596991.760 9      2495.723 9        55.377 9  21997383.187 6         0.000 6      1944.720 6        37.977 6
G16  20495626.580 9 107705224.316 9       547.326 9        55.977 9  20495625.753 6         0.000 6       426.488 6        37.977 6
G26  20658936.805 9 108563423.348 9     -1492.155 9        55.871 9  20658939.623 6         0.000 6     -1162.718 6        37.977 6
G20  21936289.269 9 115275945.127 9      2558.640 9        55.319 9  21936289.586 6         0.000 6      1993.747 6        37.977 6
> 2019 07 03 12 01 16.0000000  0  8       0.000000000000
G07  25340235.159 9 133163788.501 9      2178.877 9        54.134 9  25340235.825 6         0.000 6      1697.827 6        37.977 6
G10  23798309.410 9 125060905.542 9      3527.085 9        54.673 9  23798313.126 6         0.000 6      2748.381 6        37.977 6
G21  21174793.366 9 111274269.489 9     -1257.106 9        55.708 9  21174792.652 6         0.000 6      -979.563 6        37.977 6
G29  24309487.694 9 127747163.497 9     -3121.487 9        54.471 9  24309489.278 6         0.000 6     -2432.330 6        37.977 6
G27  21996906.359 9 115594496.159 9      2495.485 9        55.377 9  21996908.289 6         0.000 6      1944.535 6        37.977 6
G16  20495522.486 9 107704677.298 9       546.709 9        55.977 9  20495521.659 6         0.000 6       426.007 6        37.977 6
G26  20659220.807 9 108564915.788 9     -1492.729 9        55.871 9  20659223.626 6         0.000 6     -1163.166 6        37.977 6
G20  21935802.418 9 115273386.714 9      2558.195 9        55.319 9  21935802.735 6         0.000 6      1993.400 6        37.977 6
> 2019 07 03 12 01 17.0000000  0  8       0.000000000000
G07  25339820.577 9 133161609.861 9      2178.416 9        54.134 9  25339821.243 6         0.000 6      1697.468 6        37.977 6
G10  23797638.240 9 125057378.532 9      3526.946 9        54.674 9  23797641.955 6         0.000 6      2748.272 6        37.977 6
G21  21175032.619 9 111275526.772 9     -1257.466 9        55.708 9  21175031.905 6         0.000 6      -979.844 6        37.977 6
G29  24310081.701 9 127750285.017 9     -3121.573 9        54.471 9  24310083.286 6         0.000 6     -2432.397 6        37.977 6
G27  21996431.506 9 115592000.793 9      2495.248 9        55.378 9  21996433.436 6         0.000 6      1944.350 6        37.977 6
G16  20495418.509 9 107704130.894 9       546.092 9        55.977 9  20495417.682 6         0.000 6       425.526 6        37.977 6
G26  20659504.918 9 108566408.797 9     -1493.303 9        55.871 9  20659507.736 6         0.000 6     -1163.613 6        37.977 6
G20  21935315.651 9 115270828.741 9      2557.751 9        55.319 9  21935315.968 6         0.000 6      1993.054 6        37.977 6
> 2019 07 03 12 01 18.0000000  0  8       0.000000000000
G07  25339406.082 9 133159431.678 9      2177.956 9        54.134 9  25339406.748 6         0.000 6      1697.109 6        37.977 6
G10  23796967.098 9 125053851.667 9      3526.807 9        54.674 9  23796970.812 6         0.000 6      2748.164 6        37.977 6
G21  21175271.941 9 111276784.417 9     -1257.826 9        55.707 9  21175271.227 6         0.000 6      -980.124 6        37.977 6
G29  24310675.725 9 127753406.621 9     -3121.658 9        54.471 9  24310677.311 6         0.000 6     -2432.463 6        37.977 6
G27  21995956.699 9 115589505.666 9      2495.010 9        55.378 9  21995958.629 6         0.000 6      1944.165 6        37.977 6
G16  20495314.650 9 107703585.111 9       545.475 9        55.977 9  20495313.823 6         0.000 6       425.046 6        37.977 6
G26  20659789.139 9 108567902.386 9     -1493.877 9        55.871 9  20659791.957 6         0.000 6     -1164.061 6        37.977 6
G20  21934828.970 9 115268271.217 9      2557.306 9        55.319 9  21934829.286 6         0.000 6      1992.707 6        37.977 6
> 2019 07 03 12 01 19.0000000  0  8       0.000000000000
G07  25338991.675 9 133157253.962 9      2177.495 9        54.134 9  25338992.341 6         0.000 6      1696.750 6        37.977 6
G10  23796295.981 9 125050324.933 9      3526.668 9        54.674 9  23796299.695 6         0.000 6      2748.056 6        37.977 6
G21  21175511.330 9 111278042.417 9     -1258.185 9        55.707 9  21175510.617 6         0.000 6      -980.404 6        37.977 6
G29  24311269.763 9 127756528.306 9     -3121.743 9        54.471 9  24311271.350 6         0.000 6     -2432.529 6        37.977 6
G27  21995481.937 9 115587010.779 9      2494.773 9        55.378 9  21995483.867 6         0.000 6      1943.980 6        37.977 6
G16  20495210.908 9 107703039.942 9       544.859 9        55.977 9  20495210.081 6         0.000 6       424.565 6        37.977 6
G26  20660073.468 9 108569396.543 9     -1494.452 9        55.871 9  20660076.286 6         0.000 6     -1164.508 6        37.977 6
G20  21934342.371 9 115265714.131 9      2556.861 9        55.319 9  21934342.687 6         0.000 6      1992.360 6        37.977 6
> 2019 07 03 12 01 20.0000000  0  8       0.000000000000
G07  25338577.356 9 133155076.701 9      2177.034 9        54.134 9  25338578.021 6         0.000 6      1696.391 6        37.977 6
G10  23795624.891 9 125046798.345 9      3526.529 9        54.674 9  23795628.605 6         0.000 6      2747.947 6        37.977 6
G21  21175750.789 9 111279300.782 9     -1258.545 9        55.707 9  21175750.076 6         0.000 6      -980.685 6        37.977 6
G29  24311863.820 9 127759650.081 9     -3121.828 9        54.471 9  24311865.407 6         0.000 6     -2432.596 6        37.977 6
G27  21995007.220 9 115584516.128 9      2494.535 9        55.378 9  21995009.150 6         0.000 6      1943.794 6        37.977 6
G16  20495107.283 9 107702495.392 9       544.242 9        55.977 9  20495106.456 6         0.000 6       424.085 6        37.977 6
G26  20660357.907 9 108570891.280 9     -1495.026 9        55.871 9  20660360.726 6         0.000 6     -1164.956 6        37.977 6
G20  21933855.859 9 115263157.497 9      2556.416 9        55.320 9  21933856.175 6         0.000 6      1992.013 6        37.977 6
> 2019 07 03 12 01 21.0000000  0  8       0.000000000000
G07  25338163.124 9 133152899.900 9      2176.574 9        54.135 9  25338163.789 6         0.000 6      1696.032 6        37.977 6
G10  23794953.829 9 125043271.897 9      3526.389 9        54.675 9  23794957.541 6         0.000 6      2747.838 6        37.977 6
G21  21175990.317 9 111280559.506 9     -1258.905 9        55.707 9  21175989.603 6         0.000 6      -980.965 6        37.977 6
G29  24312457.892 9 127762771.942 9     -3121.913 9        54.470 9  24312459.480 6         0.000 6     -2432.662 6        37.977 6
G27  21994532.548 9 115582021.714 9      2494.298 9        55.378 9  21994534.478 6         0.000 6      1943.609 6        37.977 6
G16  20495003.776 9 107701951.458 9       543.625 9        55.978 9  20495002.949 6         0.000 6       423.604 6        37.977 6
G26  20660642.456 9 108572386.591 9     -1495.600 9        55.870 9  20660645.274 6         0.000 6     -1165.403 6        37.977 6
G20  21933369.432 9 115260601.309 9      2555.971 9        55.320 9  21933369.747 6         0.000 6      1991.666 6        37.977 6
> 2019 07 03 12 01 22.0000000  0  8       0.000000000000
G07  25337748.980 9 133150723.563 9      2176.113 9        54.135 9  25337749.645 6         0.000 6      1695.673 6        37.977 6
G10  23794282.791 9 125039745.584 9      3526.250 9        54.675 9  23794286.503 6         0.000 6      2747.730 6        37.977 6
G21  21176229.912 9 111281818.587 9     -1259.264 9        55.707 9  21176229.199 6         0.000 6      -981.245 6        37.977 6
G29  24313051.980 9 127765893.887 9     -3121.998 9        54.470 9  24313053.569 6         0.000 6     -2432.728 6        37.977 6
G27  21994057.921 9 115579527.535 9      2494.060 9        55.378 9  21994059.851 6         0.000 6      1943.424 6        37.977 6
G16  20494900.386 9 107701408.139 9       543.008 9        55.978 9  20494899.559 6         0.000 6       423.123 6        37.977 6
G26  20660927.113 9 108573882.471 9     -1496.174 9        55.870 9  20660929.931 6         0.000 6     -1165.850 6        37.977 6
G20  21932883.088 9 115258045.561 9      2555.525 9        55.320 9  21932883.404 6         0.000 6      1991.320 6        37.977 6
> 2019 07 03 12 01 23.0000000  0  8       0.000000000000
G07  25337334.923 9 133148547.684 9      2175.652 9        54.135 9  25337335.588 6         0.000 6      1695.314 6        37.977 6
G10  23793611.782 9 125036219.414 9      3526.110 9        54.675 9  23793615.493 6         0.000 6      2747.621 6        37.977 6
G21  21176469.576 9 111283078.031 9     -1259.624 9        55.707 9  21176468.863 6         0.000 6      -981.525 6        37.977 6
G29  24313646.085 9 127769015.917 9     -3122.083 9        54.470 9  24313647.674 6         0.000 6     -2432.795 6        37.977 6
G27  21993583.340 9 115577033.597 9      2493.822 9        55.379 9  21993585.269 6         0.000 6      1943.239 6        37.977 6
G16  20494797.113 9 107700865.439 9       542.391 9        55.978 9  20494796.287 6         0.000 6       422.642 6        37.977 6
G26  20661211.880 9 108575378.931 9     -1496.748 9        55.870 9  20661214.699 6         0.000 6     -1166.298 6        37.977 6
G20  21932396.831 9 115255490.263 9      2555.080 9        55.320 9  21932397.145 6         0.000 6      1990.972 6        37.977 6
> 2019 07 03 12 01 24.0000000  0  8       0.000000000000
G07  25336920.955 9 133146372.269 9      2175.191 9        54.135 9  25336921.619 6         0.000 6      1694.955 6        37.977 6
G10  23792940.798 9 125032693.380 9      3525.971 9        54.675 9  23792944.508 6         0.000 6      2747.512 6        37.977 6
G21  21176709.308 9 111284337.832 9     -1259.984 9        55.707 9  21176708.595 6         0.000 6      -981.806 6        37.977 6
G29  24314240.205 9 127772138.033 9     -3122.168 9        54.470 9  24314241.795 6         0.000 6     -2432.861 6        37.977 6
G27  21993108.804 9 115574539.894 9      2493.585 9        55.379 9  21993110.733 6         0.000 6      1943.054 6        37.977 6
G16  20494693.958 9 107700323.353 9       541.774 9        55.978 9  20494693.131 6         0.000 6       422.162 6        37.977 6
G26  20661496.755 9 108576875.959 9     -1497.322 9        55.870 9  20661499.574 6         0.000 6     -1166.745 6        37.977 6
G20  21931910.657 9 115252935.406 9      2554.634 9        55.320 9  21931910.971 6         0.000 6      1990.625 6        37.977 6
> 2019 07 03 12 01 25.0000000  0  8       0.000000000000
G07  25336507.073 9 133144197.313 9      2174.730 9        54.135 9  25336507.738 6         0.000 6      1694.595 6        37.977 6
G10  23792269.841 9 125029167.490 9      3525.831 9        54.676 9  23792273.551 6         0.000 6      2747.403 6        37.977 6
G21  21176949.110 9 111285597.994 9     -1260.343 9        55.707 9  21176948.396 6         0.000 6      -982.086 6        37.977 6
G29  24314834.342 9 127775260.233 9     -3122.253 9        54.470 9  24314835.933 6         0.000 6     -2432.927 6        37.977 6
G27  21992634.313 9 115572046.431 9      2493.347 9        55.379 9  21992636.242 6         0.000 6      1942.869 6        37.977 6
G16  20494590.921 9 107699781.888 9       541.157 9        55.978 9  20494590.094 6         0.000 6       421.681 6        37.977 6
G26  20661781.741 9 108578373.566 9     -1497.896 9        55.870 9  20661784.560 6         0.000 6     -1167.192 6        37.977 6
G20  21931424.568 9 115250380.999 9      2554.189 9        55.321 9  21931424.883 6         0.000 6      1990.278 6        37.977 6
> 2019 07 03 12 01 26.0000000  0  8       0.000000000000
G07  25336093.281 9 133142022.820 9      2174.269 9        54.135 9  25336093.945 6         0.000 6      1694.236 6        37.977 6
G10  23791598.910 9 125025641.735 9      3525.691 9        54.676 9  23791602.620 6         0.000 6      2747.294 6        37.977 6
G21  21177188.979 9 111286858.514 9     -1260.702 9        55.707 9  21177188.265 6         0.000 6      -982.366 6        37.977 6
G29  24315428.495 9 127778382.519 9     -3122.338 9        54.469 9  24315430.086 6         0.000 6     -2432.993 6        37.977 6
G27  21992159.867 9 115569553.203 9      2493.109 9        55.379 9  21992161.796 6         0.000 6      1942.683 6        37.977 6
G16  20494488.000 9 107699241.036 9       540.540 9        55.978 9  20494487.173 6         0.000 6       421.200 6        37.977 6
G26  20662066.834 9 108579871.742 9     -1498.470 9        55.870 9  20662069.654 6         0.000 6     -1167.639 6        37.977 6
G20  21930938.564 9 115247827.033 9      2553.743 9        55.321 9  21930938.878 6         0.000 6      1989.931 6        37.977 6
> 2019 07 03 12 01 27.0000000  0  8       0.000000000000
G07  25335679.575 9 133139848.788 9      2173.807 9        54.135 9  25335680.239 6         0.000 6      1693.877 6        37.977 6
G10  23790928.006 9 125022116.122 9      3525.551 9        54.676 9  23790931.715 6         0.000 6      2747.185 6        37.977 6
G21  21177428.916 9 111288119.393 9     -1261.062 9        55.707 9  21177428.203 6         0.000 6      -982.646 6        37.977 6
G29  24316022.664 9 127781504.884 9     -3122.423 9        54.469 9  24316024.255 6         0.000 6     -2433.060 6        37.977 6
G27  21991685.468 9 115567060.219 9      2492.871 9        55.379 9  21991687.396 6         0.000 6      1942.498 6        37.977 6
G16  20494385.198 9 107698700.806 9       539.923 9        55.978 9  20494384.371 6         0.000 6       420.719 6        37.977 6
G26  20662352.038 9 108581370.497 9     -1499.044 9        55.870 9  20662354.858 6         0.000 6     -1168.086 6        37.977 6
G20  21930452.644 9 115245273.514 9      2553.297 9        55.321 9  21930452.958 6         0.000 6      1989.584 6        37.977 6
> 2019 07 03 12 01 28.0000000  0  8       0.000000000000
G07  25335265.958 9 133137675.218 9      2173.346 9        54.136 9  25335266.622 6         0.000 6      1693.517 6        37.977 6
G10  23790257.129 9 125018590.647 9      3525.411 9        54.676 9  23790260.837 6         0.000 6      2747.076 6        37.977 6
G21  21177668.922 9 111289380.631 9     -1261.421 9        55.706 9  21177668.209 6         0.000 6      -982.926 6        37.977 6
G29  24316616.849 9 127784627.339 9     -3122.508 9        54.469 9  24316618.441 6         0.000 6     -2433.126 6        37.977 6
G27  21991211.112 9 115564567.468 9      2492.634 9        55.380 9  21991213.040 6         0.000 6      1942.313 6        37.977 6
G16  20494282.512 9 107698161.189 9       539.306 9        55.978 9  20494281.685 6         0.000 6       420.238 6        37.977 6
G26  20662637.350 9 108582869.821 9     -1499.618 9        55.870 9  20662640.170 6         0.000 6     -1168.534 6        37.977 6
G20  21929966.810 9 115242720.440 9      2552.852 9        55.321 9  21929967.123 6         0.000 6      1989.236 6        37.977 6
> 2019 07 03 12 01 29.0000000  0  8       0.000000000000
G07  25334852.428 9 133135502.106 9      2172.884 9        54.136 9  25334853.092 6         0.000 6      1693.158 6        37.977 6
G10  23789586.279 9 125015065.317 9      3525.271 9        54.677 9  23789589.986 6         0.000 6      2746.967 6        37.977 6
G21  21177908.996 9 111290642.231 9     -1261.780 9        55.706 9  21177908.283 6         0.000 6      -983.206 6        37.977 6
G29  24317211.051 9 127787749.879 9     -3122.593 9        54.469 9  24317212.644 6         0.000 6     -2433.192 6        37.977 6
G27  21990736.802 9 115562074.956 9      2492.396 9        55.380 9  21990738.730 6         0.000 6      1942.127 6        37.977 6
G16  20494179.944 9 107697622.192 9       538.688 9        55.978 9  20494179.117 6         0.000 6       419.757 6        37.977 6
G26  20662922.773 9 108584369.724 9     -1500.191 9        55.870 9  20662925.592 6         0.000 6     -1168.981 6        37.977 6
G20  21929481.061 9 115240167.816 9      2552.406 9        55.321 9  21929481.374 6         0.000 6      1988.889 6        37.977 6
> 2019 07 03 12 01 30.0000000  0  8       0.000000000000
G07  25334438.986 9 133133329.459 9      2172.423 9        54.136 9  25334439.650 6         0.000 6      1692.798 6        37.977 6
G10  23788915.455 9 125011540.123 9      3525.131 9        54.677 9  23788919.161 6         0.000 6      2746.858 6        37.977 6
G21  21178149.139 9 111291904.188 9     -1262.139 9        55.706 9  21178148.426 6         0.000 6      -983.485 6        37.977 6
G29  24317805.269 9 127790872.504 9     -3122.678 9        54.468 9  24317806.862 6         0.000 6     -2433.258 6        37.977 6
G27  21990262.538 9 115559582.680 9      2492.158 9        55.380 9  21990264.465 6         0.000 6      1941.942 6        37.977 6
G16  20494077.493 9 107697083.809 9       538.071 9        55.978 9  20494076.666 6         0.000 6       419.276 6        37.977 6
G26  20663208.303 9 108585870.196 9     -1500.765 9        55.869 9  20663211.123 6         0.000 6     -1169.428 6        37.977 6
G20  21928995.396 9 115237615.633 9      2551.960 9        55.321 9  21928995.709 6         0.000 6      1988.541 6        37.977 6
> 2019 07 03 12 01 31.0000000  0  8       0.000000000000
G07  25334025.632 9 133131157.270 9      2171.961 9        54.136 9  25334026.295 6         0.000 6      1692.438 6        37.977 6
G10  23788244.658 9 125008015.073 9      3524.990 9        54.677 9  23788248.364 6         0.000 6      2746.748 6        37.977 6
G21  21178389.350 9 111293166.506 9     -1262.499 9        55.706 9  21178388.637 6         0.000 6      -983.765 6        37.977 6
G29  24318399.502 9 127793995.214 9     -3122.763 9        54.468 9  24318401.097 6         0.000 6     -2433.324 6        37.977 6
G27  21989788.318 9 115557090.644 9      2491.920 9        55.380 9  21989790.246 6         0.000 6      1941.756 6        37.977 6
G16  20493975.160 9 107696546.046 9       537.454 9        55.978 9  20493974.333 6         0.000 6       418.795 6        37.977 6
G26  20663493.944 9 108587371.246 9     -1501.339 9        55.869 9  20663496.764 6         0.000 6     -1169.875 6        37.977 6
G20  21928509.816 9 115235063.901 9      2551.514 9        55.322 9  21928510.129 6         0.000 6      1988.194 6        37.977 6
> 2019 07 03 12 01 32.0000000  0  8       0.000000000000
G07  25333612.365 9 133128985.543 9      2171.500 9        54.136 9  25333613.028 6         0.000 6      1692.079 6        37.977 6
G10  23787573.888 9 125004490.164 9      3524.850 9        54.677 9  23787577.593 6         0.000 6      2746.639 6        37.977 6
G21  21178629.630 9 111294429.184 9     -1262.858 9        55.706 9  21178628.917 6         0.000 6      -984.045 6        37.977 6
G29  24318993.753 9 127797118.009 9     -3122.848 9        54.468 9  24318995.347 6         0.000 6     -2433.390 6        37.977 6
G27  21989314.144 9 115554598.846 9      2491.682 9        55.380 9  21989316.072 6         0.000 6      1941.571 6        37.977 6
G16  20493872.945 9 107696008.901 9       536.837 9        55.978 9  20493872.118 6         0.000 6       418.314 6        37.977 6
G26  20663779.694 9 108588872.870 9     -1501.913 9        55.869 9  20663782.514 6         0.000 6     -1170.322 6        37.977 6
G20  21928024.322 9 115232512.615 9      2551.067 9        55.322 9  21928024.634 6         0.000 6      1987.846 6        37.977 6
> 2019 07 03 12 01 33.0000000  0  8       0.000000000000
G07  25333199.187 9 133126814.280 9      2171.038 9        54.136 9  25333199.850 6         0.000 6      1691.719 6        37.977 6
G10  23786903.144 9 125000965.390 9      3524.709 9        54.678 9  23786906.849 6         0.000 6      2746.529 6        37.977 6
G21  21178869.978 9 111295692.218 9     -1263.217 9        55.706 9  21178869.265 6         0.000 6      -984.325 6        37.977 6
G29  24319588.019 9 127800240.889 9     -3122.932 9        54.468 9  24319589.614 6         0.000 6     -2433.456 6        37.977 6
G27  21988840.015 9 115552107.284 9      2491.444 9        55.381 9  21988841.943 6         0.000 6      1941.385 6        37.977 6
G16  20493770.846 9 107695472.369 9       536.219 9        55.978 9  20493770.020 6         0.000 6       417.833 6        37.977 6
G26  20664065.552 9 108590375.063 9     -1502.486 9        55.869 9  20664068.372 6         0.000 6     -1170.769 6        37.977 6
G20  21927538.912 9 115229961.771 9      2550.621 9        55.322 9  21927539.224 6         0.000 6      1987.498 6        37.977 6
> 2019 07 03 12 01 34.0000000  0  8       0.000000000000
G07  25332786.096 9 133124643.477 9      2170.576 9        54.136 9  25332786.759 6         0.000 6      1691.359 6        37.977 6
G10  23786232.427 9 124997440.762 9      3524.568 9        54.678 9  23786236.132 6         0.000 6      2746.420 6        37.977 6
G21  21179110.394 9 111296955.613 9     -1263.576 9        55.706 9  21179109.681 6         0.000 6      -984.605 6        37.977 6
G29  24320182.301 9 127803363.853 9     -3123.017 9        54.468 9  24320183.897 6         0.000 6     -2433.522 6        37.977 6
G27  21988365.932 9 115549615.962 9      2491.206 9        55.381 9  21988367.859 6         0.000 6      1941.200 6        37.977 6
G16  20493668.866 9 107694936.459 9       535.602 9        55.978 9  20493668.039 6         0.000 6       417.352 6        37.977 6
G26  20664351.520 9 108591877.834 9     -1503.060 9        55.869 9  20664354.341 6         0.000 6     -1171.216 6        37.977 6
G20  21927053.587 9 115227411.378 9      2550.175 9        55.322 9  21927053.899 6         0.000 6      1987.150 6        37.977 6
> 2019 07 03 12 01 35.0000000  0  8       0.000000000000
G07  25332373.094 9 133122473.141 9      2170.114 9        54.137 9  25332373.756 6         0.000 6      1690.999 6        37.977 6
G10  23785561.736 9 124993916.268 9      3524.428 9        54.678 9  23785565.440 6         0.000 6      2746.310 6        37.977 6
G21  21179350.878 9 111298219.363 9     -1263.935 9        55.706 9  21179350.165 6         0.000 6      -984.884 6        37.977 6
G29  24320776.599 9 127806486.897 9     -3123.102 9        54.467 9  24320778.195 6         0.000 6     -2433.588 6        37.977 6
G27  21987891.894 9 115547124.880 9      2490.968 9        55.381 9  21987893.821 6         0.000 6      1941.014 6        37.977 6
G16  20493567.003 9 107694401.164 9       534.984 9        55.978 9  20493566.176 6         0.000 6       416.871 6        37.977 6
G26  20664637.597 9 108593381.174 9     -1503.634 9        55.869 9  20664640.417 6         0.000 6     -1171.663 6        37.977 6
G20  21926568.346 9 115224861.423 9      2549.728 9        55.322 9  21926568.658 6         0.000 6      1986.802 6        37.977 6
> 2019 07 03 12 01 36.0000000  0  8       0.000000000000
G07  25331960.179 9 133120303.261 9      2169.652 9        54.137 9  25331960.841 6         0.000 6      1690.639 6        37.977 6
G10  23784891.074 9 124990391.922 9      3524.287 9        54.678 9  23784894.776 6         0.000 6      2746.200 6        37.977 6
G21  21179591.430 9 111299483.477 9     -1264.293 9        55.706 9  21179590.718 6         0.000 6      -985.164 6        37.977 6
G29  24321370.913 9 127809610.031 9     -3123.187 9        54.467 9  24321372.510 6         0.000 6     -2433.655 6        37.977 6
G27  21987417.902 9 115544634.034 9      2490.729 9        55.381 9  21987419.829 6         0.000 6      1940.829 6        37.977 6
G16  20493465.257 9 107693866.488 9       534.367 9        55.978 9  20493464.430 6         0.000 6       416.390 6        37.977 6
G26  20664923.783 9 108594885.093 9     -1504.207 9        55.869 9  20664926.604 6         0.000 6     -1172.110 6        37.977 6
G20  21926083.191 9 115222311.923 9      2549.282 9        55.323 9  21926083.503 6         0.000 6      1986.454 6        37.977 6
> 2019 07 03 12 01 37.0000000  0  8       0.000000000000
G07  25331547.352 9 133118133.845 9      2169.190 9        54.137 9  25331548.014 6         0.000 6      1690.279 6        37.977 6
G10  23784220.437 9 124986867.712 9      3524.146 9        54.679 9  23784224.139 6         0.000 6      2746.090 6        37.977 6
G21  21179832.051 9 111300747.946 9     -1264.652 9        55.706 9  21179831.339 6         0.000 6      -985.443 6        37.977 6
G29  24321965.244 9 127812733.250 9     -3123.271 9        54.467 9  24321966.842 6         0.000 6     -2433.721 6        37.977 6
G27  21986943.954 9 115542143.424 9      2490.491 9        55.381 9  21986945.881 6         0.000 6      1940.643 6        37.977 6
G16  20493363.629 9 107693332.427 9       533.750 9        55.978 9  20493362.802 6         0.000 6       415.909 6        37.977 6
G26  20665210.078 9 108596389.580 9     -1504.781 9        55.869 9  20665212.899 6         0.000 6     -1172.557 6        37.977 6
G20  21925598.121 9 115219762.865 9      2548.835 9        55.323 9  21925598.432 6         0.000 6      1986.106 6        37.977 6
> 2019 07 03 12 01 38.0000000  0  8       0.000000000000
G07  25331134.613 9 133115964.890 9      2168.728 9        54.137 9  25331135.275 6         0.000 6      1689.919 6        37.977 6
G10  23783549.828 9 124983343.647 9      3524.004 9        54.679 9  23783553.529 6         0.000 6      2745.980 6        37.977 6
G21  21180072.741 9 111302012.777 9     -1265.011 9        55.705 9  21180072.028 6         0.000 6      -985.723 6        37.977 6
G29  24322559.591 9 127815856.554 9     -3123.356 9        54.467 9  24322561.189 6         0.000 6     -2433.787 6        37.977 6
G27  21986470.052 9 115539653.055 9      2490.253 9        55.381 9  21986471.978 6         0.000 6      1940.457 6        37.977 6
G16  20493262.118 9 107692798.986 9       533.132 9        55.978 9  20493261.292 6         0.000 6       415.428 6        37.977 6
G26  20665496.483 9 108597894.646 9     -1505.354 9        55.868 9  20665499.304 6         0.000 6     -1173.004 6        37.977 6
G20  21925113.136 9 115217214.258 9      2548.388 9        55.323 9  21925113.447 6         0.000 6      1985.758 6        37.977 6
> 2019 07 03 12 01 39.0000000  0  8       0.000000000000
G07  25330721.962 9 133113796.399 9      2168.266 9        54.137 9  25330722.624 6         0.000 6      1689.559 6        37.977 6
G10  23782879.244 9 124979819.720 9      3523.863 9        54.679 9  23782882.945 6         0.000 6      2745.870 6        37.977 6
G21  21180313.498 9 111303277.964 9     -1265.370 9        55.705 9  21180312.785 6         0.000 6      -986.002 6        37.977 6
G29  24323153.954 9 127818979.942 9     -3123.441 9        54.467 9  24323155.553 6         0.000 6     -2433.853 6        37.977 6
G27  21985996.195 9 115537162.922 9      2490.015 9        55.382 9  21985998.121 6         0.000 6      1940.272 6        37.977 6
G16  20493160.725 9 107692266.159 9       532.514 9        55.978 9  20493159.898 6         0.000 6       414.946 6        37.977 6
G26  20665782.996 9 108599400.280 9     -1505.928 9        55.868 9  20665785.817 6         0.000 6     -1173.451 6        37.977 6
G20  21924628.236 9 115214666.094 9      2547.941 9        55.323 9  21924628.546 6         0.000 6      1985.410 6        37.977 6
> 2019 07 03 12 01 40.0000000  0  8       0.000000000000
G07  25330309.399 9 133111628.367 9      2167.804 9        54.137 9  25330310.060 6         0.000 6      1689.199 6        37.977 6
G10  23782208.689 9 124976295.938 9      3523.722 9        54.679 9  23782212.389 6         0.000 6      2745.760 6        37.977 6
G21  21180554.324 9 111304543.513 9     -1265.728 9        55.705 9  21180553.611 6         0.000 6      -986.282 6        37.977 6
G29  24323748.333 9 127822103.415 9     -3123.525 9        54.466 9  24323749.933 6         0.000 6     -2433.919 6        37.977 6
G27  21985522.384 9 115534673.029 9      2489.776 9        55.382 9  21985524.310 6         0.000 6      1940.086 6        37.977 6
G16  20493059.450 9 107691733.954 9       531.897 9        55.978 9  20493058.623 6         0.000 6       414.465 6        37.977 6
G26  20666069.619 9 108600906.493 9     -1506.501 9        55.868 9  20666072.440 6         0.000 6     -1173.897 6        37.977 6
G20  21924143.421 9 115212118.381 9      2547.494 9        55.323 9  21924143.731 6         0.000 6      1985.062 6        37.977 6
> 2019 07 03 12 01 41.0000000  0  8       0.000000000000
G07  25329896.924 9 133109460.798 9      2167.341 9        54.137 9  25329897.585 6         0.000 6      1688.838 6        37.977 6
G10  23781538.160 9 124972772.297 9      3523.580 9        54.680 9  23781541.860 6         0.000 6      2745.650 6        37.977 6
G21  21180795.218 9 111305809.419 9     -1266.087 9        55.705 9  21180794.506 6         0.000 6      -986.561 6        37.977 6
G29  24324342.728 9 127825226.972 9     -3123.610 9        54.466 9  24324344.328 6         0.000 6     -2433.984 6        37.977 6
G27  21985048.618 9 115532183.375 9      2489.538 9        55.382 9  21985050.544 6         0.000 6      1939.900 6        37.977 6
G16  20492958.292 9 107691202.366 9       531.279 9        55.978 9  20492957.465 6         0.000 6       413.984 6        37.977 6
G26  20666356.351 9 108602413.279 9     -1507.075 9        55.868 9  20666359.172 6         0.000 6     -1174.344 6        37.977 6
G20  21923658.692 9 115209571.114 9      2547.047 9        55.324 9  21923659.002 6         0.000 6      1984.713 6        37.977 6
> 2019 07 03 12 01 42.0000000  0  8       0.000000000000
G07  25329484.537 9 133107293.697 9      2166.879 9        54.138 9  25329485.198 6         0.000 6      1688.478 6        37.977 6
G10  23780867.658 9 124969248.791 9      3523.439 9        54.680 9  23780871.357 6         0.000 6      2745.539 6        37.977 6
G21  21181036.180 9 111307075.680 9     -1266.445 9        55.705 9  21181035.467 6         0.000 6      -986.841 6        37.977 6
G29  24324937.138 9 127828350.609 9     -3123.695 9        54.466 9  24324938.739 6         0.000 6     -2434.050 6        37.977 6
G27  21984574.897 9 115529693.960 9      2489.300 9        55.382 9  21984576.823 6         0.000 6      1939.715 6        37.977 6
G16  20492857.251 9 107690671.394 9       530.661 9        55.978 9  20492856.424 6         0.000 6       413.502 6        37.977 6
G26  20666643.192 9 108603920.634 9     -1507.648 9        55.868 9  20666646.013 6         0.000 6     -1174.791 6        37.977 6
G20  21923174.046 9 115207024.288 9      2546.600 9        55.324 9  21923174.356 6         0.000 6      1984.365 6        37.977 6
> 2019 07 03 12 01 43.0000000  0  8       0.000000000000
G07  25329072.238 9 133105127.053 9      2166.417 9        54.138 9  25329072.898 6         0.000 6      1688.118 6        37.977 6
G10  23780197.183 9 124965725.434 9      3523.297 9        54.680 9  23780200.881 6         0.000 6      2745.429 6        37.977 6
G21  21181277.210 9 111308342.304 9     -1266.804 9        55.705 9  21181276.498 6         0.000 6      -987.120 6        37.977 6
G29  24325531.566 9 127831474.336 9     -3123.779 9        54.466 9  24325533.167 6         0.000 6     -2434.116 6        37.977 6
G27  21984101.222 9 115527204.783 9      2489.061 9        55.382 9  21984103.148 6         0.000 6      1939.529 6        37.977 6
G16  20492756.328 9 107690141.041 9       530.044 9        55.978 9  20492755.501 6         0.000 6       413.021 6        37.977 6
G26  20666930.142 9 108605428.567 9     -1508.221 9        55.868 9  20666932.963 6         0.000 6     -1175.238 6        37.977 6
G20  21922689.487 9 115204477.916 9      2546.153 9        55.324 9  21922689.796 6         0.000 6      1984.016 6        37.977 6
> 2019 07 03 12 01 44.0000000  0  8       0.000000000000
G07  25328660.027 9 133102960.873 9      2165.954 9        54.138 9  25328660.687 6         0.000 6      1687.757 6        37.977 6
G10  23779526.734 9 124962202.214 9      3523.155 9        54.680 9  23779530.432 6         0.000 6      2745.319 6        37.977 6
G21  21181518.309 9 111309609.284 9     -1267.162 9        55.705 9  21181517.596 6         0.000 6      -987.399 6        37.977 6
G29  24326126.009 9 127834598.147 9     -3123.864 9        54.465 9  24326127.611 6         0.000 6     -2434.182 6        37.977 6
G27  21983627.592 9 115524715.842 9      2488.823 9        55.383 9  21983629.517 6         0.000 6      1939.343 6        37.977 6
G16  20492655.523 9 107689611.303 9       529.426 9        55.979 9  20492654.696 6         0.000 6       412.540 6        37.977 6
G26  20667217.201 9 108606937.068 9     -1508.795 9        55.868 9  20667220.022 6         0.000 6     -1175.685 6        37.977 6
G20  21922205.012 9 115201931.987 9      2545.705 9        55.324 9  21922205.321 6         0.000 6      1983.668 6        37.977 6
> 2019 07 03 12 01 45.0000000  0  8       0.000000000000
G07  25328247.904 9 133100795.154 9      2165.491 9        54.138 9  25328248.564 6         0.000 6      1687.397 6        37.977 6
G10  23778856.314 9 124958679.140 9      3523.014 9        54.681 9  23778860.011 6         0.000 6      2745.208 6        37.977 6
G21  21181759.476 9 111310876.625 9     -1267.521 9        55.705 9  21181758.763 6         0.000 6      -987.679 6        37.977 6
G29  24326720.469 9 127837722.043 9     -3123.948 9        54.465 9  24326722.072 6         0.000 6     -2434.248 6        37.977 6
G27  21983154.007 9 115522227.141 9      2488.584 9        55.383 9  21983155.933 6         0.000 6      1939.157 6        37.977 6
G16  20492554.835 9 107689082.186 9       528.808 9        55.979 9  20492554.008 6         0.000 6       412.058 6        37.977 6
G26  20667504.369 9 108608446.147 9     -1509.368 9        55.868 9  20667507.191 6         0.000 6     -1176.131 6        37.977 6
G20  21921720.623 9 115199386.510 9      2545.258 9        55.324 9  21921720.931 6         0.000 6      1983.319 6        37.977 6
> 2019 07 03 12 01 46.0000000  0  8       0.000000000000
G07  25327835.869 9 133098629.900 9      2165.029 9        54.138 9  25327836.529 6         0.000 6      1687.036 6        37.977 6
G10  23778185.919 9 124955156.203 9      3522.872 9        54.681 9  23778189.616 6         0.000 6      2745.097 6        37.977 6
G21  21182000.710 9 111312144.321 9     -1267.879 9        55.705 9  21181999.998 6         0.000 6      -987.958 6        37.977 6
G29  24327314.944 9 127840846.023 9     -3124.033 9        54.465 9  24327316.548 6         0.000 6     -2434.314 6        37.977 6
G27  21982680.468 9 115519738.677 9      2488.346 9        55.383 9  21982682.393 6         0.000 6      1938.971 6        37.977 6
G16  20492454.264 9 107688553.684 9       528.190 9        55.979 9  20492453.437 6         0.000 6       411.577 6        37.977 6
G26  20667791.646 9 108609955.795 9     -1509.941 9        55.867 9  20667794.468 6         0.000 6     -1176.578 6        37.977 6
G20  21921236.318 9 115196841.476 9      2544.810 9        55.325 9  21921236.626 6         0.000 6      1982.970 6        37.977 6
> 2019 07 03 12 01 47.0000000  0  8       0.000000000000
G07  25327423.922 9 133096465.107 9      2164.566 9        54.138 9  25327424.581 6         0.000 6      1686.676 6        37.977 6
G10  23777515.553 9 124951633.413 9      3522.730 9        54.681 9  23777519.248 6         0.000 6      2744.987 6        37.977 6
G21  21182242.014 9 111313412.379 9     -1268.237 9        55.705 9  21182241.302 6         0.000 6      -988.237 6        37.977 6
G29  24327909.436 9 127843970.088 9     -3124.117 9        54.465 9  24327911.040 6         0.000 6     -2434.380 6        37.977 6
G27  21982206.974 9 115517250.453 9      2488.107 9        55.383 9  21982208.899 6         0.000 6      1938.785 6        37.977 6
G16  20492353.812 9 107688025.802 9       527.572 9        55.979 9  20492352.985 6         0.000 6       411.095 6        37.977 6
G26  20668079.033 9 108611466.021 9     -1510.514 9        55.867 9  20668081.854 6         0.000 6     -1177.025 6        37.977 6
G20  21920752.099 9 115194296.894 9      2544.363 9        55.325 9  21920752.407 6         0.000 6      1982.621 6        37.977 6
> 2019 07 03 12 01 48.0000000  0  8       0.000000000000
G07  25327012.063 9 133094300.779 9      2164.103 9        54.138 9  25327012.723 6         0.000 6      1686.315 6        37.977 6
G10  23776845.212 9 124948110.761 9      3522.587 9        54.681 9  23776848.907 6         0.000 6      2744.876 6        37.977 6
G21  21182483.385 9 111314680.792 9     -1268.595 9        55.704 9  21182482.673 6         0.000 6      -988.516 6        37.977 6
G29  24328503.944 9 127847094.237 9     -3124.202 9        54.465 9  24328505.549 6         0.000 6     -2434.446 6        37.977 6
G27  21981733.525 9 115514762.466 9      2487.869 9        55.383 9  21981735.450 6         0.000 6      1938.600 6        37.977 6
G16  20492253.476 9 107687498.536 9       526.954 9        55.979 9  20492252.649 6         0.000 6       410.614 6        37.977 6
G26  20668366.528 9 108612976.815 9     -1511.087 9        55.867 9  20668369.350 6         0.000 6     -1177.471 6        37.977 6
G20  21920267.965 9 115191752.755 9      2543.915 9        55.325 9  21920268.273 6         0.000 6      1982.273 6        37.977 6
> 2019 07 03 12 01 49.0000000  0  8       0.000000000000
G07  25326600.292 9 133092136.911 9      2163.640 9        54.139 9  25326600.951 6         0.000 6      1685.954 6        37.977 6
G10  23776174.900 9 124944588.255 9      3522.445 9        54.681 9  23776178.594 6         0.000 6      2744.765 6        37.977 6
G21  21182724.825 9 111315949.565 9     -1268.953 9        55.704 9  21182724.113 6         0.000 6      -988.795 6        37.977 6
G29  24329098.468 9 127850218.471 9     -3124.286 9        54.464 9  24329100.073 6         0.000 6     -2434.511 6        37.977 6
G27  21981260.122 9 115512274.719 9      2487.630 9        55.384 9  21981262.047 6         0.000 6      1938.414 6        37.977 6
G16  20492153.259 9 107686971.890 9       526.336 9        55.979 9  20492152.432 6         0.000 6       410.132 6        37.977 6
G26  20668654.133 9 108614488.188 9     -1511.661 9        55.867 9  20668656.955 6         0.000 6     -1177.918 6        37.977 6
G20  21919783.917 9 115189209.069 9      2543.467 9        55.325 9  21919784.224 6         0.000 6      1981.924 6        37.977 6
> 2019 07 03 12 01 50.0000000  0  8       0.000000000000
G07  25326188.610 9 133089973.508 9      2163.177 9        54.139 9  25326189.269 6         0.000 6      1685.593 6        37.977 6
G10  23775504.614 9 124941065.889 9      3522.303 9        54.682 9  23775508.307 6         0.000 6      2744.654 6        37.977 6
G21  21182966.332 9 111317218.695 9     -1269.311 9        55.704 9  21182965.620 6         0.000 6      -989.074 6        37.977 6
G29  24329693.007 9 127853342.784 9     -3124.371 9        54.464 9  24329694.613 6         0.000 6     -2434.577 6        37.977 6
G27  21980786.765 9 115509787.215 9      2487.391 9        55.384 9  21980788.690 6         0.000 6      1938.228 6        37.977 6
G16  20492053.160 9 107686445.864 9       525.718 9        55.979 9  20492052.333 6         0.000 6       409.651 6        37.977 6
G26  20668941.847 9 108616000.133 9     -1512.234 9        55.867 9  20668944.669 6         0.000 6     -1178.364 6        37.977 6
G20  21919299.953 9 115186665.827 9      2543.019 9        55.325 9  21919300.260 6         0.000 6      1981.575 6        37.977 6
> 2019 07 03 12 01 51.0000000  0  8       0.000000000000
G07  25325777.015 9 133087810.569 9      2162.714 9        54.139 9  25325777.674 6         0.000 6      1685.232 6        37.977 6
G10  23774834.354 9 124937543.664 9      3522.160 9        54.682 9  23774838.048 6         0.000 6      2744.543 6        37.977 6
G21  21183207.908 9 111318488.182 9     -1269.669 9        55.704 9  21183207.196 6         0.000 6      -989.353 6        37.977 6
G29  24330287.563 9 127856467.186 9     -3124.455 9        54.464 9  24330289.169 6         0.000 6     -2434.643 6        37.977 6
G27  21980313.453 9 115507299.944 9      2487.152 9        55.384 9  21980315.377 6         0.000 6      1938.042 6        37.977 6
G16  20491953.177 9 107685920.452 9       525.100 9        55.979 9  20491952.350 6         0.000 6       409.169 6        37.977 6
G26  20669229.669 9 108617512.646 9     -1512.807 9        55.867 9  20669232.491 6         0.000 6     -1178.811 6        37.977 6
G20  21918816.074 9 115184123.032 9      2542.571 9        55.325 9  21918816.381 6         0.000 6      1981.226 6        37.977 6
> 2019 07 03 12 01 52.0000000  0  8       0.000000000000
G07  25325365.509 9 133085648.090 9      2162.251 9        54.139 9  25325366.167 6         0.000 6      1684.872 6        37.977 6
G10  23774164.123 9 124934021.585 9      3522.018 9        54.682 9  23774167.816 6         0.000 6      2744.432 6        37.977 6
G21  21183449.552 9 111319758.030 9     -1270.027 9        55.704 9  21183448.840 6         0.000 6      -989.632 6        37.977 6
G29  24330882.135 9 127859591.673 9     -3124.540 9        54.464 9  24330883.742 6         0.000 6     -2434.709 6        37.977 6
G27  21979840.186 9 115504812.914 9      2486.914 9        55.384 9  21979842.111 6         0.000 6      1937.855 6        37.977 6
G16  20491853.312 9 107685395.660 9       524.482 9        55.979 9  20491852.485 6         0.000 6       408.688 6        37.977 6
G26  20669517.601 9 108619025.738 9     -1513.380 9        55.867 9  20669520.423 6         0.000 6     -1179.257 6        37.977 6
G20  21918332.282 9 115181580.689 9      2542.123 9        55.326 9  21918332.588 6         0.000 6      1980.876 6        37.977 6
> 2019 07 03 12 01 53.0000000  0  8       0.000000000000
G07  25324954.091 9 133083486.077 9      2161.788 9        54.139 9  25324954.749 6         0.000 6      1684.511 6        37.977 6
G10  23773493.918 9 124930499.645 9      3521.875 9        54.682 9  23773497.610 6         0.000 6      2744.321 6        37.977 6
G21  21183691.264 9 111321028.233 9     -1270.385 9        55.704 9  21183690.552 6         0.000 6      -989.911 6        37.977 6
G29  24331476.723 9 127862716.245 9     -3124.624 9        54.464 9  24331478.331 6         0.000 6     -2434.774 6        37.977 6
G27  21979366.965 9 115502326.120 9      2486.675 9        55.384 9  21979368.889 6         0.000 6      1937.669 6        37.977 6
G16  20491753.565 9 107684871.484 9       523.864 9        55.979 9  20491752.738 6         0.000 6       408.206 6        37.977 6
G26  20669805.641 9 108620539.397 9     -1513.953 9        55.867 9  20669808.463 6         0.000 6     -1179.704 6        37.977 6
G20  21917848.573 9 115179038.790 9      2541.675 9        55.326 9  21917848.880 6         0.000 6      1980.527 6        37.977 6
> 2019 07 03 12 01 54.0000000  0  8       0.000000000000
G07  25324542.760 9 133081324.525 9      2161.324 9        54.139 9  25324543.418 6         0.000 6      1684.150 6        37.977 6
G10  23772823.741 9 124926977.852 9      3521.732 9        54.683 9  23772827.432 6         0.000 6      2744.209 6        37.977 6
G21  21183933.044 9 111322298.796 9     -1270.743 9        55.704 9  21183932.332 6         0.000 6      -990.190 6        37.977 6
G29  24332071.327 9 127865840.900 9     -3124.708 9        54.463 9  24332072.936 6         0.000 6     -2434.840 6        37.977 6
G27  21978893.789 9 115499839.567 9      2486.436 9        55.384 9  21978895.713 6         0.000 6      1937.483 6        37.977 6
G16  20491653.936 9 107684347.928 9       523.246 9        55.979 9  20491653.109 6         0.000 6       407.724 6        37.977 6
G26  20670093.791 9 108622053.635 9     -1514.526 9        55.867 9  20670096.614 6         0.000 6     -1180.150 6        37.977 6
G20  21917364.951 9 115176497.343 9      2541.227 9        55.326 9  21917365.258 6         0.000 6      1980.178 6        37.977 6
> 2019 07 03 12 01 55.0000000  0  8       0.000000000000
G07  25324131.519 9 133079163.439 9      2160.861 9        54.139 9  25324132.176 6         0.000 6      1683.789 6        37.977 6
G10  23772153.591 9 124923456.198 9      3521.589 9        54.683 9  23772157.281 6         0.000 6      2744.098 6        37.977 6
G21  21184174.892 9 111323569.715 9     -1271.101 9        55.704 9  21184174.180 6         0.000 6      -990.468 6        37.977 6
G29  24332665.947 9 127868965.640 9     -3124.793 9        54.463 9  24332667.557 6         0.000 6     -2434.906 6        37.977 6
G27  21978420.658 9 115497353.252 9      2486.197 9        55.385 9  21978422.582 6         0.000 6      1937.297 6        37.977 6
G16  20491554.423 9 107683824.988 9       522.628 9        55.979 9  20491553.597 6         0.000 6       407.243 6        37.977 6
G26  20670382.049 9 108623568.440 9     -1515.099 9        55.866 9  20670384.872 6         0.000 6     -1180.597 6        37.977 6
G20  21916881.414 9 115173956.341 9      2540.778 9        55.326 9  21916881.720 6         0.000 6      1979.828 6        37.977 6
> 2019 07 03 12 01 56.0000000  0  8       0.000000000000
G07  25323720.364 9 133077002.814 9      2160.397 9        54.139 9  25323721.022 6         0.000 6      1683.427 6        37.977 6
G10  23771483.468 9 124919934.691 9      3521.446 9        54.683 9  23771487.158 6         0.000 6      2743.987 6        37.977 6
G21  21184416.808 9 111324840.994 9     -1271.459 9        55.704 9  21184416.097 6         0.000 6      -990.747 6        37.977 6
G29  24333260.584 9 127872090.465 9     -3124.877 9        54.463 9  24333262.194 6         0.000 6     -2434.972 6        37.977 6
G27  21977947.573 9 115494867.177 9      2485.958 9        55.385 9  21977949.497 6         0.000 6      1937.111 6        37.977 6
G16  20491455.029 9 107683302.669 9       522.010 9        55.979 9  20491454.203 6         0.000 6       406.761 6        37.977 6
G26  20670670.418 9 108625083.823 9     -1515.671 9        55.866 9  20670673.240 6         0.000 6     -1181.043 6        37.977 6
G20  21916397.963 9 115171415.791 9      2540.330 9        55.326 9  21916398.268 6         0.000 6      1979.479 6        37.977 6
> 2019 07 03 12 01 57.0000000  0  8       0.000000000000
G07  25323309.299 9 133074842.654 9      2159.934 9        54.140 9  25323309.957 6         0.000 6      1683.066 6        37.977 6
G10  23770813.372 9 124916413.322 9      3521.303 9        54.683 9  23770817.061 6         0.000 6      2743.875 6        37.977 6
G21  21184658.793 9 111326112.629 9     -1271.816 9        55.704 9  21184658.081 6         0.000 6      -991.026 6        37.977 6
G29  24333855.236 9 127875215.373 9     -3124.961 9        54.463 9  24333856.846 6         0.000 6     -2435.037 6        37.977 6
G27  21977474.534 9 115492381.339 9      2485.719 9        55.385 9  21977476.457 6         0.000 6      1936.925 6        37.977 6
G16  20491355.753 9 107682780.966 9       521.391 9        55.979 9  20491354.926 6         0.000 6       406.279 6        37.977 6
G26  20670958.894 9 108626599.775 9     -1516.244 9        55.866 9  20670961.717 6         0.000 6     -1181.489 6        37.977 6
G20  21915914.596 9 115168875.686 9      2539.881 9        55.327 9  21915914.901 6         0.000 6      1979.129 6        37.977 6
> 2019 07 03 12 01 58.0000000  0  8       0.000000000000
G07  25322898.322 9 133072682.959 9      2159.470 9        54.140 9  25322898.979 6         0.000 6      1682.705 6        37.977 6
G10  23770143.304 9 124912892.099 9      3521.160 9        54.684 9  23770146.992 6         0.000 6      2743.764 6        37.977 6
G21  21184900.845 9 111327384.621 9     -1272.174 9        55.703 9  21184900.133 6         0.000 6      -991.305 6        37.977 6
G29  24334449.903 9 127878340.361 9     -3125.045 9        54.463 9  24334451.514 6         0.000 6     -2435.103 6        37.977 6
G27  21977001.540 9 115489895.745 9      2485.480 9        55.385 9  21977003.464 6         0.000 6      1936.739 6        37.977 6
G16  20491256.594 9 107682259.885 9       520.773 9        55.979 9  20491255.767 6         0.000 6       405.797 6        37.977 6
G26  20671247.480 9 108628116.303 9     -1516.817 9        55.866 9  20671250.303 6         0.000 6     -1181.936 6        37.977 6
G20  21915431.314 9 115166336.030 9      2539.433 9        55.327 9  21915431.620 6         0.000 6      1978.780 6        37.977 6
> 2019 07 03 12 01 59.0000000  0  8       0.000000000000
G07  25322487.433 9 133070523.727 9      2159.006 9        54.140 9  25322488.090 6         0.000 6      1682.344 6        37.977 6
G10  23769473.262 9 124909371.017 9      3521.017 9        54.684 9  23769476.950 6         0.000 6      2743.652 6        37.977 6
G21  21185142.965 9 111328656.971 9     -1272.531 9        55.703 9  21185142.253 6         0.000 6      -991.583 6        37.977 6
G29  24335044.588 9 127881465.438 9     -3125.130 9        54.462 9  24335046.199 6         0.000 6     -2435.168 6        37.977 6
G27  21976528.592 9 115487410.385 9      2485.241 9        55.385 9  21976530.515 6         0.000 6      1936.552 6        37.977 6
G16  20491157.553 9 107681739.418 9       520.155 9        55.979 9  20491156.726 6         0.000 6       405.315 6        37.977 6
G26  20671536.174 9 108629633.400 9     -1517.390 9        55.866 9  20671538.997 6         0.000 6     -1182.382 6        37.977 6
G20  21914948.118 9 115163796.822 9      2538.984 9        55.327 9  21914948.423 6         0.000 6      1978.430 6        37.977 6
> 2019 07 03 12 02  0.0000000  0  8       0.000000000000
G07  25322076.632 9 133068364.955 9      2158.543 9        54.140 9  25322077.289 6         0.000 6      1681.982 6        37.977 6
G10  23768803.249 9 124905850.083 9      3520.873 9        54.684 9  23768806.936 6         0.000 6      2743.540 6        37.977 6
G21  21185385.154 9 111329929.681 9     -1272.889 9        55.703 9  21185384.442 6         0.000 6      -991.862 6        37.977 6
G29  24335639.289 9 127884590.603 9     -3125.214 9        54.462 9  24335640.901 6         0.000 6     -2435.234 6        37.977 6
G27  21976055.688 9 115484925.263 9      2485.002 9        55.386 9  21976057.611 6         0.000 6      1936.366 6        37.977 6
G16  20491058.629 9 107681219.571 9       519.536 9        55.979 9  20491057.802 6         0.000 6       404.833 6        37.977 6
G26  20671824.978 9 108631151.074 9     -1517.963 9        55.866 9  20671827.801 6         0.000 6     -1182.828 6        37.977 6
G20  21914465.009 9 115161258.069 9      2538.535 9        55.327 9  21914465.314 6         0.000 6      1978.080 6        37.977 6
