     3.00           Observation Data    M (Mixed)           RINEX VERSION / TYPE
SimGEN V6.06.00     Spirent             03-Jul-19 12:00     PGM / RUN BY / DATE 
                                                            MARKER NAME         
1                                                           MARKER NUMBER       
GROUND_CRAFT                                                MARKER TYPE         
jin4hi              Spirent                                 OBSERVER / AGENCY   
rec_num             rec_type            rec_vers            REC # / TYPE / VERS 
1                   ant_type                                ANT # / TYPE        
  1000.000                                                  INTERVAL            
  2019     7     3    12     0    1.0000000     GPS         TIME OF FIRST OBS   
  4162657.6830   664369.6050  4770549.9870                  APPROX POSITION XYZ 
        0.0000        0.0000        0.0000                  ANTENNA: DELTA H/E/N
G    8 C1C L1C D1C S1C C2C L2C D2C S2C                      SYS / # / OBS TYPES 
        0.0000        0.0000        0.0000                  ANTENNA: DELTA X/Y/Z
DBHZ                                                        SIGNAL STRENGTH UNIT
                                                            END OF HEADER       
> 2019 07 03 12 00  1.0000000  0  8       0.000000000000
G07  25371560.211 9 133328402.493 9      2213.153 9        54.123 9  25371560.895 6         0.000 6      1724.535 6        37.977 6
G10  23848732.683 9 125325880.826 9      3537.180 9        54.655 9  23848736.448 6         0.000 6      2756.244 6        37.977 6
G21  21157058.298 9 111181071.130 9     -1229.969 9        55.715 9  21157057.581 6         0.000 6      -958.417 6        37.977 6
G29  24265022.534 9 127513498.264 9     -3115.011 9        54.487 9  24265024.071 6         0.000 6     -2427.281 6        37.977 6
G27  22032618.353 9 115782163.751 9      2513.164 9        55.363 9  22032620.296 6         0.000 6      1958.310 6        37.977 6
G16  20503640.303 9 107747336.710 9       592.838 9        55.974 9  20503639.476 6         0.000 6       461.952 6        37.977 6
G26  20638220.280 9 108454557.401 9     -1449.569 9        55.880 9  20638223.090 6         0.000 6     -1129.534 6        37.977 6
G20  21972568.840 9 115466595.227 9      2591.277 9        55.304 9  21972569.178 6         0.000 6      2019.177 6        37.977 6
> 2019 07 03 12 00  2.0000000  0  8       0.000000000000
G07  25371139.096 9 133326189.518 9      2212.754 9        54.123 9  25371139.779 6         0.000 6      1724.225 6        37.977 6
G10  23848059.588 9 125322343.701 9      3537.068 9        54.655 9  23848063.353 6         0.000 6      2756.160 6        37.977 6
G21  21157292.387 9 111182301.279 9     -1230.334 9        55.715 9  21157291.670 6         0.000 6      -958.702 6        37.977 6
G29  24265615.313 9 127516613.331 9     -3115.125 9        54.487 9  24265616.851 6         0.000 6     -2427.373 6        37.977 6
G27  22032140.136 9 115779650.706 9      2512.934 9        55.363 9  22032142.079 6         0.000 6      1958.131 6        37.977 6
G16  20503527.548 9 107746744.180 9       592.225 9        55.974 9  20503526.721 6         0.000 6       461.474 6        37.977 6
G26  20638496.179 9 108456007.258 9     -1450.148 9        55.880 9  20638498.989 6         0.000 6     -1129.986 6        37.977 6
G20  21972075.777 9 115464004.165 9      2590.844 9        55.305 9  21972076.114 6         0.000 6      2018.841 6        37.977 6
> 2019 07 03 12 00  3.0000000  0  8       0.000000000000
G07  25370718.066 9 133323976.995 9      2212.299 9        54.123 9  25370718.749 6         0.000 6      1723.870 6        37.977 6
G10  23847386.519 9 125318806.709 9      3536.937 9        54.656 9  23847390.283 6         0.000 6      2756.057 6        37.977 6
G21  21157526.547 9 111183531.794 9     -1230.698 9        55.715 9  21157525.830 6         0.000 6      -958.985 6        37.977 6
G29  24266208.110 9 127519728.489 9     -3115.212 9        54.487 9  24266209.649 6         0.000 6     -2427.440 6        37.977 6
G27  22031661.963 9 115777137.892 9      2512.699 9        55.364 9  22031663.905 6         0.000 6      1957.948 6        37.977 6
G16  20503414.910 9 107746152.262 9       591.611 9        55.974 9  20503414.083 6         0.000 6       460.996 6        37.977 6
G26  20638772.188 9 108457457.693 9     -1450.724 9        55.880 9  20638774.998 6         0.000 6     -1130.435 6        37.977 6
G20  21971582.797 9 115461413.544 9      2590.407 9        55.305 9  21971583.134 6         0.000 6      2018.500 6        37.977 6
> 2019 07 03 12 00  4.0000000  0  8       0.000000000000
G07  25370297.123 9 133321764.930 9      2211.844 9        54.124 9  25370297.806 6         0.000 6      1723.516 6        37.977 6
G10  23846713.474 9 125315269.845 9      3536.806 9        54.656 9  23846717.237 6         0.000 6      2755.955 6        37.977 6
G21  21157760.775 9 111184762.671 9     -1231.062 9        55.715 9  21157760.058 6         0.000 6      -959.269 6        37.977 6
G29  24266800.923 9 127522843.734 9     -3115.299 9        54.487 9  24266802.463 6         0.000 6     -2427.508 6        37.977 6
G27  22031183.834 9 115774625.311 9      2512.465 9        55.364 9  22031185.776 6         0.000 6      1957.765 6        37.977 6
G16  20503302.388 9 107745560.954 9       590.997 9        55.974 9  20503301.561 6         0.000 6       460.517 6        37.977 6
G26  20639048.305 9 108458908.699 9     -1451.301 9        55.880 9  20639051.116 6         0.000 6     -1130.884 6        37.977 6
G20  21971089.900 9 115458823.357 9      2589.969 9        55.305 9  21971090.237 6         0.000 6      2018.159 6        37.977 6
> 2019 07 03 12 00  5.0000000  0  8       0.000000000000
G07  25369876.266 9 133319553.316 9      2211.389 9        54.124 9  25369876.949 6         0.000 6      1723.161 6        37.977 6
G10  23846040.454 9 125311733.115 9      3536.674 9        54.656 9  23846044.217 6         0.000 6      2755.853 6        37.977 6
G21  21157995.073 9 111185993.914 9     -1231.426 9        55.715 9  21157994.356 6         0.000 6      -959.553 6        37.977 6
G29  24267393.753 9 127525959.066 9     -3115.385 9        54.486 9  24267395.293 6         0.000 6     -2427.576 6        37.977 6
G27  22030705.750 9 115772112.966 9      2512.230 9        55.364 9  22030707.692 6         0.000 6      1957.583 6        37.977 6
G16  20503189.983 9 107744970.264 9       590.384 9        55.974 9  20503189.156 6         0.000 6       460.039 6        37.977 6
G26  20639324.533 9 108460360.287 9     -1451.878 9        55.879 9  20639327.344 6         0.000 6     -1131.334 6        37.977 6
G20  21970597.087 9 115456233.611 9      2589.531 9        55.305 9  21970597.424 6         0.000 6      2017.817 6        37.977 6
> 2019 07 03 12 00  6.0000000  0  8       0.000000000000
G07  25369455.497 9 133317342.161 9      2210.934 9        54.124 9  25369456.179 6         0.000 6      1722.807 6        37.977 6
G10  23845367.459 9 125308196.513 9      3536.543 9        54.656 9  23845371.221 6         0.000 6      2755.750 6        37.977 6
G21  21158229.439 9 111187225.519 9     -1231.790 9        55.714 9  21158228.723 6         0.000 6      -959.836 6        37.977 6
G29  24267986.599 9 127529074.484 9     -3115.472 9        54.486 9  24267988.140 6         0.000 6     -2427.643 6        37.977 6
G27  22030227.711 9 115769600.854 9      2511.995 9        55.364 9  22030229.653 6         0.000 6      1957.400 6        37.977 6
G16  20503077.695 9 107744380.184 9       589.770 9        55.974 9  20503076.868 6         0.000 6       459.561 6        37.977 6
G26  20639600.871 9 108461812.446 9     -1452.454 9        55.879 9  20639603.681 6         0.000 6     -1131.783 6        37.977 6
G20  21970104.357 9 115453644.300 9      2589.093 9        55.305 9  21970104.693 6         0.000 6      2017.476 6        37.977 6
> 2019 07 03 12 00  7.0000000  0  8       0.000000000000
G07  25369034.813 9 133315131.458 9      2210.479 9        54.124 9  25369035.495 6         0.000 6      1722.452 6        37.977 6
G10  23844694.490 9 125304660.047 9      3536.411 9        54.657 9  23844698.251 6         0.000 6      2755.648 6        37.977 6
G21  21158463.876 9 111188457.489 9     -1232.153 9        55.714 9  21158463.159 6         0.000 6      -960.120 6        37.977 6
G29  24268579.462 9 127532189.990 9     -3115.559 9        54.486 9  24268581.004 6         0.000 6     -2427.711 6        37.977 6
G27  22029749.716 9 115767088.979 9      2511.760 9        55.364 9  22029751.658 6         0.000 6      1957.217 6        37.977 6
G16  20502965.524 9 107743790.721 9       589.156 9        55.974 9  20502964.697 6         0.000 6       459.082 6        37.977 6
G26  20639877.318 9 108463265.187 9     -1453.031 9        55.879 9  20639880.129 6         0.000 6     -1132.232 6        37.977 6
G20  21969611.710 9 115451055.431 9      2588.655 9        55.306 9  21969612.046 6         0.000 6      2017.135 6        37.977 6
> 2019 07 03 12 00  8.0000000  0  8       0.000000000000
G07  25368614.217 9 133312921.212 9      2210.024 9        54.124 9  25368614.898 6         0.000 6      1722.098 6        37.977 6
G10  23844021.545 9 125301123.708 9      3536.280 9        54.657 9  23844025.306 6         0.000 6      2755.545 6        37.977 6
G21  21158698.381 9 111189689.822 9     -1232.517 9        55.714 9  21158697.664 6         0.000 6      -960.403 6        37.977 6
G29  24269172.342 9 127535305.582 9     -3115.646 9        54.486 9  24269173.884 6         0.000 6     -2427.778 6        37.977 6
G27  22029271.766 9 115764577.337 9      2511.526 9        55.365 9  22029273.708 6         0.000 6      1957.034 6        37.977 6
G16  20502853.469 9 107743201.870 9       588.542 9        55.974 9  20502852.642 6         0.000 6       458.604 6        37.977 6
G26  20640153.875 9 108464718.500 9     -1453.608 9        55.879 9  20640156.686 6         0.000 6     -1132.682 6        37.977 6
G20  21969119.147 9 115448466.996 9      2588.216 9        55.306 9  21969119.482 6         0.000 6      2016.793 6        37.977 6
> 2019 07 03 12 00  9.0000000  0  8       0.000000000000
G07  25368193.707 9 133310711.419 9      2209.569 9        54.124 9  25368194.388 6         0.000 6      1721.743 6        37.977 6
G10  23843348.626 9 125297587.505 9      3536.148 9        54.657 9  23843352.386 6         0.000 6      2755.443 6        37.977 6
G21  21158932.956 9 111190922.520 9     -1232.881 9        55.714 9  21158932.239 6         0.000 6      -960.687 6        37.977 6
G29  24269765.237 9 127538421.261 9     -3115.733 9        54.486 9  24269766.780 6         0.000 6     -2427.846 6        37.977 6
G27  22028793.861 9 115762065.932 9      2511.291 9        55.365 9  22028795.803 6         0.000 6      1956.851 6        37.977 6
G16  20502741.531 9 107742613.635 9       587.928 9        55.974 9  20502740.705 6         0.000 6       458.126 6        37.977 6
G26  20640430.542 9 108466172.395 9     -1454.184 9        55.879 9  20640433.353 6         0.000 6     -1133.131 6        37.977 6
G20  21968626.667 9 115445879.003 9      2587.778 9        55.306 9  21968627.003 6         0.000 6      2016.452 6        37.977 6
> 2019 07 03 12 00 10.0000000  0  8       0.000000000000
G07  25367773.284 9 133308502.087 9      2209.114 9        54.124 9  25367773.965 6         0.000 6      1721.388 6        37.977 6
G10  23842675.731 9 125294051.427 9      3536.016 9        54.657 9  23842679.490 6         0.000 6      2755.340 6        37.977 6
G21  21159167.599 9 111192155.578 9     -1233.245 9        55.714 9  21159166.882 6         0.000 6      -960.970 6        37.977 6
G29  24270358.149 9 127541537.022 9     -3115.819 9        54.485 9  24270359.692 6         0.000 6     -2427.914 6        37.977 6
G27  22028316.001 9 115759554.763 9      2511.056 9        55.365 9  22028317.942 6         0.000 6      1956.667 6        37.977 6
G16  20502629.711 9 107742026.012 9       587.314 9        55.974 9  20502628.884 6         0.000 6       457.647 6        37.977 6
G26  20640707.318 9 108467626.860 9     -1454.761 9        55.879 9  20640710.129 6         0.000 6     -1133.580 6        37.977 6
G20  21968134.270 9 115443291.442 9      2587.340 9        55.306 9  21968134.605 6         0.000 6      2016.110 6        37.977 6
> 2019 07 03 12 00 11.0000000  0  8       0.000000000000
G07  25367352.947 9 133306293.205 9      2208.658 9        54.125 9  25367353.628 6         0.000 6      1721.033 6        37.977 6
G10  23842002.862 9 125290515.487 9      3535.884 9        54.657 9  23842006.620 6         0.000 6      2755.237 6        37.977 6
G21  21159402.312 9 111193389.003 9     -1233.608 9        55.714 9  21159401.596 6         0.000 6      -961.253 6        37.977 6
G29  24270951.078 9 127544652.874 9     -3115.906 9        54.485 9  24270952.622 6         0.000 6     -2427.981 6        37.977 6
G27  22027838.185 9 115757043.828 9      2510.821 9        55.365 9  22027840.127 6         0.000 6      1956.484 6        37.977 6
G16  20502518.007 9 107741439.006 9       586.700 9        55.974 9  20502517.180 6         0.000 6       457.169 6        37.977 6
G26  20640984.205 9 108469081.908 9     -1455.337 9        55.879 9  20640987.016 6         0.000 6     -1134.029 6        37.977 6
G20  21967641.957 9 115440704.326 9      2586.901 9        55.306 9  21967642.292 6         0.000 6      2015.768 6        37.977 6
> 2019 07 03 12 00 12.0000000  0  8       0.000000000000
G07  25366932.697 9 133304084.778 9      2208.203 9        54.125 9  25366933.377 6         0.000 6      1720.678 6        37.977 6
G10  23841330.018 9 125286979.680 9      3535.752 9        54.658 9  23841333.776 6         0.000 6      2755.134 6        37.977 6
G21  21159637.095 9 111194622.793 9     -1233.972 9        55.714 9  21159636.378 6         0.000 6      -961.537 6        37.977 6
G29  24271544.023 9 127547768.814 9     -3115.993 9        54.485 9  24271545.568 6         0.000 6     -2428.049 6        37.977 6
G27  22027360.415 9 115754533.127 9      2510.586 9        55.365 9  22027362.355 6         0.000 6      1956.301 6        37.977 6
G16  20502406.420 9 107740852.613 9       586.085 9        55.974 9  20502405.593 6         0.000 6       456.690 6        37.977 6
G26  20641261.201 9 108470537.532 9     -1455.914 9        55.879 9  20641264.012 6         0.000 6     -1134.479 6        37.977 6
G20  21967149.728 9 115438117.649 9      2586.462 9        55.306 9  21967150.063 6         0.000 6      2015.426 6        37.977 6
> 2019 07 03 12 00 13.0000000  0  8       0.000000000000
G07  25366512.533 9 133301876.809 9      2207.747 9        54.125 9  25366513.214 6         0.000 6      1720.324 6        37.977 6
G10  23840657.199 9 125283444.001 9      3535.620 9        54.658 9  23840660.956 6         0.000 6      2755.031 6        37.977 6
G21  21159871.946 9 111195856.943 9     -1234.335 9        55.714 9  21159871.229 6         0.000 6      -961.820 6        37.977 6
G29  24272136.985 9 127550884.839 9     -3116.079 9        54.485 9  24272138.530 6         0.000 6     -2428.116 6        37.977 6
G27  22026882.688 9 115752022.660 9      2510.351 9        55.365 9  22026884.629 6         0.000 6      1956.118 6        37.977 6
G16  20502294.950 9 107740266.832 9       585.471 9        55.974 9  20502294.123 6         0.000 6       456.211 6        37.977 6
G26  20641538.306 9 108471993.727 9     -1456.490 9        55.878 9  20641541.118 6         0.000 6     -1134.928 6        37.977 6
G20  21966657.581 9 115435531.407 9      2586.024 9        55.307 9  21966657.916 6         0.000 6      2015.084 6        37.977 6
> 2019 07 03 12 00 14.0000000  0  8       0.000000000000
G07  25366092.456 9 133299669.293 9      2207.292 9        54.125 9  25366093.137 6         0.000 6      1719.969 6        37.977 6
G10  23839984.405 9 125279908.458 9      3535.487 9        54.658 9  23839988.162 6         0.000 6      2754.928 6        37.977 6
G21  21160106.866 9 111197091.459 9     -1234.699 9        55.714 9  21160106.150 6         0.000 6      -962.103 6        37.977 6
G29  24272729.964 9 127554000.952 9     -3116.166 9        54.485 9  24272731.510 6         0.000 6     -2428.184 6        37.977 6
G27  22026405.006 9 115749512.430 9      2510.116 9        55.366 9  22026406.947 6         0.000 6      1955.935 6        37.977 6
G16  20502183.597 9 107739681.668 9       584.857 9        55.974 9  20502182.770 6         0.000 6       455.733 6        37.977 6
G26  20641815.522 9 108473450.504 9     -1457.067 9        55.878 9  20641818.333 6         0.000 6     -1135.377 6        37.977 6
G20  21966165.519 9 115432945.607 9      2585.585 9        55.307 9  21966165.853 6         0.000 6      2014.743 6        37.977 6
> 2019 07 03 12 00 15.0000000  0  8       0.000000000000
G07  25365672.467 9 133297462.236 9      2206.836 9        54.125 9  25365673.147 6         0.000 6      1719.613 6        37.977 6
G10  23839311.636 9 125276373.043 9      3535.355 9        54.658 9  23839315.392 6         0.000 6      2754.825 6        37.977 6
G21  21160341.856 9 111198326.337 9     -1235.062 9        55.714 9  21160341.140 6         0.000 6      -962.386 6        37.977 6
G29  24273322.959 9 127557117.151 9     -3116.252 9        54.484 9  24273324.505 6         0.000 6     -2428.251 6        37.977 6
G27  22025927.369 9 115747002.432 9      2509.880 9        55.366 9  22025929.310 6         0.000 6      1955.752 6        37.977 6
G16  20502072.360 9 107739097.114 9       584.243 9        55.975 9  20502071.533 6         0.000 6       455.254 6        37.977 6
G26  20642092.846 9 108474907.852 9     -1457.643 9        55.878 9  20642095.658 6         0.000 6     -1135.826 6        37.977 6
G20  21965673.540 9 115430360.242 9      2585.146 9        55.307 9  21965673.874 6         0.000 6      2014.401 6        37.977 6
> 2019 07 03 12 00 16.0000000  0  8       0.000000000000
G07  25365252.563 9 133295255.631 9      2206.380 9        54.125 9  25365253.243 6         0.000 6      1719.258 6        37.977 6
G10  23838638.893 9 125272837.765 9      3535.223 9        54.659 9  23838642.648 6         0.000 6      2754.722 6        37.977 6
G21  21160576.915 9 111199561.580 9     -1235.425 9        55.713 9  21160576.199 6         0.000 6      -962.669 6        37.977 6
G29  24273915.970 9 127560233.437 9     -3116.339 9        54.484 9  24273917.517 6         0.000 6     -2428.319 6        37.977 6
G27  22025449.777 9 115744492.672 9      2509.645 9        55.366 9  22025451.718 6         0.000 6      1955.568 6        37.977 6
G16  20501961.241 9 107738513.179 9       583.629 9        55.975 9  20501960.414 6         0.000 6       454.775 6        37.977 6
G26  20642370.281 9 108476365.781 9     -1458.219 9        55.878 9  20642373.093 6         0.000 6     -1136.275 6        37.977 6
G20  21965181.645 9 115427775.320 9      2584.707 9        55.307 9  21965181.978 6         0.000 6      2014.058 6        37.977 6
> 2019 07 03 12 00 17.0000000  0  8       0.000000000000
G07  25364832.747 9 133293049.485 9      2205.925 9        54.125 9  25364833.426 6         0.000 6      1718.903 6        37.977 6
G10  23837966.174 9 125269302.615 9      3535.090 9        54.659 9  23837969.929 6         0.000 6      2754.618 6        37.977 6
G21  21160812.043 9 111200797.184 9     -1235.789 9        55.713 9  21160811.327 6         0.000 6      -962.952 6        37.977 6
G29  24274508.998 9 127563349.809 9     -3116.426 9        54.484 9  24274510.545 6         0.000 6     -2428.386 6        37.977 6
G27  22024972.230 9 115741983.146 9      2509.410 9        55.366 9  22024974.170 6         0.000 6      1955.385 6        37.977 6
G16  20501850.238 9 107737929.854 9       583.014 9        55.975 9  20501849.411 6         0.000 6       454.297 6        37.977 6
G26  20642647.825 9 108477824.282 9     -1458.796 9        55.878 9  20642650.637 6         0.000 6     -1136.724 6        37.977 6
G20  21964689.832 9 115425190.833 9      2584.268 9        55.307 9  21964690.165 6         0.000 6      2013.716 6        37.977 6
> 2019 07 03 12 00 18.0000000  0  8       0.000000000000
G07  25364413.017 9 133290843.795 9      2205.469 9        54.126 9  25364413.696 6         0.000 6      1718.548 6        37.977 6
G10  23837293.481 9 125265767.600 9      3534.957 9        54.659 9  23837297.235 6         0.000 6      2754.515 6        37.977 6
G21  21161047.240 9 111202033.151 9     -1236.152 9        55.713 9  21161046.524 6         0.000 6      -963.235 6        37.977 6
G29  24275102.041 9 127566466.262 9     -3116.512 9        54.484 9  24275103.589 6         0.000 6     -2428.454 6        37.977 6
G27  22024494.728 9 115739473.860 9      2509.175 9        55.366 9  22024496.668 6         0.000 6      1955.202 6        37.977 6
G16  20501739.352 9 107737347.149 9       582.400 9        55.975 9  20501738.526 6         0.000 6       453.818 6        37.977 6
G26  20642925.480 9 108479283.364 9     -1459.372 9        55.878 9  20642928.292 6         0.000 6     -1137.173 6        37.977 6
G20  21964198.104 9 115422606.787 9      2583.829 9        55.308 9  21964198.437 6         0.000 6      2013.374 6        37.977 6
> 2019 07 03 12 00 19.0000000  0  8       0.000000000000
G07  25363993.374 9 133288638.561 9      2205.013 9        54.126 9  25363994.053 6         0.000 6      1718.193 6        37.977 6
G10  23836620.813 9 125262232.715 9      3534.824 9        54.659 9  23836624.566 6         0.000 6      2754.411 6        37.977 6
G21  21161282.506 9 111203269.481 9     -1236.515 9        55.713 9  21161281.790 6         0.000 6      -963.518 6        37.977 6
G29  24275695.102 9 127569582.808 9     -3116.599 9        54.483 9  24275696.651 6         0.000 6     -2428.521 6        37.977 6
G27  22024017.270 9 115736964.803 9      2508.940 9        55.367 9  22024019.210 6         0.000 6      1955.019 6        37.977 6
G16  20501628.583 9 107736765.053 9       581.785 9        55.975 9  20501627.757 6         0.000 6       453.339 6        37.977 6
G26  20643203.243 9 108480743.017 9     -1459.948 9        55.878 9  20643206.055 6         0.000 6     -1137.622 6        37.977 6
G20  21963706.458 9 115420023.178 9      2583.389 9        55.308 9  21963706.791 6         0.000 6      2013.032 6        37.977 6
> 2019 07 03 12 00 20.0000000  0  8       0.000000000000
G07  25363573.818 9 133286433.780 9      2204.556 9        54.126 9  25363574.497 6         0.000 6      1717.837 6        37.977 6
G10  23835948.171 9 125258697.968 9      3534.691 9        54.660 9  23835951.923 6         0.000 6      2754.308 6        37.977 6
G21  21161517.841 9 111204506.177 9     -1236.878 9        55.713 9  21161517.125 6         0.000 6      -963.801 6        37.977 6
G29  24276288.179 9 127572699.440 9     -3116.685 9        54.483 9  24276289.729 6         0.000 6     -2428.588 6        37.977 6
G27  22023539.857 9 115734455.984 9      2508.704 9        55.367 9  22023541.797 6         0.000 6      1954.835 6        37.977 6
G16  20501517.932 9 107736183.575 9       581.171 9        55.975 9  20501517.105 6         0.000 6       452.860 6        37.977 6
G26  20643481.116 9 108482203.252 9     -1460.524 9        55.878 9  20643483.929 6         0.000 6     -1138.071 6        37.977 6
G20  21963214.898 9 115417440.013 9      2582.950 9        55.308 9  21963215.230 6         0.000 6      2012.689 6        37.977 6
> 2019 07 03 12 00 21.0000000  0  8       0.000000000000
G07  25363154.349 9 133284229.458 9      2204.100 9        54.126 9  25363155.027 6         0.000 6      1717.482 6        37.977 6
G10  23835275.553 9 125255163.350 9      3534.558 9        54.660 9  23835279.305 6         0.000 6      2754.204 6        37.977 6
G21  21161753.245 9 111205743.234 9     -1237.241 9        55.713 9  21161752.529 6         0.000 6      -964.084 6        37.977 6
G29  24276881.273 9 127575816.158 9     -3116.772 9        54.483 9  24276882.823 6         0.000 6     -2428.656 6        37.977 6
G27  22023062.489 9 115731947.399 9      2508.469 9        55.367 9  22023064.428 6         0.000 6      1954.652 6        37.977 6
G16  20501407.396 9 107735602.708 9       580.556 9        55.975 9  20501406.570 6         0.000 6       452.382 6        37.977 6
G26  20643759.099 9 108483664.057 9     -1461.100 9        55.878 9  20643761.911 6         0.000 6     -1138.520 6        37.977 6
G20  21962723.420 9 115414857.284 9      2582.510 9        55.308 9  21962723.752 6         0.000 6      2012.347 6        37.977 6
> 2019 07 03 12 00 22.0000000  0  8       0.000000000000
G07  25362734.966 9 133282025.589 9      2203.644 9        54.126 9  25362735.644 6         0.000 6      1717.126 6        37.977 6
G10  23834602.962 9 125251628.868 9      3534.425 9        54.660 9  23834606.713 6         0.000 6      2754.100 6        37.977 6
G21  21161988.719 9 111206980.656 9     -1237.604 9        55.713 9  21161988.003 6         0.000 6      -964.367 6        37.977 6
G29  24277474.383 9 127578932.963 9     -3116.858 9        54.483 9  24277475.934 6         0.000 6     -2428.723 6        37.977 6
G27  22022585.165 9 115729439.050 9      2508.233 9        55.367 9  22022587.104 6         0.000 6      1954.468 6        37.977 6
G16  20501296.979 9 107735022.459 9       579.942 9        55.975 9  20501296.152 6         0.000 6       451.903 6        37.977 6
G26  20644037.192 9 108485125.444 9     -1461.677 9        55.877 9  20644040.004 6         0.000 6     -1138.969 6        37.977 6
G20  21962232.026 9 115412274.998 9      2582.071 9        55.308 9  21962232.358 6         0.000 6      2012.004 6        37.977 6
> 2019 07 03 12 00 23.0000000  0  8       0.000000000000
G07  25362315.669 9 133279822.177 9      2203.188 9        54.126 9  25362316.348 6         0.000 6      1716.771 6        37.977 6
G10  23833930.396 9 125248094.520 9      3534.292 9        54.660 9  23833934.146 6         0.000 6      2753.997 6        37.977 6
G21  21162224.262 9 111208218.441 9     -1237.967 9        55.713 9  21162223.546 6         0.000 6      -964.650 6        37.977 6
G29  24278067.510 9 127582049.854 9     -3116.945 9        54.483 9  24278069.061 6         0.000 6     -2428.791 6        37.977 6
G27  22022107.887 9 115726930.937 9      2507.998 9        55.367 9  22022109.826 6         0.000 6      1954.285 6        37.977 6
G16  20501186.678 9 107734442.824 9       579.327 9        55.975 9  20501185.851 6         0.000 6       451.424 6        37.977 6
G26  20644315.394 9 108486587.407 9     -1462.253 9        55.877 9  20644318.207 6         0.000 6     -1139.418 6        37.977 6
G20  21961740.716 9 115409693.151 9      2581.631 9        55.309 9  21961741.048 6         0.000 6      2011.662 6        37.977 6
> 2019 07 03 12 00 24.0000000  0  8       0.000000000000
G07  25361896.461 9 133277619.223 9      2202.731 9        54.126 9  25361897.139 6         0.000 6      1716.415 6        37.977 6
G10  23833257.854 9 125244560.301 9      3534.159 9        54.661 9  23833261.604 6         0.000 6      2753.893 6        37.977 6
G21  21162459.873 9 111209456.587 9     -1238.330 9        55.713 9  21162459.157 6         0.000 6      -964.933 6        37.977 6
G29  24278660.653 9 127585166.831 9     -3117.031 9        54.482 9  24278662.205 6         0.000 6     -2428.858 6        37.977 6
G27  22021630.653 9 115724423.058 9      2507.763 9        55.368 9  22021632.591 6         0.000 6      1954.101 6        37.977 6
G16  20501076.493 9 107733863.801 9       578.713 9        55.975 9  20501075.667 6         0.000 6       450.945 6        37.977 6
G26  20644593.706 9 108488049.941 9     -1462.829 9        55.877 9  20644596.518 6         0.000 6     -1139.867 6        37.977 6
G20  21961249.489 9 115407111.740 9      2581.191 9        55.309 9  21961249.820 6         0.000 6      2011.319 6        37.977 6
> 2019 07 03 12 00 25.0000000  0  8       0.000000000000
G07  25361477.338 9 133275416.724 9      2202.275 9        54.127 9  25361478.016 6         0.000 6      1716.059 6        37.977 6
G10  23832585.339 9 125241026.220 9      3534.025 9        54.661 9  23832589.088 6         0.000 6      2753.789 6        37.977 6
G21  21162695.554 9 111210695.097 9     -1238.693 9        55.713 9  21162694.838 6         0.000 6      -965.215 6        37.977 6
G29  24279253.812 9 127588283.895 9     -3117.117 9        54.482 9  24279255.365 6         0.000 6     -2428.925 6        37.977 6
G27  22021153.464 9 115721915.415 9      2507.527 9        55.368 9  22021155.402 6         0.000 6      1953.918 6        37.977 6
G16  20500966.426 9 107733285.396 9       578.098 9        55.975 9  20500965.600 6         0.000 6       450.466 6        37.977 6
G26  20644872.128 9 108489513.056 9     -1463.405 9        55.877 9  20644874.940 6         0.000 6     -1140.316 6        37.977 6
G20  21960758.347 9 115404530.774 9      2580.751 9        55.309 9  21960758.678 6         0.000 6      2010.976 6        37.977 6
> 2019 07 03 12 00 26.0000000  0  8       0.000000000000
G07  25361058.304 9 133273214.686 9      2201.819 9        54.127 9  25361058.981 6         0.000 6      1715.704 6        37.977 6
G10  23831912.848 9 125237492.266 9      3533.892 9        54.661 9  23831916.596 6         0.000 6      2753.685 6        37.977 6
G21  21162931.303 9 111211933.966 9     -1239.056 9        55.713 9  21162930.587 6         0.000 6      -965.498 6        37.977 6
G29  24279846.987 9 127591401.040 9     -3117.204 9        54.482 9  24279848.540 6         0.000 6     -2428.992 6        37.977 6
G27  22020676.320 9 115719408.011 9      2507.292 9        55.368 9  22020678.258 6         0.000 6      1953.734 6        37.977 6
G16  20500856.476 9 107732707.603 9       577.483 9        55.975 9  20500855.649 6         0.000 6       449.987 6        37.977 6
G26  20645150.658 9 108490976.742 9     -1463.981 9        55.877 9  20645153.471 6         0.000 6     -1140.765 6        37.977 6
G20  21960267.286 9 115401950.239 9      2580.311 9        55.309 9  21960267.617 6         0.000 6      2010.633 6        37.977 6
> 2019 07 03 12 00 27.0000000  0  8       0.000000000000
G07  25360639.355 9 133271013.100 9      2201.362 9        54.127 9  25360640.032 6         0.000 6      1715.348 6        37.977 6
G10  23831240.383 9 125233958.452 9      3533.758 9        54.661 9  23831244.131 6         0.000 6      2753.580 6        37.977 6
G21  21163167.122 9 111213173.203 9     -1239.418 9        55.712 9  21163166.406 6         0.000 6      -965.781 6        37.977 6
G29  24280440.179 9 127594518.277 9     -3117.290 9        54.482 9  24280441.733 6         0.000 6     -2429.060 6        37.977 6
G27  22020199.220 9 115716900.840 9      2507.056 9        55.368 9  22020201.159 6         0.000 6      1953.551 6        37.977 6
G16  20500746.643 9 107732130.427 9       576.869 9        55.975 9  20500745.817 6         0.000 6       449.508 6        37.977 6
G26  20645429.299 9 108492441.009 9     -1464.557 9        55.877 9  20645432.112 6         0.000 6     -1141.213 6        37.977 6
G20  21959776.311 9 115399370.153 9      2579.871 9        55.309 9  21959776.642 6         0.000 6      2010.291 6        37.977 6
> 2019 07 03 12 00 28.0000000  0  8       0.000000000000
G07  25360220.494 9 133268811.973 9      2200.905 9        54.127 9  25360221.171 6         0.000 6      1714.992 6        37.977 6
G10  23830567.943 9 125230424.767 9      3533.624 9        54.662 9  23830571.690 6         0.000 6      2753.476 6        37.977 6
G21  21163403.010 9 111214412.799 9     -1239.781 9        55.712 9  21163402.294 6         0.000 6      -966.063 6        37.977 6
G29  24281033.388 9 127597635.600 9     -3117.376 9        54.482 9  24281034.943 6         0.000 6     -2429.127 6        37.977 6
G27  22019722.166 9 115714393.902 9      2506.820 9        55.368 9  22019724.104 6         0.000 6      1953.367 6        37.977 6
G16  20500636.927 9 107731553.863 9       576.254 9        55.975 9  20500636.100 6         0.000 6       449.029 6        37.977 6
G26  20645708.049 9 108493905.847 9     -1465.133 9        55.877 9  20645710.862 6         0.000 6     -1141.662 6        37.977 6
G20  21959285.419 9 115396790.502 9      2579.431 9        55.310 9  21959285.749 6         0.000 6      2009.948 6        37.977 6
> 2019 07 03 12 00 29.0000000  0  8       0.000000000000
G07  25359801.719 9 133266611.300 9      2200.448 9        54.127 9  25359802.396 6         0.000 6      1714.636 6        37.977 6
G10  23829895.529 9 125226891.220 9      3533.490 9        54.662 9  23829899.276 6         0.000 6      2753.372 6        37.977 6
G21  21163638.967 9 111215652.761 9     -1240.144 9        55.712 9  21163638.251 6         0.000 6      -966.346 6        37.977 6
G29  24281626.613 9 127600753.009 9     -3117.463 9        54.481 9  24281628.168 6         0.000 6     -2429.194 6        37.977 6
G27  22019245.156 9 115711887.203 9      2506.585 9        55.368 9  22019247.094 6         0.000 6      1953.184 6        37.977 6
G16  20500527.328 9 107730977.917 9       575.639 9        55.975 9  20500526.501 6         0.000 6       448.550 6        37.977 6
G26  20645986.909 9 108495371.266 9     -1465.708 9        55.877 9  20645989.722 6         0.000 6     -1142.111 6        37.977 6
G20  21958794.612 9 115394211.295 9      2578.991 9        55.310 9  21958794.942 6         0.000 6      2009.604 6        37.977 6
> 2019 07 03 12 00 30.0000000  0  8       0.000000000000
G07  25359383.032 9 133264411.086 9      2199.992 9        54.127 9  25359383.708 6         0.000 6      1714.280 6        37.977 6
G10  23829223.141 9 125223357.803 9      3533.356 9        54.662 9  23829226.887 6         0.000 6      2753.267 6        37.977 6
G21  21163874.992 9 111216893.083 9     -1240.506 9        55.712 9  21163874.277 6         0.000 6      -966.628 6        37.977 6
G29  24282219.855 9 127603870.505 9     -3117.549 9        54.481 9  24282221.411 6         0.000 6     -2429.261 6        37.977 6
G27  22018768.191 9 115709380.737 9      2506.349 9        55.369 9  22018770.129 6         0.000 6      1953.000 6        37.977 6
G16  20500417.845 9 107730402.582 9       575.024 9        55.975 9  20500417.018 6         0.000 6       448.071 6        37.977 6
G26  20646265.878 9 108496837.256 9     -1466.284 9        55.877 9  20646268.691 6         0.000 6     -1142.560 6        37.977 6
G20  21958303.887 9 115391632.525 9      2578.551 9        55.310 9  21958304.217 6         0.000 6      2009.261 6        37.977 6
> 2019 07 03 12 00 31.0000000  0  8       0.000000000000
G07  25358964.431 9 133262211.327 9      2199.535 9        54.127 9  25358965.107 6         0.000 6      1713.924 6        37.977 6
G10  23828550.778 9 125219824.524 9      3533.222 9        54.662 9  23828554.523 6         0.000 6      2753.163 6        37.977 6
G21  21164111.087 9 111218133.769 9     -1240.869 9        55.712 9  21164110.372 6         0.000 6      -966.911 6        37.977 6
G29  24282813.113 9 127606988.087 9     -3117.635 9        54.481 9  24282814.669 6         0.000 6     -2429.329 6        37.977 6
G27  22018291.271 9 115706874.508 9      2506.113 9        55.369 9  22018293.209 6         0.000 6      1952.816 6        37.977 6
G16  20500308.480 9 107729827.865 9       574.409 9        55.975 9  20500307.653 6         0.000 6       447.592 6        37.977 6
G26  20646544.958 9 108498303.826 9     -1466.860 9        55.876 9  20646547.771 6         0.000 6     -1143.008 6        37.977 6
G20  21957813.247 9 115389054.199 9      2578.110 9        55.310 9  21957813.577 6         0.000 6      2008.918 6        37.977 6
> 2019 07 03 12 00 32.0000000  0  8       0.000000000000
G07  25358545.917 9 133260012.024 9      2199.078 9        54.128 9  25358546.593 6         0.000 6      1713.568 6        37.977 6
G10  23827878.441 9 125216291.380 9      3533.088 9        54.663 9  23827882.186 6         0.000 6      2753.058 6        37.977 6
G21  21164347.251 9 111219374.819 9     -1241.231 9        55.712 9  21164346.536 6         0.000 6      -967.193 6        37.977 6
G29  24283406.387 9 127610105.755 9     -3117.721 9        54.481 9  24283407.944 6         0.000 6     -2429.396 6        37.977 6
G27  22017814.396 9 115704368.515 9      2505.878 9        55.369 9  22017816.333 6         0.000 6      1952.633 6        37.977 6
G16  20500199.232 9 107729253.763 9       573.794 9        55.975 9  20500198.406 6         0.000 6       447.112 6        37.977 6
G26  20646824.147 9 108499770.972 9     -1467.436 9        55.876 9  20646826.960 6         0.000 6     -1143.457 6        37.977 6
G20  21957322.691 9 115386476.314 9      2577.670 9        55.310 9  21957323.020 6         0.000 6      2008.575 6        37.977 6
> 2019 07 03 12 00 33.0000000  0  8       0.000000000000
G07  25358127.491 9 133257813.184 9      2198.621 9        54.128 9  25358128.166 6         0.000 6      1713.212 6        37.977 6
G10  23827206.128 9 125212758.363 9      3532.954 9        54.663 9  23827209.872 6         0.000 6      2752.954 6        37.977 6
G21  21164583.483 9 111220616.226 9     -1241.593 9        55.712 9  21164582.768 6         0.000 6      -967.476 6        37.977 6
G29  24283999.677 9 127613223.504 9     -3117.807 9        54.481 9  24284001.235 6         0.000 6     -2429.463 6        37.977 6
G27  22017337.566 9 115701862.760 9      2505.642 9        55.369 9  22017339.503 6         0.000 6      1952.449 6        37.977 6
G16  20500090.101 9 107728680.275 9       573.179 9        55.975 9  20500089.274 6         0.000 6       446.633 6        37.977 6
G26  20647103.444 9 108501238.690 9     -1468.012 9        55.876 9  20647106.258 6         0.000 6     -1143.906 6        37.977 6
G20  21956832.217 9 115383898.862 9      2577.229 9        55.311 9  21956832.546 6         0.000 6      2008.232 6        37.977 6
> 2019 07 03 12 00 34.0000000  0  8       0.000000000000
G07  25357709.150 9 133255614.796 9      2198.163 9        54.128 9  25357709.826 6         0.000 6      1712.855 6        37.977 6
G10  23826533.842 9 125209225.487 9      3532.819 9        54.663 9  23826537.585 6         0.000 6      2752.849 6        37.977 6
G21  21164819.785 9 111221858.000 9     -1241.956 9        55.712 9  21164819.070 6         0.000 6      -967.758 6        37.977 6
G29  24284592.984 9 127616341.344 9     -3117.894 9        54.480 9  24284594.543 6         0.000 6     -2429.530 6        37.977 6
G27  22016860.781 9 115699357.239 9      2505.406 9        55.369 9  22016862.718 6         0.000 6      1952.265 6        37.977 6
G16  20499981.087 9 107728107.403 9       572.564 9        55.975 9  20499980.260 6         0.000 6       446.154 6        37.977 6
G26  20647382.852 9 108502706.987 9     -1468.587 9        55.876 9  20647385.666 6         0.000 6     -1144.354 6        37.977 6
G20  21956341.829 9 115381321.858 9      2576.788 9        55.311 9  21956342.157 6         0.000 6      2007.888 6        37.977 6
> 2019 07 03 12 00 35.0000000  0  8       0.000000000000
G07  25357290.898 9 133253416.868 9      2197.706 9        54.128 9  25357291.573 6         0.000 6      1712.499 6        37.977 6
G10  23825861.581 9 125205692.741 9      3532.685 9        54.663 9  23825865.324 6         0.000 6      2752.744 6        37.977 6
G21  21165056.155 9 111223100.133 9     -1242.318 9        55.712 9  21165055.440 6         0.000 6      -968.040 6        37.977 6
G29  24285186.308 9 127619459.271 9     -3117.980 9        54.480 9  24285187.867 6         0.000 6     -2429.597 6        37.977 6
G27  22016384.040 9 115696851.952 9      2505.170 9        55.370 9  22016385.977 6         0.000 6      1952.081 6        37.977 6
G16  20499872.190 9 107727535.143 9       571.949 9        55.975 9  20499871.363 6         0.000 6       445.675 6        37.977 6
G26  20647662.369 9 108504175.856 9     -1469.163 9        55.876 9  20647665.183 6         0.000 6     -1144.803 6        37.977 6
G20  21955851.524 9 115378745.290 9      2576.347 9        55.311 9  21955851.852 6         0.000 6      2007.545 6        37.977 6
> 2019 07 03 12 00 36.0000000  0  8       0.000000000000
G07  25356872.732 9 133251219.394 9      2197.249 9        54.128 9  25356873.407 6         0.000 6      1712.143 6        37.977 6
G10  23825189.346 9 125202160.134 9      3532.550 9        54.664 9  23825193.088 6         0.000 6      2752.639 6        37.977 6
G21  21165292.595 9 111224342.632 9     -1242.680 9        55.712 9  21165291.880 6         0.000 6      -968.322 6        37.977 6
G29  24285779.648 9 127622577.283 9     -3118.066 9        54.480 9  24285781.208 6         0.000 6     -2429.664 6        37.977 6
G27  22015907.344 9 115694346.903 9      2504.934 9        55.370 9  22015909.281 6         0.000 6      1951.897 6        37.977 6
G16  20499763.410 9 107726963.502 9       571.334 9        55.975 9  20499762.583 6         0.000 6       445.195 6        37.977 6
G26  20647941.996 9 108505645.305 9     -1469.739 9        55.876 9  20647944.810 6         0.000 6     -1145.251 6        37.977 6
G20  21955361.303 9 115376169.168 9      2575.906 9        55.311 9  21955361.631 6         0.000 6      2007.201 6        37.977 6
> 2019 07 03 12 00 37.0000000  0  8       0.000000000000
G07  25356454.653 9 133249022.380 9      2196.791 9        54.128 9  25356455.328 6         0.000 6      1711.786 6        37.977 6
G10  23824517.136 9 125198627.657 9      3532.416 9        54.664 9  23824520.877 6         0.000 6      2752.534 6        37.977 6
G21  21165529.103 9 111225585.490 9     -1243.042 9        55.711 9  21165528.388 6         0.000 6      -968.605 6        37.977 6
G29  24286373.004 9 127625695.382 9     -3118.152 9        54.480 9  24286374.565 6         0.000 6     -2429.731 6        37.977 6
G27  22015430.693 9 115691842.088 9      2504.698 9        55.370 9  22015432.630 6         0.000 6      1951.714 6        37.977 6
G16  20499654.747 9 107726392.472 9       570.719 9        55.976 9  20499653.920 6         0.000 6       444.716 6        37.977 6
G26  20648221.732 9 108507115.325 9     -1470.314 9        55.876 9  20648224.546 6         0.000 6     -1145.700 6        37.977 6
G20  21954871.165 9 115373593.482 9      2575.465 9        55.311 9  21954871.493 6         0.000 6      2006.857 6        37.977 6
> 2019 07 03 12 00 38.0000000  0  8       0.000000000000
G07  25356036.661 9 133246825.821 9      2196.334 9        54.128 9  25356037.336 6         0.000 6      1711.430 6        37.977 6
G10  23823844.952 9 125195095.320 9      3532.281 9        54.664 9  23823848.693 6         0.000 6      2752.429 6        37.977 6
G21  21165765.681 9 111226828.713 9     -1243.405 9        55.711 9  21165764.966 6         0.000 6      -968.887 6        37.977 6
G29  24286966.377 9 127628813.567 9     -3118.238 9        54.479 9  24286967.938 6         0.000 6     -2429.798 6        37.977 6
G27  22014954.088 9 115689337.510 9      2504.462 9        55.370 9  22014956.024 6         0.000 6      1951.530 6        37.977 6
G16  20499546.201 9 107725822.060 9       570.104 9        55.976 9  20499545.374 6         0.000 6       444.237 6        37.977 6
G26  20648501.578 9 108508585.926 9     -1470.890 9        55.876 9  20648504.392 6         0.000 6     -1146.148 6        37.977 6
G20  21954381.113 9 115371018.242 9      2575.024 9        55.311 9  21954381.440 6         0.000 6      2006.514 6        37.977 6
> 2019 07 03 12 00 39.0000000  0  8       0.000000000000
G07  25355618.757 9 133244629.722 9      2195.876 9        54.129 9  25355619.432 6         0.000 6      1711.073 6        37.977 6
G10  23823172.794 9 125191563.113 9      3532.146 9        54.664 9  23823176.534 6         0.000 6      2752.324 6        37.977 6
G21  21166002.327 9 111228072.295 9     -1243.767 9        55.711 9  21166001.612 6         0.000 6      -969.169 6        37.977 6
G29  24287559.766 9 127631931.838 9     -3118.324 9        54.479 9  24287561.328 6         0.000 6     -2429.865 6        37.977 6
G27  22014477.526 9 115686833.167 9      2504.226 9        55.370 9  22014479.463 6         0.000 6      1951.346 6        37.977 6
G16  20499437.772 9 107725252.261 9       569.489 9        55.976 9  20499436.945 6         0.000 6       443.757 6        37.977 6
G26  20648781.533 9 108510057.097 9     -1471.465 9        55.875 9  20648784.347 6         0.000 6     -1146.597 6        37.977 6
G20  21953891.143 9 115368443.438 9      2574.583 9        55.312 9  21953891.470 6         0.000 6      2006.170 6        37.977 6
> 2019 07 03 12 00 40.0000000  0  8       0.000000000000
G07  25355200.939 9 133242434.078 9      2195.419 9        54.129 9  25355201.614 6         0.000 6      1710.717 6        37.977 6
G10  23822500.662 9 125188031.045 9      3532.011 9        54.665 9  23822504.401 6         0.000 6      2752.219 6        37.977 6
G21  21166239.042 9 111229316.242 9     -1244.129 9        55.711 9  21166238.327 6         0.000 6      -969.451 6        37.977 6
G29  24288153.172 9 127635050.195 9     -3118.410 9        54.479 9  24288154.734 6         0.000 6     -2429.933 6        37.977 6
G27  22014001.010 9 115684329.061 9      2503.990 9        55.371 9  22014002.947 6         0.000 6      1951.162 6        37.977 6
G16  20499329.460 9 107724683.080 9       568.873 9        55.976 9  20499328.633 6         0.000 6       443.278 6        37.977 6
G26  20649061.599 9 108511528.848 9     -1472.041 9        55.875 9  20649064.413 6         0.000 6     -1147.045 6        37.977 6
G20  21953401.258 9 115365869.080 9      2574.142 9        55.312 9  21953401.585 6         0.000 6      2005.826 6        37.977 6
> 2019 07 03 12 00 41.0000000  0  8       0.000000000000
G07  25354783.209 9 133240238.895 9      2194.961 9        54.129 9  25354783.883 6         0.000 6      1710.360 6        37.977 6
G10  23821828.555 9 125184499.110 9      3531.876 9        54.665 9  23821832.294 6         0.000 6      2752.114 6        37.977 6
G21  21166475.826 9 111230560.549 9     -1244.491 9        55.711 9  21166475.111 6         0.000 6      -969.733 6        37.977 6
G29  24288746.593 9 127638168.633 9     -3118.496 9        54.479 9  24288748.156 6         0.000 6     -2430.000 6        37.977 6
G27  22013524.540 9 115681825.196 9      2503.754 9        55.371 9  22013526.476 6         0.000 6      1950.978 6        37.977 6
G16  20499221.266 9 107724114.516 9       568.258 9        55.976 9  20499220.439 6         0.000 6       442.798 6        37.977 6
G26  20649341.773 9 108513001.175 9     -1472.617 9        55.875 9  20649344.588 6         0.000 6     -1147.494 6        37.977 6
G20  21952911.457 9 115363295.161 9      2573.700 9        55.312 9  21952911.783 6         0.000 6      2005.482 6        37.977 6
> 2019 07 03 12 00 42.0000000  0  8       0.000000000000
G07  25354365.566 9 133238044.169 9      2194.503 9        54.129 9  25354366.240 6         0.000 6      1710.003 6        37.977 6
G10  23821156.473 9 125180967.308 9      3531.741 9        54.665 9  23821160.211 6         0.000 6      2752.008 6        37.977 6
G21  21166712.679 9 111231805.217 9     -1244.852 9        55.711 9  21166711.964 6         0.000 6      -970.015 6        37.977 6
G29  24289340.031 9 127641287.162 9     -3118.582 9        54.479 9  24289341.594 6         0.000 6     -2430.067 6        37.977 6
G27  22013048.114 9 115679321.561 9      2503.518 9        55.371 9  22013050.050 6         0.000 6      1950.794 6        37.977 6
G16  20499113.188 9 107723546.562 9       567.643 9        55.976 9  20499112.361 6         0.000 6       442.319 6        37.977 6
G26  20649622.057 9 108514474.073 9     -1473.192 9        55.875 9  20649624.871 6         0.000 6     -1147.942 6        37.977 6
G20  21952421.739 9 115360721.681 9      2573.259 9        55.312 9  21952422.065 6         0.000 6      2005.138 6        37.977 6
> 2019 07 03 12 00 43.0000000  0  8       0.000000000000
G07  25353948.009 9 133235849.898 9      2194.045 9        54.129 9  25353948.683 6         0.000 6      1709.647 6        37.977 6
G10  23820484.418 9 125177435.646 9      3531.605 9        54.665 9  23820488.156 6         0.000 6      2751.903 6        37.977 6
G21  21166949.601 9 111233050.250 9     -1245.214 9        55.711 9  21166948.886 6         0.000 6      -970.297 6        37.977 6
G29  24289933.486 9 127644405.777 9     -3118.668 9        54.478 9  24289935.050 6         0.000 6     -2430.134 6        37.977 6
G27  22012571.733 9 115676818.164 9      2503.282 9        55.371 9  22012573.668 6         0.000 6      1950.610 6        37.977 6
G16  20499005.228 9 107722979.227 9       567.027 9        55.976 9  20499004.401 6         0.000 6       441.839 6        37.977 6
G26  20649902.451 9 108515947.551 9     -1473.767 9        55.875 9  20649905.265 6         0.000 6     -1148.391 6        37.977 6
G20  21951932.106 9 115358148.648 9      2572.817 9        55.312 9  21951932.432 6         0.000 6      2004.794 6        37.977 6
> 2019 07 03 12 00 44.0000000  0  8       0.000000000000
G07  25353530.540 9 133233656.088 9      2193.588 9        54.129 9  25353531.214 6         0.000 6      1709.290 6        37.977 6
G10  23819812.388 9 125173904.115 9      3531.470 9        54.666 9  23819816.125 6         0.000 6      2751.797 6        37.977 6
G21  21167186.591 9 111234295.642 9     -1245.576 9        55.711 9  21167185.876 6         0.000 6      -970.579 6        37.977 6
G29  24290526.957 9 127647524.477 9     -3118.754 9        54.478 9  24290528.521 6         0.000 6     -2430.200 6        37.977 6
G27  22012095.396 9 115674315.001 9      2503.045 9        55.371 9  22012097.332 6         0.000 6      1950.426 6        37.977 6
G16  20498897.384 9 107722412.505 9       566.412 9        55.976 9  20498896.557 6         0.000 6       441.360 6        37.977 6
G26  20650182.953 9 108517421.599 9     -1474.343 9        55.875 9  20650185.768 6         0.000 6     -1148.839 6        37.977 6
G20  21951442.556 9 115355576.051 9      2572.376 9        55.313 9  21951442.882 6         0.000 6      2004.450 6        37.977 6
> 2019 07 03 12 00 45.0000000  0  8       0.000000000000
G07  25353113.158 9 133231462.733 9      2193.129 9        54.129 9  25353113.831 6         0.000 6      1708.933 6        37.977 6
G10  23819140.385 9 125170372.724 9      3531.334 9        54.666 9  23819144.121 6         0.000 6      2751.692 6        37.977 6
G21  21167423.651 9 111235541.398 9     -1245.938 9        55.711 9  21167422.936 6         0.000 6      -970.861 6        37.977 6
G29  24291120.444 9 127650643.264 9     -3118.840 9        54.478 9  24291122.009 6         0.000 6     -2430.267 6        37.977 6
G27  22011619.105 9 115671812.076 9      2502.809 9        55.371 9  22011621.040 6         0.000 6      1950.242 6        37.977 6
G16  20498789.658 9 107721846.400 9       565.796 9        55.976 9  20498788.831 6         0.000 6       440.880 6        37.977 6
G26  20650463.566 9 108518896.228 9     -1474.918 9        55.875 9  20650466.381 6         0.000 6     -1149.287 6        37.977 6
G20  21950953.092 9 115353003.901 9      2571.934 9        55.313 9  21950953.417 6         0.000 6      2004.106 6        37.977 6
> 2019 07 03 12 00 46.0000000  0  8       0.000000000000
G07  25352695.864 9 133229269.839 9      2192.671 9        54.130 9  25352696.537 6         0.000 6      1708.576 6        37.977 6
G10  23818468.406 9 125166841.464 9      3531.199 9        54.666 9  23818472.142 6         0.000 6      2751.586 6        37.977 6
G21  21167660.779 9 111236787.513 9     -1246.299 9        55.711 9  21167660.064 6         0.000 6      -971.142 6        37.977 6
G29  24291713.948 9 127653762.137 9     -3118.926 9        54.478 9  24291715.514 6         0.000 6     -2430.334 6        37.977 6
G27  22011142.858 9 115669309.386 9      2502.573 9        55.372 9  22011144.793 6         0.000 6      1950.058 6        37.977 6
G16  20498682.048 9 107721280.909 9       565.181 9        55.976 9  20498681.222 6         0.000 6       440.401 6        37.977 6
G26  20650744.287 9 108520371.427 9     -1475.493 9        55.875 9  20650747.102 6         0.000 6     -1149.736 6        37.977 6
G20  21950463.710 9 115350432.188 9      2571.492 9        55.313 9  21950464.035 6         0.000 6      2003.761 6        37.977 6
> 2019 07 03 12 00 47.0000000  0  8       0.000000000000
G07  25352278.656 9 133227077.401 9      2192.213 9        54.130 9  25352279.329 6         0.000 6      1708.219 6        37.977 6
G10  23817796.454 9 125163310.344 9      3531.063 9        54.666 9  23817800.189 6         0.000 6      2751.480 6        37.977 6
G21  21167897.976 9 111238033.993 9     -1246.661 9        55.710 9  21167897.261 6         0.000 6      -971.424 6        37.977 6
G29  24292307.468 9 127656881.096 9     -3119.012 9        54.478 9  24292309.034 6         0.000 6     -2430.401 6        37.977 6
G27  22010666.657 9 115666806.934 9      2502.337 9        55.372 9  22010668.592 6         0.000 6      1949.873 6        37.977 6
G16  20498574.557 9 107720716.035 9       564.565 9        55.976 9  20498573.730 6         0.000 6       439.921 6        37.977 6
G26  20651025.119 9 108521847.206 9     -1476.069 9        55.875 9  20651027.934 6         0.000 6     -1150.184 6        37.977 6
G20  21949974.413 9 115347860.922 9      2571.050 9        55.313 9  21949974.738 6         0.000 6      2003.417 6        37.977 6
> 2019 07 03 12 00 48.0000000  0  8       0.000000000000
G07  25351861.536 9 133224885.423 9      2191.755 9        54.130 9  25351862.208 6         0.000 6      1707.862 6        37.977 6
G10  23817124.527 9 125159779.355 9      3530.927 9        54.667 9  23817128.262 6         0.000 6      2751.374 6        37.977 6
G21  21168135.242 9 111239280.831 9     -1247.022 9        55.710 9  21168134.527 6         0.000 6      -971.706 6        37.977 6
G29  24292901.004 9 127660000.140 9     -3119.098 9        54.477 9  24292902.571 6         0.000 6     -2430.468 6        37.977 6
G27  22010190.500 9 115664304.716 9      2502.100 9        55.372 9  22010192.435 6         0.000 6      1949.689 6        37.977 6
G16  20498467.181 9 107720151.775 9       563.950 9        55.976 9  20498466.354 6         0.000 6       439.441 6        37.977 6
G26  20651306.059 9 108523323.556 9     -1476.644 9        55.874 9  20651308.875 6         0.000 6     -1150.632 6        37.977 6
G20  21949485.200 9 115345290.093 9      2570.608 9        55.313 9  21949485.525 6         0.000 6      2003.072 6        37.977 6
> 2019 07 03 12 00 49.0000000  0  8       0.000000000000
G07  25351444.503 9 133222693.904 9      2191.297 9        54.130 9  25351445.175 6         0.000 6      1707.505 6        37.977 6
G10  23816452.627 9 125156248.505 9      3530.791 9        54.667 9  23816456.361 6         0.000 6      2751.268 6        37.977 6
G21  21168372.576 9 111240528.032 9     -1247.384 9        55.710 9  21168371.861 6         0.000 6      -971.988 6        37.977 6
G29  24293494.556 9 127663119.265 9     -3119.183 9        54.477 9  24293496.123 6         0.000 6     -2430.535 6        37.977 6
G27  22009714.389 9 115661802.741 9      2501.864 9        55.372 9  22009716.324 6         0.000 6      1949.505 6        37.977 6
G16  20498359.924 9 107719588.134 9       563.334 9        55.976 9  20498359.097 6         0.000 6       438.962 6        37.977 6
G26  20651587.110 9 108524800.486 9     -1477.219 9        55.874 9  20651589.925 6         0.000 6     -1151.080 6        37.977 6
G20  21948996.071 9 115342719.708 9      2570.166 9        55.314 9  21948996.395 6         0.000 6      2002.728 6        37.977 6
> 2019 07 03 12 00 50.0000000  0  8       0.000000000000
G07  25351027.557 9 133220502.843 9      2190.838 9        54.130 9  25351028.229 6         0.000 6      1707.148 6        37.977 6
G10  23815780.752 9 125152717.788 9      3530.655 9        54.667 9  23815784.485 6         0.000 6      2751.162 6        37.977 6
G21  21168609.979 9 111241775.593 9     -1247.745 9        55.710 9  21168609.264 6         0.000 6      -972.269 6        37.977 6
G29  24294088.125 9 127666238.481 9     -3119.269 9        54.477 9  24294089.693 6         0.000 6     -2430.602 6        37.977 6
G27  22009238.323 9 115659300.996 9      2501.627 9        55.372 9  22009240.257 6         0.000 6      1949.321 6        37.977 6
G16  20498252.783 9 107719025.105 9       562.719 9        55.976 9  20498251.956 6         0.000 6       438.482 6        37.977 6
G26  20651868.269 9 108526277.986 9     -1477.794 9        55.874 9  20651871.085 6         0.000 6     -1151.528 6        37.977 6
G20  21948507.026 9 115340149.763 9      2569.724 9        55.314 9  21948507.350 6         0.000 6      2002.383 6        37.977 6
> 2019 07 03 12 00 51.0000000  0  8       0.000000000000
G07  25350610.698 9 133218312.237 9      2190.380 9        54.130 9  25350611.370 6         0.000 6      1706.790 6        37.977 6
G10  23815108.904 9 125149187.212 9      3530.519 9        54.667 9  23815112.636 6         0.000 6      2751.056 6        37.977 6
G21  21168847.452 9 111243023.519 9     -1248.107 9        55.710 9  21168846.737 6         0.000 6      -972.551 6        37.977 6
G29  24294681.710 9 127669357.783 9     -3119.355 9        54.477 9  24294683.279 6         0.000 6     -2430.669 6        37.977 6
G27  22008762.301 9 115656799.490 9      2501.391 9        55.373 9  22008764.236 6         0.000 6      1949.136 6        37.977 6
G16  20498145.760 9 107718462.694 9       562.103 9        55.976 9  20498144.933 6         0.000 6       438.002 6        37.977 6
G26  20652149.539 9 108527756.066 9     -1478.369 9        55.874 9  20652152.355 6         0.000 6     -1151.977 6        37.977 6
G20  21948018.066 9 115337580.265 9      2569.281 9        55.314 9  21948018.390 6         0.000 6      2002.039 6        37.977 6
> 2019 07 03 12 00 52.0000000  0  8       0.000000000000
G07  25350193.926 9 133216122.090 9      2189.921 9        54.130 9  25350194.598 6         0.000 6      1706.433 6        37.977 6
G10  23814437.081 9 125145656.772 9      3530.382 9        54.668 9  23814440.813 6         0.000 6      2750.950 6        37.977 6
G21  21169084.993 9 111244271.805 9     -1248.468 9        55.710 9  21169084.278 6         0.000 6      -972.832 6        37.977 6
G29  24295275.312 9 127672477.171 9     -3119.441 9        54.476 9  24295276.881 6         0.000 6     -2430.736 6        37.977 6
G27  22008286.325 9 115654298.220 9      2501.154 9        55.373 9  22008288.259 6         0.000 6      1948.952 6        37.977 6
G16  20498038.854 9 107717900.899 9       561.487 9        55.976 9  20498038.027 6         0.000 6       437.522 6        37.977 6
G26  20652430.918 9 108529234.721 9     -1478.945 9        55.874 9  20652433.734 6         0.000 6     -1152.425 6        37.977 6
G20  21947529.190 9 115335011.210 9      2568.839 9        55.314 9  21947529.514 6         0.000 6      2001.694 6        37.977 6
> 2019 07 03 12 00 53.0000000  0  8       0.000000000000
G07  25349777.242 9 133213932.405 9      2189.463 9        54.131 9  25349777.914 6         0.000 6      1706.076 6        37.977 6
G10  23813765.284 9 125142126.464 9      3530.246 9        54.668 9  23813769.015 6         0.000 6      2750.844 6        37.977 6
G21  21169322.602 9 111245520.451 9     -1248.829 9        55.710 9  21169321.888 6         0.000 6      -973.114 6        37.977 6
G29  24295868.930 9 127675596.644 9     -3119.526 9        54.476 9  24295870.500 6         0.000 6     -2430.802 6        37.977 6
G27  22007810.393 9 115651797.184 9      2500.918 9        55.373 9  22007812.327 6         0.000 6      1948.768 6        37.977 6
G16  20497932.064 9 107717339.717 9       560.871 9        55.976 9  20497931.238 6         0.000 6       437.043 6        37.977 6
G26  20652712.406 9 108530713.947 9     -1479.520 9        55.874 9  20652715.221 6         0.000 6     -1152.873 6        37.977 6
G20  21947040.398 9 115332442.592 9      2568.396 9        55.314 9  21947040.721 6         0.000 6      2001.349 6        37.977 6
> 2019 07 03 12 00 54.0000000  0  8       0.000000000000
G07  25349360.645 9 133211743.175 9      2189.004 9        54.131 9  25349361.316 6         0.000 6      1705.718 6        37.977 6
G10  23813093.513 9 125138596.297 9      3530.109 9        54.668 9  23813097.244 6         0.000 6      2750.737 6        37.977 6
G21  21169560.281 9 111246769.460 9     -1249.191 9        55.710 9  21169559.566 6         0.000 6      -973.395 6        37.977 6
G29  24296462.564 9 127678716.203 9     -3119.612 9        54.476 9  24296464.135 6         0.000 6     -2430.869 6        37.977 6
G27  22007334.507 9 115649296.387 9      2500.681 9        55.373 9  22007336.441 6         0.000 6      1948.584 6        37.977 6
G16  20497825.393 9 107716779.153 9       560.255 9        55.976 9  20497824.566 6         0.000 6       436.563 6        37.977 6
G26  20652994.004 9 108532193.752 9     -1480.095 9        55.874 9  20652996.820 6         0.000 6     -1153.321 6        37.977 6
G20  21946551.690 9 115329874.422 9      2567.954 9        55.315 9  21946552.013 6         0.000 6      2001.004 6        37.977 6
> 2019 07 03 12 00 55.0000000  0  8       0.000000000000
G07  25348944.135 9 133209554.407 9      2188.545 9        54.131 9  25348944.807 6         0.000 6      1705.361 6        37.977 6
G10  23812421.768 9 125135066.262 9      3529.973 9        54.668 9  23812425.498 6         0.000 6      2750.631 6        37.977 6
G21  21169798.028 9 111248018.828 9     -1249.552 9        55.710 9  21169797.313 6         0.000 6      -973.677 6        37.977 6
G29  24297056.215 9 127681835.848 9     -3119.698 9        54.476 9  24297057.786 6         0.000 6     -2430.936 6        37.977 6
G27  22006858.665 9 115646795.825 9      2500.445 9        55.373 9  22006860.599 6         0.000 6      1948.399 6        37.977 6
G16  20497718.838 9 107716219.202 9       559.640 9        55.976 9  20497718.011 6         0.000 6       436.083 6        37.977 6
G26  20653275.710 9 108533674.128 9     -1480.670 9        55.874 9  20653278.526 6         0.000 6     -1153.769 6        37.977 6
G20  21946063.066 9 115327306.690 9      2567.511 9        55.315 9  21946063.389 6         0.000 6      2000.659 6        37.977 6
> 2019 07 03 12 00 56.0000000  0  8       0.000000000000
G07  25348527.713 9 133207366.095 9      2188.086 9        54.131 9  25348528.384 6         0.000 6      1705.003 6        37.977 6
G10  23811750.050 9 125131536.368 9      3529.836 9        54.669 9  23811753.779 6         0.000 6      2750.524 6        37.977 6
G21  21170035.844 9 111249268.560 9     -1249.913 9        55.710 9  21170035.130 6         0.000 6      -973.958 6        37.977 6
G29  24297649.882 9 127684955.578 9     -3119.784 9        54.476 9  24297651.454 6         0.000 6     -2431.003 6        37.977 6
G27  22006382.869 9 115644295.502 9      2500.208 9        55.374 9  22006384.803 6         0.000 6      1948.215 6        37.977 6
G16  20497612.400 9 107715659.871 9       559.024 9        55.976 9  20497611.574 6         0.000 6       435.603 6        37.977 6
G26  20653557.527 9 108535155.083 9     -1481.245 9        55.873 9  20653560.343 6         0.000 6     -1154.217 6        37.977 6
G20  21945574.527 9 115324739.405 9      2567.068 9        55.315 9  21945574.850 6         0.000 6      2000.314 6        37.977 6
> 2019 07 03 12 00 57.0000000  0  8       0.000000000000
G07  25348111.379 9 133205178.248 9      2187.627 9        54.131 9  25348112.049 6         0.000 6      1704.646 6        37.977 6
G10  23811078.356 9 125128006.605 9      3529.699 9        54.669 9  23811082.084 6         0.000 6      2750.418 6        37.977 6
G21  21170273.728 9 111250518.648 9     -1250.274 9        55.709 9  21170273.014 6         0.000 6      -974.239 6        37.977 6
G29  24298243.564 9 127688075.389 9     -3119.869 9        54.475 9  24298245.137 6         0.000 6     -2431.069 6        37.977 6
G27  22005907.118 9 115641795.416 9      2499.971 9        55.374 9  22005909.051 6         0.000 6      1948.030 6        37.977 6
G16  20497506.080 9 107715101.153 9       558.408 9        55.976 9  20497505.253 6         0.000 6       435.123 6        37.977 6
G26  20653839.452 9 108536636.609 9     -1481.820 9        55.873 9  20653842.268 6         0.000 6     -1154.665 6        37.977 6
G20  21945086.071 9 115322172.555 9      2566.625 9        55.315 9  21945086.393 6         0.000 6      1999.969 6        37.977 6
> 2019 07 03 12 00 58.0000000  0  8       0.000000000000
G07  25347695.131 9 133202990.854 9      2187.168 9        54.131 9  25347695.801 6         0.000 6      1704.288 6        37.977 6
G10  23810406.689 9 125124476.985 9      3529.562 9        54.669 9  23810410.417 6         0.000 6      2750.311 6        37.977 6
G21  21170511.682 9 111251769.101 9     -1250.635 9        55.709 9  21170510.967 6         0.000 6      -974.521 6        37.977 6
G29  24298837.263 9 127691195.291 9     -3119.955 9        54.475 9  24298838.837 6         0.000 6     -2431.136 6        37.977 6
G27  22005431.412 9 115639295.566 9      2499.735 9        55.374 9  22005433.345 6         0.000 6      1947.846 6        37.977 6
G16  20497399.877 9 107714543.053 9       557.792 9        55.976 9  20497399.050 6         0.000 6       434.643 6        37.977 6
G26  20654121.488 9 108538118.714 9     -1482.395 9        55.873 9  20654124.304 6         0.000 6     -1155.113 6        37.977 6
G20  21944597.701 9 115319606.156 9      2566.182 9        55.315 9  21944598.023 6         0.000 6      1999.624 6        37.977 6
> 2019 07 03 12 00 59.0000000  0  8       0.000000000000
G07  25347278.971 9 133200803.921 9      2186.709 9        54.131 9  25347279.641 6         0.000 6      1703.930 6        37.977 6
G10  23809735.048 9 125120947.497 9      3529.425 9        54.669 9  23809738.775 6         0.000 6      2750.204 6        37.977 6
G21  21170749.703 9 111253019.914 9     -1250.996 9        55.709 9  21170748.989 6         0.000 6      -974.802 6        37.977 6
G29  24299430.979 9 127694315.278 9     -3120.040 9        54.475 9  24299432.553 6         0.000 6     -2431.203 6        37.977 6
G27  22004955.750 9 115636795.951 9      2499.498 9        55.374 9  22004957.683 6         0.000 6      1947.661 6        37.977 6
G16  20497293.791 9 107713985.566 9       557.176 9        55.977 9  20497292.964 6         0.000 6       434.163 6        37.977 6
G26  20654403.632 9 108539601.389 9     -1482.969 9        55.873 9  20654406.448 6         0.000 6     -1155.561 6        37.977 6
G20  21944109.414 9 115317040.196 9      2565.739 9        55.316 9  21944109.735 6         0.000 6      1999.278 6        37.977 6
> 2019 07 03 12 01  0.0000000  0  8       0.000000000000
G07  25346862.897 9 133198617.445 9      2186.250 9        54.132 9  25346863.567 6         0.000 6      1703.572 6        37.977 6
G10  23809063.434 9 125117418.151 9      3529.288 9        54.669 9  23809067.160 6         0.000 6      2750.097 6        37.977 6
G21  21170987.794 9 111254271.089 9     -1251.357 9        55.709 9  21170987.080 6         0.000 6      -975.083 6        37.977 6
G29  24300024.711 9 127697435.351 9     -3120.126 9        54.475 9  24300026.286 6         0.000 6     -2431.270 6        37.977 6
G27  22004480.134 9 115634296.574 9      2499.261 9        55.374 9  22004482.067 6         0.000 6      1947.477 6        37.977 6
G16  20497187.822 9 107713428.699 9       556.560 9        55.977 9  20497186.996 6         0.000 6       433.683 6        37.977 6
G26  20654685.886 9 108541084.644 9     -1483.544 9        55.873 9  20654688.703 6         0.000 6     -1156.009 6        37.977 6
G20  21943621.212 9 115314474.683 9      2565.296 9        55.316 9  21943621.533 6         0.000 6      1998.933 6        37.977 6
> 2019 07 03 12 01  1.0000000  0  8       0.000000000000
G07  25346446.912 9 133196431.429 9      2185.791 9        54.132 9  25346447.581 6         0.000 6      1703.214 6        37.977 6
G10  23808391.846 9 125113888.942 9      3529.151 9        54.670 9  23808395.571 6         0.000 6      2749.990 6        37.977 6
G21  21171225.954 9 111255522.625 9     -1251.717 9        55.709 9  21171225.240 6         0.000 6      -975.364 6        37.977 6
G29  24300618.460 9 127700555.510 9     -3120.211 9        54.475 9  24300620.035 6         0.000 6     -2431.336 6        37.977 6
G27  22004004.563 9 115631797.434 9      2499.024 9        55.375 9  22004006.496 6         0.000 6      1947.292 6        37.977 6
G16  20497081.971 9 107712872.447 9       555.944 9        55.977 9  20497081.144 6         0.000 6       433.203 6        37.977 6
G26  20654968.250 9 108542568.474 9     -1484.119 9        55.873 9  20654971.067 6         0.000 6     -1156.457 6        37.977 6
G20  21943133.095 9 115311909.613 9      2564.853 9        55.316 9  21943133.416 6         0.000 6      1998.588 6        37.977 6
> 2019 07 03 12 01  2.0000000  0  8       0.000000000000
G07  25346031.014 9 133194245.874 9      2185.331 9        54.132 9  25346031.683 6         0.000 6      1702.857 6        37.977 6
G10  23807720.283 9 125110359.866 9      3529.014 9        54.670 9  23807724.008 6         0.000 6      2749.883 6        37.977 6
G21  21171464.182 9 111256774.520 9     -1252.078 9        55.709 9  21171463.467 6         0.000 6      -975.645 6        37.977 6
G29  24301212.224 9 127703675.754 9     -3120.297 9        54.474 9  24301213.800 6         0.000 6     -2431.403 6        37.977 6
G27  22003529.037 9 115629298.529 9      2498.787 9        55.375 9  22003530.970 6         0.000 6      1947.108 6        37.977 6
G16  20496976.237 9 107712316.808 9       555.328 9        55.977 9  20496975.410 6         0.000 6       432.723 6        37.977 6
G26  20655250.722 9 108544052.874 9     -1484.694 9        55.873 9  20655253.539 6         0.000 6     -1156.905 6        37.977 6
G20  21942645.061 9 115309344.982 9      2564.409 9        55.316 9  21942645.381 6         0.000 6      1998.242 6        37.977 6
> 2019 07 03 12 01  3.0000000  0  8       0.000000000000
G07  25345615.203 9 133192060.776 9      2184.872 9        54.132 9  25345615.872 6         0.000 6      1702.498 6        37.977 6
G10  23807048.747 9 125106830.931 9      3528.876 9        54.670 9  23807052.471 6         0.000 6      2749.776 6        37.977 6
G21  21171702.479 9 111258026.778 9     -1252.439 9        55.709 9  21171701.764 6         0.000 6      -975.927 6        37.977 6
G29  24301806.005 9 127706796.083 9     -3120.383 9        54.474 9  24301807.582 6         0.000 6     -2431.469 6        37.977 6
G27  22003053.556 9 115626799.863 9      2498.550 9        55.375 9  22003055.488 6         0.000 6      1946.923 6        37.977 6
G16  20496870.620 9 107711761.789 9       554.711 9        55.977 9  20496869.793 6         0.000 6       432.243 6        37.977 6
G26  20655533.305 9 108545537.853 9     -1485.269 9        55.873 9  20655536.122 6         0.000 6     -1157.353 6        37.977 6
G20  21942157.112 9 115306780.799 9      2563.966 9        55.316 9  21942157.433 6         0.000 6      1997.897 6        37.977 6
> 2019 07 03 12 01  4.0000000  0  8       0.000000000000
G07  25345199.480 9 133189876.140 9      2184.412 9        54.132 9  25345200.149 6         0.000 6      1702.140 6        37.977 6
G10  23806377.236 9 125103302.130 9      3528.739 9        54.670 9  23806380.960 6         0.000 6      2749.669 6        37.977 6
G21  21171940.844 9 111259279.394 9     -1252.799 9        55.709 9  21171940.129 6         0.000 6      -976.208 6        37.977 6
G29  24302399.802 9 127709916.498 9     -3120.468 9        54.474 9  24302401.379 6         0.000 6     -2431.536 6        37.977 6
G27  22002578.120 9 115624301.432 9      2498.313 9        55.375 9  22002580.052 6         0.000 6      1946.738 6        37.977 6
G16  20496765.120 9 107711207.382 9       554.095 9        55.977 9  20496764.293 6         0.000 6       431.762 6        37.977 6
G26  20655815.996 9 108547023.403 9     -1485.843 9        55.873 9  20655818.813 6         0.000 6     -1157.800 6        37.977 6
G20  21941669.247 9 115304217.055 9      2563.522 9        55.316 9  21941669.567 6         0.000 6      1997.551 6        37.977 6
> 2019 07 03 12 01  5.0000000  0  8       0.000000000000
G07  25344783.844 9 133187691.964 9      2183.953 9        54.132 9  25344784.513 6         0.000 6      1701.782 6        37.977 6
G10  23805705.752 9 125099773.469 9      3528.601 9        54.671 9  23805709.476 6         0.000 6      2749.562 6        37.977 6
G21  21172179.277 9 111260532.371 9     -1253.160 9        55.709 9  21172178.563 6         0.000 6      -976.489 6        37.977 6
G29  24302993.615 9 127713036.994 9     -3120.553 9        54.474 9  24302995.192 6         0.000 6     -2431.603 6        37.977 6
G27  22002102.730 9 115621803.244 9      2498.076 9        55.375 9  22002104.662 6         0.000 6      1946.554 6        37.977 6
G16  20496659.738 9 107710653.597 9       553.479 9        55.977 9  20496658.911 6         0.000 6       431.282 6        37.977 6
G26  20656098.797 9 108548509.531 9     -1486.418 9        55.872 9  20656101.614 6         0.000 6     -1158.248 6        37.977 6
G20  21941181.467 9 115301653.756 9      2563.079 9        55.317 9  21941181.786 6         0.000 6      1997.205 6        37.977 6
> 2019 07 03 12 01  6.0000000  0  8       0.000000000000
G07  25344368.296 9 133185508.247 9      2183.493 9        54.132 9  25344368.964 6         0.000 6      1701.424 6        37.977 6
G10  23805034.294 9 125096244.943 9      3528.463 9        54.671 9  23805038.017 6         0.000 6      2749.455 6        37.977 6
G21  21172417.780 9 111261785.708 9     -1253.521 9        55.709 9  21172417.066 6         0.000 6      -976.769 6        37.977 6
G29  24303587.444 9 127716157.580 9     -3120.639 9        54.474 9  24303589.023 6         0.000 6     -2431.669 6        37.977 6
G27  22001627.384 9 115619305.287 9      2497.839 9        55.375 9  22001629.316 6         0.000 6      1946.369 6        37.977 6
G16  20496554.472 9 107710100.423 9       552.863 9        55.977 9  20496553.646 6         0.000 6       430.802 6        37.977 6
G26  20656381.707 9 108549996.230 9     -1486.992 9        55.872 9  20656384.524 6         0.000 6     -1158.696 6        37.977 6
G20  21940693.770 9 115299090.900 9      2562.635 9        55.317 9  21940694.090 6         0.000 6      1996.859 6        37.977 6
> 2019 07 03 12 01  7.0000000  0  8       0.000000000000
G07  25343952.835 9 133183324.987 9      2183.033 9        54.133 9  25343953.503 6         0.000 6      1701.066 6        37.977 6
G10  23804362.863 9 125092716.559 9      3528.325 9        54.671 9  23804366.585 6         0.000 6      2749.347 6        37.977 6
G21  21172656.351 9 111263039.408 9     -1253.881 9        55.709 9  21172655.637 6         0.000 6      -977.050 6        37.977 6
G29  24304181.290 9 127719278.251 9     -3120.724 9        54.473 9  24304182.869 6         0.000 6     -2431.736 6        37.977 6
G27  22001152.084 9 115616807.569 9      2497.602 9        55.376 9  22001154.015 6         0.000 6      1946.184 6        37.977 6
G16  20496449.325 9 107709547.868 9       552.246 9        55.977 9  20496448.498 6         0.000 6       430.322 6        37.977 6
G26  20656664.726 9 108551483.508 9     -1487.567 9        55.872 9  20656667.544 6         0.000 6     -1159.144 6        37.977 6
G20  21940206.159 9 115296528.492 9      2562.191 9        55.317 9  21940206.479 6         0.000 6      1996.514 6        37.977 6
> 2019 07 03 12 01  8.0000000  0  8       0.000000000000
G07  25343537.461 9 133181142.190 9      2182.574 9        54.133 9  25343538.130 6         0.000 6      1700.708 6        37.977 6
G10  23803691.457 9 125089188.309 9      3528.187 9        54.671 9  23803695.179 6         0.000 6      2749.240 6        37.977 6
G21  21172894.990 9 111264293.466 9     -1254.241 9        55.708 9  21172894.276 6         0.000 6      -977.331 6        37.977 6
G29  24304775.153 9 127722399.008 9     -3120.810 9        54.473 9  24304776.732 6         0.000 6     -2431.802 6        37.977 6
G27  22000676.828 9 115614310.086 9      2497.365 9        55.376 9  22000678.759 6         0.000 6      1946.000 6        37.977 6
G16  20496344.294 9 107708995.927 9       551.630 9        55.977 9  20496343.467 6         0.000 6       429.841 6        37.977 6
G26  20656947.855 9 108552971.356 9     -1488.142 9        55.872 9  20656950.672 6         0.000 6     -1159.591 6        37.977 6
G20  21939718.632 9 115293966.523 9      2561.747 9        55.317 9  21939718.951 6         0.000 6      1996.168 6        37.977 6
> 2019 07 03 12 01  9.0000000  0  8       0.000000000000
G07  25343122.175 9 133178959.850 9      2182.114 9        54.133 9  25343122.843 6         0.000 6      1700.349 6        37.977 6
G10  23803020.079 9 125085660.201 9      3528.049 9        54.672 9  23803023.799 6         0.000 6      2749.132 6        37.977 6
G21  21173133.699 9 111265547.887 9     -1254.602 9        55.708 9  21173132.985 6         0.000 6      -977.612 6        37.977 6
G29  24305369.031 9 127725519.850 9     -3120.895 9        54.473 9  24305370.611 6         0.000 6     -2431.869 6        37.977 6
G27  22000201.618 9 115611812.842 9      2497.128 9        55.376 9  22000203.549 6         0.000 6      1945.815 6        37.977 6
G16  20496239.381 9 107708444.605 9       551.013 9        55.977 9  20496238.554 6         0.000 6       429.361 6        37.977 6
G26  20657231.093 9 108554459.783 9     -1488.716 9        55.872 9  20657233.911 6         0.000 6     -1160.039 6        37.977 6
G20  21939231.190 9 115291405.002 9      2561.303 9        55.317 9  21939231.509 6         0.000 6      1995.822 6        37.977 6
> 2019 07 03 12 01 10.0000000  0  8       0.000000000000
G07  25342706.977 9 133176777.972 9      2181.654 9        54.133 9  25342707.645 6         0.000 6      1699.991 6        37.977 6
G10  23802348.726 9 125082132.227 9      3527.911 9        54.672 9  23802352.445 6         0.000 6      2749.024 6        37.977 6
G21  21173372.475 9 111266802.666 9     -1254.962 9        55.708 9  21173371.762 6         0.000 6      -977.893 6        37.977 6
G29  24305962.926 9 127728640.777 9     -3120.980 9        54.473 9  24305964.507 6         0.000 6     -2431.935 6        37.977 6
G27  21999726.452 9 115609315.833 9      2496.891 9        55.376 9  21999728.383 6         0.000 6      1945.630 6        37.977 6
G16  20496134.585 9 107707893.897 9       550.397 9        55.977 9  20496133.758 6         0.000 6       428.881 6        37.977 6
G26  20657514.440 9 108555948.780 9     -1489.291 9        55.872 9  20657517.258 6         0.000 6     -1160.487 6        37.977 6
G20  21938743.832 9 115288843.922 9      2560.859 9        55.318 9  21938744.150 6         0.000 6      1995.476 6        37.977 6
> 2019 07 03 12 01 11.0000000  0  8       0.000000000000
G07  25342291.866 9 133174596.552 9      2181.194 9        54.133 9  25342292.533 6         0.000 6      1699.632 6        37.977 6
G10  23801677.400 9 125078604.395 9      3527.773 9        54.672 9  23801681.119 6         0.000 6      2748.917 6        37.977 6
G21  21173611.321 9 111268057.808 9     -1255.322 9        55.708 9  21173610.607 6         0.000 6      -978.174 6        37.977 6
G29  24306556.837 9 127731761.790 9     -3121.066 9        54.472 9  24306558.418 6         0.000 6     -2432.002 6        37.977 6
G27  21999251.332 9 115606819.064 9      2496.654 9        55.376 9  21999253.263 6         0.000 6      1945.445 6        37.977 6
G16  20496029.906 9 107707343.808 9       549.781 9        55.977 9  20496029.079 6         0.000 6       428.400 6        37.977 6
G26  20657797.898 9 108557438.356 9     -1489.865 9        55.872 9  20657800.715 6         0.000 6     -1160.934 6        37.977 6
G20  21938256.559 9 115286283.290 9      2560.415 9        55.318 9  21938256.877 6         0.000 6      1995.129 6        37.977 6
> 2019 07 03 12 01 12.0000000  0  8       0.000000000000
G07  25341876.843 9 133172415.595 9      2180.734 9        54.133 9  25341877.510 6         0.000 6      1699.274 6        37.977 6
G10  23801006.100 9 125075076.700 9      3527.634 9        54.672 9  23801009.818 6         0.000 6      2748.809 6        37.977 6
G21  21173850.235 9 111269313.307 9     -1255.683 9        55.708 9  21173849.521 6         0.000 6      -978.454 6        37.977 6
G29  24307150.763 9 127734882.883 9     -3121.151 9        54.472 9  24307152.345 6         0.000 6     -2432.068 6        37.977 6
G27  21998776.258 9 115604322.535 9      2496.416 9        55.377 9  21998778.189 6         0.000 6      1945.260 6        37.977 6
G16  20495925.345 9 107706794.337 9       549.164 9        55.977 9  20495924.518 6         0.000 6       427.920 6        37.977 6
G26  20658081.464 9 108558928.506 9     -1490.440 9        55.872 9  20658084.282 6         0.000 6     -1161.382 6        37.977 6
G20  21937769.370 9 115283723.099 9      2559.970 9        55.318 9  21937769.688 6         0.000 6      1994.783 6        37.977 6
> 2019 07 03 12 01 13.0000000  0  8       0.000000000000
G07  25341461.907 9 133170235.097 9      2180.274 9        54.133 9  25341462.574 6         0.000 6      1698.915 6        37.977 6
G10  23800334.825 9 125071549.141 9      3527.496 9        54.673 9  23800338.543 6         0.000 6      2748.701 6        37.977 6
G21  21174089.217 9 111270569.167 9     -1256.043 9        55.708 9  21174088.503 6         0.000 6      -978.735 6        37.977 6
G29  24307744.706 9 127738004.066 9     -3121.236 9        54.472 9  24307746.289 6         0.000 6     -2432.135 6        37.977 6
G27  21998301.228 9 115601826.238 9      2496.179 9        55.377 9  21998303.159 6         0.000 6      1945.075 6        37.977 6
G16  20495820.901 9 107706245.478 9       548.547 9        55.977 9  20495820.074 6         0.000 6       427.440 6        37.977 6
G26  20658365.139 9 108560419.226 9     -1491.014 9        55.871 9  20658367.957 6         0.000 6     -1161.829 6        37.977 6
G20  21937282.265 9 115281163.351 9      2559.526 9        55.318 9  21937282.583 6         0.000 6      1994.437 6        37.977 6
> 2019 07 03 12 01 14.0000000  0  8       0.000000000000
G07  25341047.059 9 133168055.057 9      2179.813 9        54.134 9  25341047.726 6         0.000 6      1698.557 6        37.977 6
G10  23799663.578 9 125068021.725 9      3527.357 9        54.673 9  23799667.296 6         0.000 6      2748.593 6        37.977 6
G21  21174328.268 9 111271825.389 9     -1256.403 9        55.708 9  21174327.555 6         0.000 6      -979.015 6        37.977 6
G29  24308338.666 9 127741125.335 9     -3121.322 9        54.472 9  24308340.249 6         0.000 6     -2432.201 6        37.977 6
G27  21997826.244 9 115599330.181 9      2495.942 9        55.377 9  21997828.174 6         0.000 6      1944.890 6        37.977 6
G16  20495716.574 9 107705697.239 9       547.931 9        55.977 9  20495715.748 6         0.000 6       426.959 6        37.977 6
G26  20658648.924 9 108561910.525 9     -1491.588 9        55.871 9  20658651.742 6         0.000 6     -1162.277 6        37.977 6
G20  21936795.246 9 115278604.052 9      2559.081 9        55.318 9  21936795.563 6         0.000 6      1994.090 6        37.977 6
> 2019 07 03 12 01 15.0000000  0  8       0.000000000000
G07  25340632.298 9 133165875.481 9      2179.353 9        54.134 9  25340632.965 6         0.000 6      1698.198 6        37.977 6
G10  23798992.357 9 125064494.443 9      3527.219 9        54.673 9  23798996.073 6         0.000 6      2748.485 6        37.977 6
G21  21174567.388 9 111273081.969 9     -1256.763 9        55.708 9  21174566.674 6         0.000 6      -979.296 6        37.977 6
G29  24308932.642 9 127744246.689 9     -3121.407 9        54.472 9  24308934.226 6         0.000 6     -2432.268 6        37.977 6
G27  21997351.304 9 115596834.358 9      2495.704 9        55.377 9  21997353.234 6         0.000 6      1944.705 6        37.977 6
G16  20495612.365 9 107705149.613 9       547.314 9        55.977 9  20495611.538 6         0.000 6       426.479 6        37.977 6
G26  20658932.818 9 108563402.394 9     -1492.163 9        55.871 9  20658935.636 6         0.000 6     -1162.725 6        37.977 6
G20  21936308.311 9 115276045.193 9      2558.637 9        55.319 9  21936308.628 6         0.000 6      1993.744 6        37.977 6
> 2019 07 03 12 01 16.0000000  0  8       0.000000000000
G07  25340217.625 9 133163696.361 9      2178.893 9        54.134 9  25340218.292 6         0.000 6      1697.839 6        37.977 6
G10  23798321.163 9 125060967.304 9      3527.080 9        54.673 9  23798324.879 6         0.000 6      2748.377 6        37.977 6
G21  21174806.576 9 111274338.911 9     -1257.123 9        55.708 9  21174805.862 6         0.000 6      -979.576 6        37.977 6
G29  24309526.634 9 127747368.128 9     -3121.492 9        54.471 9  24309528.218 6         0.000 6     -2432.334 6        37.977 6
G27  21996876.410 9 115594338.775 9      2495.467 9        55.377 9  21996878.340 6         0.000 6      1944.520 6        37.977 6
G16  20495508.273 9 107704602.607 9       546.698 9        55.977 9  20495507.446 6         0.000 6       425.998 6        37.977 6
G26  20659216.822 9 108564894.842 9     -1492.737 9        55.871 9  20659219.640 6         0.000 6     -1163.172 6        37.977 6
G20  21935821.460 9 115273486.783 9      2558.192 9        55.319 9  21935821.777 6         0.000 6      1993.397 6        37.977 6
> 2019 07 03 12 01 17.0000000  0  8       0.000000000000
G07  25339803.040 9 133161517.705 9      2178.432 9        54.134 9  25339803.706 6         0.000 6      1697.480 6        37.977 6
G10  23797649.994 9 125057440.300 9      3526.941 9        54.674 9  23797653.709 6         0.000 6      2748.268 6        37.977 6
G21  21175045.832 9 111275596.211 9     -1257.483 9        55.708 9  21175045.119 6         0.000 6      -979.857 6        37.977 6
G29  24310120.642 9 127750489.652 9     -3121.577 9        54.471 9  24310122.227 6         0.000 6     -2432.400 6        37.977 6
G27  21996401.560 9 115591843.428 9      2495.229 9        55.378 9  21996403.490 6         0.000 6      1944.335 6        37.977 6
G16  20495404.298 9 107704056.215 9       546.081 9        55.977 9  20495403.471 6         0.000 6       425.518 6        37.977 6
G26  20659500.934 9 108566387.859 9     -1493.311 9        55.871 9  20659503.752 6         0.000 6     -1163.619 6        37.977 6
G20  21935334.694 9 115270928.814 9      2557.747 9        55.319 9  21935335.011 6         0.000 6      1993.051 6        37.977 6
> 2019 07 03 12 01 18.0000000  0  8       0.000000000000
G07  25339388.542 9 133159339.507 9      2177.971 9        54.134 9  25339389.208 6         0.000 6      1697.122 6        37.977 6
G10  23796978.853 9 125053913.439 9      3526.802 9        54.674 9  23796982.567 6         0.000 6      2748.160 6        37.977 6
G21  21175285.158 9 111276853.873 9     -1257.843 9        55.707 9  21175284.444 6         0.000 6      -980.137 6        37.977 6
G29  24310714.666 9 127753611.261 9     -3121.662 9        54.471 9  24310716.252 6         0.000 6     -2432.467 6        37.977 6
G27  21995926.757 9 115589348.320 9      2494.992 9        55.378 9  21995928.687 6         0.000 6      1944.150 6        37.977 6
G16  20495300.441 9 107703510.443 9       545.464 9        55.977 9  20495299.614 6         0.000 6       425.037 6        37.977 6
G26  20659785.156 9 108567881.456 9     -1493.885 9        55.871 9  20659787.974 6         0.000 6     -1164.067 6        37.977 6
G20  21934848.013 9 115268371.294 9      2557.302 9        55.319 9  21934848.330 6         0.000 6      1992.704 6        37.977 6
> 2019 07 03 12 01 19.0000000  0  8       0.000000000000
G07  25338974.132 9 133157161.772 9      2177.511 9        54.134 9  25338974.798 6         0.000 6      1696.763 6        37.977 6
G10  23796307.737 9 125050386.713 9      3526.663 9        54.674 9  23796311.451 6         0.000 6      2748.052 6        37.977 6
G21  21175524.551 9 111278111.892 9     -1258.202 9        55.707 9  21175523.837 6         0.000 6      -980.418 6        37.977 6
G29  24311308.707 9 127756732.956 9     -3121.747 9        54.471 9  24311310.294 6         0.000 6     -2432.533 6        37.977 6
G27  21995451.998 9 115586853.448 9      2494.754 9        55.378 9  21995453.927 6         0.000 6      1943.965 6        37.977 6
G16  20495196.701 9 107702965.284 9       544.847 9        55.977 9  20495195.874 6         0.000 6       424.556 6        37.977 6
G26  20660069.487 9 108569375.622 9     -1494.459 9        55.871 9  20660072.305 6         0.000 6     -1164.514 6        37.977 6
G20  21934361.417 9 115265814.214 9      2556.857 9        55.319 9  21934361.733 6         0.000 6      1992.357 6        37.977 6
> 2019 07 03 12 01 20.0000000  0  8       0.000000000000
G07  25338559.810 9 133154984.498 9      2177.050 9        54.134 9  25338560.476 6         0.000 6      1696.404 6        37.977 6
G10  23795636.648 9 125046860.128 9      3526.524 9        54.674 9  23795640.362 6         0.000 6      2747.943 6        37.977 6
G21  21175764.013 9 111279370.272 9     -1258.562 9        55.707 9  21175763.299 6         0.000 6      -980.698 6        37.977 6
G29  24311902.763 9 127759854.730 9     -3121.833 9        54.471 9  24311904.350 6         0.000 6     -2432.599 6        37.977 6
G27  21994977.285 9 115584358.818 9      2494.517 9        55.378 9  21994979.215 6         0.000 6      1943.780 6        37.977 6
G16  20495093.079 9 107702420.746 9       544.230 9        55.977 9  20495092.252 6         0.000 6       424.076 6        37.977 6
G26  20660353.927 9 108570870.366 9     -1495.034 9        55.871 9  20660356.746 6         0.000 6     -1164.962 6        37.977 6
G20  21933874.905 9 115263257.581 9      2556.412 9        55.320 9  21933875.220 6         0.000 6      1992.011 6        37.977 6
> 2019 07 03 12 01 21.0000000  0  8       0.000000000000
G07  25338145.575 9 133152807.682 9      2176.589 9        54.135 9  25338146.240 6         0.000 6      1696.045 6        37.977 6
G10  23794965.586 9 125043333.685 9      3526.384 9        54.675 9  23794969.299 6         0.000 6      2747.835 6        37.977 6
G21  21176003.543 9 111280629.013 9     -1258.922 9        55.707 9  21176002.830 6         0.000 6      -980.978 6        37.977 6
G29  24312496.836 9 127762976.595 9     -3121.918 9        54.470 9  24312498.424 6         0.000 6     -2432.666 6        37.977 6
G27  21994502.617 9 115581864.423 9      2494.279 9        55.378 9  21994504.546 6         0.000 6      1943.595 6        37.977 6
G16  20494989.574 9 107701876.824 9       543.614 9        55.978 9  20494988.747 6         0.000 6       423.595 6        37.977 6
G26  20660638.477 9 108572365.685 9     -1495.608 9        55.870 9  20660641.296 6         0.000 6     -1165.409 6        37.977 6
G20  21933388.478 9 115260701.396 9      2555.967 9        55.320 9  21933388.793 6         0.000 6      1991.664 6        37.977 6
> 2019 07 03 12 01 22.0000000  0  8       0.000000000000
G07  25337731.428 9 133150631.329 9      2176.129 9        54.135 9  25337732.093 6         0.000 6      1695.685 6        37.977 6
G10  23794294.550 9 125039807.377 9      3526.245 9        54.675 9  23794298.262 6         0.000 6      2747.726 6        37.977 6
G21  21176243.142 9 111281888.111 9     -1259.281 9        55.707 9  21176242.429 6         0.000 6      -981.258 6        37.977 6
G29  24313090.925 9 127766098.545 9     -3122.003 9        54.470 9  24313092.514 6         0.000 6     -2432.732 6        37.977 6
G27  21994027.994 9 115579370.263 9      2494.042 9        55.378 9  21994029.923 6         0.000 6      1943.410 6        37.977 6
G16  20494886.186 9 107701333.516 9       542.997 9        55.978 9  20494885.359 6         0.000 6       423.114 6        37.977 6
G26  20660923.136 9 108573861.573 9     -1496.182 9        55.870 9  20660925.955 6         0.000 6     -1165.856 6        37.977 6
G20  21932902.135 9 115258145.652 9      2555.522 9        55.320 9  21932902.450 6         0.000 6      1991.317 6        37.977 6
> 2019 07 03 12 01 23.0000000  0  8       0.000000000000
G07  25337317.368 9 133148455.435 9      2175.667 9        54.135 9  25337318.033 6         0.000 6      1695.326 6        37.977 6
G10  23793623.541 9 125036281.212 9      3526.105 9        54.675 9  23793627.253 6         0.000 6      2747.617 6        37.977 6
G21  21176482.809 9 111283147.572 9     -1259.641 9        55.707 9  21176482.096 6         0.000 6      -981.539 6        37.977 6
G29  24313685.031 9 127769220.580 9     -3122.088 9        54.470 9  24313686.620 6         0.000 6     -2432.798 6        37.977 6
G27  21993553.416 9 115576876.343 9      2493.804 9        55.379 9  21993555.345 6         0.000 6      1943.225 6        37.977 6
G16  20494782.915 9 107700790.828 9       542.380 9        55.978 9  20494782.089 6         0.000 6       422.633 6        37.977 6
G26  20661207.904 9 108575358.040 9     -1496.756 9        55.870 9  20661210.723 6         0.000 6     -1166.304 6        37.977 6
G20  21932415.878 9 115255590.357 9      2555.076 9        55.320 9  21932416.193 6         0.000 6      1990.970 6        37.977 6
> 2019 07 03 12 01 24.0000000  0  8       0.000000000000
G07  25336903.397 9 133146280.004 9      2175.207 9        54.135 9  25336904.062 6         0.000 6      1694.967 6        37.977 6
G10  23792952.558 9 125032755.183 9      3525.966 9        54.675 9  23792956.269 6         0.000 6      2747.508 6        37.977 6
G21  21176722.545 9 111284407.390 9     -1260.001 9        55.707 9  21176721.832 6         0.000 6      -981.819 6        37.977 6
G29  24314279.152 9 127772342.700 9     -3122.173 9        54.470 9  24314280.742 6         0.000 6     -2432.864 6        37.977 6
G27  21993078.883 9 115574382.659 9      2493.566 9        55.379 9  21993080.812 6         0.000 6      1943.039 6        37.977 6
G16  20494679.762 9 107700248.754 9       541.763 9        55.978 9  20494678.935 6         0.000 6       422.153 6        37.977 6
G26  20661492.781 9 108576855.077 9     -1497.330 9        55.870 9  20661495.600 6         0.000 6     -1166.751 6        37.977 6
G20  21931929.705 9 115253035.504 9      2554.631 9        55.320 9  21931930.019 6         0.000 6      1990.623 6        37.977 6
> 2019 07 03 12 01 25.0000000  0  8       0.000000000000
G07  25336489.513 9 133144105.032 9      2174.745 9        54.135 9  25336490.177 6         0.000 6      1694.608 6        37.977 6
G10  23792281.603 9 125029229.298 9      3525.826 9        54.676 9  23792285.313 6         0.000 6      2747.399 6        37.977 6
G21  21176962.349 9 111285667.569 9     -1260.360 9        55.707 9  21176961.636 6         0.000 6      -982.099 6        37.977 6
G29  24314873.290 9 127775464.905 9     -3122.258 9        54.470 9  24314874.881 6         0.000 6     -2432.931 6        37.977 6
G27  21992604.396 9 115571889.214 9      2493.329 9        55.379 9  21992606.324 6         0.000 6      1942.854 6        37.977 6
G16  20494576.727 9 107699707.300 9       541.146 9        55.978 9  20494575.900 6         0.000 6       421.672 6        37.977 6
G26  20661777.768 9 108578352.692 9     -1497.904 9        55.870 9  20661780.587 6         0.000 6     -1167.198 6        37.977 6
G20  21931443.617 9 115250481.100 9      2554.185 9        55.321 9  21931443.931 6         0.000 6      1990.275 6        37.977 6
> 2019 07 03 12 01 26.0000000  0  8       0.000000000000
G07  25336075.717 9 133141930.523 9      2174.284 9        54.135 9  25336076.381 6         0.000 6      1694.248 6        37.977 6
G10  23791610.673 9 125025703.548 9      3525.686 9        54.676 9  23791614.382 6         0.000 6      2747.290 6        37.977 6
G21  21177202.222 9 111286928.106 9     -1260.719 9        55.707 9  21177201.508 6         0.000 6      -982.379 6        37.977 6
G29  24315467.444 9 127778587.195 9     -3122.343 9        54.469 9  24315469.035 6         0.000 6     -2432.997 6        37.977 6
G27  21992129.953 9 115569396.005 9      2493.091 9        55.379 9  21992131.882 6         0.000 6      1942.669 6        37.977 6
G16  20494473.808 9 107699166.459 9       540.529 9        55.978 9  20494472.981 6         0.000 6       421.191 6        37.977 6
G26  20662062.864 9 108579850.876 9     -1498.478 9        55.870 9  20662065.683 6         0.000 6     -1167.645 6        37.977 6
G20  21930957.613 9 115247927.138 9      2553.740 9        55.321 9  21930957.927 6         0.000 6      1989.928 6        37.977 6
> 2019 07 03 12 01 27.0000000  0  8       0.000000000000
G07  25335662.008 9 133139756.473 9      2173.823 9        54.135 9  25335662.672 6         0.000 6      1693.889 6        37.977 6
G10  23790939.770 9 125022177.943 9      3525.546 9        54.676 9  23790943.479 6         0.000 6      2747.181 6        37.977 6
G21  21177442.163 9 111288189.005 9     -1261.079 9        55.707 9  21177441.450 6         0.000 6      -982.659 6        37.977 6
G29  24316061.614 9 127781709.570 9     -3122.428 9        54.469 9  24316063.206 6         0.000 6     -2433.063 6        37.977 6
G27  21991655.557 9 115566903.036 9      2492.853 9        55.379 9  21991657.485 6         0.000 6      1942.483 6        37.977 6
G16  20494371.008 9 107698626.239 9       539.911 9        55.978 9  20494370.181 6         0.000 6       420.710 6        37.977 6
G26  20662348.069 9 108581349.639 9     -1499.052 9        55.870 9  20662350.888 6         0.000 6     -1168.093 6        37.977 6
G20  21930471.695 9 115245373.625 9      2553.294 9        55.321 9  21930472.009 6         0.000 6      1989.581 6        37.977 6
> 2019 07 03 12 01 28.0000000  0  8       0.000000000000
G07  25335248.389 9 133137582.890 9      2173.362 9        54.136 9  25335249.052 6         0.000 6      1693.529 6        37.977 6
G10  23790268.893 9 125018652.471 9      3525.406 9        54.676 9  23790272.601 6         0.000 6      2747.072 6        37.977 6
G21  21177682.171 9 111289450.258 9     -1261.438 9        55.706 9  21177681.458 6         0.000 6      -982.939 6        37.977 6
G29  24316655.800 9 127784832.024 9     -3122.513 9        54.469 9  24316657.392 6         0.000 6     -2433.129 6        37.977 6
G27  21991181.205 9 115564410.307 9      2492.615 9        55.380 9  21991183.134 6         0.000 6      1942.298 6        37.977 6
G16  20494268.325 9 107698086.635 9       539.294 9        55.978 9  20494267.498 6         0.000 6       420.229 6        37.977 6
G26  20662633.383 9 108582848.970 9     -1499.625 9        55.870 9  20662636.202 6         0.000 6     -1168.540 6        37.977 6
G20  21929985.860 9 115242820.551 9      2552.848 9        55.321 9  21929986.174 6         0.000 6      1989.233 6        37.977 6
> 2019 07 03 12 01 29.0000000  0  8       0.000000000000
G07  25334834.856 9 133135409.763 9      2172.900 9        54.136 9  25334835.519 6         0.000 6      1693.170 6        37.977 6
G10  23789598.044 9 125015127.145 9      3525.266 9        54.677 9  23789601.752 6         0.000 6      2746.963 6        37.977 6
G21  21177922.249 9 111290711.875 9     -1261.797 9        55.706 9  21177921.536 6         0.000 6      -983.219 6        37.977 6
G29  24317250.002 9 127787954.569 9     -3122.597 9        54.469 9  24317251.595 6         0.000 6     -2433.195 6        37.977 6
G27  21990706.899 9 115561917.813 9      2492.377 9        55.380 9  21990708.827 6         0.000 6      1942.113 6        37.977 6
G16  20494165.759 9 107697547.649 9       538.677 9        55.978 9  20494164.932 6         0.000 6       419.748 6        37.977 6
G26  20662918.806 9 108584348.881 9     -1500.199 9        55.870 9  20662921.626 6         0.000 6     -1168.987 6        37.977 6
G20  21929500.112 9 115240267.931 9      2552.402 9        55.321 9  21929500.425 6         0.000 6      1988.886 6        37.977 6
> 2019 07 03 12 01 30.0000000  0  8       0.000000000000
G07  25334421.410 9 133133237.097 9      2172.439 9        54.136 9  25334422.074 6         0.000 6      1692.810 6        37.977 6
G10  23788927.222 9 125011601.960 9      3525.125 9        54.677 9  23788930.929 6         0.000 6      2746.854 6        37.977 6
G21  21178162.395 9 111291973.851 9     -1262.157 9        55.706 9  21178161.682 6         0.000 6      -983.499 6        37.977 6
G29  24317844.221 9 127791077.199 9     -3122.682 9        54.468 9  24317845.814 6         0.000 6     -2433.262 6        37.977 6
G27  21990232.638 9 115559425.558 9      2492.139 9        55.380 9  21990234.566 6         0.000 6      1941.927 6        37.977 6
G16  20494063.311 9 107697009.281 9       538.060 9        55.978 9  20494062.484 6         0.000 6       419.267 6        37.977 6
G26  20663204.340 9 108585849.365 9     -1500.773 9        55.869 9  20663207.159 6         0.000 6     -1169.434 6        37.977 6
G20  21929014.448 9 115237715.756 9      2551.956 9        55.321 9  21929014.761 6         0.000 6      1988.538 6        37.977 6
> 2019 07 03 12 01 31.0000000  0  8       0.000000000000
G07  25334008.053 9 133131064.895 9      2171.977 9        54.136 9  25334008.717 6         0.000 6      1692.451 6        37.977 6
G10  23788256.425 9 125008076.911 9      3524.985 9        54.677 9  23788260.131 6         0.000 6      2746.744 6        37.977 6
G21  21178402.610 9 111293236.184 9     -1262.516 9        55.706 9  21178401.897 6         0.000 6      -983.779 6        37.977 6
G29  24318438.455 9 127794199.913 9     -3122.767 9        54.468 9  24318440.050 6         0.000 6     -2433.328 6        37.977 6
G27  21989758.422 9 115556933.538 9      2491.901 9        55.380 9  21989760.350 6         0.000 6      1941.742 6        37.977 6
G16  20493960.980 9 107696471.526 9       537.443 9        55.978 9  20493960.153 6         0.000 6       418.786 6        37.977 6
G26  20663489.981 9 108587350.419 9     -1501.347 9        55.869 9  20663492.801 6         0.000 6     -1169.881 6        37.977 6
G20  21928528.869 9 115235164.023 9      2551.510 9        55.322 9  21928529.182 6         0.000 6      1988.191 6        37.977 6
> 2019 07 03 12 01 32.0000000  0  8       0.000000000000
G07  25333594.784 9 133128893.152 9      2171.515 9        54.136 9  25333595.447 6         0.000 6      1692.091 6        37.977 6
G10  23787585.656 9 125004552.007 9      3524.845 9        54.677 9  23787589.362 6         0.000 6      2746.635 6        37.977 6
G21  21178642.892 9 111294498.879 9     -1262.875 9        55.706 9  21178642.180 6         0.000 6      -984.058 6        37.977 6
G29  24319032.706 9 127797322.712 9     -3122.852 9        54.468 9  24319034.301 6         0.000 6     -2433.394 6        37.977 6
G27  21989284.252 9 115554441.759 9      2491.663 9        55.380 9  21989286.179 6         0.000 6      1941.556 6        37.977 6
G16  20493858.766 9 107695934.392 9       536.825 9        55.978 9  20493857.940 6         0.000 6       418.305 6        37.977 6
G26  20663775.732 9 108588852.051 9     -1501.921 9        55.869 9  20663778.552 6         0.000 6     -1170.328 6        37.977 6
G20  21928043.375 9 115232612.741 9      2551.064 9        55.322 9  21928043.688 6         0.000 6      1987.843 6        37.977 6
> 2019 07 03 12 01 33.0000000  0  8       0.000000000000
G07  25333181.603 9 133126721.874 9      2171.054 9        54.136 9  25333182.265 6         0.000 6      1691.731 6        37.977 6
G10  23786914.913 9 125001027.239 9      3524.704 9        54.678 9  23786918.618 6         0.000 6      2746.525 6        37.977 6
G21  21178883.243 9 111295761.930 9     -1263.234 9        55.706 9  21178882.530 6         0.000 6      -984.338 6        37.977 6
G29  24319626.973 9 127800445.596 9     -3122.937 9        54.468 9  24319628.569 6         0.000 6     -2433.460 6        37.977 6
G27  21988810.126 9 115551950.215 9      2491.425 9        55.381 9  21988812.054 6         0.000 6      1941.371 6        37.977 6
G16  20493756.670 9 107695397.872 9       536.208 9        55.978 9  20493755.843 6         0.000 6       417.824 6        37.977 6
G26  20664061.592 9 108590354.251 9     -1502.494 9        55.869 9  20664064.412 6         0.000 6     -1170.775 6        37.977 6
G20  21927557.966 9 115230061.900 9      2550.618 9        55.322 9  21927558.278 6         0.000 6      1987.495 6        37.977 6
> 2019 07 03 12 01 34.0000000  0  8       0.000000000000
G07  25332768.509 9 133124551.055 9      2170.592 9        54.136 9  25332769.171 6         0.000 6      1691.371 6        37.977 6
G10  23786244.198 9 124997502.616 9      3524.563 9        54.678 9  23786247.902 6         0.000 6      2746.416 6        37.977 6
G21  21179123.663 9 111297025.342 9     -1263.593 9        55.706 9  21179122.950 6         0.000 6      -984.618 6        37.977 6
G29  24320221.257 9 127803568.565 9     -3123.022 9        54.468 9  24320222.853 6         0.000 6     -2433.526 6        37.977 6
G27  21988336.046 9 115549458.912 9      2491.187 9        55.381 9  21988337.974 6         0.000 6      1941.185 6        37.977 6
G16  20493654.692 9 107694861.973 9       535.591 9        55.978 9  20493653.865 6         0.000 6       417.343 6        37.977 6
G26  20664347.562 9 108591857.031 9     -1503.068 9        55.869 9  20664350.382 6         0.000 6     -1171.222 6        37.977 6
G20  21927072.642 9 115227511.511 9      2550.171 9        55.322 9  21927072.953 6         0.000 6      1987.147 6        37.977 6
> 2019 07 03 12 01 35.0000000  0  8       0.000000000000
G07  25332355.503 9 133122380.700 9      2170.130 9        54.137 9  25332356.166 6         0.000 6      1691.011 6        37.977 6
G10  23785573.508 9 124993978.129 9      3524.423 9        54.678 9  23785577.212 6         0.000 6      2746.306 6        37.977 6
G21  21179364.150 9 111298289.111 9     -1263.952 9        55.706 9  21179363.437 6         0.000 6      -984.898 6        37.977 6
G29  24320815.556 9 127806691.619 9     -3123.106 9        54.467 9  24320817.153 6         0.000 6     -2433.592 6        37.977 6
G27  21987862.012 9 115546967.844 9      2490.949 9        55.381 9  21987863.939 6         0.000 6      1941.000 6        37.977 6
G16  20493552.830 9 107694326.688 9       534.973 9        55.978 9  20493552.004 6         0.000 6       416.862 6        37.977 6
G26  20664633.640 9 108593360.379 9     -1503.642 9        55.869 9  20664636.460 6         0.000 6     -1171.669 6        37.977 6
G20  21926587.402 9 115224961.563 9      2549.725 9        55.322 9  21926587.713 6         0.000 6      1986.800 6        37.977 6
> 2019 07 03 12 01 36.0000000  0  8       0.000000000000
G07  25331942.586 9 133120210.807 9      2169.668 9        54.137 9  25331943.248 6         0.000 6      1690.651 6        37.977 6
G10  23784902.846 9 124990453.785 9      3524.282 9        54.678 9  23784906.549 6         0.000 6      2746.196 6        37.977 6
G21  21179604.706 9 111299553.240 9     -1264.311 9        55.706 9  21179603.993 6         0.000 6      -985.177 6        37.977 6
G29  24321409.870 9 127809814.752 9     -3123.191 9        54.467 9  24321411.468 6         0.000 6     -2433.658 6        37.977 6
G27  21987388.023 9 115544477.021 9      2490.711 9        55.381 9  21987389.950 6         0.000 6      1940.814 6        37.977 6
G16  20493451.087 9 107693792.025 9       534.356 9        55.978 9  20493450.261 6         0.000 6       416.381 6        37.977 6
G26  20664919.828 9 108594864.305 9     -1504.215 9        55.869 9  20664922.648 6         0.000 6     -1172.116 6        37.977 6
G20  21926102.247 9 115222412.063 9      2549.278 9        55.323 9  21926102.559 6         0.000 6      1986.452 6        37.977 6
> 2019 07 03 12 01 37.0000000  0  8       0.000000000000
G07  25331529.756 9 133118041.376 9      2169.206 9        54.137 9  25331530.418 6         0.000 6      1690.291 6        37.977 6
G10  23784232.210 9 124986929.580 9      3524.141 9        54.679 9  23784235.912 6         0.000 6      2746.086 6        37.977 6
G21  21179845.330 9 111300817.726 9     -1264.669 9        55.706 9  21179844.617 6         0.000 6      -985.457 6        37.977 6
G29  24322004.202 9 127812937.976 9     -3123.276 9        54.467 9  24322005.800 6         0.000 6     -2433.724 6        37.977 6
G27  21986914.079 9 115541986.430 9      2490.473 9        55.381 9  21986916.006 6         0.000 6      1940.629 6        37.977 6
G16  20493349.461 9 107693257.975 9       533.738 9        55.978 9  20493348.634 6         0.000 6       415.900 6        37.977 6
G26  20665206.124 9 108596368.800 9     -1504.789 9        55.869 9  20665208.944 6         0.000 6     -1172.563 6        37.977 6
G20  21925617.178 9 115219863.009 9      2548.831 9        55.323 9  21925617.489 6         0.000 6      1986.103 6        37.977 6
> 2019 07 03 12 01 38.0000000  0  8       0.000000000000
G07  25331117.014 9 133115872.405 9      2168.744 9        54.137 9  25331117.676 6         0.000 6      1689.931 6        37.977 6
G10  23783561.602 9 124983405.521 9      3523.999 9        54.679 9  23783565.303 6         0.000 6      2745.976 6        37.977 6
G21  21180086.023 9 111302082.574 9     -1265.028 9        55.705 9  21180085.310 6         0.000 6      -985.736 6        37.977 6
G29  24322598.550 9 127816061.284 9     -3123.361 9        54.467 9  24322600.148 6         0.000 6     -2433.790 6        37.977 6
G27  21986440.180 9 115539496.079 9      2490.234 9        55.381 9  21986442.107 6         0.000 6      1940.443 6        37.977 6
G16  20493247.953 9 107692724.546 9       533.121 9        55.978 9  20493247.126 6         0.000 6       415.419 6        37.977 6
G26  20665492.530 9 108597873.874 9     -1505.362 9        55.868 9  20665495.351 6         0.000 6     -1173.010 6        37.977 6
G20  21925132.194 9 115217314.405 9      2548.385 9        55.323 9  21925132.504 6         0.000 6      1985.755 6        37.977 6
> 2019 07 03 12 01 39.0000000  0  8       0.000000000000
G07  25330704.360 9 133113703.898 9      2168.282 9        54.137 9  25330705.022 6         0.000 6      1689.571 6        37.977 6
G10  23782891.020 9 124979881.598 9      3523.858 9        54.679 9  23782894.720 6         0.000 6      2745.866 6        37.977 6
G21  21180326.783 9 111303347.779 9     -1265.387 9        55.705 9  21180326.071 6         0.000 6      -986.016 6        37.977 6
G29  24323192.913 9 127819184.676 9     -3123.445 9        54.467 9  24323194.513 6         0.000 6     -2433.856 6        37.977 6
G27  21985966.327 9 115537005.965 9      2489.996 9        55.382 9  21985968.253 6         0.000 6      1940.257 6        37.977 6
G16  20493146.562 9 107692191.731 9       532.503 9        55.978 9  20493145.735 6         0.000 6       414.937 6        37.977 6
G26  20665779.045 9 108599379.516 9     -1505.936 9        55.868 9  20665781.865 6         0.000 6     -1173.457 6        37.977 6
G20  21924647.294 9 115214766.244 9      2547.938 9        55.323 9  21924647.604 6         0.000 6      1985.407 6        37.977 6
> 2019 07 03 12 01 40.0000000  0  8       0.000000000000
G07  25330291.794 9 133111535.851 9      2167.819 9        54.137 9  25330292.455 6         0.000 6      1689.211 6        37.977 6
G10  23782220.465 9 124976357.821 9      3523.717 9        54.679 9  23782224.165 6         0.000 6      2745.756 6        37.977 6
G21  21180567.612 9 111304613.344 9     -1265.745 9        55.705 9  21180566.900 6         0.000 6      -986.295 6        37.977 6
G29  24323787.293 9 127822308.153 9     -3123.530 9        54.466 9  24323788.893 6         0.000 6     -2433.922 6        37.977 6
G27  21985492.519 9 115534516.091 9      2489.758 9        55.382 9  21985494.445 6         0.000 6      1940.072 6        37.977 6
G16  20493045.288 9 107691659.536 9       531.885 9        55.978 9  20493044.461 6         0.000 6       414.456 6        37.977 6
G26  20666065.669 9 108600885.737 9     -1506.509 9        55.868 9  20666068.490 6         0.000 6     -1173.904 6        37.977 6
G20  21924162.480 9 115212218.535 9      2547.491 9        55.323 9  21924162.790 6         0.000 6      1985.059 6        37.977 6
> 2019 07 03 12 01 41.0000000  0  8       0.000000000000
G07  25329879.315 9 133109368.266 9      2167.357 9        54.137 9  25329879.976 6         0.000 6      1688.851 6        37.977 6
G10  23781549.937 9 124972834.186 9      3523.575 9        54.680 9  23781553.637 6         0.000 6      2745.646 6        37.977 6
G21  21180808.510 9 111305879.268 9     -1266.104 9        55.705 9  21180807.797 6         0.000 6      -986.575 6        37.977 6
G29  24324381.689 9 127825431.715 9     -3123.615 9        54.466 9  24324383.290 6         0.000 6     -2433.988 6        37.977 6
G27  21985018.757 9 115532026.455 9      2489.519 9        55.382 9  21985020.683 6         0.000 6      1939.886 6        37.977 6
G16  20492944.133 9 107691127.960 9       531.268 9        55.978 9  20492943.306 6         0.000 6       413.975 6        37.977 6
G26  20666352.403 9 108602392.531 9     -1507.082 9        55.868 9  20666355.224 6         0.000 6     -1174.350 6        37.977 6
G20  21923677.751 9 115209671.272 9      2547.044 9        55.324 9  21923678.061 6         0.000 6      1984.710 6        37.977 6
> 2019 07 03 12 01 42.0000000  0  8       0.000000000000
G07  25329466.926 9 133107201.147 9      2166.895 9        54.138 9  25329467.586 6         0.000 6      1688.490 6        37.977 6
G10  23780879.436 9 124969310.687 9      3523.434 9        54.680 9  23780883.135 6         0.000 6      2745.536 6        37.977 6
G21  21181049.475 9 111307145.548 9     -1266.462 9        55.705 9  21181048.763 6         0.000 6      -986.854 6        37.977 6
G29  24324976.101 9 127828555.362 9     -3123.699 9        54.466 9  24324977.703 6         0.000 6     -2434.054 6        37.977 6
G27  21984545.039 9 115529537.055 9      2489.281 9        55.382 9  21984546.965 6         0.000 6      1939.700 6        37.977 6
G16  20492843.094 9 107690596.998 9       530.650 9        55.978 9  20492842.267 6         0.000 6       413.494 6        37.977 6
G26  20666639.245 9 108603899.893 9     -1507.656 9        55.868 9  20666642.066 6         0.000 6     -1174.797 6        37.977 6
G20  21923193.107 9 115207124.452 9      2546.596 9        55.324 9  21923193.416 6         0.000 6      1984.362 6        37.977 6
> 2019 07 03 12 01 43.0000000  0  8       0.000000000000
G07  25329054.624 9 133105034.489 9      2166.432 9        54.138 9  25329055.284 6         0.000 6      1688.130 6        37.977 6
G10  23780208.962 9 124965787.332 9      3523.292 9        54.680 9  23780212.660 6         0.000 6      2745.425 6        37.977 6
G21  21181290.508 9 111308412.187 9     -1266.821 9        55.705 9  21181289.796 6         0.000 6      -987.133 6        37.977 6
G29  24325570.529 9 127831679.088 9     -3123.784 9        54.466 9  24325572.130 6         0.000 6     -2434.120 6        37.977 6
G27  21984071.368 9 115527047.900 9      2489.043 9        55.382 9  21984073.294 6         0.000 6      1939.514 6        37.977 6
G16  20492742.174 9 107690066.658 9       530.032 9        55.978 9  20492741.347 6         0.000 6       413.012 6        37.977 6
G26  20666926.197 9 108605407.834 9     -1508.229 9        55.868 9  20666929.018 6         0.000 6     -1175.244 6        37.977 6
G20  21922708.547 9 115204578.080 9      2546.149 9        55.324 9  21922708.857 6         0.000 6      1984.014 6        37.977 6
> 2019 07 03 12 01 44.0000000  0  8       0.000000000000
G07  25328642.410 9 133102868.295 9      2165.970 9        54.138 9  25328643.070 6         0.000 6      1687.770 6        37.977 6
G10  23779538.514 9 124962264.117 9      3523.150 9        54.680 9  23779542.212 6         0.000 6      2745.315 6        37.977 6
G21  21181531.610 9 111309679.184 9     -1267.179 9        55.705 9  21181530.898 6         0.000 6      -987.413 6        37.977 6
G29  24326164.973 9 127834802.903 9     -3123.868 9        54.465 9  24326166.575 6         0.000 6     -2434.186 6        37.977 6
G27  21983597.741 9 115524558.977 9      2488.804 9        55.383 9  21983599.667 6         0.000 6      1939.329 6        37.977 6
G16  20492641.370 9 107689536.931 9       529.415 9        55.979 9  20492640.543 6         0.000 6       412.531 6        37.977 6
G26  20667213.257 9 108606916.343 9     -1508.802 9        55.868 9  20667216.078 6         0.000 6     -1175.691 6        37.977 6
G20  21922224.073 9 115202032.155 9      2545.702 9        55.324 9  21922224.382 6         0.000 6      1983.665 6        37.977 6
> 2019 07 03 12 01 45.0000000  0  8       0.000000000000
G07  25328230.284 9 133100702.560 9      2165.507 9        54.138 9  25328230.944 6         0.000 6      1687.409 6        37.977 6
G10  23778868.095 9 124958741.048 9      3523.009 9        54.681 9  23778871.792 6         0.000 6      2745.204 6        37.977 6
G21  21181772.780 9 111310946.542 9     -1267.538 9        55.705 9  21181772.068 6         0.000 6      -987.692 6        37.977 6
G29  24326759.433 9 127837926.804 9     -3123.953 9        54.465 9  24326761.036 6         0.000 6     -2434.252 6        37.977 6
G27  21983124.160 9 115522070.295 9      2488.566 9        55.383 9  21983126.086 6         0.000 6      1939.143 6        37.977 6
G16  20492540.685 9 107689007.825 9       528.797 9        55.979 9  20492539.858 6         0.000 6       412.049 6        37.977 6
G26  20667500.427 9 108608425.430 9     -1509.376 9        55.868 9  20667503.248 6         0.000 6     -1176.137 6        37.977 6
G20  21921739.685 9 115199486.681 9      2545.254 9        55.324 9  21921739.993 6         0.000 6      1983.316 6        37.977 6
> 2019 07 03 12 01 46.0000000  0  8       0.000000000000
G07  25327818.246 9 133098537.290 9      2165.044 9        54.138 9  25327818.906 6         0.000 6      1687.049 6        37.977 6
G10  23778197.701 9 124955218.117 9      3522.867 9        54.681 9  23778201.397 6         0.000 6      2745.094 6        37.977 6
G21  21182014.018 9 111312214.255 9     -1267.896 9        55.705 9  21182013.306 6         0.000 6      -987.971 6        37.977 6
G29  24327353.910 9 127841050.788 9     -3124.037 9        54.465 9  24327355.514 6         0.000 6     -2434.317 6        37.977 6
G27  21982650.624 9 115519581.849 9      2488.327 9        55.383 9  21982652.550 6         0.000 6      1938.957 6        37.977 6
G16  20492440.116 9 107688479.334 9       528.179 9        55.979 9  20492439.289 6         0.000 6       411.568 6        37.977 6
G26  20667787.705 9 108609935.086 9     -1509.949 9        55.867 9  20667790.527 6         0.000 6     -1176.584 6        37.977 6
G20  21921255.381 9 115196941.651 9      2544.807 9        55.325 9  21921255.689 6         0.000 6      1982.968 6        37.977 6
> 2019 07 03 12 01 47.0000000  0  8       0.000000000000
G07  25327406.296 9 133096372.481 9      2164.582 9        54.138 9  25327406.955 6         0.000 6      1686.688 6        37.977 6
G10  23777527.335 9 124951695.331 9      3522.725 9        54.681 9  23777531.031 6         0.000 6      2744.983 6        37.977 6
G21  21182255.325 9 111313482.330 9     -1268.254 9        55.705 9  21182254.613 6         0.000 6      -988.250 6        37.977 6
G29  24327948.402 9 127844174.858 9     -3124.122 9        54.465 9  24327950.007 6         0.000 6     -2434.383 6        37.977 6
G27  21982177.134 9 115517093.644 9      2488.089 9        55.383 9  21982179.059 6         0.000 6      1938.771 6        37.977 6
G16  20492339.666 9 107687951.464 9       527.561 9        55.979 9  20492338.839 6         0.000 6       411.086 6        37.977 6
G26  20668075.094 9 108611445.320 9     -1510.522 9        55.867 9  20668077.915 6         0.000 6     -1177.031 6        37.977 6
G20  21920771.163 9 115194397.072 9      2544.359 9        55.325 9  21920771.471 6         0.000 6      1982.619 6        37.977 6
> 2019 07 03 12 01 48.0000000  0  8       0.000000000000
G07  25326994.434 9 133094208.137 9      2164.119 9        54.138 9  25326995.093 6         0.000 6      1686.327 6        37.977 6
G10  23776856.996 9 124948172.684 9      3522.582 9        54.681 9  23776860.691 6         0.000 6      2744.872 6        37.977 6
G21  21182496.699 9 111314750.760 9     -1268.612 9        55.704 9  21182495.987 6         0.000 6      -988.529 6        37.977 6
G29  24328542.911 9 127847299.011 9     -3124.206 9        54.465 9  24328544.516 6         0.000 6     -2434.449 6        37.977 6
G27  21981703.689 9 115514605.676 9      2487.850 9        55.383 9  21981705.614 6         0.000 6      1938.585 6        37.977 6
G16  20492239.332 9 107687424.209 9       526.943 9        55.979 9  20492238.505 6         0.000 6       410.605 6        37.977 6
G26  20668362.590 9 108612956.122 9     -1511.095 9        55.867 9  20668365.412 6         0.000 6     -1177.477 6        37.977 6
G20  21920287.029 9 115191852.937 9      2543.912 9        55.325 9  21920287.337 6         0.000 6      1982.270 6        37.977 6
> 2019 07 03 12 01 49.0000000  0  8       0.000000000000
G07  25326582.660 9 133092044.253 9      2163.656 9        54.139 9  25326583.319 6         0.000 6      1685.966 6        37.977 6
G10  23776186.684 9 124944650.183 9      3522.440 9        54.681 9  23776190.379 6         0.000 6      2744.761 6        37.977 6
G21  21182738.142 9 111316019.550 9     -1268.970 9        55.704 9  21182737.430 6         0.000 6      -988.808 6        37.977 6
G29  24329137.436 9 127850423.250 9     -3124.291 9        54.464 9  24329139.041 6         0.000 6     -2434.515 6        37.977 6
G27  21981230.290 9 115512117.948 9      2487.611 9        55.384 9  21981232.214 6         0.000 6      1938.399 6        37.977 6
G16  20492139.117 9 107686897.575 9       526.325 9        55.979 9  20492138.290 6         0.000 6       410.123 6        37.977 6
G26  20668650.196 9 108614467.502 9     -1511.668 9        55.867 9  20668653.018 6         0.000 6     -1177.924 6        37.977 6
G20  21919802.981 9 115189309.254 9      2543.464 9        55.325 9  21919803.289 6         0.000 6      1981.921 6        37.977 6
> 2019 07 03 12 01 50.0000000  0  8       0.000000000000
G07  25326170.974 9 133089880.833 9      2163.193 9        54.139 9  25326171.633 6         0.000 6      1685.606 6        37.977 6
G10  23775516.400 9 124941127.825 9      3522.298 9        54.682 9  23775520.093 6         0.000 6      2744.650 6        37.977 6
G21  21182979.654 9 111317288.699 9     -1269.329 9        55.704 9  21182978.941 6         0.000 6      -989.087 6        37.977 6
G29  24329731.977 9 127853547.572 9     -3124.375 9        54.464 9  24329733.583 6         0.000 6     -2434.581 6        37.977 6
G27  21980756.936 9 115509630.458 9      2487.373 9        55.384 9  21980758.860 6         0.000 6      1938.213 6        37.977 6
G16  20492039.020 9 107686371.559 9       525.707 9        55.979 9  20492038.193 6         0.000 6       409.642 6        37.977 6
G26  20668937.912 9 108615979.455 9     -1512.242 9        55.867 9  20668940.734 6         0.000 6     -1178.370 6        37.977 6
G20  21919319.019 9 115186766.019 9      2543.016 9        55.325 9  21919319.326 6         0.000 6      1981.572 6        37.977 6
> 2019 07 03 12 01 51.0000000  0  8       0.000000000000
G07  25325759.377 9 133087717.881 9      2162.730 9        54.139 9  25325760.036 6         0.000 6      1685.245 6        37.977 6
G10  23774846.141 9 124937605.602 9      3522.155 9        54.682 9  23774849.834 6         0.000 6      2744.539 6        37.977 6
G21  21183221.232 9 111318558.201 9     -1269.687 9        55.704 9  21183220.520 6         0.000 6      -989.366 6        37.977 6
G29  24330326.533 9 127856671.974 9     -3124.460 9        54.464 9  24330328.139 6         0.000 6     -2434.646 6        37.977 6
G27  21980283.627 9 115507143.210 9      2487.134 9        55.384 9  21980285.552 6         0.000 6      1938.027 6        37.977 6
G16  20491939.039 9 107685846.159 9       525.089 9        55.979 9  20491938.213 6         0.000 6       409.160 6        37.977 6
G26  20669225.735 9 108617491.976 9     -1512.815 9        55.867 9  20669228.557 6         0.000 6     -1178.817 6        37.977 6
G20  21918835.140 9 115184223.224 9      2542.568 9        55.325 9  21918835.447 6         0.000 6      1981.223 6        37.977 6
> 2019 07 03 12 01 52.0000000  0  8       0.000000000000
G07  25325347.868 9 133085555.386 9      2162.266 9        54.139 9  25325348.526 6         0.000 6      1684.884 6        37.977 6
G10  23774175.911 9 124934083.529 9      3522.013 9        54.682 9  23774179.603 6         0.000 6      2744.428 6        37.977 6
G21  21183462.879 9 111319828.066 9     -1270.044 9        55.704 9  21183462.167 6         0.000 6      -989.645 6        37.977 6
G29  24330921.105 9 127859796.465 9     -3124.544 9        54.464 9  24330922.713 6         0.000 6     -2434.712 6        37.977 6
G27  21979810.364 9 115504656.198 9      2486.895 9        55.384 9  21979812.288 6         0.000 6      1937.841 6        37.977 6
G16  20491839.177 9 107685321.379 9       524.471 9        55.979 9  20491838.350 6         0.000 6       408.679 6        37.977 6
G26  20669513.669 9 108619005.076 9     -1513.388 9        55.867 9  20669516.491 6         0.000 6     -1179.263 6        37.977 6
G20  21918351.348 9 115181680.885 9      2542.120 9        55.326 9  21918351.655 6         0.000 6      1980.874 6        37.977 6
> 2019 07 03 12 01 53.0000000  0  8       0.000000000000
G07  25324936.447 9 133083393.357 9      2161.803 9        54.139 9  25324937.105 6         0.000 6      1684.523 6        37.977 6
G10  23773505.707 9 124930561.594 9      3521.870 9        54.682 9  23773509.398 6         0.000 6      2744.317 6        37.977 6
G21  21183704.594 9 111321098.286 9     -1270.402 9        55.704 9  21183703.882 6         0.000 6      -989.924 6        37.977 6
G29  24331515.694 9 127862921.041 9     -3124.628 9        54.464 9  24331517.303 6         0.000 6     -2434.778 6        37.977 6
G27  21979337.146 9 115502169.423 9      2486.656 9        55.384 9  21979339.070 6         0.000 6      1937.655 6        37.977 6
G16  20491739.432 9 107684797.214 9       523.853 9        55.979 9  20491738.605 6         0.000 6       408.197 6        37.977 6
G26  20669801.711 9 108620518.743 9     -1513.961 9        55.867 9  20669804.533 6         0.000 6     -1179.710 6        37.977 6
G20  21917867.641 9 115179138.989 9      2541.672 9        55.326 9  21917867.947 6         0.000 6      1980.524 6        37.977 6
> 2019 07 03 12 01 54.0000000  0  8       0.000000000000
G07  25324525.113 9 133081231.789 9      2161.340 9        54.139 9  25324525.771 6         0.000 6      1684.162 6        37.977 6
G10  23772835.531 9 124927039.806 9      3521.727 9        54.683 9  23772839.222 6         0.000 6      2744.206 6        37.977 6
G21  21183946.378 9 111322368.867 9     -1270.760 9        55.704 9  21183945.666 6         0.000 6      -990.203 6        37.977 6
G29  24332110.299 9 127866045.701 9     -3124.713 9        54.463 9  24332111.908 6         0.000 6     -2434.844 6        37.977 6
G27  21978863.974 9 115499682.889 9      2486.417 9        55.384 9  21978865.898 6         0.000 6      1937.469 6        37.977 6
G16  20491639.805 9 107684273.670 9       523.235 9        55.979 9  20491638.978 6         0.000 6       407.715 6        37.977 6
G26  20670089.862 9 108622032.988 9     -1514.533 9        55.867 9  20670092.685 6         0.000 6     -1180.156 6        37.977 6
G20  21917384.019 9 115176597.546 9      2541.223 9        55.326 9  21917384.326 6         0.000 6      1980.175 6        37.977 6
> 2019 07 03 12 01 55.0000000  0  8       0.000000000000
G07  25324113.868 9 133079070.688 9      2160.876 9        54.139 9  25324114.526 6         0.000 6      1683.801 6        37.977 6
G10  23772165.381 9 124923518.156 9      3521.584 9        54.683 9  23772169.072 6         0.000 6      2744.094 6        37.977 6
G21  21184188.229 9 111323639.803 9     -1271.118 9        55.704 9  21184187.517 6         0.000 6      -990.482 6        37.977 6
G29  24332704.920 9 127869170.446 9     -3124.797 9        54.463 9  24332706.530 6         0.000 6     -2434.909 6        37.977 6
G27  21978390.847 9 115497196.591 9      2486.179 9        55.385 9  21978392.771 6         0.000 6      1937.283 6        37.977 6
G16  20491540.295 9 107683750.741 9       522.617 9        55.979 9  20491539.468 6         0.000 6       407.234 6        37.977 6
G26  20670378.122 9 108623547.802 9     -1515.106 9        55.866 9  20670380.944 6         0.000 6     -1180.603 6        37.977 6
G20  21916900.483 9 115174056.548 9      2540.775 9        55.326 9  21916900.789 6         0.000 6      1979.826 6        37.977 6
> 2019 07 03 12 01 56.0000000  0  8       0.000000000000
G07  25323702.711 9 133076910.046 9      2160.413 9        54.140 9  25323703.369 6         0.000 6      1683.440 6        37.977 6
G10  23771495.259 9 124919996.654 9      3521.441 9        54.683 9  23771498.949 6         0.000 6      2743.983 6        37.977 6
G21  21184430.149 9 111324911.099 9     -1271.476 9        55.704 9  21184429.437 6         0.000 6      -990.760 6        37.977 6
G29  24333299.558 9 127872295.274 9     -3124.881 9        54.463 9  24333301.168 6         0.000 6     -2434.975 6        37.977 6
G27  21977917.765 9 115494710.535 9      2485.940 9        55.385 9  21977919.689 6         0.000 6      1937.097 6        37.977 6
G16  20491440.903 9 107683228.434 9       521.998 9        55.979 9  20491440.076 6         0.000 6       406.752 6        37.977 6
G26  20670666.492 9 108625063.193 9     -1515.679 9        55.866 9  20670669.314 6         0.000 6     -1181.049 6        37.977 6
G20  21916417.032 9 115171516.001 9      2540.326 9        55.326 9  21916417.338 6         0.000 6      1979.476 6        37.977 6
> 2019 07 03 12 01 57.0000000  0  8       0.000000000000
G07  25323291.643 9 133074749.871 9      2159.949 9        54.140 9  25323292.301 6         0.000 6      1683.078 6        37.977 6
G10  23770825.164 9 124916475.290 9      3521.298 9        54.683 9  23770828.853 6         0.000 6      2743.871 6        37.977 6
G21  21184672.136 9 111326182.751 9     -1271.833 9        55.704 9  21184671.425 6         0.000 6      -991.039 6        37.977 6
G29  24333894.211 9 127875420.187 9     -3124.965 9        54.463 9  24333895.821 6         0.000 6     -2435.041 6        37.977 6
G27  21977444.729 9 115492224.716 9      2485.701 9        55.385 9  21977446.653 6         0.000 6      1936.910 6        37.977 6
G16  20491341.628 9 107682706.741 9       521.380 9        55.979 9  20491340.801 6         0.000 6       406.270 6        37.977 6
G26  20670954.969 9 108626579.152 9     -1516.252 9        55.866 9  20670957.792 6         0.000 6     -1181.496 6        37.977 6
G20  21915933.666 9 115168975.899 9      2539.878 9        55.327 9  21915933.971 6         0.000 6      1979.127 6        37.977 6
> 2019 07 03 12 01 58.0000000  0  8       0.000000000000
G07  25322880.663 9 133072590.157 9      2159.486 9        54.140 9  25322881.320 6         0.000 6      1682.717 6        37.977 6
G10  23770155.097 9 124912954.074 9      3521.155 9        54.684 9  23770158.786 6         0.000 6      2743.760 6        37.977 6
G21  21184914.192 9 111327454.762 9     -1272.191 9        55.703 9  21184913.480 6         0.000 6      -991.318 6        37.977 6
G29  24334488.880 9 127878545.185 9     -3125.050 9        54.463 9  24334490.491 6         0.000 6     -2435.106 6        37.977 6
G27  21976971.739 9 115489739.137 9      2485.462 9        55.385 9  21976973.662 6         0.000 6      1936.724 6        37.977 6
G16  20491242.472 9 107682185.670 9       520.762 9        55.979 9  20491241.645 6         0.000 6       405.788 6        37.977 6
G26  20671243.557 9 108628095.688 9     -1516.825 9        55.866 9  20671246.380 6         0.000 6     -1181.942 6        37.977 6
G20  21915450.386 9 115166436.250 9      2539.429 9        55.327 9  21915450.691 6         0.000 6      1978.777 6        37.977 6
> 2019 07 03 12 01 59.0000000  0  8       0.000000000000
G07  25322469.771 9 133070430.913 9      2159.022 9        54.140 9  25322470.428 6         0.000 6      1682.356 6        37.977 6
G10  23769485.056 9 124909432.995 9      3521.012 9        54.684 9  23769488.744 6         0.000 6      2743.648 6        37.977 6
G21  21185156.315 9 111328727.127 9     -1272.549 9        55.703 9  21185155.604 6         0.000 6      -991.596 6        37.977 6
G29  24335083.564 9 127881670.261 9     -3125.134 9        54.462 9  24335085.176 6         0.000 6     -2435.172 6        37.977 6
G27  21976498.794 9 115487253.799 9      2485.223 9        55.385 9  21976500.717 6         0.000 6      1936.538 6        37.977 6
G16  20491143.432 9 107681665.216 9       520.143 9        55.979 9  20491142.606 6         0.000 6       405.307 6        37.977 6
G26  20671532.253 9 108629612.793 9     -1517.398 9        55.866 9  20671535.076 6         0.000 6     -1182.388 6        37.977 6
G20  21914967.190 9 115163897.043 9      2538.980 9        55.327 9  21914967.495 6         0.000 6      1978.427 6        37.977 6
> 2019 07 03 12 02  0.0000000  0  8       0.000000000000
G07  25322058.967 9 133068272.125 9      2158.558 9        54.140 9  25322059.624 6         0.000 6      1681.994 6        37.977 6
G10  23768815.044 9 124905912.067 9      3520.868 9        54.684 9  23768818.731 6         0.000 6      2743.536 6        37.977 6
G21  21185398.507 9 111329999.854 9     -1272.906 9        55.703 9  21185397.796 6         0.000 6      -991.875 6        37.977 6
G29  24335678.266 9 127884795.430 9     -3125.218 9        54.462 9  24335679.879 6         0.000 6     -2435.238 6        37.977 6
G27  21976025.894 9 115484768.696 9      2484.984 9        55.386 9  21976027.817 6         0.000 6      1936.352 6        37.977 6
G16  20491044.511 9 107681145.380 9       519.525 9        55.979 9  20491043.684 6         0.000 6       404.825 6        37.977 6
G26  20671821.058 9 108631130.474 9     -1517.970 9        55.866 9  20671823.881 6         0.000 6     -1182.835 6        37.977 6
G20  21914484.081 9 115161358.293 9      2538.532 9        55.327 9  21914484.386 6         0.000 6      1978.078 6        37.977 6
