     3.00           Observation Data    M (Mixed)           RINEX VERSION / TYPE
SimGEN V6.06.00     Spirent             03-Jul-19 12:00     PGM / RUN BY / DATE 
                                                            MARKER NAME         
1                                                           MARKER NUMBER       
GROUND_CRAFT                                                MARKER TYPE         
jin4hi              Spirent                                 OBSERVER / AGENCY   
rec_num             rec_type            rec_vers            REC # / TYPE / VERS 
1                   ant_type                                ANT # / TYPE        
  1000.000                                                  INTERVAL            
  2019     7     3    12     0    1.0000000     GPS         TIME OF FIRST OBS   
  4162667.7980   664401.5990  4770536.7940                  APPROX POSITION XYZ 
        0.0000        0.0000        0.0000                  ANTENNA: DELTA H/E/N
G    8 C1C L1C D1C S1C C2C L2C D2C S2C                      SYS / # / OBS TYPES 
        0.0000        0.0000        0.0000                  ANTENNA: DELTA X/Y/Z
DBHZ                                                        SIGNAL STRENGTH UNIT
                                                            END OF HEADER       
> 2019 07 03 12 00  1.0000000  0  8       0.000000000000
G07  25371591.090 9 133328564.762 9      2213.146 9        54.123 9  25371591.774 6         0.000 6      1724.530 6        37.977 6
G10  23848705.981 9 125325740.511 9      3537.179 9        54.655 9  23848709.747 6         0.000 6      2756.243 6        37.977 6
G21  21157051.164 9 111181033.644 9     -1229.965 9        55.715 9  21157050.447 6         0.000 6      -958.414 6        37.977 6
G29  24264993.086 9 127513343.518 9     -3114.999 9        54.487 9  24264994.624 6         0.000 6     -2427.272 6        37.977 6
G27  22032645.371 9 115782305.728 9      2513.174 9        55.363 9  22032647.313 6         0.000 6      1958.317 6        37.977 6
G16  20503652.550 9 107747401.070 9       592.860 9        55.974 9  20503651.724 6         0.000 6       461.969 6        37.977 6
G26  20638215.185 9 108454530.628 9     -1449.550 9        55.880 9  20638217.995 6         0.000 6     -1129.519 6        37.977 6
G20  21972542.322 9 115466455.871 9      2591.269 9        55.304 9  21972542.660 6         0.000 6      2019.170 6        37.977 6
> 2019 07 03 12 00  2.0000000  0  8       0.000000000000
G07  25371169.976 9 133326351.794 9      2212.747 9        54.123 9  25371170.659 6         0.000 6      1724.219 6        37.977 6
G10  23848032.887 9 125322203.387 9      3537.067 9        54.655 9  23848036.652 6         0.000 6      2756.158 6        37.977 6
G21  21157285.253 9 111182263.789 9     -1230.330 9        55.715 9  21157284.536 6         0.000 6      -958.699 6        37.977 6
G29  24265585.863 9 127516458.572 9     -3115.113 9        54.487 9  24265587.402 6         0.000 6     -2427.363 6        37.977 6
G27  22032167.152 9 115779792.673 9      2512.944 9        55.363 9  22032169.094 6         0.000 6      1958.139 6        37.977 6
G16  20503539.791 9 107746808.518 9       592.247 9        55.974 9  20503538.965 6         0.000 6       461.491 6        37.977 6
G26  20638491.080 9 108455980.466 9     -1450.128 9        55.880 9  20638493.891 6         0.000 6     -1129.970 6        37.977 6
G20  21972049.260 9 115463864.817 9      2590.836 9        55.305 9  21972049.597 6         0.000 6      2018.835 6        37.977 6
> 2019 07 03 12 00  3.0000000  0  8       0.000000000000
G07  25370748.948 9 133324139.281 9      2212.292 9        54.123 9  25370749.631 6         0.000 6      1723.865 6        37.977 6
G10  23847359.817 9 125318666.393 9      3536.935 9        54.656 9  23847363.581 6         0.000 6      2756.056 6        37.977 6
G21  21157519.411 9 111183494.298 9     -1230.694 9        55.715 9  21157518.695 6         0.000 6      -958.983 6        37.977 6
G29  24266178.658 9 127519573.719 9     -3115.200 9        54.487 9  24266180.197 6         0.000 6     -2427.431 6        37.977 6
G27  22031688.976 9 115777279.848 9      2512.709 9        55.364 9  22031690.919 6         0.000 6      1957.956 6        37.977 6
G16  20503427.148 9 107746216.575 9       591.633 9        55.974 9  20503426.322 6         0.000 6       461.013 6        37.977 6
G26  20638767.084 9 108457430.876 9     -1450.705 9        55.880 9  20638769.895 6         0.000 6     -1130.420 6        37.977 6
G20  21971556.281 9 115461274.200 9      2590.398 9        55.305 9  21971556.618 6         0.000 6      2018.493 6        37.977 6
> 2019 07 03 12 00  4.0000000  0  8       0.000000000000
G07  25370328.006 9 133321927.221 9      2211.837 9        54.124 9  25370328.689 6         0.000 6      1723.510 6        37.977 6
G10  23846686.773 9 125315129.534 9      3536.804 9        54.656 9  23846690.537 6         0.000 6      2755.954 6        37.977 6
G21  21157753.639 9 111184725.174 9     -1231.058 9        55.715 9  21157752.923 6         0.000 6      -959.266 6        37.977 6
G29  24266771.469 9 127522688.952 9     -3115.287 9        54.487 9  24266773.009 6         0.000 6     -2427.499 6        37.977 6
G27  22031210.846 9 115774767.259 9      2512.474 9        55.364 9  22031212.788 6         0.000 6      1957.773 6        37.977 6
G16  20503314.623 9 107745625.248 9       591.019 9        55.974 9  20503313.796 6         0.000 6       460.535 6        37.977 6
G26  20639043.199 9 108458881.867 9     -1451.282 9        55.880 9  20639046.010 6         0.000 6     -1130.869 6        37.977 6
G20  21971063.386 9 115458684.025 9      2589.960 9        55.305 9  21971063.723 6         0.000 6      2018.152 6        37.977 6
> 2019 07 03 12 00  5.0000000  0  8       0.000000000000
G07  25369907.151 9 133319715.617 9      2211.382 9        54.124 9  25369907.834 6         0.000 6      1723.156 6        37.977 6
G10  23846013.754 9 125311592.801 9      3536.673 9        54.656 9  23846017.516 6         0.000 6      2755.852 6        37.977 6
G21  21157987.936 9 111185956.411 9     -1231.422 9        55.715 9  21157987.219 6         0.000 6      -959.550 6        37.977 6
G29  24267364.297 9 127525804.272 9     -3115.374 9        54.486 9  24267365.837 6         0.000 6     -2427.566 6        37.977 6
G27  22030732.760 9 115772254.903 9      2512.239 9        55.364 9  22030734.702 6         0.000 6      1957.590 6        37.977 6
G16  20503202.213 9 107745034.533 9       590.405 9        55.974 9  20503201.387 6         0.000 6       460.056 6        37.977 6
G26  20639319.423 9 108460333.431 9     -1451.858 9        55.879 9  20639322.234 6         0.000 6     -1131.319 6        37.977 6
G20  21970570.574 9 115456094.284 9      2589.523 9        55.305 9  21970570.911 6         0.000 6      2017.811 6        37.977 6
> 2019 07 03 12 00  6.0000000  0  8       0.000000000000
G07  25369486.383 9 133317504.466 9      2210.927 9        54.124 9  25369487.065 6         0.000 6      1722.801 6        37.977 6
G10  23845340.760 9 125308056.205 9      3536.541 9        54.656 9  23845344.522 6         0.000 6      2755.749 6        37.977 6
G21  21158222.303 9 111187188.014 9     -1231.786 9        55.714 9  21158221.586 6         0.000 6      -959.833 6        37.977 6
G29  24267957.141 9 127528919.679 9     -3115.460 9        54.486 9  24267958.682 6         0.000 6     -2427.634 6        37.977 6
G27  22030254.719 9 115769742.784 9      2512.005 9        55.364 9  22030256.661 6         0.000 6      1957.407 6        37.977 6
G16  20503089.921 9 107744444.435 9       589.792 9        55.974 9  20503089.094 6         0.000 6       459.578 6        37.977 6
G26  20639595.757 9 108461785.575 9     -1452.435 9        55.879 9  20639598.568 6         0.000 6     -1131.768 6        37.977 6
G20  21970077.846 9 115453504.985 9      2589.084 9        55.305 9  21970078.182 6         0.000 6      2017.470 6        37.977 6
> 2019 07 03 12 00  7.0000000  0  8       0.000000000000
G07  25369065.701 9 133315293.773 9      2210.472 9        54.124 9  25369066.383 6         0.000 6      1722.447 6        37.977 6
G10  23844667.790 9 125304519.736 9      3536.410 9        54.657 9  23844671.551 6         0.000 6      2755.647 6        37.977 6
G21  21158456.738 9 111188419.979 9     -1232.150 9        55.714 9  21158456.021 6         0.000 6      -960.117 6        37.977 6
G29  24268550.001 9 127532035.173 9     -3115.547 9        54.486 9  24268551.543 6         0.000 6     -2427.702 6        37.977 6
G27  22029776.723 9 115767230.898 9      2511.770 9        55.364 9  22029778.664 6         0.000 6      1957.224 6        37.977 6
G16  20502977.745 9 107743854.947 9       589.178 9        55.974 9  20502976.919 6         0.000 6       459.099 6        37.977 6
G26  20639872.200 9 108463238.292 9     -1453.012 9        55.879 9  20639875.011 6         0.000 6     -1132.217 6        37.977 6
G20  21969585.200 9 115450916.120 9      2588.646 9        55.306 9  21969585.536 6         0.000 6      2017.128 6        37.977 6
> 2019 07 03 12 00  8.0000000  0  8       0.000000000000
G07  25368645.105 9 133313083.532 9      2210.017 9        54.124 9  25368645.787 6         0.000 6      1722.092 6        37.977 6
G10  23843994.846 9 125300983.403 9      3536.278 9        54.657 9  23843998.607 6         0.000 6      2755.544 6        37.977 6
G21  21158691.243 9 111189652.310 9     -1232.514 9        55.714 9  21158690.526 6         0.000 6      -960.400 6        37.977 6
G29  24269142.879 9 127535150.754 9     -3115.634 9        54.486 9  24269144.421 6         0.000 6     -2427.769 6        37.977 6
G27  22029298.771 9 115764719.248 9      2511.535 9        55.365 9  22029300.713 6         0.000 6      1957.041 6        37.977 6
G16  20502865.687 9 107743266.076 9       588.564 9        55.974 9  20502864.860 6         0.000 6       458.621 6        37.977 6
G26  20640148.754 9 108464691.590 9     -1453.588 9        55.879 9  20640151.565 6         0.000 6     -1132.667 6        37.977 6
G20  21969092.639 9 115448327.698 9      2588.208 9        55.306 9  21969092.975 6         0.000 6      2016.787 6        37.977 6
> 2019 07 03 12 00  9.0000000  0  8       0.000000000000
G07  25368224.597 9 133310873.748 9      2209.562 9        54.124 9  25368225.278 6         0.000 6      1721.738 6        37.977 6
G10  23843321.926 9 125297447.197 9      3536.146 9        54.657 9  23843325.686 6         0.000 6      2755.441 6        37.977 6
G21  21158925.816 9 111190885.002 9     -1232.877 9        55.714 9  21158925.100 6         0.000 6      -960.684 6        37.977 6
G29  24269735.772 9 127538266.421 9     -3115.721 9        54.486 9  24269737.315 6         0.000 6     -2427.837 6        37.977 6
G27  22028820.864 9 115762207.832 9      2511.300 9        55.365 9  22028822.805 6         0.000 6      1956.858 6        37.977 6
G16  20502753.745 9 107742677.816 9       587.950 9        55.974 9  20502752.918 6         0.000 6       458.143 6        37.977 6
G26  20640425.417 9 108466145.460 9     -1454.165 9        55.879 9  20640428.228 6         0.000 6     -1133.116 6        37.977 6
G20  21968600.160 9 115445739.709 9      2587.770 9        55.306 9  21968600.496 6         0.000 6      2016.445 6        37.977 6
> 2019 07 03 12 00 10.0000000  0  8       0.000000000000
G07  25367804.175 9 133308664.421 9      2209.107 9        54.124 9  25367804.856 6         0.000 6      1721.383 6        37.977 6
G10  23842649.032 9 125293911.125 9      3536.014 9        54.657 9  23842652.792 6         0.000 6      2755.339 6        37.977 6
G21  21159160.459 9 111192118.059 9     -1233.241 9        55.714 9  21159159.743 6         0.000 6      -960.967 6        37.977 6
G29  24270328.682 9 127541382.170 9     -3115.808 9        54.485 9  24270330.225 6         0.000 6     -2427.905 6        37.977 6
G27  22028343.002 9 115759696.656 9      2511.065 9        55.365 9  22028344.944 6         0.000 6      1956.675 6        37.977 6
G16  20502641.920 9 107742090.175 9       587.336 9        55.974 9  20502641.094 6         0.000 6       457.664 6        37.977 6
G26  20640702.190 9 108467599.911 9     -1454.741 9        55.879 9  20640705.001 6         0.000 6     -1133.565 6        37.977 6
G20  21968107.765 9 115443152.160 9      2587.331 9        55.306 9  21968108.100 6         0.000 6      2016.103 6        37.977 6
> 2019 07 03 12 00 11.0000000  0  8       0.000000000000
G07  25367383.840 9 133306455.548 9      2208.651 9        54.125 9  25367384.521 6         0.000 6      1721.028 6        37.977 6
G10  23841976.163 9 125290375.183 9      3535.883 9        54.657 9  23841979.921 6         0.000 6      2755.236 6        37.977 6
G21  21159395.171 9 111193351.478 9     -1233.605 9        55.714 9  21159394.455 6         0.000 6      -961.251 6        37.977 6
G29  24270921.608 9 127544498.010 9     -3115.894 9        54.485 9  24270923.152 6         0.000 6     -2427.972 6        37.977 6
G27  22027865.185 9 115757185.709 9      2510.830 9        55.365 9  22027867.126 6         0.000 6      1956.492 6        37.977 6
G16  20502530.212 9 107741503.144 9       586.721 9        55.974 9  20502529.385 6         0.000 6       457.186 6        37.977 6
G26  20640979.072 9 108469054.934 9     -1455.318 9        55.879 9  20640981.883 6         0.000 6     -1134.014 6        37.977 6
G20  21967615.453 9 115440565.049 9      2586.893 9        55.306 9  21967615.788 6         0.000 6      2015.762 6        37.977 6
> 2019 07 03 12 00 12.0000000  0  8       0.000000000000
G07  25366963.591 9 133304247.128 9      2208.196 9        54.125 9  25366964.272 6         0.000 6      1720.673 6        37.977 6
G10  23841303.319 9 125286839.377 9      3535.750 9        54.658 9  23841307.077 6         0.000 6      2755.133 6        37.977 6
G21  21159629.953 9 111194585.264 9     -1233.968 9        55.714 9  21159629.237 6         0.000 6      -961.534 6        37.977 6
G29  24271514.551 9 127547613.938 9     -3115.981 9        54.485 9  24271516.096 6         0.000 6     -2428.040 6        37.977 6
G27  22027387.412 9 115754674.999 9      2510.595 9        55.365 9  22027389.353 6         0.000 6      1956.309 6        37.977 6
G16  20502418.621 9 107740916.729 9       586.107 9        55.974 9  20502417.794 6         0.000 6       456.707 6        37.977 6
G26  20641256.065 9 108470510.538 9     -1455.894 9        55.879 9  20641258.876 6         0.000 6     -1134.463 6        37.977 6
G20  21967123.226 9 115437978.380 9      2586.454 9        55.306 9  21967123.560 6         0.000 6      2015.420 6        37.977 6
> 2019 07 03 12 00 13.0000000  0  8       0.000000000000
G07  25366543.428 9 133302039.164 9      2207.740 9        54.125 9  25366544.109 6         0.000 6      1720.318 6        37.977 6
G10  23840630.501 9 125283303.704 9      3535.618 9        54.658 9  23840634.258 6         0.000 6      2755.030 6        37.977 6
G21  21159864.804 9 111195819.413 9     -1234.332 9        55.714 9  21159864.088 6         0.000 6      -961.817 6        37.977 6
G29  24272107.511 9 127550729.952 9     -3116.068 9        54.485 9  24272109.056 6         0.000 6     -2428.107 6        37.977 6
G27  22026909.684 9 115752164.524 9      2510.360 9        55.365 9  22026911.625 6         0.000 6      1956.125 6        37.977 6
G16  20502307.147 9 107740330.929 9       585.493 9        55.974 9  20502306.320 6         0.000 6       456.228 6        37.977 6
G26  20641533.167 9 108471966.719 9     -1456.471 9        55.878 9  20641535.978 6         0.000 6     -1134.913 6        37.977 6
G20  21966631.082 9 115435392.150 9      2586.015 9        55.307 9  21966631.416 6         0.000 6      2015.078 6        37.977 6
> 2019 07 03 12 00 14.0000000  0  8       0.000000000000
G07  25366123.353 9 133299831.658 9      2207.285 9        54.125 9  25366124.034 6         0.000 6      1719.963 6        37.977 6
G10  23839957.707 9 125279768.158 9      3535.486 9        54.658 9  23839961.464 6         0.000 6      2754.927 6        37.977 6
G21  21160099.724 9 111197053.924 9     -1234.695 9        55.714 9  21160099.007 6         0.000 6      -962.100 6        37.977 6
G29  24272700.487 9 127553846.053 9     -3116.154 9        54.485 9  24272702.033 6         0.000 6     -2428.175 6        37.977 6
G27  22026432.000 9 115749654.282 9      2510.125 9        55.366 9  22026433.941 6         0.000 6      1955.942 6        37.977 6
G16  20502195.789 9 107739745.740 9       584.879 9        55.974 9  20502194.963 6         0.000 6       455.750 6        37.977 6
G26  20641810.378 9 108473423.472 9     -1457.047 9        55.878 9  20641813.189 6         0.000 6     -1135.362 6        37.977 6
G20  21966139.020 9 115432806.354 9      2585.576 9        55.307 9  21966139.354 6         0.000 6      2014.736 6        37.977 6
> 2019 07 03 12 00 15.0000000  0  8       0.000000000000
G07  25365703.364 9 133297624.604 9      2206.829 9        54.125 9  25365704.044 6         0.000 6      1719.608 6        37.977 6
G10  23839284.939 9 125276232.749 9      3535.353 9        54.658 9  23839288.695 6         0.000 6      2754.824 6        37.977 6
G21  21160334.713 9 111198288.800 9     -1235.058 9        55.714 9  21160333.997 6         0.000 6      -962.383 6        37.977 6
G29  24273293.480 9 127556962.240 9     -3116.241 9        54.484 9  24273295.027 6         0.000 6     -2428.242 6        37.977 6
G27  22025954.362 9 115747144.278 9      2509.890 9        55.366 9  22025956.302 6         0.000 6      1955.759 6        37.977 6
G16  20502084.549 9 107739161.168 9       584.265 9        55.975 9  20502083.722 6         0.000 6       455.271 6        37.977 6
G26  20642087.700 9 108474880.805 9     -1457.623 9        55.878 9  20642090.511 6         0.000 6     -1135.811 6        37.977 6
G20  21965647.043 9 115430221.002 9      2585.138 9        55.307 9  21965647.377 6         0.000 6      2014.394 6        37.977 6
> 2019 07 03 12 00 16.0000000  0  8       0.000000000000
G07  25365283.463 9 133295418.010 9      2206.373 9        54.125 9  25365284.142 6         0.000 6      1719.253 6        37.977 6
G10  23838612.195 9 125272697.468 9      3535.221 9        54.659 9  23838615.951 6         0.000 6      2754.720 6        37.977 6
G21  21160569.771 9 111199524.037 9     -1235.422 9        55.713 9  21160569.055 6         0.000 6      -962.667 6        37.977 6
G29  24273886.489 9 127560078.514 9     -3116.327 9        54.484 9  24273888.036 6         0.000 6     -2428.310 6        37.977 6
G27  22025476.768 9 115744634.506 9      2509.655 9        55.366 9  22025478.708 6         0.000 6      1955.576 6        37.977 6
G16  20501973.425 9 107738577.207 9       583.650 9        55.975 9  20501972.598 6         0.000 6       454.793 6        37.977 6
G26  20642365.130 9 108476338.710 9     -1458.200 9        55.878 9  20642367.942 6         0.000 6     -1136.260 6        37.977 6
G20  21965155.149 9 115427636.084 9      2584.699 9        55.307 9  21965155.482 6         0.000 6      2014.052 6        37.977 6
> 2019 07 03 12 00 17.0000000  0  8       0.000000000000
G07  25364863.647 9 133293211.868 9      2205.917 9        54.125 9  25364864.327 6         0.000 6      1718.898 6        37.977 6
G10  23837939.478 9 125269162.324 9      3535.088 9        54.659 9  23837943.232 6         0.000 6      2754.617 6        37.977 6
G21  21160804.898 9 111200759.640 9     -1235.785 9        55.713 9  21160804.182 6         0.000 6      -962.950 6        37.977 6
G29  24274479.515 9 127563194.875 9     -3116.414 9        54.484 9  24274481.062 6         0.000 6     -2428.377 6        37.977 6
G27  22024999.219 9 115742124.972 9      2509.419 9        55.366 9  22025001.159 6         0.000 6      1955.392 6        37.977 6
G16  20501862.418 9 107737993.864 9       583.036 9        55.975 9  20501861.592 6         0.000 6       454.314 6        37.977 6
G26  20642642.671 9 108477797.196 9     -1458.776 9        55.878 9  20642645.483 6         0.000 6     -1136.709 6        37.977 6
G20  21964663.339 9 115425051.610 9      2584.259 9        55.307 9  21964663.672 6         0.000 6      2013.710 6        37.977 6
> 2019 07 03 12 00 18.0000000  0  8       0.000000000000
G07  25364443.919 9 133291006.188 9      2205.462 9        54.126 9  25364444.599 6         0.000 6      1718.542 6        37.977 6
G10  23837266.784 9 125265627.306 9      3534.956 9        54.659 9  23837270.538 6         0.000 6      2754.514 6        37.977 6
G21  21161040.094 9 111201995.601 9     -1236.148 9        55.713 9  21161039.378 6         0.000 6      -963.233 6        37.977 6
G29  24275072.556 9 127566311.316 9     -3116.500 9        54.484 9  24275074.104 6         0.000 6     -2428.444 6        37.977 6
G27  22024521.715 9 115739615.675 9      2509.184 9        55.366 9  22024523.655 6         0.000 6      1955.209 6        37.977 6
G16  20501751.528 9 107737411.134 9       582.422 9        55.975 9  20501750.702 6         0.000 6       453.835 6        37.977 6
G26  20642920.321 9 108479256.254 9     -1459.352 9        55.878 9  20642923.133 6         0.000 6     -1137.158 6        37.977 6
G20  21964171.611 9 115422467.567 9      2583.820 9        55.308 9  21964171.944 6         0.000 6      2013.368 6        37.977 6
> 2019 07 03 12 00 19.0000000  0  8       0.000000000000
G07  25364024.278 9 133288800.958 9      2205.005 9        54.126 9  25364024.957 6         0.000 6      1718.187 6        37.977 6
G10  23836594.117 9 125262092.428 9      3534.823 9        54.659 9  23836597.870 6         0.000 6      2754.410 6        37.977 6
G21  21161275.360 9 111203231.930 9     -1236.511 9        55.713 9  21161274.644 6         0.000 6      -963.516 6        37.977 6
G29  24275665.614 9 127569427.850 9     -3116.587 9        54.483 9  24275667.163 6         0.000 6     -2428.512 6        37.977 6
G27  22024044.255 9 115737106.611 9      2508.949 9        55.367 9  22024046.195 6         0.000 6      1955.026 6        37.977 6
G16  20501640.756 9 107736829.019 9       581.807 9        55.975 9  20501639.929 6         0.000 6       453.356 6        37.977 6
G26  20643198.081 9 108480715.892 9     -1459.929 9        55.878 9  20643200.893 6         0.000 6     -1137.607 6        37.977 6
G20  21963679.968 9 115419883.971 9      2583.381 9        55.308 9  21963680.301 6         0.000 6      2013.025 6        37.977 6
> 2019 07 03 12 00 20.0000000  0  8       0.000000000000
G07  25363604.723 9 133286596.187 9      2204.549 9        54.126 9  25363605.402 6         0.000 6      1717.832 6        37.977 6
G10  23835921.474 9 125258557.678 9      3534.690 9        54.660 9  23835925.227 6         0.000 6      2754.307 6        37.977 6
G21  21161510.694 9 111204468.620 9     -1236.875 9        55.713 9  21161509.978 6         0.000 6      -963.799 6        37.977 6
G29  24276258.689 9 127572544.470 9     -3116.673 9        54.483 9  24276260.239 6         0.000 6     -2428.579 6        37.977 6
G27  22023566.840 9 115734597.780 9      2508.714 9        55.367 9  22023568.780 6         0.000 6      1954.843 6        37.977 6
G16  20501530.099 9 107736247.516 9       581.193 9        55.975 9  20501529.273 6         0.000 6       452.878 6        37.977 6
G26  20643475.950 9 108482176.102 9     -1460.505 9        55.878 9  20643478.762 6         0.000 6     -1138.056 6        37.977 6
G20  21963188.408 9 115417300.810 9      2582.942 9        55.308 9  21963188.741 6         0.000 6      2012.683 6        37.977 6
> 2019 07 03 12 00 21.0000000  0  8       0.000000000000
G07  25363185.254 9 133284391.869 9      2204.093 9        54.126 9  25363185.933 6         0.000 6      1717.476 6        37.977 6
G10  23835248.858 9 125255023.065 9      3534.557 9        54.660 9  23835252.610 6         0.000 6      2754.203 6        37.977 6
G21  21161746.098 9 111205705.676 9     -1237.238 9        55.713 9  21161745.382 6         0.000 6      -964.081 6        37.977 6
G29  24276851.781 9 127575661.177 9     -3116.760 9        54.483 9  24276853.331 6         0.000 6     -2428.647 6        37.977 6
G27  22023089.470 9 115732089.187 9      2508.478 9        55.367 9  22023091.410 6         0.000 6      1954.659 6        37.977 6
G16  20501419.560 9 107735666.630 9       580.578 9        55.975 9  20501418.734 6         0.000 6       452.399 6        37.977 6
G26  20643753.930 9 108483636.893 9     -1461.081 9        55.878 9  20643756.742 6         0.000 6     -1138.505 6        37.977 6
G20  21962696.933 9 115414718.093 9      2582.502 9        55.308 9  21962697.265 6         0.000 6      2012.340 6        37.977 6
> 2019 07 03 12 00 22.0000000  0  8       0.000000000000
G07  25362765.873 9 133282188.008 9      2203.637 9        54.126 9  25362766.551 6         0.000 6      1717.121 6        37.977 6
G10  23834576.267 9 125251488.586 9      3534.424 9        54.660 9  23834580.018 6         0.000 6      2754.099 6        37.977 6
G21  21161981.571 9 111206943.094 9     -1237.601 9        55.713 9  21161980.855 6         0.000 6      -964.364 6        37.977 6
G29  24277444.889 9 127578777.970 9     -3116.846 9        54.483 9  24277446.440 6         0.000 6     -2428.714 6        37.977 6
G27  22022612.145 9 115729580.829 9      2508.243 9        55.367 9  22022614.084 6         0.000 6      1954.476 6        37.977 6
G16  20501309.139 9 107735086.359 9       579.964 9        55.975 9  20501308.312 6         0.000 6       451.920 6        37.977 6
G26  20644032.019 9 108485098.261 9     -1461.657 9        55.877 9  20644034.831 6         0.000 6     -1138.954 6        37.977 6
G20  21962205.541 9 115412135.816 9      2582.062 9        55.308 9  21962205.872 6         0.000 6      2011.998 6        37.977 6
> 2019 07 03 12 00 23.0000000  0  8       0.000000000000
G07  25362346.579 9 133279984.605 9      2203.181 9        54.126 9  25362347.257 6         0.000 6      1716.765 6        37.977 6
G10  23833903.700 9 125247954.235 9      3534.290 9        54.660 9  23833907.451 6         0.000 6      2753.995 6        37.977 6
G21  21162217.113 9 111208180.873 9     -1237.964 9        55.713 9  21162216.397 6         0.000 6      -964.647 6        37.977 6
G29  24278038.013 9 127581894.849 9     -3116.933 9        54.483 9  24278039.565 6         0.000 6     -2428.781 6        37.977 6
G27  22022134.864 9 115727072.705 9      2508.008 9        55.367 9  22022136.803 6         0.000 6      1954.292 6        37.977 6
G16  20501198.833 9 107734506.700 9       579.349 9        55.975 9  20501198.006 6         0.000 6       451.441 6        37.977 6
G26  20644310.217 9 108486560.199 9     -1462.233 9        55.877 9  20644313.030 6         0.000 6     -1139.403 6        37.977 6
G20  21961714.232 9 115409553.973 9      2581.623 9        55.309 9  21961714.563 6         0.000 6      2011.655 6        37.977 6
> 2019 07 03 12 00 24.0000000  0  8       0.000000000000
G07  25361927.371 9 133277781.656 9      2202.724 9        54.126 9  25361928.049 6         0.000 6      1716.409 6        37.977 6
G10  23833231.160 9 125244420.022 9      3534.157 9        54.661 9  23833234.910 6         0.000 6      2753.891 6        37.977 6
G21  21162452.724 9 111209419.017 9     -1238.326 9        55.713 9  21162452.008 6         0.000 6      -964.930 6        37.977 6
G29  24278631.154 9 127585011.815 9     -3117.019 9        54.482 9  24278632.706 6         0.000 6     -2428.849 6        37.977 6
G27  22021657.629 9 115724564.818 9      2507.772 9        55.368 9  22021659.568 6         0.000 6      1954.109 6        37.977 6
G16  20501088.645 9 107733927.658 9       578.735 9        55.975 9  20501087.818 6         0.000 6       450.962 6        37.977 6
G26  20644588.526 9 108488022.719 9     -1462.809 9        55.877 9  20644591.338 6         0.000 6     -1139.852 6        37.977 6
G20  21961223.007 9 115406972.575 9      2581.183 9        55.309 9  21961223.338 6         0.000 6      2011.313 6        37.977 6
> 2019 07 03 12 00 25.0000000  0  8       0.000000000000
G07  25361508.250 9 133275579.166 9      2202.268 9        54.127 9  25361508.928 6         0.000 6      1716.054 6        37.977 6
G10  23832558.644 9 125240885.938 9      3534.024 9        54.661 9  23832562.393 6         0.000 6      2753.787 6        37.977 6
G21  21162688.404 9 111210657.522 9     -1238.689 9        55.713 9  21162687.688 6         0.000 6      -965.213 6        37.977 6
G29  24279224.311 9 127588128.867 9     -3117.106 9        54.482 9  24279225.864 6         0.000 6     -2428.916 6        37.977 6
G27  22021180.438 9 115722057.164 9      2507.537 9        55.368 9  22021182.376 6         0.000 6      1953.925 6        37.977 6
G16  20500978.573 9 107733349.228 9       578.120 9        55.975 9  20500977.747 6         0.000 6       450.483 6        37.977 6
G26  20644866.943 9 108489485.809 9     -1463.385 9        55.877 9  20644869.755 6         0.000 6     -1140.301 6        37.977 6
G20  21960731.865 9 115404391.613 9      2580.743 9        55.309 9  21960732.196 6         0.000 6      2010.970 6        37.977 6
> 2019 07 03 12 00 26.0000000  0  8       0.000000000000
G07  25361089.216 9 133273377.133 9      2201.811 9        54.127 9  25361089.894 6         0.000 6      1715.698 6        37.977 6
G10  23831886.154 9 125237351.989 9      3533.890 9        54.661 9  23831889.902 6         0.000 6      2753.683 6        37.977 6
G21  21162924.153 9 111211896.390 9     -1239.052 9        55.713 9  21162923.437 6         0.000 6      -965.495 6        37.977 6
G29  24279817.484 9 127591246.001 9     -3117.192 9        54.482 9  24279819.037 6         0.000 6     -2428.983 6        37.977 6
G27  22020703.292 9 115719549.752 9      2507.301 9        55.368 9  22020705.231 6         0.000 6      1953.742 6        37.977 6
G16  20500868.619 9 107732771.416 9       577.505 9        55.975 9  20500867.793 6         0.000 6       450.004 6        37.977 6
G26  20645145.470 9 108490949.480 9     -1463.961 9        55.877 9  20645148.283 6         0.000 6     -1140.749 6        37.977 6
G20  21960240.807 9 115401811.091 9      2580.303 9        55.309 9  21960241.138 6         0.000 6      2010.627 6        37.977 6
> 2019 07 03 12 00 27.0000000  0  8       0.000000000000
G07  25360670.270 9 133271175.557 9      2201.355 9        54.127 9  25360670.947 6         0.000 6      1715.342 6        37.977 6
G10  23831213.689 9 125233818.172 9      3533.756 9        54.661 9  23831217.437 6         0.000 6      2753.579 6        37.977 6
G21  21163159.970 9 111213135.620 9     -1239.415 9        55.712 9  21163159.255 6         0.000 6      -965.778 6        37.977 6
G29  24280410.674 9 127594363.226 9     -3117.278 9        54.482 9  24280412.228 6         0.000 6     -2429.051 6        37.977 6
G27  22020226.191 9 115717042.570 9      2507.065 9        55.368 9  22020228.129 6         0.000 6      1953.558 6        37.977 6
G16  20500758.782 9 107732194.215 9       576.890 9        55.975 9  20500757.955 6         0.000 6       449.525 6        37.977 6
G26  20645424.107 9 108492413.723 9     -1464.537 9        55.877 9  20645426.920 6         0.000 6     -1141.198 6        37.977 6
G20  21959749.833 9 115399231.008 9      2579.863 9        55.309 9  21959750.164 6         0.000 6      2010.284 6        37.977 6
> 2019 07 03 12 00 28.0000000  0  8       0.000000000000
G07  25360251.409 9 133268974.434 9      2200.898 9        54.127 9  25360252.086 6         0.000 6      1714.986 6        37.977 6
G10  23830541.250 9 125230284.493 9      3533.623 9        54.662 9  23830544.997 6         0.000 6      2753.475 6        37.977 6
G21  21163395.858 9 111214375.215 9     -1239.777 9        55.712 9  21163395.142 6         0.000 6      -966.060 6        37.977 6
G29  24281003.881 9 127597480.537 9     -3117.365 9        54.482 9  24281005.435 6         0.000 6     -2429.118 6        37.977 6
G27  22019749.135 9 115714535.625 9      2506.830 9        55.368 9  22019751.073 6         0.000 6      1953.375 6        37.977 6
G16  20500649.062 9 107731617.632 9       576.276 9        55.975 9  20500648.235 6         0.000 6       449.046 6        37.977 6
G26  20645702.854 9 108493878.546 9     -1465.113 9        55.877 9  20645705.667 6         0.000 6     -1141.647 6        37.977 6
G20  21959258.943 9 115396651.370 9      2579.423 9        55.310 9  21959259.274 6         0.000 6      2009.941 6        37.977 6
> 2019 07 03 12 00 29.0000000  0  8       0.000000000000
G07  25359832.636 9 133266773.770 9      2200.441 9        54.127 9  25359833.313 6         0.000 6      1714.631 6        37.977 6
G10  23829868.836 9 125226750.944 9      3533.489 9        54.662 9  23829872.583 6         0.000 6      2753.371 6        37.977 6
G21  21163631.814 9 111215615.171 9     -1240.140 9        55.712 9  21163631.098 6         0.000 6      -966.343 6        37.977 6
G29  24281597.103 9 127600597.934 9     -3117.451 9        54.481 9  24281598.659 6         0.000 6     -2429.185 6        37.977 6
G27  22019272.123 9 115712028.914 9      2506.594 9        55.368 9  22019274.061 6         0.000 6      1953.191 6        37.977 6
G16  20500539.458 9 107731041.661 9       575.661 9        55.975 9  20500538.631 6         0.000 6       448.567 6        37.977 6
G26  20645981.709 9 108495343.941 9     -1465.689 9        55.877 9  20645984.523 6         0.000 6     -1142.096 6        37.977 6
G20  21958768.137 9 115394072.167 9      2578.983 9        55.310 9  21958768.466 6         0.000 6      2009.598 6        37.977 6
> 2019 07 03 12 00 30.0000000  0  8       0.000000000000
G07  25359413.950 9 133264573.561 9      2199.984 9        54.127 9  25359414.626 6         0.000 6      1714.274 6        37.977 6
G10  23829196.448 9 125223217.533 9      3533.355 9        54.662 9  23829200.194 6         0.000 6      2753.266 6        37.977 6
G21  21163867.839 9 111216855.491 9     -1240.503 9        55.712 9  21163867.123 6         0.000 6      -966.626 6        37.977 6
G29  24282190.343 9 127603715.418 9     -3117.537 9        54.481 9  24282191.899 6         0.000 6     -2429.252 6        37.977 6
G27  22018795.156 9 115709522.440 9      2506.358 9        55.369 9  22018797.094 6         0.000 6      1953.007 6        37.977 6
G16  20500429.972 9 107730466.307 9       575.046 9        55.975 9  20500429.145 6         0.000 6       448.088 6        37.977 6
G26  20646260.676 9 108496809.916 9     -1466.265 9        55.877 9  20646263.489 6         0.000 6     -1142.544 6        37.977 6
G20  21958277.414 9 115391493.410 9      2578.542 9        55.310 9  21958277.744 6         0.000 6      2009.255 6        37.977 6
> 2019 07 03 12 00 31.0000000  0  8       0.000000000000
G07  25358995.350 9 133262373.812 9      2199.528 9        54.127 9  25358996.027 6         0.000 6      1713.918 6        37.977 6
G10  23828524.085 9 125219684.252 9      3533.221 9        54.662 9  23828527.830 6         0.000 6      2753.162 6        37.977 6
G21  21164103.933 9 111218096.172 9     -1240.865 9        55.712 9  21164103.217 6         0.000 6      -966.908 6        37.977 6
G29  24282783.599 9 127606832.988 9     -3117.623 9        54.481 9  24282785.155 6         0.000 6     -2429.319 6        37.977 6
G27  22018318.234 9 115707016.200 9      2506.123 9        55.369 9  22018320.172 6         0.000 6      1952.824 6        37.977 6
G16  20500320.602 9 107729891.566 9       574.431 9        55.975 9  20500319.775 6         0.000 6       447.609 6        37.977 6
G26  20646539.750 9 108498276.462 9     -1466.841 9        55.876 9  20646542.564 6         0.000 6     -1142.993 6        37.977 6
G20  21957786.775 9 115388915.088 9      2578.102 9        55.310 9  21957787.105 6         0.000 6      2008.912 6        37.977 6
> 2019 07 03 12 00 32.0000000  0  8       0.000000000000
G07  25358576.838 9 133260174.516 9      2199.070 9        54.128 9  25358577.514 6         0.000 6      1713.562 6        37.977 6
G10  23827851.748 9 125216151.109 9      3533.087 9        54.663 9  23827855.493 6         0.000 6      2753.057 6        37.977 6
G21  21164340.096 9 111219337.218 9     -1241.227 9        55.712 9  21164339.380 6         0.000 6      -967.190 6        37.977 6
G29  24283376.871 9 127609950.645 9     -3117.710 9        54.481 9  24283378.428 6         0.000 6     -2429.387 6        37.977 6
G27  22017841.357 9 115704510.198 9      2505.887 9        55.369 9  22017843.295 6         0.000 6      1952.640 6        37.977 6
G16  20500211.350 9 107729317.442 9       573.816 9        55.975 9  20500210.523 6         0.000 6       447.129 6        37.977 6
G26  20646818.936 9 108499743.589 9     -1467.416 9        55.876 9  20646821.749 6         0.000 6     -1143.442 6        37.977 6
G20  21957296.221 9 115386337.211 9      2577.661 9        55.310 9  21957296.550 6         0.000 6      2008.568 6        37.977 6
> 2019 07 03 12 00 33.0000000  0  8       0.000000000000
G07  25358158.413 9 133257975.681 9      2198.613 9        54.128 9  25358159.089 6         0.000 6      1713.206 6        37.977 6
G10  23827179.436 9 125212618.098 9      3532.952 9        54.663 9  23827183.180 6         0.000 6      2752.953 6        37.977 6
G21  21164576.328 9 111220578.623 9     -1241.590 9        55.712 9  21164575.612 6         0.000 6      -967.473 6        37.977 6
G29  24283970.158 9 127613068.382 9     -3117.796 9        54.481 9  24283971.716 6         0.000 6     -2429.454 6        37.977 6
G27  22017364.526 9 115702004.435 9      2505.651 9        55.369 9  22017366.463 6         0.000 6      1952.456 6        37.977 6
G16  20500102.215 9 107728743.935 9       573.201 9        55.975 9  20500101.388 6         0.000 6       446.650 6        37.977 6
G26  20647098.230 9 108501211.291 9     -1467.992 9        55.876 9  20647101.044 6         0.000 6     -1143.890 6        37.977 6
G20  21956805.749 9 115383759.771 9      2577.221 9        55.311 9  21956806.078 6         0.000 6      2008.225 6        37.977 6
> 2019 07 03 12 00 34.0000000  0  8       0.000000000000
G07  25357740.074 9 133255777.302 9      2198.156 9        54.128 9  25357740.750 6         0.000 6      1712.850 6        37.977 6
G10  23826507.150 9 125209085.219 9      3532.818 9        54.663 9  23826510.893 6         0.000 6      2752.848 6        37.977 6
G21  21164812.628 9 111221820.391 9     -1241.952 9        55.712 9  21164811.913 6         0.000 6      -967.755 6        37.977 6
G29  24284563.463 9 127616186.211 9     -3117.882 9        54.480 9  24284565.022 6         0.000 6     -2429.521 6        37.977 6
G27  22016887.738 9 115699498.903 9      2505.415 9        55.369 9  22016889.676 6         0.000 6      1952.272 6        37.977 6
G16  20499993.197 9 107728171.038 9       572.586 9        55.975 9  20499992.370 6         0.000 6       446.171 6        37.977 6
G26  20647377.634 9 108502679.565 9     -1468.568 9        55.876 9  20647380.448 6         0.000 6     -1144.339 6        37.977 6
G20  21956315.362 9 115381182.771 9      2576.780 9        55.311 9  21956315.690 6         0.000 6      2007.882 6        37.977 6
> 2019 07 03 12 00 35.0000000  0  8       0.000000000000
G07  25357321.823 9 133253579.378 9      2197.699 9        54.128 9  25357322.498 6         0.000 6      1712.494 6        37.977 6
G10  23825834.890 9 125205552.479 9      3532.683 9        54.663 9  23825838.633 6         0.000 6      2752.743 6        37.977 6
G21  21165048.999 9 111223062.524 9     -1242.314 9        55.712 9  21165048.283 6         0.000 6      -968.037 6        37.977 6
G29  24285156.785 9 127619304.126 9     -3117.968 9        54.480 9  24285158.344 6         0.000 6     -2429.588 6        37.977 6
G27  22016410.996 9 115696993.608 9      2505.180 9        55.370 9  22016412.933 6         0.000 6      1952.089 6        37.977 6
G16  20499884.296 9 107727598.759 9       571.971 9        55.975 9  20499883.469 6         0.000 6       445.692 6        37.977 6
G26  20647657.148 9 108504148.419 9     -1469.144 9        55.876 9  20647659.962 6         0.000 6     -1144.788 6        37.977 6
G20  21955825.059 9 115378606.217 9      2576.339 9        55.311 9  21955825.387 6         0.000 6      2007.538 6        37.977 6
> 2019 07 03 12 00 36.0000000  0  8       0.000000000000
G07  25356903.659 9 133251381.914 9      2197.242 9        54.128 9  25356904.334 6         0.000 6      1712.137 6        37.977 6
G10  23825162.654 9 125202019.869 9      3532.549 9        54.664 9  23825166.397 6         0.000 6      2752.638 6        37.977 6
G21  21165285.437 9 111224305.016 9     -1242.677 9        55.712 9  21165284.722 6         0.000 6      -968.320 6        37.977 6
G29  24285750.123 9 127622422.127 9     -3118.054 9        54.480 9  24285751.682 6         0.000 6     -2429.655 6        37.977 6
G27  22015934.298 9 115694488.547 9      2504.944 9        55.370 9  22015936.235 6         0.000 6      1951.905 6        37.977 6
G16  20499775.511 9 107727027.093 9       571.356 9        55.975 9  20499774.684 6         0.000 6       445.212 6        37.977 6
G26  20647936.770 9 108505617.844 9     -1469.719 9        55.876 9  20647939.584 6         0.000 6     -1145.236 6        37.977 6
G20  21955334.839 9 115376030.098 9      2575.898 9        55.311 9  21955335.167 6         0.000 6      2007.195 6        37.977 6
> 2019 07 03 12 00 37.0000000  0  8       0.000000000000
G07  25356485.581 9 133249184.905 9      2196.784 9        54.128 9  25356486.256 6         0.000 6      1711.781 6        37.977 6
G10  23824490.446 9 125198487.399 9      3532.414 9        54.664 9  23824494.187 6         0.000 6      2752.533 6        37.977 6
G21  21165521.945 9 111225547.873 9     -1243.039 9        55.711 9  21165521.230 6         0.000 6      -968.602 6        37.977 6
G29  24286343.477 9 127625540.214 9     -3118.140 9        54.480 9  24286345.037 6         0.000 6     -2429.722 6        37.977 6
G27  22015457.646 9 115691983.724 9      2504.708 9        55.370 9  22015459.583 6         0.000 6      1951.721 6        37.977 6
G16  20499666.844 9 107726456.044 9       570.741 9        55.976 9  20499666.017 6         0.000 6       444.733 6        37.977 6
G26  20648216.504 9 108507087.849 9     -1470.295 9        55.876 9  20648219.318 6         0.000 6     -1145.685 6        37.977 6
G20  21954844.704 9 115373454.425 9      2575.457 9        55.311 9  21954845.031 6         0.000 6      2006.851 6        37.977 6
> 2019 07 03 12 00 38.0000000  0  8       0.000000000000
G07  25356067.591 9 133246988.356 9      2196.327 9        54.128 9  25356068.266 6         0.000 6      1711.424 6        37.977 6
G10  23823818.262 9 125194955.058 9      3532.279 9        54.664 9  23823822.002 6         0.000 6      2752.428 6        37.977 6
G21  21165758.521 9 111226791.090 9     -1243.401 9        55.711 9  21165757.806 6         0.000 6      -968.884 6        37.977 6
G29  24286936.847 9 127628658.387 9     -3118.226 9        54.479 9  24286938.408 6         0.000 6     -2429.789 6        37.977 6
G27  22014981.038 9 115689479.135 9      2504.472 9        55.370 9  22014982.975 6         0.000 6      1951.537 6        37.977 6
G16  20499558.294 9 107725885.608 9       570.126 9        55.976 9  20499557.467 6         0.000 6       444.254 6        37.977 6
G26  20648496.345 9 108508558.425 9     -1470.870 9        55.876 9  20648499.159 6         0.000 6     -1146.133 6        37.977 6
G20  21954354.652 9 115370879.189 9      2575.016 9        55.311 9  21954354.979 6         0.000 6      2006.507 6        37.977 6
> 2019 07 03 12 00 39.0000000  0  8       0.000000000000
G07  25355649.687 9 133244792.261 9      2195.869 9        54.129 9  25355650.362 6         0.000 6      1711.068 6        37.977 6
G10  23823146.104 9 125191422.857 9      3532.144 9        54.664 9  23823149.844 6         0.000 6      2752.323 6        37.977 6
G21  21165995.167 9 111228034.671 9     -1243.763 9        55.711 9  21165994.452 6         0.000 6      -969.166 6        37.977 6
G29  24287530.234 9 127631776.646 9     -3118.312 9        54.479 9  24287531.796 6         0.000 6     -2429.856 6        37.977 6
G27  22014504.475 9 115686974.785 9      2504.236 9        55.370 9  22014506.412 6         0.000 6      1951.353 6        37.977 6
G16  20499449.861 9 107725315.790 9       569.510 9        55.976 9  20499449.034 6         0.000 6       443.774 6        37.977 6
G26  20648776.297 9 108510029.582 9     -1471.446 9        55.875 9  20648779.112 6         0.000 6     -1146.582 6        37.977 6
G20  21953864.684 9 115368304.398 9      2574.575 9        55.312 9  21953865.012 6         0.000 6      2006.163 6        37.977 6
> 2019 07 03 12 00 40.0000000  0  8       0.000000000000
G07  25355231.871 9 133242596.627 9      2195.412 9        54.129 9  25355232.546 6         0.000 6      1710.711 6        37.977 6
G10  23822473.971 9 125187890.787 9      3532.009 9        54.665 9  23822477.711 6         0.000 6      2752.218 6        37.977 6
G21  21166231.881 9 111229278.612 9     -1244.125 9        55.711 9  21166231.166 6         0.000 6      -969.448 6        37.977 6
G29  24288123.638 9 127634894.991 9     -3118.398 9        54.479 9  24288125.200 6         0.000 6     -2429.923 6        37.977 6
G27  22014027.957 9 115684470.668 9      2504.000 9        55.371 9  22014029.894 6         0.000 6      1951.169 6        37.977 6
G16  20499341.544 9 107724746.584 9       568.895 9        55.976 9  20499340.718 6         0.000 6       443.295 6        37.977 6
G26  20649056.358 9 108511501.309 9     -1472.022 9        55.875 9  20649059.172 6         0.000 6     -1147.030 6        37.977 6
G20  21953374.800 9 115365730.044 9      2574.134 9        55.312 9  21953375.127 6         0.000 6      2005.819 6        37.977 6
> 2019 07 03 12 00 41.0000000  0  8       0.000000000000
G07  25354814.142 9 133240401.451 9      2194.954 9        54.129 9  25354814.817 6         0.000 6      1710.355 6        37.977 6
G10  23821801.865 9 125184358.853 9      3531.874 9        54.665 9  23821805.604 6         0.000 6      2752.112 6        37.977 6
G21  21166468.665 9 111230522.915 9     -1244.487 9        55.711 9  21166467.949 6         0.000 6      -969.730 6        37.977 6
G29  24288717.056 9 127638013.418 9     -3118.485 9        54.479 9  24288718.619 6         0.000 6     -2429.990 6        37.977 6
G27  22013551.485 9 115681966.793 9      2503.764 9        55.371 9  22013553.421 6         0.000 6      1950.985 6        37.977 6
G16  20499233.346 9 107724177.998 9       568.280 9        55.976 9  20499232.519 6         0.000 6       442.816 6        37.977 6
G26  20649336.529 9 108512973.616 9     -1472.597 9        55.875 9  20649339.344 6         0.000 6     -1147.479 6        37.977 6
G20  21952885.000 9 115363156.133 9      2573.692 9        55.312 9  21952885.327 6         0.000 6      2005.476 6        37.977 6
> 2019 07 03 12 00 42.0000000  0  8       0.000000000000
G07  25354396.500 9 133238206.729 9      2194.496 9        54.129 9  25354397.174 6         0.000 6      1709.998 6        37.977 6
G10  23821129.784 9 125180827.058 9      3531.739 9        54.665 9  23821133.522 6         0.000 6      2752.007 6        37.977 6
G21  21166705.517 9 111231767.582 9     -1244.849 9        55.711 9  21166704.802 6         0.000 6      -970.012 6        37.977 6
G29  24289310.492 9 127641131.935 9     -3118.570 9        54.479 9  24289312.056 6         0.000 6     -2430.057 6        37.977 6
G27  22013075.057 9 115679463.150 9      2503.527 9        55.371 9  22013076.993 6         0.000 6      1950.801 6        37.977 6
G16  20499125.265 9 107723610.026 9       567.665 9        55.976 9  20499124.438 6         0.000 6       442.336 6        37.977 6
G26  20649616.810 9 108514446.499 9     -1473.172 9        55.875 9  20649619.624 6         0.000 6     -1147.927 6        37.977 6
G20  21952395.285 9 115360582.666 9      2573.251 9        55.312 9  21952395.611 6         0.000 6      2005.131 6        37.977 6
> 2019 07 03 12 00 43.0000000  0  8       0.000000000000
G07  25353978.945 9 133236012.468 9      2194.038 9        54.129 9  25353979.619 6         0.000 6      1709.641 6        37.977 6
G10  23820457.729 9 125177295.393 9      3531.604 9        54.665 9  23820461.466 6         0.000 6      2751.902 6        37.977 6
G21  21166942.438 9 111233012.609 9     -1245.211 9        55.711 9  21166941.723 6         0.000 6      -970.294 6        37.977 6
G29  24289903.945 9 127644250.538 9     -3118.656 9        54.478 9  24289905.509 6         0.000 6     -2430.124 6        37.977 6
G27  22012598.674 9 115676959.741 9      2503.291 9        55.371 9  22012600.610 6         0.000 6      1950.617 6        37.977 6
G16  20499017.300 9 107723042.665 9       567.049 9        55.976 9  20499016.473 6         0.000 6       441.857 6        37.977 6
G26  20649897.199 9 108515919.953 9     -1473.748 9        55.875 9  20649900.014 6         0.000 6     -1148.375 6        37.977 6
G20  21951905.653 9 115358009.637 9      2572.809 9        55.312 9  21951905.979 6         0.000 6      2004.787 6        37.977 6
> 2019 07 03 12 00 44.0000000  0  8       0.000000000000
G07  25353561.477 9 133233818.663 9      2193.580 9        54.129 9  25353562.151 6         0.000 6      1709.284 6        37.977 6
G10  23819785.700 9 125173763.868 9      3531.468 9        54.666 9  23819789.437 6         0.000 6      2751.796 6        37.977 6
G21  21167179.428 9 111234257.999 9     -1245.572 9        55.711 9  21167178.713 6         0.000 6      -970.576 6        37.977 6
G29  24290497.414 9 127647369.227 9     -3118.742 9        54.478 9  24290498.978 6         0.000 6     -2430.191 6        37.977 6
G27  22012122.336 9 115674456.571 9      2503.055 9        55.371 9  22012124.272 6         0.000 6      1950.433 6        37.977 6
G16  20498909.452 9 107722475.924 9       566.434 9        55.976 9  20498908.625 6         0.000 6       441.377 6        37.977 6
G26  20650177.699 9 108517393.987 9     -1474.323 9        55.875 9  20650180.513 6         0.000 6     -1148.824 6        37.977 6
G20  21951416.106 9 115355437.053 9      2572.367 9        55.313 9  21951416.431 6         0.000 6      2004.443 6        37.977 6
> 2019 07 03 12 00 45.0000000  0  8       0.000000000000
G07  25353144.097 9 133231625.318 9      2193.122 9        54.129 9  25353144.770 6         0.000 6      1708.927 6        37.977 6
G10  23819113.696 9 125170232.474 9      3531.333 9        54.666 9  23819117.432 6         0.000 6      2751.690 6        37.977 6
G21  21167416.486 9 111235503.749 9     -1245.934 9        55.711 9  21167415.771 6         0.000 6      -970.858 6        37.977 6
G29  24291090.899 9 127650488.002 9     -3118.828 9        54.478 9  24291092.464 6         0.000 6     -2430.258 6        37.977 6
G27  22011646.043 9 115671953.635 9      2502.819 9        55.371 9  22011647.978 6         0.000 6      1950.249 6        37.977 6
G16  20498801.721 9 107721909.795 9       565.818 9        55.976 9  20498800.895 6         0.000 6       440.897 6        37.977 6
G26  20650458.307 9 108518868.591 9     -1474.899 9        55.875 9  20650461.122 6         0.000 6     -1149.272 6        37.977 6
G20  21950926.642 9 115352864.907 9      2571.926 9        55.313 9  21950926.967 6         0.000 6      2004.099 6        37.977 6
> 2019 07 03 12 00 46.0000000  0  8       0.000000000000
G07  25352726.803 9 133229432.428 9      2192.664 9        54.130 9  25352727.476 6         0.000 6      1708.570 6        37.977 6
G10  23818441.719 9 125166701.220 9      3531.197 9        54.666 9  23818445.454 6         0.000 6      2751.585 6        37.977 6
G21  21167653.614 9 111236749.864 9     -1246.296 9        55.711 9  21167652.899 6         0.000 6      -971.140 6        37.977 6
G29  24291684.400 9 127653606.864 9     -3118.914 9        54.478 9  24291685.966 6         0.000 6     -2430.325 6        37.977 6
G27  22011169.794 9 115669450.937 9      2502.582 9        55.372 9  22011171.730 6         0.000 6      1950.065 6        37.977 6
G16  20498694.108 9 107721344.284 9       565.203 9        55.976 9  20498693.282 6         0.000 6       440.418 6        37.977 6
G26  20650739.025 9 108520343.776 9     -1475.474 9        55.875 9  20650741.840 6         0.000 6     -1149.720 6        37.977 6
G20  21950437.263 9 115350293.207 9      2571.484 9        55.313 9  21950437.588 6         0.000 6      2003.755 6        37.977 6
> 2019 07 03 12 00 47.0000000  0  8       0.000000000000
G07  25352309.597 9 133227239.999 9      2192.206 9        54.130 9  25352310.270 6         0.000 6      1708.213 6        37.977 6
G10  23817769.766 9 125163170.097 9      3531.061 9        54.666 9  23817773.501 6         0.000 6      2751.479 6        37.977 6
G21  21167890.810 9 111237996.337 9     -1246.657 9        55.710 9  21167890.095 6         0.000 6      -971.421 6        37.977 6
G29  24292277.918 9 127656725.810 9     -3119.000 9        54.478 9  24292279.484 6         0.000 6     -2430.392 6        37.977 6
G27  22010693.591 9 115666948.473 9      2502.346 9        55.372 9  22010695.526 6         0.000 6      1949.881 6        37.977 6
G16  20498586.612 9 107720779.386 9       564.587 9        55.976 9  20498585.785 6         0.000 6       439.938 6        37.977 6
G26  20651019.853 9 108521819.531 9     -1476.049 9        55.875 9  20651022.668 6         0.000 6     -1150.169 6        37.977 6
G20  21949947.967 9 115347721.944 9      2571.042 9        55.313 9  21949948.292 6         0.000 6      2003.410 6        37.977 6
> 2019 07 03 12 00 48.0000000  0  8       0.000000000000
G07  25351892.478 9 133225048.026 9      2191.748 9        54.130 9  25351893.151 6         0.000 6      1707.856 6        37.977 6
G10  23817097.841 9 125159639.114 9      3530.925 9        54.667 9  23817101.575 6         0.000 6      2751.373 6        37.977 6
G21  21168128.076 9 111239243.174 9     -1247.019 9        55.710 9  21168127.361 6         0.000 6      -971.703 6        37.977 6
G29  24292871.452 9 127659844.843 9     -3119.086 9        54.477 9  24292873.019 6         0.000 6     -2430.459 6        37.977 6
G27  22010217.433 9 115664446.248 9      2502.110 9        55.372 9  22010219.368 6         0.000 6      1949.697 6        37.977 6
G16  20498479.233 9 107720215.107 9       563.972 9        55.976 9  20498478.406 6         0.000 6       439.458 6        37.977 6
G26  20651300.790 9 108523295.866 9     -1476.624 9        55.874 9  20651303.605 6         0.000 6     -1150.617 6        37.977 6
G20  21949458.756 9 115345151.128 9      2570.600 9        55.313 9  21949459.080 6         0.000 6      2003.066 6        37.977 6
> 2019 07 03 12 00 49.0000000  0  8       0.000000000000
G07  25351475.447 9 133222856.516 9      2191.290 9        54.130 9  25351476.119 6         0.000 6      1707.499 6        37.977 6
G10  23816425.940 9 125156108.261 9      3530.789 9        54.667 9  23816429.673 6         0.000 6      2751.267 6        37.977 6
G21  21168365.409 9 111240490.368 9     -1247.380 9        55.710 9  21168364.694 6         0.000 6      -971.985 6        37.977 6
G29  24293465.002 9 127662963.957 9     -3119.172 9        54.477 9  24293466.569 6         0.000 6     -2430.526 6        37.977 6
G27  22009741.320 9 115661944.261 9      2501.873 9        55.372 9  22009743.255 6         0.000 6      1949.512 6        37.977 6
G16  20498371.971 9 107719651.441 9       563.356 9        55.976 9  20498371.144 6         0.000 6       438.979 6        37.977 6
G26  20651581.836 9 108524772.771 9     -1477.200 9        55.874 9  20651584.652 6         0.000 6     -1151.065 6        37.977 6
G20  21948969.628 9 115342580.747 9      2570.158 9        55.314 9  21948969.952 6         0.000 6      2002.721 6        37.977 6
> 2019 07 03 12 00 50.0000000  0  8       0.000000000000
G07  25351058.502 9 133220665.459 9      2190.831 9        54.130 9  25351059.174 6         0.000 6      1707.142 6        37.977 6
G10  23815754.066 9 125152577.551 9      3530.653 9        54.667 9  23815757.799 6         0.000 6      2751.161 6        37.977 6
G21  21168602.812 9 111241737.929 9     -1247.742 9        55.710 9  21168602.097 6         0.000 6      -972.266 6        37.977 6
G29  24294058.568 9 127666083.161 9     -3119.258 9        54.477 9  24294060.137 6         0.000 6     -2430.593 6        37.977 6
G27  22009265.252 9 115659442.509 9      2501.637 9        55.372 9  22009267.186 6         0.000 6      1949.328 6        37.977 6
G16  20498264.826 9 107719088.393 9       562.740 9        55.976 9  20498264.000 6         0.000 6       438.499 6        37.977 6
G26  20651862.993 9 108526250.256 9     -1477.775 9        55.874 9  20651865.808 6         0.000 6     -1151.513 6        37.977 6
G20  21948480.585 9 115340010.815 9      2569.715 9        55.314 9  21948480.909 6         0.000 6      2002.377 6        37.977 6
> 2019 07 03 12 00 51.0000000  0  8       0.000000000000
G07  25350641.644 9 133218474.861 9      2190.373 9        54.130 9  25350642.316 6         0.000 6      1706.785 6        37.977 6
G10  23815082.218 9 125149046.976 9      3530.517 9        54.667 9  23815085.950 6         0.000 6      2751.055 6        37.977 6
G21  21168840.284 9 111242985.850 9     -1248.103 9        55.710 9  21168839.569 6         0.000 6      -972.548 6        37.977 6
G29  24294652.151 9 127669202.451 9     -3119.343 9        54.477 9  24294653.720 6         0.000 6     -2430.660 6        37.977 6
G27  22008789.229 9 115656940.993 9      2501.401 9        55.373 9  22008791.163 6         0.000 6      1949.144 6        37.977 6
G16  20498157.799 9 107718525.960 9       562.125 9        55.976 9  20498156.972 6         0.000 6       438.019 6        37.977 6
G26  20652144.259 9 108527728.317 9     -1478.350 9        55.874 9  20652147.074 6         0.000 6     -1151.961 6        37.977 6
G20  21947991.627 9 115337441.325 9      2569.273 9        55.314 9  21947991.950 6         0.000 6      2002.032 6        37.977 6
> 2019 07 03 12 00 52.0000000  0  8       0.000000000000
G07  25350224.874 9 133216284.724 9      2189.914 9        54.130 9  25350225.546 6         0.000 6      1706.428 6        37.977 6
G10  23814410.395 9 125145516.534 9      3530.381 9        54.668 9  23814414.126 6         0.000 6      2750.949 6        37.977 6
G21  21169077.824 9 111244234.131 9     -1248.464 9        55.710 9  21169077.109 6         0.000 6      -972.830 6        37.977 6
G29  24295245.751 9 127672321.827 9     -3119.429 9        54.477 9  24295247.321 6         0.000 6     -2430.726 6        37.977 6
G27  22008313.250 9 115654439.711 9      2501.164 9        55.373 9  22008315.184 6         0.000 6      1948.960 6        37.977 6
G16  20498050.888 9 107717964.140 9       561.509 9        55.976 9  20498050.062 6         0.000 6       437.539 6        37.977 6
G26  20652425.633 9 108529206.948 9     -1478.925 9        55.874 9  20652428.449 6         0.000 6     -1152.410 6        37.977 6
G20  21947502.752 9 115334872.274 9      2568.831 9        55.314 9  21947503.075 6         0.000 6      2001.687 6        37.977 6
> 2019 07 03 12 00 53.0000000  0  8       0.000000000000
G07  25349808.191 9 133214095.043 9      2189.455 9        54.131 9  25349808.863 6         0.000 6      1706.070 6        37.977 6
G10  23813738.599 9 125141986.232 9      3530.244 9        54.668 9  23813742.329 6         0.000 6      2750.842 6        37.977 6
G21  21169315.433 9 111245482.775 9     -1248.826 9        55.710 9  21169314.718 6         0.000 6      -973.111 6        37.977 6
G29  24295839.367 9 127675441.289 9     -3119.515 9        54.476 9  24295840.937 6         0.000 6     -2430.793 6        37.977 6
G27  22007837.317 9 115651938.668 9      2500.927 9        55.373 9  22007839.251 6         0.000 6      1948.775 6        37.977 6
G16  20497944.095 9 107717402.939 9       560.893 9        55.976 9  20497943.269 6         0.000 6       437.060 6        37.977 6
G26  20652707.118 9 108530686.159 9     -1479.500 9        55.874 9  20652709.934 6         0.000 6     -1152.858 6        37.977 6
G20  21947013.961 9 115332303.669 9      2568.388 9        55.314 9  21947014.285 6         0.000 6      2001.342 6        37.977 6
> 2019 07 03 12 00 54.0000000  0  8       0.000000000000
G07  25349391.596 9 133211905.823 9      2188.997 9        54.131 9  25349392.267 6         0.000 6      1705.713 6        37.977 6
G10  23813066.828 9 125138456.062 9      3530.108 9        54.668 9  23813070.558 6         0.000 6      2750.736 6        37.977 6
G21  21169553.110 9 111246731.778 9     -1249.187 9        55.710 9  21169552.396 6         0.000 6      -973.392 6        37.977 6
G29  24296432.999 9 127678560.837 9     -3119.600 9        54.476 9  24296434.570 6         0.000 6     -2430.860 6        37.977 6
G27  22007361.428 9 115649437.860 9      2500.691 9        55.373 9  22007363.362 6         0.000 6      1948.591 6        37.977 6
G16  20497837.419 9 107716842.351 9       560.277 9        55.976 9  20497836.592 6         0.000 6       436.580 6        37.977 6
G26  20652988.711 9 108532165.940 9     -1480.075 9        55.874 9  20652991.527 6         0.000 6     -1153.306 6        37.977 6
G20  21946525.255 9 115329735.503 9      2567.945 9        55.315 9  21946525.578 6         0.000 6      2000.998 6        37.977 6
> 2019 07 03 12 00 55.0000000  0  8       0.000000000000
G07  25348975.087 9 133209717.059 9      2188.538 9        54.131 9  25348975.758 6         0.000 6      1705.355 6        37.977 6
G10  23812395.083 9 125134926.033 9      3529.971 9        54.668 9  23812398.813 6         0.000 6      2750.630 6        37.977 6
G21  21169790.857 9 111247981.145 9     -1249.548 9        55.710 9  21169790.143 6         0.000 6      -973.674 6        37.977 6
G29  24297026.647 9 127681680.470 9     -3119.686 9        54.476 9  24297028.219 6         0.000 6     -2430.927 6        37.977 6
G27  22006885.585 9 115646937.290 9      2500.454 9        55.373 9  22006887.519 6         0.000 6      1948.407 6        37.977 6
G16  20497730.860 9 107716282.381 9       559.662 9        55.976 9  20497730.033 6         0.000 6       436.100 6        37.977 6
G26  20653270.415 9 108533646.301 9     -1480.650 9        55.874 9  20653273.231 6         0.000 6     -1153.754 6        37.977 6
G20  21946036.633 9 115327167.783 9      2567.503 9        55.315 9  21946036.956 6         0.000 6      2000.653 6        37.977 6
> 2019 07 03 12 00 56.0000000  0  8       0.000000000000
G07  25348558.666 9 133207528.757 9      2188.079 9        54.131 9  25348559.337 6         0.000 6      1704.998 6        37.977 6
G10  23811723.364 9 125131396.137 9      3529.834 9        54.669 9  23811727.093 6         0.000 6      2750.523 6        37.977 6
G21  21170028.672 9 111249230.870 9     -1249.909 9        55.710 9  21170027.958 6         0.000 6      -973.955 6        37.977 6
G29  24297620.312 9 127684800.189 9     -3119.772 9        54.476 9  24297621.884 6         0.000 6     -2430.994 6        37.977 6
G27  22006409.787 9 115644436.955 9      2500.218 9        55.374 9  22006411.720 6         0.000 6      1948.222 6        37.977 6
G16  20497624.418 9 107715723.025 9       559.046 9        55.976 9  20497623.591 6         0.000 6       435.620 6        37.977 6
G26  20653552.227 9 108535127.232 9     -1481.225 9        55.873 9  20653555.043 6         0.000 6     -1154.202 6        37.977 6
G20  21945548.095 9 115324600.503 9      2567.060 9        55.315 9  21945548.417 6         0.000 6      2000.307 6        37.977 6
> 2019 07 03 12 00 57.0000000  0  8       0.000000000000
G07  25348142.333 9 133205340.914 9      2187.620 9        54.131 9  25348143.004 6         0.000 6      1704.640 6        37.977 6
G10  23811051.672 9 125127866.379 9      3529.698 9        54.669 9  23811055.400 6         0.000 6      2750.416 6        37.977 6
G21  21170266.556 9 111250480.957 9     -1250.270 9        55.709 9  21170265.841 6         0.000 6      -974.237 6        37.977 6
G29  24298213.992 9 127687919.988 9     -3119.858 9        54.475 9  24298215.565 6         0.000 6     -2431.060 6        37.977 6
G27  22005934.034 9 115641936.862 9      2499.981 9        55.374 9  22005935.968 6         0.000 6      1948.038 6        37.977 6
G16  20497518.094 9 107715164.288 9       558.430 9        55.976 9  20497517.267 6         0.000 6       435.140 6        37.977 6
G26  20653834.150 9 108536608.743 9     -1481.800 9        55.873 9  20653836.966 6         0.000 6     -1154.650 6        37.977 6
G20  21945059.641 9 115322033.666 9      2566.617 9        55.315 9  21945059.963 6         0.000 6      1999.962 6        37.977 6
> 2019 07 03 12 00 58.0000000  0  8       0.000000000000
G07  25347726.087 9 133203153.530 9      2187.161 9        54.131 9  25347726.757 6         0.000 6      1704.282 6        37.977 6
G10  23810380.005 9 125124336.756 9      3529.561 9        54.669 9  23810383.732 6         0.000 6      2750.310 6        37.977 6
G21  21170504.508 9 111251731.405 9     -1250.631 9        55.709 9  21170503.794 6         0.000 6      -974.518 6        37.977 6
G29  24298807.689 9 127691039.878 9     -3119.943 9        54.475 9  24298809.263 6         0.000 6     -2431.127 6        37.977 6
G27  22005458.326 9 115639437.000 9      2499.744 9        55.374 9  22005460.259 6         0.000 6      1947.853 6        37.977 6
G16  20497411.887 9 107714606.163 9       557.814 9        55.976 9  20497411.060 6         0.000 6       434.660 6        37.977 6
G26  20654116.181 9 108538090.824 9     -1482.375 9        55.873 9  20654118.997 6         0.000 6     -1155.098 6        37.977 6
G20  21944571.272 9 115319467.271 9      2566.174 9        55.315 9  21944571.594 6         0.000 6      1999.617 6        37.977 6
> 2019 07 03 12 00 59.0000000  0  8       0.000000000000
G07  25347309.928 9 133200966.602 9      2186.702 9        54.131 9  25347310.598 6         0.000 6      1703.925 6        37.977 6
G10  23809708.365 9 125120807.275 9      3529.424 9        54.669 9  23809712.092 6         0.000 6      2750.203 6        37.977 6
G21  21170742.530 9 111252982.215 9     -1250.992 9        55.709 9  21170741.815 6         0.000 6      -974.799 6        37.977 6
G29  24299401.403 9 127694159.854 9     -3120.029 9        54.475 9  24299402.977 6         0.000 6     -2431.194 6        37.977 6
G27  22004982.663 9 115636937.377 9      2499.507 9        55.374 9  22004984.596 6         0.000 6      1947.669 6        37.977 6
G16  20497305.797 9 107714048.658 9       557.198 9        55.977 9  20497304.970 6         0.000 6       434.180 6        37.977 6
G26  20654398.322 9 108539573.485 9     -1482.950 9        55.873 9  20654401.138 6         0.000 6     -1155.546 6        37.977 6
G20  21944082.987 9 115316901.323 9      2565.731 9        55.316 9  21944083.309 6         0.000 6      1999.272 6        37.977 6
> 2019 07 03 12 01  0.0000000  0  8       0.000000000000
G07  25346893.856 9 133198780.136 9      2186.243 9        54.132 9  25346894.526 6         0.000 6      1703.567 6        37.977 6
G10  23809036.750 9 125117277.926 9      3529.287 9        54.670 9  23809040.476 6         0.000 6      2750.096 6        37.977 6
G21  21170980.619 9 111254233.385 9     -1251.353 9        55.709 9  21170979.905 6         0.000 6      -975.080 6        37.977 6
G29  24299995.133 9 127697279.915 9     -3120.114 9        54.475 9  24299996.707 6         0.000 6     -2431.260 6        37.977 6
G27  22004507.045 9 115634437.989 9      2499.271 9        55.374 9  22004508.978 6         0.000 6      1947.484 6        37.977 6
G16  20497199.824 9 107713491.765 9       556.582 9        55.977 9  20497198.997 6         0.000 6       433.700 6        37.977 6
G26  20654680.572 9 108541056.716 9     -1483.525 9        55.873 9  20654683.388 6         0.000 6     -1155.994 6        37.977 6
G20  21943594.786 9 115314335.814 9      2565.288 9        55.316 9  21943595.108 6         0.000 6      1998.927 6        37.977 6
> 2019 07 03 12 01  1.0000000  0  8       0.000000000000
G07  25346477.872 9 133196594.126 9      2185.784 9        54.132 9  25346478.542 6         0.000 6      1703.209 6        37.977 6
G10  23808365.162 9 125113748.718 9      3529.149 9        54.670 9  23808368.888 6         0.000 6      2749.989 6        37.977 6
G21  21171218.778 9 111255484.917 9     -1251.714 9        55.709 9  21171218.064 6         0.000 6      -975.361 6        37.977 6
G29  24300588.879 9 127700400.062 9     -3120.200 9        54.475 9  24300590.454 6         0.000 6     -2431.327 6        37.977 6
G27  22004031.472 9 115631938.839 9      2499.034 9        55.374 9  22004033.405 6         0.000 6      1947.300 6        37.977 6
G16  20497093.968 9 107712935.491 9       555.966 9        55.977 9  20497093.141 6         0.000 6       433.220 6        37.977 6
G26  20654962.932 9 108542540.526 9     -1484.100 9        55.873 9  20654965.748 6         0.000 6     -1156.442 6        37.977 6
G20  21943106.670 9 115311770.753 9      2564.844 9        55.316 9  21943106.991 6         0.000 6      1998.581 6        37.977 6
> 2019 07 03 12 01  2.0000000  0  8       0.000000000000
G07  25346061.975 9 133194408.576 9      2185.324 9        54.132 9  25346062.644 6         0.000 6      1702.851 6        37.977 6
G10  23807693.600 9 125110219.648 9      3529.012 9        54.670 9  23807697.325 6         0.000 6      2749.882 6        37.977 6
G21  21171457.006 9 111256736.811 9     -1252.074 9        55.709 9  21171456.292 6         0.000 6      -975.643 6        37.977 6
G29  24301182.641 9 127703520.294 9     -3120.285 9        54.474 9  24301184.217 6         0.000 6     -2431.394 6        37.977 6
G27  22003555.944 9 115629439.927 9      2498.797 9        55.375 9  22003557.877 6         0.000 6      1947.115 6        37.977 6
G16  20496988.230 9 107712379.834 9       555.349 9        55.977 9  20496987.403 6         0.000 6       432.740 6        37.977 6
G26  20655245.401 9 108544024.911 9     -1484.674 9        55.873 9  20655248.218 6         0.000 6     -1156.890 6        37.977 6
G20  21942618.639 9 115309206.134 9      2564.401 9        55.316 9  21942618.960 6         0.000 6      1998.236 6        37.977 6
> 2019 07 03 12 01  3.0000000  0  8       0.000000000000
G07  25345646.166 9 133192223.487 9      2184.865 9        54.132 9  25345646.835 6         0.000 6      1702.493 6        37.977 6
G10  23807022.064 9 125106690.711 9      3528.875 9        54.670 9  23807025.788 6         0.000 6      2749.775 6        37.977 6
G21  21171695.302 9 111257989.062 9     -1252.435 9        55.709 9  21171694.587 6         0.000 6      -975.924 6        37.977 6
G29  24301776.420 9 127706640.612 9     -3120.371 9        54.474 9  24301777.996 6         0.000 6     -2431.460 6        37.977 6
G27  22003080.461 9 115626941.249 9      2498.560 9        55.375 9  22003082.393 6         0.000 6      1946.931 6        37.977 6
G16  20496882.609 9 107711824.789 9       554.733 9        55.977 9  20496881.782 6         0.000 6       432.260 6        37.977 6
G26  20655527.979 9 108545509.866 9     -1485.249 9        55.873 9  20655530.796 6         0.000 6     -1157.337 6        37.977 6
G20  21942130.691 9 115306641.956 9      2563.957 9        55.316 9  21942131.012 6         0.000 6      1997.890 6        37.977 6
> 2019 07 03 12 01  4.0000000  0  8       0.000000000000
G07  25345230.444 9 133190038.859 9      2184.405 9        54.132 9  25345231.113 6         0.000 6      1702.135 6        37.977 6
G10  23806350.554 9 125103161.914 9      3528.737 9        54.670 9  23806354.278 6         0.000 6      2749.668 6        37.977 6
G21  21171933.666 9 111259241.675 9     -1252.796 9        55.709 9  21171932.952 6         0.000 6      -976.205 6        37.977 6
G29  24302370.214 9 127709761.010 9     -3120.456 9        54.474 9  24302371.791 6         0.000 6     -2431.527 6        37.977 6
G27  22002605.024 9 115624442.814 9      2498.323 9        55.375 9  22002606.956 6         0.000 6      1946.746 6        37.977 6
G16  20496777.105 9 107711270.366 9       554.117 9        55.977 9  20496776.278 6         0.000 6       431.779 6        37.977 6
G26  20655810.667 9 108546995.401 9     -1485.824 9        55.873 9  20655813.484 6         0.000 6     -1157.785 6        37.977 6
G20  21941642.828 9 115304078.221 9      2563.514 9        55.316 9  21941643.148 6         0.000 6      1997.544 6        37.977 6
> 2019 07 03 12 01  5.0000000  0  8       0.000000000000
G07  25344814.810 9 133187854.689 9      2183.946 9        54.132 9  25344815.479 6         0.000 6      1701.777 6        37.977 6
G10  23805679.070 9 125099633.252 9      3528.599 9        54.671 9  23805682.793 6         0.000 6      2749.561 6        37.977 6
G21  21172172.099 9 111260494.648 9     -1253.156 9        55.709 9  21172171.385 6         0.000 6      -976.486 6        37.977 6
G29  24302964.025 9 127712881.499 9     -3120.542 9        54.474 9  24302965.603 6         0.000 6     -2431.594 6        37.977 6
G27  22002129.631 9 115621944.611 9      2498.086 9        55.375 9  22002131.563 6         0.000 6      1946.561 6        37.977 6
G16  20496671.718 9 107710716.554 9       553.501 9        55.977 9  20496670.892 6         0.000 6       431.299 6        37.977 6
G26  20656093.464 9 108548481.505 9     -1486.398 9        55.872 9  20656096.281 6         0.000 6     -1158.233 6        37.977 6
G20  21941155.049 9 115301514.930 9      2563.070 9        55.317 9  21941155.369 6         0.000 6      1997.199 6        37.977 6
> 2019 07 03 12 01  6.0000000  0  8       0.000000000000
G07  25344399.262 9 133185670.977 9      2183.486 9        54.132 9  25344399.931 6         0.000 6      1701.419 6        37.977 6
G10  23805007.613 9 125096104.732 9      3528.462 9        54.671 9  23805011.336 6         0.000 6      2749.453 6        37.977 6
G21  21172410.601 9 111261747.984 9     -1253.517 9        55.709 9  21172409.887 6         0.000 6      -976.767 6        37.977 6
G29  24303557.853 9 127716002.073 9     -3120.627 9        54.474 9  24303559.431 6         0.000 6     -2431.660 6        37.977 6
G27  22001654.284 9 115619446.646 9      2497.849 9        55.375 9  22001656.216 6         0.000 6      1946.377 6        37.977 6
G16  20496566.449 9 107710163.361 9       552.884 9        55.977 9  20496565.622 6         0.000 6       430.819 6        37.977 6
G26  20656376.371 9 108549968.189 9     -1486.973 9        55.872 9  20656379.188 6         0.000 6     -1158.681 6        37.977 6
G20  21940667.355 9 115298952.086 9      2562.626 9        55.317 9  21940667.675 6         0.000 6      1996.853 6        37.977 6
> 2019 07 03 12 01  7.0000000  0  8       0.000000000000
G07  25343983.803 9 133183487.727 9      2183.026 9        54.133 9  25343984.471 6         0.000 6      1701.061 6        37.977 6
G10  23804336.181 9 125092576.346 9      3528.324 9        54.671 9  23804339.903 6         0.000 6      2749.346 6        37.977 6
G21  21172649.171 9 111263001.678 9     -1253.877 9        55.709 9  21172648.457 6         0.000 6      -977.047 6        37.977 6
G29  24304151.696 9 127719122.733 9     -3120.713 9        54.473 9  24304153.275 6         0.000 6     -2431.727 6        37.977 6
G27  22001178.981 9 115616948.916 9      2497.612 9        55.376 9  22001180.913 6         0.000 6      1946.192 6        37.977 6
G16  20496461.297 9 107709610.781 9       552.268 9        55.977 9  20496460.470 6         0.000 6       430.339 6        37.977 6
G26  20656659.386 9 108551455.443 9     -1487.548 9        55.872 9  20656662.203 6         0.000 6     -1159.128 6        37.977 6
G20  21940179.745 9 115296389.682 9      2562.183 9        55.317 9  21940180.064 6         0.000 6      1996.507 6        37.977 6
> 2019 07 03 12 01  8.0000000  0  8       0.000000000000
G07  25343568.431 9 133181304.934 9      2182.567 9        54.133 9  25343569.099 6         0.000 6      1700.702 6        37.977 6
G10  23803664.777 9 125089048.102 9      3528.186 9        54.671 9  23803668.498 6         0.000 6      2749.238 6        37.977 6
G21  21172887.810 9 111264255.734 9     -1254.238 9        55.708 9  21172887.096 6         0.000 6      -977.328 6        37.977 6
G29  24304745.556 9 127722243.478 9     -3120.798 9        54.473 9  24304747.136 6         0.000 6     -2431.793 6        37.977 6
G27  22000703.724 9 115614451.425 9      2497.375 9        55.376 9  22000705.656 6         0.000 6      1946.007 6        37.977 6
G16  20496356.262 9 107709058.822 9       551.652 9        55.977 9  20496355.436 6         0.000 6       429.859 6        37.977 6
G26  20656942.512 9 108552943.276 9     -1488.122 9        55.872 9  20656945.329 6         0.000 6     -1159.576 6        37.977 6
G20  21939692.220 9 115293827.726 9      2561.739 9        55.317 9  21939692.539 6         0.000 6      1996.161 6        37.977 6
> 2019 07 03 12 01  9.0000000  0  8       0.000000000000
G07  25343153.146 9 133179122.604 9      2182.107 9        54.133 9  25343153.814 6         0.000 6      1700.344 6        37.977 6
G10  23802993.398 9 125085519.991 9      3528.048 9        54.672 9  23802997.118 6         0.000 6      2749.131 6        37.977 6
G21  21173126.518 9 111265510.149 9     -1254.598 9        55.708 9  21173125.804 6         0.000 6      -977.609 6        37.977 6
G29  24305339.433 9 127725364.309 9     -3120.883 9        54.473 9  24305341.013 6         0.000 6     -2431.860 6        37.977 6
G27  22000228.512 9 115611954.170 9      2497.138 9        55.376 9  22000230.443 6         0.000 6      1945.822 6        37.977 6
G16  20496251.345 9 107708507.475 9       551.035 9        55.977 9  20496250.518 6         0.000 6       429.378 6        37.977 6
G26  20657225.746 9 108554431.679 9     -1488.697 9        55.872 9  20657228.563 6         0.000 6     -1160.024 6        37.977 6
G20  21939204.779 9 115291266.209 9      2561.295 9        55.317 9  21939205.098 6         0.000 6      1995.815 6        37.977 6
> 2019 07 03 12 01 10.0000000  0  8       0.000000000000
G07  25342737.949 9 133176940.730 9      2181.647 9        54.133 9  25342738.617 6         0.000 6      1699.985 6        37.977 6
G10  23802322.046 9 125081992.023 9      3527.909 9        54.672 9  23802325.766 6         0.000 6      2749.023 6        37.977 6
G21  21173365.294 9 111266764.927 9     -1254.958 9        55.708 9  21173364.580 6         0.000 6      -977.890 6        37.977 6
G29  24305933.325 9 127728485.225 9     -3120.969 9        54.473 9  24305934.906 6         0.000 6     -2431.926 6        37.977 6
G27  21999753.345 9 115609457.154 9      2496.900 9        55.376 9  21999755.276 6         0.000 6      1945.637 6        37.977 6
G16  20496146.545 9 107707956.748 9       550.419 9        55.977 9  20496145.718 6         0.000 6       428.898 6        37.977 6
G26  20657509.090 9 108555920.661 9     -1489.271 9        55.872 9  20657511.907 6         0.000 6     -1160.472 6        37.977 6
G20  21938717.423 9 115288705.141 9      2560.850 9        55.318 9  21938717.741 6         0.000 6      1995.469 6        37.977 6
> 2019 07 03 12 01 11.0000000  0  8       0.000000000000
G07  25342322.839 9 133174759.317 9      2181.187 9        54.133 9  25342323.507 6         0.000 6      1699.627 6        37.977 6
G10  23801650.720 9 125078464.194 9      3527.771 9        54.672 9  23801654.439 6         0.000 6      2748.915 6        37.977 6
G21  21173604.139 9 111268020.065 9     -1255.319 9        55.708 9  21173603.425 6         0.000 6      -978.171 6        37.977 6
G29  24306527.234 9 127731606.226 9     -3121.054 9        54.472 9  24306528.815 6         0.000 6     -2431.993 6        37.977 6
G27  21999278.223 9 115606960.374 9      2496.663 9        55.376 9  21999280.154 6         0.000 6      1945.453 6        37.977 6
G16  20496041.862 9 107707406.637 9       549.802 9        55.977 9  20496041.035 6         0.000 6       428.417 6        37.977 6
G26  20657792.543 9 108557410.218 9     -1489.846 9        55.872 9  20657795.361 6         0.000 6     -1160.919 6        37.977 6
G20  21938230.152 9 115286144.518 9      2560.406 9        55.318 9  21938230.470 6         0.000 6      1995.123 6        37.977 6
> 2019 07 03 12 01 12.0000000  0  8       0.000000000000
G07  25341907.818 9 133172578.370 9      2180.727 9        54.133 9  25341908.485 6         0.000 6      1699.268 6        37.977 6
G10  23800979.419 9 125074936.496 9      3527.633 9        54.672 9  23800983.138 6         0.000 6      2748.807 6        37.977 6
G21  21173843.052 9 111269275.558 9     -1255.679 9        55.708 9  21173842.338 6         0.000 6      -978.451 6        37.977 6
G29  24307121.158 9 127734727.307 9     -3121.139 9        54.472 9  24307122.740 6         0.000 6     -2432.059 6        37.977 6
G27  21998803.147 9 115604463.834 9      2496.426 9        55.377 9  21998805.077 6         0.000 6      1945.268 6        37.977 6
G16  20495937.297 9 107706857.141 9       549.186 9        55.977 9  20495936.470 6         0.000 6       427.937 6        37.977 6
G26  20658076.105 9 108558900.344 9     -1490.420 9        55.872 9  20658078.923 6         0.000 6     -1161.367 6        37.977 6
G20  21937742.963 9 115283584.331 9      2559.962 9        55.318 9  21937743.281 6         0.000 6      1994.777 6        37.977 6
> 2019 07 03 12 01 13.0000000  0  8       0.000000000000
G07  25341492.883 9 133170397.877 9      2180.266 9        54.133 9  25341493.550 6         0.000 6      1698.910 6        37.977 6
G10  23800308.146 9 125071408.943 9      3527.494 9        54.673 9  23800311.864 6         0.000 6      2748.700 6        37.977 6
G21  21174082.034 9 111270531.416 9     -1256.039 9        55.708 9  21174081.320 6         0.000 6      -978.732 6        37.977 6
G29  24307715.099 9 127737848.479 9     -3121.225 9        54.472 9  24307716.682 6         0.000 6     -2432.126 6        37.977 6
G27  21998328.115 9 115601967.530 9      2496.189 9        55.377 9  21998330.046 6         0.000 6      1945.083 6        37.977 6
G16  20495832.849 9 107706308.263 9       548.569 9        55.977 9  20495832.022 6         0.000 6       427.457 6        37.977 6
G26  20658359.777 9 108560391.050 9     -1490.994 9        55.871 9  20658362.595 6         0.000 6     -1161.814 6        37.977 6
G20  21937255.861 9 115281024.596 9      2559.517 9        55.318 9  21937256.179 6         0.000 6      1994.430 6        37.977 6
> 2019 07 03 12 01 14.0000000  0  8       0.000000000000
G07  25341078.037 9 133168217.847 9      2179.806 9        54.134 9  25341078.703 6         0.000 6      1698.551 6        37.977 6
G10  23799636.899 9 125067881.524 9      3527.356 9        54.673 9  23799640.616 6         0.000 6      2748.592 6        37.977 6
G21  21174321.084 9 111271787.632 9     -1256.399 9        55.708 9  21174320.370 6         0.000 6      -979.012 6        37.977 6
G29  24308309.056 9 127740969.736 9     -3121.310 9        54.472 9  24308310.640 6         0.000 6     -2432.192 6        37.977 6
G27  21997853.128 9 115599471.460 9      2495.951 9        55.377 9  21997855.059 6         0.000 6      1944.898 6        37.977 6
G16  20495728.517 9 107705759.999 9       547.953 9        55.977 9  20495727.691 6         0.000 6       426.976 6        37.977 6
G26  20658643.558 9 108561882.325 9     -1491.569 9        55.871 9  20658646.376 6         0.000 6     -1162.262 6        37.977 6
G20  21936768.843 9 115278465.301 9      2559.073 9        55.318 9  21936769.160 6         0.000 6      1994.084 6        37.977 6
> 2019 07 03 12 01 15.0000000  0  8       0.000000000000
G07  25340663.277 9 133166038.274 9      2179.346 9        54.134 9  25340663.944 6         0.000 6      1698.192 6        37.977 6
G10  23798965.679 9 125064354.248 9      3527.217 9        54.673 9  23798969.395 6         0.000 6      2748.483 6        37.977 6
G21  21174560.203 9 111273044.211 9     -1256.759 9        55.708 9  21174559.489 6         0.000 6      -979.293 6        37.977 6
G29  24308903.030 9 127744091.078 9     -3121.395 9        54.472 9  24308904.614 6         0.000 6     -2432.259 6        37.977 6
G27  21997378.187 9 115596975.630 9      2495.714 9        55.377 9  21997380.118 6         0.000 6      1944.713 6        37.977 6
G16  20495624.304 9 107705212.355 9       547.336 9        55.977 9  20495623.477 6         0.000 6       426.496 6        37.977 6
G26  20658927.449 9 108563374.179 9     -1492.143 9        55.871 9  20658930.267 6         0.000 6     -1162.709 6        37.977 6
G20  21936281.910 9 115275906.455 9      2558.628 9        55.319 9  21936282.227 6         0.000 6      1993.737 6        37.977 6
> 2019 07 03 12 01 16.0000000  0  8       0.000000000000
G07  25340248.606 9 133163859.165 9      2178.886 9        54.134 9  25340249.272 6         0.000 6      1697.834 6        37.977 6
G10  23798294.484 9 125060827.107 9      3527.078 9        54.673 9  23798298.200 6         0.000 6      2748.375 6        37.977 6
G21  21174799.390 9 111274301.147 9     -1257.119 9        55.708 9  21174798.676 6         0.000 6      -979.573 6        37.977 6
G29  24309497.020 9 127747212.505 9     -3121.480 9        54.471 9  24309498.604 6         0.000 6     -2432.325 6        37.977 6
G27  21996903.291 9 115594480.036 9      2495.477 9        55.377 9  21996905.221 6         0.000 6      1944.528 6        37.977 6
G16  20495520.208 9 107704665.324 9       546.719 9        55.977 9  20495519.381 6         0.000 6       426.015 6        37.977 6
G26  20659211.448 9 108564866.603 9     -1492.717 9        55.871 9  20659214.266 6         0.000 6     -1163.157 6        37.977 6
G20  21935795.060 9 115273348.049 9      2558.184 9        55.319 9  21935795.377 6         0.000 6      1993.391 6        37.977 6
> 2019 07 03 12 01 17.0000000  0  8       0.000000000000
G07  25339834.021 9 133161680.513 9      2178.425 9        54.134 9  25339834.688 6         0.000 6      1697.475 6        37.977 6
G10  23797623.317 9 125057300.109 9      3526.939 9        54.674 9  23797627.032 6         0.000 6      2748.267 6        37.977 6
G21  21175038.646 9 111275558.445 9     -1257.479 9        55.708 9  21175037.932 6         0.000 6      -979.854 6        37.977 6
G29  24310091.026 9 127750334.018 9     -3121.566 9        54.471 9  24310092.611 6         0.000 6     -2432.391 6        37.977 6
G27  21996428.440 9 115591984.681 9      2495.239 9        55.378 9  21996430.370 6         0.000 6      1944.343 6        37.977 6
G16  20495416.229 9 107704118.913 9       546.103 9        55.977 9  20495415.402 6         0.000 6       425.535 6        37.977 6
G26  20659495.557 9 108566359.605 9     -1493.292 9        55.871 9  20659498.375 6         0.000 6     -1163.604 6        37.977 6
G20  21935308.296 9 115270790.093 9      2557.739 9        55.319 9  21935308.613 6         0.000 6      1993.044 6        37.977 6
> 2019 07 03 12 01 18.0000000  0  8       0.000000000000
G07  25339419.525 9 133159502.324 9      2177.964 9        54.134 9  25339420.191 6         0.000 6      1697.116 6        37.977 6
G10  23796952.175 9 125053773.245 9      3526.800 9        54.674 9  23796955.889 6         0.000 6      2748.159 6        37.977 6
G21  21175277.970 9 111276816.101 9     -1257.839 9        55.707 9  21175277.256 6         0.000 6      -980.134 6        37.977 6
G29  24310685.048 9 127753455.616 9     -3121.651 9        54.471 9  24310686.634 6         0.000 6     -2432.458 6        37.977 6
G27  21995953.634 9 115589489.561 9      2495.002 9        55.378 9  21995955.564 6         0.000 6      1944.158 6        37.977 6
G16  20495312.367 9 107703573.115 9       545.486 9        55.977 9  20495311.540 6         0.000 6       425.054 6        37.977 6
G26  20659779.775 9 108567853.177 9     -1493.866 9        55.871 9  20659782.593 6         0.000 6     -1164.052 6        37.977 6
G20  21934821.616 9 115268232.577 9      2557.294 9        55.319 9  21934821.933 6         0.000 6      1992.698 6        37.977 6
> 2019 07 03 12 01 19.0000000  0  8       0.000000000000
G07  25339005.116 9 133157324.594 9      2177.504 9        54.134 9  25339005.782 6         0.000 6      1696.757 6        37.977 6
G10  23796281.060 9 125050246.525 9      3526.661 9        54.674 9  23796284.774 6         0.000 6      2748.050 6        37.977 6
G21  21175517.363 9 111278074.119 9     -1258.199 9        55.707 9  21175516.649 6         0.000 6      -980.415 6        37.977 6
G29  24311279.087 9 127756577.299 9     -3121.736 9        54.471 9  24311280.673 6         0.000 6     -2432.524 6        37.977 6
G27  21995478.874 9 115586994.681 9      2494.764 9        55.378 9  21995480.803 6         0.000 6      1943.973 6        37.977 6
G16  20495208.623 9 107703027.938 9       544.869 9        55.977 9  20495207.797 6         0.000 6       424.573 6        37.977 6
G26  20660064.103 9 108569347.329 9     -1494.440 9        55.871 9  20660066.921 6         0.000 6     -1164.499 6        37.977 6
G20  21934335.022 9 115265675.510 9      2556.849 9        55.319 9  21934335.338 6         0.000 6      1992.351 6        37.977 6
> 2019 07 03 12 01 20.0000000  0  8       0.000000000000
G07  25338590.796 9 133155147.330 9      2177.043 9        54.134 9  25338591.461 6         0.000 6      1696.398 6        37.977 6
G10  23795609.971 9 125046719.938 9      3526.522 9        54.674 9  23795613.684 6         0.000 6      2747.942 6        37.977 6
G21  21175756.824 9 111279332.492 9     -1258.558 9        55.707 9  21175756.110 6         0.000 6      -980.695 6        37.977 6
G29  24311873.140 9 127759699.062 9     -3121.821 9        54.471 9  24311874.727 6         0.000 6     -2432.590 6        37.977 6
G27  21995004.159 9 115584500.040 9      2494.527 9        55.378 9  21995006.088 6         0.000 6      1943.788 6        37.977 6
G16  20495104.997 9 107702483.375 9       544.252 9        55.977 9  20495104.170 6         0.000 6       424.093 6        37.977 6
G26  20660348.539 9 108570842.049 9     -1495.014 9        55.871 9  20660351.357 6         0.000 6     -1164.947 6        37.977 6
G20  21933848.511 9 115263118.880 9      2556.404 9        55.320 9  21933848.826 6         0.000 6      1992.004 6        37.977 6
> 2019 07 03 12 01 21.0000000  0  8       0.000000000000
G07  25338176.562 9 133152970.520 9      2176.582 9        54.135 9  25338177.227 6         0.000 6      1696.039 6        37.977 6
G10  23794938.909 9 125043193.496 9      3526.382 9        54.675 9  23794942.622 6         0.000 6      2747.833 6        37.977 6
G21  21175996.353 9 111280591.230 9     -1258.918 9        55.707 9  21175995.640 6         0.000 6      -980.975 6        37.977 6
G29  24312467.211 9 127762820.915 9     -3121.906 9        54.470 9  24312468.799 6         0.000 6     -2432.657 6        37.977 6
G27  21994529.489 9 115582005.635 9      2494.289 9        55.378 9  21994531.418 6         0.000 6      1943.602 6        37.977 6
G16  20495001.487 9 107701939.431 9       543.635 9        55.978 9  20495000.661 6         0.000 6       423.612 6        37.977 6
G26  20660633.085 9 108572337.349 9     -1495.588 9        55.870 9  20660635.904 6         0.000 6     -1165.394 6        37.977 6
G20  21933362.086 9 115260562.704 9      2555.959 9        55.320 9  21933362.401 6         0.000 6      1991.657 6        37.977 6
> 2019 07 03 12 01 22.0000000  0  8       0.000000000000
G07  25337762.416 9 133150794.172 9      2176.121 9        54.135 9  25337763.081 6         0.000 6      1695.680 6        37.977 6
G10  23794267.874 9 125039667.194 9      3526.243 9        54.675 9  23794271.586 6         0.000 6      2747.725 6        37.977 6
G21  21176235.952 9 111281850.327 9     -1259.278 9        55.707 9  21176235.238 6         0.000 6      -981.256 6        37.977 6
G29  24313061.298 9 127765942.853 9     -3121.991 9        54.470 9  24313062.887 6         0.000 6     -2432.723 6        37.977 6
G27  21994054.864 9 115579511.468 9      2494.051 9        55.378 9  21994056.793 6         0.000 6      1943.417 6        37.977 6
G16  20494898.096 9 107701396.105 9       543.018 9        55.978 9  20494897.269 6         0.000 6       423.131 6        37.977 6
G26  20660917.741 9 108573833.222 9     -1496.162 9        55.870 9  20660920.560 6         0.000 6     -1165.841 6        37.977 6
G20  21932875.745 9 115258006.972 9      2555.513 9        55.320 9  21932876.060 6         0.000 6      1991.310 6        37.977 6
> 2019 07 03 12 01 23.0000000  0  8       0.000000000000
G07  25337348.358 9 133148618.288 9      2175.661 9        54.135 9  25337349.023 6         0.000 6      1695.321 6        37.977 6
G10  23793596.865 9 125036141.027 9      3526.104 9        54.675 9  23793600.576 6         0.000 6      2747.616 6        37.977 6
G21  21176475.618 9 111283109.781 9     -1259.637 9        55.707 9  21176474.905 6         0.000 6      -981.536 6        37.977 6
G29  24313655.401 9 127769064.877 9     -3122.076 9        54.470 9  24313656.991 6         0.000 6     -2432.789 6        37.977 6
G27  21993580.284 9 115577017.536 9      2493.814 9        55.379 9  21993582.213 6         0.000 6      1943.232 6        37.977 6
G16  20494794.821 9 107700853.391 9       542.402 9        55.978 9  20494793.994 6         0.000 6       422.651 6        37.977 6
G26  20661202.505 9 108575329.665 9     -1496.736 9        55.870 9  20661205.324 6         0.000 6     -1166.289 6        37.977 6
G20  21932389.489 9 115255451.682 9      2555.068 9        55.320 9  21932389.804 6         0.000 6      1990.963 6        37.977 6
> 2019 07 03 12 01 24.0000000  0  8       0.000000000000
G07  25336934.388 9 133146442.861 9      2175.199 9        54.135 9  25336935.053 6         0.000 6      1694.961 6        37.977 6
G10  23792925.883 9 125032615.004 9      3525.964 9        54.675 9  23792929.594 6         0.000 6      2747.507 6        37.977 6
G21  21176715.353 9 111284369.598 9     -1259.997 9        55.707 9  21176714.640 6         0.000 6      -981.816 6        37.977 6
G29  24314249.521 9 127772186.985 9     -3122.161 9        54.470 9  24314251.111 6         0.000 6     -2432.855 6        37.977 6
G27  21993105.750 9 115574523.844 9      2493.576 9        55.379 9  21993107.678 6         0.000 6      1943.047 6        37.977 6
G16  20494691.664 9 107700311.298 9       541.785 9        55.978 9  20494690.837 6         0.000 6       422.170 6        37.977 6
G26  20661487.379 9 108576826.687 9     -1497.310 9        55.870 9  20661490.198 6         0.000 6     -1166.736 6        37.977 6
G20  21931903.318 9 115252896.841 9      2554.622 9        55.320 9  21931903.633 6         0.000 6      1990.616 6        37.977 6
> 2019 07 03 12 01 25.0000000  0  8       0.000000000000
G07  25336520.506 9 133144267.899 9      2174.738 9        54.135 9  25336521.170 6         0.000 6      1694.602 6        37.977 6
G10  23792254.927 9 125029089.116 9      3525.824 9        54.676 9  23792258.637 6         0.000 6      2747.398 6        37.977 6
G21  21176955.157 9 111285629.771 9     -1260.356 9        55.707 9  21176954.443 6         0.000 6      -982.096 6        37.977 6
G29  24314843.656 9 127775309.178 9     -3122.246 9        54.470 9  24314845.247 6         0.000 6     -2432.922 6        37.977 6
G27  21992631.260 9 115572030.387 9      2493.338 9        55.379 9  21992633.189 6         0.000 6      1942.862 6        37.977 6
G16  20494588.624 9 107699769.819 9       541.167 9        55.978 9  20494587.797 6         0.000 6       421.689 6        37.977 6
G26  20661772.361 9 108578324.277 9     -1497.884 9        55.870 9  20661775.180 6         0.000 6     -1167.183 6        37.977 6
G20  21931417.231 9 115250342.442 9      2554.177 9        55.321 9  21931417.545 6         0.000 6      1990.269 6        37.977 6
> 2019 07 03 12 01 26.0000000  0  8       0.000000000000
G07  25336106.710 9 133142093.394 9      2174.277 9        54.135 9  25336107.375 6         0.000 6      1694.243 6        37.977 6
G10  23791583.998 9 125025563.372 9      3525.684 9        54.676 9  23791587.708 6         0.000 6      2747.289 6        37.977 6
G21  21177195.029 9 111286890.306 9     -1260.716 9        55.707 9  21177194.315 6         0.000 6      -982.376 6        37.977 6
G29  24315437.808 9 127778431.457 9     -3122.331 9        54.469 9  24315439.399 6         0.000 6     -2432.988 6        37.977 6
G27  21992156.816 9 115569537.171 9      2493.100 9        55.379 9  21992158.745 6         0.000 6      1942.676 6        37.977 6
G16  20494485.702 9 107699228.960 9       540.550 9        55.978 9  20494484.875 6         0.000 6       421.208 6        37.977 6
G26  20662057.454 9 108579822.447 9     -1498.458 9        55.870 9  20662060.273 6         0.000 6     -1167.630 6        37.977 6
G20  21930931.230 9 115247788.492 9      2553.731 9        55.321 9  21930931.544 6         0.000 6      1989.922 6        37.977 6
> 2019 07 03 12 01 27.0000000  0  8       0.000000000000
G07  25335693.004 9 133139919.354 9      2173.816 9        54.135 9  25335693.668 6         0.000 6      1693.883 6        37.977 6
G10  23790913.095 9 125022037.764 9      3525.544 9        54.676 9  23790916.804 6         0.000 6      2747.180 6        37.977 6
G21  21177434.968 9 111288151.199 9     -1261.075 9        55.707 9  21177434.255 6         0.000 6      -982.656 6        37.977 6
G29  24316031.976 9 127781553.820 9     -3122.416 9        54.469 9  24316033.568 6         0.000 6     -2433.054 6        37.977 6
G27  21991682.417 9 115567044.190 9      2492.863 9        55.379 9  21991684.346 6         0.000 6      1942.491 6        37.977 6
G16  20494382.897 9 107698688.715 9       539.933 9        55.978 9  20494382.070 6         0.000 6       420.727 6        37.977 6
G26  20662342.655 9 108581321.186 9     -1499.032 9        55.870 9  20662345.474 6         0.000 6     -1168.078 6        37.977 6
G20  21930445.312 9 115245234.984 9      2553.286 9        55.321 9  21930445.626 6         0.000 6      1989.574 6        37.977 6
> 2019 07 03 12 01 28.0000000  0  8       0.000000000000
G07  25335279.385 9 133137745.775 9      2173.355 9        54.136 9  25335280.049 6         0.000 6      1693.524 6        37.977 6
G10  23790242.219 9 125018512.298 9      3525.404 9        54.676 9  23790245.927 6         0.000 6      2747.071 6        37.977 6
G21  21177674.977 9 111289412.450 9     -1261.434 9        55.706 9  21177674.264 6         0.000 6      -982.936 6        37.977 6
G29  24316626.159 9 127784676.263 9     -3122.501 9        54.469 9  24316627.752 6         0.000 6     -2433.120 6        37.977 6
G27  21991208.065 9 115564551.453 9      2492.625 9        55.380 9  21991209.993 6         0.000 6      1942.306 6        37.977 6
G16  20494280.210 9 107698149.092 9       539.316 9        55.978 9  20494279.383 6         0.000 6       420.246 6        37.977 6
G26  20662627.965 9 108582820.503 9     -1499.606 9        55.870 9  20662630.785 6         0.000 6     -1168.525 6        37.977 6
G20  21929959.480 9 115242681.923 9      2552.840 9        55.321 9  21929959.794 6         0.000 6      1989.227 6        37.977 6
> 2019 07 03 12 01 29.0000000  0  8       0.000000000000
G07  25334865.854 9 133135572.658 9      2172.893 9        54.136 9  25334866.517 6         0.000 6      1693.164 6        37.977 6
G10  23789571.370 9 125014986.970 9      3525.264 9        54.677 9  23789575.077 6         0.000 6      2746.962 6        37.977 6
G21  21177915.054 9 111290674.061 9     -1261.794 9        55.706 9  21177914.341 6         0.000 6      -983.216 6        37.977 6
G29  24317220.359 9 127787798.796 9     -3122.586 9        54.469 9  24317221.952 6         0.000 6     -2433.186 6        37.977 6
G27  21990733.756 9 115562058.948 9      2492.387 9        55.380 9  21990735.684 6         0.000 6      1942.120 6        37.977 6
G16  20494177.639 9 107697610.081 9       538.699 9        55.978 9  20494176.813 6         0.000 6       419.765 6        37.977 6
G26  20662913.385 9 108584320.389 9     -1500.180 9        55.870 9  20662916.204 6         0.000 6     -1168.972 6        37.977 6
G20  21929473.733 9 115240129.306 9      2552.394 9        55.321 9  21929474.046 6         0.000 6      1988.879 6        37.977 6
> 2019 07 03 12 01 30.0000000  0  8       0.000000000000
G07  25334452.410 9 133133399.999 9      2172.432 9        54.136 9  25334453.073 6         0.000 6      1692.805 6        37.977 6
G10  23788900.548 9 125011461.787 9      3525.124 9        54.677 9  23788904.254 6         0.000 6      2746.852 6        37.977 6
G21  21178155.199 9 111291936.034 9     -1262.153 9        55.706 9  21178154.486 6         0.000 6      -983.496 6        37.977 6
G29  24317814.576 9 127790921.414 9     -3122.671 9        54.468 9  24317816.169 6         0.000 6     -2433.253 6        37.977 6
G27  21990259.493 9 115559566.682 9      2492.149 9        55.380 9  21990261.421 6         0.000 6      1941.935 6        37.977 6
G16  20494075.187 9 107697071.691 9       538.082 9        55.978 9  20494074.360 6         0.000 6       419.284 6        37.977 6
G26  20663198.914 9 108585820.854 9     -1500.754 9        55.869 9  20663201.734 6         0.000 6     -1169.419 6        37.977 6
G20  21928988.071 9 115237577.140 9      2551.948 9        55.321 9  21928988.384 6         0.000 6      1988.532 6        37.977 6
> 2019 07 03 12 01 31.0000000  0  8       0.000000000000
G07  25334039.054 9 133131227.802 9      2171.970 9        54.136 9  25334039.717 6         0.000 6      1692.445 6        37.977 6
G10  23788229.752 9 125007936.744 9      3524.983 9        54.677 9  23788233.458 6         0.000 6      2746.743 6        37.977 6
G21  21178395.413 9 111293198.365 9     -1262.512 9        55.706 9  21178394.700 6         0.000 6      -983.776 6        37.977 6
G29  24318408.808 9 127794044.117 9     -3122.756 9        54.468 9  24318410.403 6         0.000 6     -2433.319 6        37.977 6
G27  21989785.276 9 115557074.655 9      2491.911 9        55.380 9  21989787.204 6         0.000 6      1941.749 6        37.977 6
G16  20493972.852 9 107696533.918 9       537.464 9        55.978 9  20493972.026 6         0.000 6       418.803 6        37.977 6
G26  20663484.553 9 108587321.893 9     -1501.327 9        55.869 9  20663487.372 6         0.000 6     -1169.866 6        37.977 6
G20  21928502.494 9 115235025.420 9      2551.502 9        55.322 9  21928502.806 6         0.000 6      1988.184 6        37.977 6
> 2019 07 03 12 01 32.0000000  0  8       0.000000000000
G07  25333625.786 9 133129056.069 9      2171.508 9        54.136 9  25333626.449 6         0.000 6      1692.085 6        37.977 6
G10  23787558.983 9 125004411.837 9      3524.843 9        54.677 9  23787562.688 6         0.000 6      2746.633 6        37.977 6
G21  21178635.695 9 111294461.054 9     -1262.871 9        55.706 9  21178634.982 6         0.000 6      -984.055 6        37.977 6
G29  24319003.057 9 127797166.905 9     -3122.840 9        54.468 9  24319004.652 6         0.000 6     -2433.385 6        37.977 6
G27  21989311.103 9 115554582.864 9      2491.673 9        55.380 9  21989313.031 6         0.000 6      1941.564 6        37.977 6
G16  20493870.634 9 107695996.759 9       536.847 9        55.978 9  20493869.808 6         0.000 6       418.322 6        37.977 6
G26  20663770.299 9 108588823.501 9     -1501.901 9        55.869 9  20663773.119 6         0.000 6     -1170.313 6        37.977 6
G20  21928017.001 9 115232474.142 9      2551.055 9        55.322 9  21928017.313 6         0.000 6      1987.836 6        37.977 6
> 2019 07 03 12 01 33.0000000  0  8       0.000000000000
G07  25333212.605 9 133126884.795 9      2171.047 9        54.136 9  25333213.268 6         0.000 6      1691.726 6        37.977 6
G10  23786888.241 9 125000887.075 9      3524.702 9        54.678 9  23786891.946 6         0.000 6      2746.524 6        37.977 6
G21  21178876.045 9 111295724.103 9     -1263.230 9        55.706 9  21178875.332 6         0.000 6      -984.335 6        37.977 6
G29  24319597.322 9 127800289.778 9     -3122.925 9        54.468 9  24319598.917 6         0.000 6     -2433.451 6        37.977 6
G27  21988836.976 9 115552091.313 9      2491.435 9        55.381 9  21988838.904 6         0.000 6      1941.379 6        37.977 6
G16  20493768.535 9 107695460.220 9       536.230 9        55.978 9  20493767.708 6         0.000 6       417.841 6        37.977 6
G26  20664056.156 9 108590325.687 9     -1502.475 9        55.869 9  20664058.976 6         0.000 6     -1170.760 6        37.977 6
G20  21927531.593 9 115229923.314 9      2550.609 9        55.322 9  21927531.906 6         0.000 6      1987.489 6        37.977 6
> 2019 07 03 12 01 34.0000000  0  8       0.000000000000
G07  25332799.513 9 133124713.985 9      2170.585 9        54.136 9  25332800.176 6         0.000 6      1691.366 6        37.977 6
G10  23786217.525 9 124997362.449 9      3524.562 9        54.678 9  23786221.229 6         0.000 6      2746.414 6        37.977 6
G21  21179116.464 9 111296987.510 9     -1263.589 9        55.706 9  21179115.751 6         0.000 6      -984.615 6        37.977 6
G29  24320191.603 9 127803412.735 9     -3123.010 9        54.468 9  24320193.199 6         0.000 6     -2433.517 6        37.977 6
G27  21988362.894 9 115549599.997 9      2491.197 9        55.381 9  21988364.821 6         0.000 6      1941.193 6        37.977 6
G16  20493666.552 9 107694924.296 9       535.612 9        55.978 9  20493665.725 6         0.000 6       417.360 6        37.977 6
G26  20664342.121 9 108591828.442 9     -1503.049 9        55.869 9  20664344.942 6         0.000 6     -1171.207 6        37.977 6
G20  21927046.270 9 115227372.928 9      2550.163 9        55.322 9  21927046.582 6         0.000 6      1987.141 6        37.977 6
> 2019 07 03 12 01 35.0000000  0  8       0.000000000000
G07  25332386.509 9 133122543.635 9      2170.123 9        54.137 9  25332387.171 6         0.000 6      1691.006 6        37.977 6
G10  23785546.837 9 124993837.969 9      3524.421 9        54.678 9  23785550.540 6         0.000 6      2746.305 6        37.977 6
G21  21179356.951 9 111298251.277 9     -1263.948 9        55.706 9  21179356.238 6         0.000 6      -984.895 6        37.977 6
G29  24320785.900 9 127806535.777 9     -3123.095 9        54.467 9  24320787.497 6         0.000 6     -2433.583 6        37.977 6
G27  21987888.858 9 115547108.922 9      2490.959 9        55.381 9  21987890.785 6         0.000 6      1941.007 6        37.977 6
G16  20493564.687 9 107694388.992 9       534.995 9        55.978 9  20493563.860 6         0.000 6       416.879 6        37.977 6
G26  20664628.197 9 108593331.776 9     -1503.622 9        55.869 9  20664631.017 6         0.000 6     -1171.654 6        37.977 6
G20  21926561.033 9 115224822.993 9      2549.716 9        55.322 9  21926561.345 6         0.000 6      1986.793 6        37.977 6
> 2019 07 03 12 01 36.0000000  0  8       0.000000000000
G07  25331973.593 9 133120373.752 9      2169.661 9        54.137 9  25331974.255 6         0.000 6      1690.646 6        37.977 6
G10  23784876.174 9 124990313.623 9      3524.280 9        54.678 9  23784879.877 6         0.000 6      2746.195 6        37.977 6
G21  21179597.505 9 111299515.400 9     -1264.307 9        55.706 9  21179596.793 6         0.000 6      -985.174 6        37.977 6
G29  24321380.212 9 127809658.899 9     -3123.180 9        54.467 9  24321381.810 6         0.000 6     -2433.649 6        37.977 6
G27  21987414.867 9 115544618.087 9      2490.721 9        55.381 9  21987416.794 6         0.000 6      1940.822 6        37.977 6
G16  20493462.939 9 107693854.304 9       534.378 9        55.978 9  20493462.112 6         0.000 6       416.398 6        37.977 6
G26  20664914.380 9 108594835.678 9     -1504.196 9        55.869 9  20664917.200 6         0.000 6     -1172.101 6        37.977 6
G20  21926075.879 9 115222273.498 9      2549.270 9        55.323 9  21926076.191 6         0.000 6      1986.445 6        37.977 6
> 2019 07 03 12 01 37.0000000  0  8       0.000000000000
G07  25331560.764 9 133118204.325 9      2169.199 9        54.137 9  25331561.426 6         0.000 6      1690.286 6        37.977 6
G10  23784205.539 9 124986789.424 9      3524.139 9        54.679 9  23784209.241 6         0.000 6      2746.085 6        37.977 6
G21  21179838.129 9 111300779.885 9     -1264.665 9        55.706 9  21179837.416 6         0.000 6      -985.454 6        37.977 6
G29  24321974.542 9 127812782.111 9     -3123.264 9        54.467 9  24321976.140 6         0.000 6     -2433.715 6        37.977 6
G27  21986940.921 9 115542127.488 9      2490.482 9        55.381 9  21986942.848 6         0.000 6      1940.636 6        37.977 6
G16  20493361.309 9 107693320.235 9       533.760 9        55.978 9  20493360.482 6         0.000 6       415.917 6        37.977 6
G26  20665200.673 9 108596340.159 9     -1504.769 9        55.869 9  20665203.494 6         0.000 6     -1172.548 6        37.977 6
G20  21925590.812 9 115219724.456 9      2548.823 9        55.323 9  21925591.123 6         0.000 6      1986.097 6        37.977 6
> 2019 07 03 12 01 38.0000000  0  8       0.000000000000
G07  25331148.024 9 133116035.364 9      2168.737 9        54.137 9  25331148.686 6         0.000 6      1689.926 6        37.977 6
G10  23783534.930 9 124983265.362 9      3523.998 9        54.679 9  23783538.632 6         0.000 6      2745.975 6        37.977 6
G21  21180078.820 9 111302044.727 9     -1265.024 9        55.705 9  21180078.108 6         0.000 6      -985.733 6        37.977 6
G29  24322568.887 9 127815905.407 9     -3123.349 9        54.467 9  24322570.486 6         0.000 6     -2433.781 6        37.977 6
G27  21986467.021 9 115539637.126 9      2490.244 9        55.381 9  21986468.947 6         0.000 6      1940.451 6        37.977 6
G16  20493259.796 9 107692786.781 9       533.142 9        55.978 9  20493258.969 6         0.000 6       415.436 6        37.977 6
G26  20665487.075 9 108597845.208 9     -1505.343 9        55.868 9  20665489.896 6         0.000 6     -1172.995 6        37.977 6
G20  21925105.829 9 115217175.857 9      2548.376 9        55.323 9  21925106.139 6         0.000 6      1985.749 6        37.977 6
> 2019 07 03 12 01 39.0000000  0  8       0.000000000000
G07  25330735.371 9 133113866.861 9      2168.275 9        54.137 9  25330736.032 6         0.000 6      1689.566 6        37.977 6
G10  23782864.349 9 124979741.445 9      3523.856 9        54.679 9  23782868.050 6         0.000 6      2745.865 6        37.977 6
G21  21180319.581 9 111303309.929 9     -1265.383 9        55.705 9  21180318.868 6         0.000 6      -986.013 6        37.977 6
G29  24323163.249 9 127819028.788 9     -3123.434 9        54.467 9  24323164.848 6         0.000 6     -2433.847 6        37.977 6
G27  21985993.166 9 115537147.004 9      2490.006 9        55.382 9  21985995.092 6         0.000 6      1940.265 6        37.977 6
G16  20493158.401 9 107692253.947 9       532.525 9        55.978 9  20493157.574 6         0.000 6       414.954 6        37.977 6
G26  20665773.587 9 108599350.836 9     -1505.916 9        55.868 9  20665776.408 6         0.000 6     -1173.442 6        37.977 6
G20  21924620.931 9 115214627.709 9      2547.929 9        55.323 9  21924621.242 6         0.000 6      1985.401 6        37.977 6
> 2019 07 03 12 01 40.0000000  0  8       0.000000000000
G07  25330322.806 9 133111698.821 9      2167.812 9        54.137 9  25330323.467 6         0.000 6      1689.205 6        37.977 6
G10  23782193.795 9 124976217.670 9      3523.715 9        54.679 9  23782197.495 6         0.000 6      2745.755 6        37.977 6
G21  21180560.409 9 111304575.491 9     -1265.742 9        55.705 9  21180559.697 6         0.000 6      -986.292 6        37.977 6
G29  24323757.627 9 127822152.254 9     -3123.518 9        54.466 9  24323759.227 6         0.000 6     -2433.913 6        37.977 6
G27  21985519.356 9 115534657.120 9      2489.768 9        55.382 9  21985521.282 6         0.000 6      1940.079 6        37.977 6
G16  20493057.124 9 107691721.731 9       531.907 9        55.978 9  20493056.297 6         0.000 6       414.473 6        37.977 6
G26  20666060.208 9 108600857.037 9     -1506.490 9        55.868 9  20666063.029 6         0.000 6     -1173.889 6        37.977 6
G20  21924136.119 9 115212080.007 9      2547.482 9        55.323 9  21924136.429 6         0.000 6      1985.052 6        37.977 6
> 2019 07 03 12 01 41.0000000  0  8       0.000000000000
G07  25329910.330 9 133109531.246 9      2167.350 9        54.137 9  25329910.990 6         0.000 6      1688.845 6        37.977 6
G10  23781523.267 9 124972694.032 9      3523.574 9        54.680 9  23781526.967 6         0.000 6      2745.644 6        37.977 6
G21  21180801.305 9 111305841.409 9     -1266.100 9        55.705 9  21180800.593 6         0.000 6      -986.572 6        37.977 6
G29  24324352.020 9 127825275.804 9     -3123.603 9        54.466 9  24324353.621 6         0.000 6     -2433.979 6        37.977 6
G27  21985045.591 9 115532167.472 9      2489.529 9        55.382 9  21985047.517 6         0.000 6      1939.894 6        37.977 6
G16  20492955.963 9 107691190.129 9       531.290 9        55.978 9  20492955.136 6         0.000 6       413.992 6        37.977 6
G26  20666346.937 9 108602363.807 9     -1507.063 9        55.868 9  20666349.758 6         0.000 6     -1174.335 6        37.977 6
G20  21923651.391 9 115209532.749 9      2547.035 9        55.324 9  21923651.701 6         0.000 6      1984.704 6        37.977 6
> 2019 07 03 12 01 42.0000000  0  8       0.000000000000
G07  25329497.940 9 133107364.131 9      2166.888 9        54.138 9  25329498.601 6         0.000 6      1688.485 6        37.977 6
G10  23780852.767 9 124969170.540 9      3523.432 9        54.680 9  23780856.466 6         0.000 6      2745.534 6        37.977 6
G21  21181042.270 9 111307107.687 9     -1266.459 9        55.705 9  21181041.558 6         0.000 6      -986.851 6        37.977 6
G29  24324946.430 9 127828399.439 9     -3123.688 9        54.466 9  24324948.032 6         0.000 6     -2434.045 6        37.977 6
G27  21984571.872 9 115529678.065 9      2489.291 9        55.382 9  21984573.798 6         0.000 6      1939.708 6        37.977 6
G16  20492854.921 9 107690659.149 9       530.672 9        55.978 9  20492854.094 6         0.000 6       413.511 6        37.977 6
G26  20666633.776 9 108603871.155 9     -1507.636 9        55.868 9  20666636.597 6         0.000 6     -1174.782 6        37.977 6
G20  21923166.749 9 115206985.942 9      2546.588 9        55.324 9  21923167.059 6         0.000 6      1984.355 6        37.977 6
> 2019 07 03 12 01 43.0000000  0  8       0.000000000000
G07  25329085.641 9 133105197.483 9      2166.425 9        54.138 9  25329086.301 6         0.000 6      1688.125 6        37.977 6
G10  23780182.292 9 124965647.182 9      3523.290 9        54.680 9  23780185.990 6         0.000 6      2745.424 6        37.977 6
G21  21181283.303 9 111308374.320 9     -1266.817 9        55.705 9  21181282.590 6         0.000 6      -987.130 6        37.977 6
G29  24325540.855 9 127831523.154 9     -3123.772 9        54.466 9  24325542.457 6         0.000 6     -2434.111 6        37.977 6
G27  21984098.199 9 115527188.897 9      2489.052 9        55.382 9  21984100.125 6         0.000 6      1939.522 6        37.977 6
G16  20492753.996 9 107690128.784 9       530.054 9        55.978 9  20492753.169 6         0.000 6       413.029 6        37.977 6
G26  20666920.723 9 108605379.071 9     -1508.210 9        55.868 9  20666923.545 6         0.000 6     -1175.229 6        37.977 6
G20  21922682.191 9 115204439.575 9      2546.141 9        55.324 9  21922682.500 6         0.000 6      1984.007 6        37.977 6
> 2019 07 03 12 01 44.0000000  0  8       0.000000000000
G07  25328673.428 9 133103031.293 9      2165.963 9        54.138 9  25328674.088 6         0.000 6      1687.764 6        37.977 6
G10  23779511.846 9 124962123.973 9      3523.149 9        54.680 9  23779515.543 6         0.000 6      2745.313 6        37.977 6
G21  21181524.404 9 111309641.315 9     -1267.175 9        55.705 9  21181523.692 6         0.000 6      -987.410 6        37.977 6
G29  24326135.298 9 127834646.958 9     -3123.857 9        54.465 9  24326136.900 6         0.000 6     -2434.177 6        37.977 6
G27  21983624.571 9 115524699.967 9      2488.814 9        55.383 9  21983626.496 6         0.000 6      1939.336 6        37.977 6
G16  20492653.189 9 107689599.038 9       529.436 9        55.979 9  20492652.362 6         0.000 6       412.548 6        37.977 6
G26  20667207.781 9 108606887.566 9     -1508.783 9        55.868 9  20667210.602 6         0.000 6     -1175.676 6        37.977 6
G20  21922197.719 9 115201893.662 9      2545.693 9        55.324 9  21922198.028 6         0.000 6      1983.658 6        37.977 6
> 2019 07 03 12 01 45.0000000  0  8       0.000000000000
G07  25328261.303 9 133100865.568 9      2165.500 9        54.138 9  25328261.963 6         0.000 6      1687.404 6        37.977 6
G10  23778841.426 9 124958600.902 9      3523.007 9        54.681 9  23778845.123 6         0.000 6      2745.203 6        37.977 6
G21  21181765.573 9 111310908.667 9     -1267.534 9        55.705 9  21181764.861 6         0.000 6      -987.689 6        37.977 6
G29  24326729.756 9 127837770.846 9     -3123.941 9        54.465 9  24326731.359 6         0.000 6     -2434.243 6        37.977 6
G27  21983150.988 9 115522211.273 9      2488.575 9        55.383 9  21983152.913 6         0.000 6      1939.150 6        37.977 6
G16  20492552.498 9 107689069.908 9       528.819 9        55.979 9  20492551.672 6         0.000 6       412.066 6        37.977 6
G26  20667494.946 9 108608396.629 9     -1509.356 9        55.868 9  20667497.768 6         0.000 6     -1176.122 6        37.977 6
G20  21921713.331 9 115199348.192 9      2545.246 9        55.324 9  21921713.640 6         0.000 6      1983.310 6        37.977 6
> 2019 07 03 12 01 46.0000000  0  8       0.000000000000
G07  25327849.266 9 133098700.303 9      2165.037 9        54.138 9  25327849.926 6         0.000 6      1687.043 6        37.977 6
G10  23778171.033 9 124955077.976 9      3522.865 9        54.681 9  23778174.729 6         0.000 6      2745.092 6        37.977 6
G21  21182006.811 9 111312176.379 9     -1267.892 9        55.705 9  21182006.099 6         0.000 6      -987.968 6        37.977 6
G29  24327324.230 9 127840894.820 9     -3124.026 9        54.465 9  24327325.834 6         0.000 6     -2434.308 6        37.977 6
G27  21982677.450 9 115519722.820 9      2488.337 9        55.383 9  21982679.375 6         0.000 6      1938.965 6        37.977 6
G16  20492451.926 9 107688541.398 9       528.201 9        55.979 9  20492451.100 6         0.000 6       411.585 6        37.977 6
G26  20667782.222 9 108609906.270 9     -1509.930 9        55.867 9  20667785.043 6         0.000 6     -1176.569 6        37.977 6
G20  21921229.029 9 115196803.175 9      2544.798 9        55.325 9  21921229.338 6         0.000 6      1982.961 6        37.977 6
> 2019 07 03 12 01 47.0000000  0  8       0.000000000000
G07  25327437.318 9 133096535.503 9      2164.575 9        54.138 9  25327437.977 6         0.000 6      1686.682 6        37.977 6
G10  23777500.667 9 124951555.189 9      3522.723 9        54.681 9  23777504.363 6         0.000 6      2744.981 6        37.977 6
G21  21182248.116 9 111313444.447 9     -1268.250 9        55.705 9  21182247.404 6         0.000 6      -988.247 6        37.977 6
G29  24327918.720 9 127844018.877 9     -3124.110 9        54.465 9  24327920.325 6         0.000 6     -2434.374 6        37.977 6
G27  21982203.958 9 115517234.603 9      2488.098 9        55.383 9  21982205.883 6         0.000 6      1938.779 6        37.977 6
G16  20492351.471 9 107688013.503 9       527.583 9        55.979 9  20492350.644 6         0.000 6       411.104 6        37.977 6
G26  20668069.605 9 108611416.480 9     -1510.503 9        55.867 9  20668072.427 6         0.000 6     -1177.016 6        37.977 6
G20  21920744.812 9 115194258.600 9      2544.351 9        55.325 9  21920745.120 6         0.000 6      1982.612 6        37.977 6
> 2019 07 03 12 01 48.0000000  0  8       0.000000000000
G07  25327025.457 9 133094371.163 9      2164.112 9        54.138 9  25327026.116 6         0.000 6      1686.322 6        37.977 6
G10  23776830.329 9 124948032.547 9      3522.581 9        54.681 9  23776834.024 6         0.000 6      2744.871 6        37.977 6
G21  21182489.490 9 111314712.876 9     -1268.608 9        55.704 9  21182488.778 6         0.000 6      -988.526 6        37.977 6
G29  24328513.227 9 127847143.020 9     -3124.195 9        54.465 9  24328514.832 6         0.000 6     -2434.440 6        37.977 6
G27  21981730.511 9 115514746.626 9      2487.860 9        55.383 9  21981732.436 6         0.000 6      1938.593 6        37.977 6
G16  20492251.134 9 107687486.229 9       526.965 9        55.979 9  20492250.308 6         0.000 6       410.622 6        37.977 6
G26  20668357.099 9 108612927.267 9     -1511.076 9        55.867 9  20668359.921 6         0.000 6     -1177.462 6        37.977 6
G20  21920260.681 9 115191714.478 9      2543.903 9        55.325 9  21920260.989 6         0.000 6      1982.263 6        37.977 6
> 2019 07 03 12 01 49.0000000  0  8       0.000000000000
G07  25326613.685 9 133092207.289 9      2163.649 9        54.139 9  25326614.344 6         0.000 6      1685.961 6        37.977 6
G10  23776160.016 9 124944510.044 9      3522.438 9        54.682 9  23776163.711 6         0.000 6      2744.760 6        37.977 6
G21  21182730.932 9 111315981.660 9     -1268.967 9        55.704 9  21182730.220 6         0.000 6      -988.805 6        37.977 6
G29  24329107.749 9 127850267.246 9     -3124.279 9        54.464 9  24329109.355 6         0.000 6     -2434.506 6        37.977 6
G27  21981257.109 9 115512258.887 9      2487.621 9        55.384 9  21981259.034 6         0.000 6      1938.407 6        37.977 6
G16  20492150.914 9 107686959.570 9       526.347 9        55.979 9  20492150.088 6         0.000 6       410.141 6        37.977 6
G26  20668644.701 9 108614438.623 9     -1511.649 9        55.867 9  20668647.523 6         0.000 6     -1177.909 6        37.977 6
G20  21919776.634 9 115189170.799 9      2543.455 9        55.325 9  21919776.942 6         0.000 6      1981.914 6        37.977 6
> 2019 07 03 12 01 50.0000000  0  8       0.000000000000
G07  25326202.000 9 133090043.876 9      2163.186 9        54.139 9  25326202.659 6         0.000 6      1685.600 6        37.977 6
G10  23775489.732 9 124940987.688 9      3522.296 9        54.682 9  23775493.426 6         0.000 6      2744.649 6        37.977 6
G21  21182972.443 9 111317250.805 9     -1269.325 9        55.704 9  21182971.731 6         0.000 6      -989.084 6        37.977 6
G29  24329702.288 9 127853391.557 9     -3124.364 9        54.464 9  24329703.894 6         0.000 6     -2434.572 6        37.977 6
G27  21980783.754 9 115509771.388 9      2487.382 9        55.384 9  21980785.678 6         0.000 6      1938.221 6        37.977 6
G16  20492050.813 9 107686433.532 9       525.729 9        55.979 9  20492049.986 6         0.000 6       409.659 6        37.977 6
G26  20668932.413 9 108615950.557 9     -1512.222 9        55.867 9  20668935.235 6         0.000 6     -1178.355 6        37.977 6
G20  21919292.673 9 115186627.572 9      2543.007 9        55.325 9  21919292.981 6         0.000 6      1981.565 6        37.977 6
> 2019 07 03 12 01 51.0000000  0  8       0.000000000000
G07  25325790.404 9 133087880.928 9      2162.723 9        54.139 9  25325791.063 6         0.000 6      1685.239 6        37.977 6
G10  23774819.475 9 124937465.471 9      3522.153 9        54.682 9  23774823.168 6         0.000 6      2744.538 6        37.977 6
G21  21183214.021 9 111318520.306 9     -1269.683 9        55.704 9  21183213.309 6         0.000 6      -989.363 6        37.977 6
G29  24330296.842 9 127856515.948 9     -3124.448 9        54.464 9  24330298.449 6         0.000 6     -2434.637 6        37.977 6
G27  21980310.444 9 115507284.131 9      2487.144 9        55.384 9  21980312.368 6         0.000 6      1938.035 6        37.977 6
G16  20491950.829 9 107685908.113 9       525.111 9        55.979 9  20491950.002 6         0.000 6       409.177 6        37.977 6
G26  20669220.233 9 108617463.064 9     -1512.795 9        55.867 9  20669223.056 6         0.000 6     -1178.802 6        37.977 6
G20  21918808.797 9 115184084.790 9      2542.559 9        55.325 9  21918809.104 6         0.000 6      1981.216 6        37.977 6
> 2019 07 03 12 01 52.0000000  0  8       0.000000000000
G07  25325378.896 9 133085718.443 9      2162.259 9        54.139 9  25325379.555 6         0.000 6      1684.878 6        37.977 6
G10  23774149.244 9 124933943.395 9      3522.011 9        54.682 9  23774152.936 6         0.000 6      2744.427 6        37.977 6
G21  21183455.667 9 111319790.165 9     -1270.041 9        55.704 9  21183454.955 6         0.000 6      -989.642 6        37.977 6
G29  24330891.412 9 127859640.428 9     -3124.532 9        54.464 9  24330893.020 6         0.000 6     -2434.703 6        37.977 6
G27  21979837.179 9 115504797.107 9      2486.905 9        55.384 9  21979839.103 6         0.000 6      1937.849 6        37.977 6
G16  20491850.962 9 107685383.308 9       524.493 9        55.979 9  20491850.135 6         0.000 6       408.696 6        37.977 6
G26  20669508.162 9 108618976.139 9     -1513.368 9        55.867 9  20669510.985 6         0.000 6     -1179.248 6        37.977 6
G20  21918325.006 9 115181542.455 9      2542.111 9        55.326 9  21918325.313 6         0.000 6      1980.867 6        37.977 6
> 2019 07 03 12 01 53.0000000  0  8       0.000000000000
G07  25324967.476 9 133083556.419 9      2161.796 9        54.139 9  25324968.135 6         0.000 6      1684.517 6        37.977 6
G10  23773479.041 9 124930421.466 9      3521.868 9        54.682 9  23773482.733 6         0.000 6      2744.315 6        37.977 6
G21  21183697.382 9 111321060.383 9     -1270.399 9        55.704 9  21183696.670 6         0.000 6      -989.921 6        37.977 6
G29  24331485.999 9 127862764.992 9     -3124.617 9        54.464 9  24331487.607 6         0.000 6     -2434.769 6        37.977 6
G27  21979363.959 9 115502310.325 9      2486.666 9        55.384 9  21979365.883 6         0.000 6      1937.663 6        37.977 6
G16  20491751.213 9 107684859.124 9       523.875 9        55.979 9  20491750.386 6         0.000 6       408.214 6        37.977 6
G26  20669796.201 9 108620489.792 9     -1513.941 9        55.867 9  20669799.024 6         0.000 6     -1179.695 6        37.977 6
G20  21917841.301 9 115179000.572 9      2541.663 9        55.326 9  21917841.608 6         0.000 6      1980.518 6        37.977 6
> 2019 07 03 12 01 54.0000000  0  8       0.000000000000
G07  25324556.145 9 133081394.861 9      2161.333 9        54.139 9  25324556.803 6         0.000 6      1684.156 6        37.977 6
G10  23772808.865 9 124926899.676 9      3521.725 9        54.683 9  23772812.556 6         0.000 6      2744.204 6        37.977 6
G21  21183939.164 9 111322330.958 9     -1270.756 9        55.704 9  21183938.452 6         0.000 6      -990.200 6        37.977 6
G29  24332080.602 9 127865889.641 9     -3124.701 9        54.463 9  24332082.211 6         0.000 6     -2434.835 6        37.977 6
G27  21978890.784 9 115499823.779 9      2486.427 9        55.384 9  21978892.708 6         0.000 6      1937.476 6        37.977 6
G16  20491651.581 9 107684335.555 9       523.257 9        55.979 9  20491650.754 6         0.000 6       407.732 6        37.977 6
G26  20670084.348 9 108622004.013 9     -1514.514 9        55.867 9  20670087.171 6         0.000 6     -1180.141 6        37.977 6
G20  21917357.680 9 115176459.134 9      2541.215 9        55.326 9  21917357.987 6         0.000 6      1980.168 6        37.977 6
> 2019 07 03 12 01 55.0000000  0  8       0.000000000000
G07  25324144.901 9 133079233.763 9      2160.869 9        54.139 9  25324145.559 6         0.000 6      1683.795 6        37.977 6
G10  23772138.716 9 124923378.032 9      3521.582 9        54.683 9  23772142.407 6         0.000 6      2744.093 6        37.977 6
G21  21184181.015 9 111323601.892 9     -1271.114 9        55.704 9  21184180.303 6         0.000 6      -990.479 6        37.977 6
G29  24332675.221 9 127869014.374 9     -3124.785 9        54.463 9  24332676.830 6         0.000 6     -2434.900 6        37.977 6
G27  21978417.656 9 115497337.474 9      2486.188 9        55.385 9  21978419.580 6         0.000 6      1937.290 6        37.977 6
G16  20491552.068 9 107683812.608 9       522.638 9        55.979 9  20491551.241 6         0.000 6       407.251 6        37.977 6
G26  20670372.605 9 108623518.812 9     -1515.087 9        55.866 9  20670375.428 6         0.000 6     -1180.588 6        37.977 6
G20  21916874.146 9 115173918.148 9      2540.766 9        55.326 9  21916874.452 6         0.000 6      1979.819 6        37.977 6
> 2019 07 03 12 01 56.0000000  0  8       0.000000000000
G07  25323733.746 9 133077073.132 9      2160.406 9        54.139 9  25323734.403 6         0.000 6      1683.434 6        37.977 6
G10  23771468.594 9 124919856.527 9      3521.439 9        54.683 9  23771472.284 6         0.000 6      2743.981 6        37.977 6
G21  21184422.934 9 111324873.182 9     -1271.472 9        55.704 9  21184422.222 6         0.000 6      -990.757 6        37.977 6
G29  24333269.856 9 127872139.191 9     -3124.870 9        54.463 9  24333271.466 6         0.000 6     -2434.966 6        37.977 6
G27  21977944.572 9 115494851.405 9      2485.950 9        55.385 9  21977946.496 6         0.000 6      1937.104 6        37.977 6
G16  20491452.671 9 107683290.275 9       522.020 9        55.979 9  20491451.844 6         0.000 6       406.769 6        37.977 6
G26  20670660.970 9 108625034.178 9     -1515.660 9        55.866 9  20670663.793 6         0.000 6     -1181.034 6        37.977 6
G20  21916390.696 9 115171377.606 9      2540.318 9        55.326 9  21916391.002 6         0.000 6      1979.470 6        37.977 6
> 2019 07 03 12 01 57.0000000  0  8       0.000000000000
G07  25323322.678 9 133074912.961 9      2159.942 9        54.140 9  25323323.336 6         0.000 6      1683.073 6        37.977 6
G10  23770798.500 9 124916335.170 9      3521.296 9        54.683 9  23770802.189 6         0.000 6      2743.870 6        37.977 6
G21  21184664.921 9 111326144.832 9     -1271.830 9        55.704 9  21184664.209 6         0.000 6      -991.036 6        37.977 6
G29  24333864.507 9 127875264.092 9     -3124.954 9        54.463 9  24333866.117 6         0.000 6     -2435.032 6        37.977 6
G27  21977471.535 9 115492365.578 9      2485.711 9        55.385 9  21977473.458 6         0.000 6      1936.918 6        37.977 6
G16  20491353.393 9 107682768.564 9       521.402 9        55.979 9  20491352.566 6         0.000 6       406.287 6        37.977 6
G26  20670949.445 9 108626550.123 9     -1516.233 9        55.866 9  20670952.268 6         0.000 6     -1181.481 6        37.977 6
G20  21915907.332 9 115168837.517 9      2539.869 9        55.327 9  21915907.638 6         0.000 6      1979.120 6        37.977 6
> 2019 07 03 12 01 58.0000000  0  8       0.000000000000
G07  25322911.699 9 133072753.257 9      2159.479 9        54.140 9  25322912.357 6         0.000 6      1682.712 6        37.977 6
G10  23770128.433 9 124912813.952 9      3521.153 9        54.684 9  23770132.121 6         0.000 6      2743.758 6        37.977 6
G21  21184906.975 9 111327416.837 9     -1272.187 9        55.703 9  21184906.264 6         0.000 6      -991.315 6        37.977 6
G29  24334459.174 9 127878389.078 9     -3125.038 9        54.463 9  24334460.785 6         0.000 6     -2435.097 6        37.977 6
G27  21976998.542 9 115489879.988 9      2485.472 9        55.385 9  21977000.465 6         0.000 6      1936.732 6        37.977 6
G16  20491254.231 9 107682247.468 9       520.784 9        55.979 9  20491253.404 6         0.000 6       405.805 6        37.977 6
G26  20671238.029 9 108628066.636 9     -1516.806 9        55.866 9  20671240.851 6         0.000 6     -1181.927 6        37.977 6
G20  21915424.053 9 115166297.872 9      2539.421 9        55.327 9  21915424.358 6         0.000 6      1978.770 6        37.977 6
> 2019 07 03 12 01 59.0000000  0  8       0.000000000000
G07  25322500.809 9 133070594.016 9      2159.015 9        54.140 9  25322501.466 6         0.000 6      1682.350 6        37.977 6
G10  23769458.393 9 124909292.879 9      3521.010 9        54.684 9  23769462.081 6         0.000 6      2743.647 6        37.977 6
G21  21185149.098 9 111328689.200 9     -1272.545 9        55.703 9  21185148.386 6         0.000 6      -991.593 6        37.977 6
G29  24335053.856 9 127881514.143 9     -3125.122 9        54.462 9  24335055.468 6         0.000 6     -2435.163 6        37.977 6
G27  21976525.596 9 115487394.642 9      2485.233 9        55.385 9  21976527.519 6         0.000 6      1936.546 6        37.977 6
G16  20491155.189 9 107681726.995 9       520.165 9        55.979 9  20491154.362 6         0.000 6       405.324 6        37.977 6
G26  20671526.721 9 108629583.725 9     -1517.378 9        55.866 9  20671529.544 6         0.000 6     -1182.373 6        37.977 6
G20  21914940.860 9 115163758.677 9      2538.972 9        55.327 9  21914941.165 6         0.000 6      1978.421 6        37.977 6
> 2019 07 03 12 02  0.0000000  0  8       0.000000000000
G07  25322090.006 9 133068435.235 9      2158.551 9        54.140 9  25322090.663 6         0.000 6      1681.989 6        37.977 6
G10  23768788.381 9 124905771.952 9      3520.866 9        54.684 9  23768792.068 6         0.000 6      2743.535 6        37.977 6
G21  21185391.290 9 111329961.924 9     -1272.902 9        55.703 9  21185390.578 6         0.000 6      -991.872 6        37.977 6
G29  24335648.556 9 127884639.301 9     -3125.207 9        54.462 9  24335650.168 6         0.000 6     -2435.229 6        37.977 6
G27  21976052.694 9 115484909.529 9      2484.993 9        55.386 9  21976054.617 6         0.000 6      1936.359 6        37.977 6
G16  20491056.263 9 107681207.137 9       519.547 9        55.979 9  20491055.436 6         0.000 6       404.842 6        37.977 6
G26  20671815.523 9 108631101.388 9     -1517.951 9        55.866 9  20671818.346 6         0.000 6     -1182.819 6        37.977 6
G20  21914457.752 9 115161219.935 9      2538.523 9        55.327 9  21914458.057 6         0.000 6      1978.071 6        37.977 6
