     3.00           Observation Data    M (Mixed)           RINEX VERSION / TYPE
SimGEN V6.06.00     Spirent             03-Jul-19 12:00     PGM / RUN BY / DATE 
                                                            MARKER NAME         
1                                                           MARKER NUMBER       
GROUND_CRAFT                                                MARKER TYPE         
jin4hi              Spirent                                 OBSERVER / AGENCY   
rec_num             rec_type            rec_vers            REC # / TYPE / VERS 
1                   ant_type                                ANT # / TYPE        
  1000.000                                                  INTERVAL            
  2019     7     3    12     0    1.0000000     GPS         TIME OF FIRST OBS   
  4162660.3760   664400.4150  4770543.3910                  APPROX POSITION XYZ 
        0.0000        0.0000        0.0000                  ANTENNA: DELTA H/E/N
G    8 C1C L1C D1C S1C C2C L2C D2C S2C                      SYS / # / OBS TYPES 
        0.0000        0.0000        0.0000                  ANTENNA: DELTA X/Y/Z
DBHZ                                                        SIGNAL STRENGTH UNIT
                                                            END OF HEADER       
> 2019 07 03 12 00  1.0000000  0  8       0.000000000000
G07  25371582.142 9 133328517.739 9      2213.144 9        54.123 9  25371582.825 6         0.000 6      1724.528 6        37.977 6
G10  23848714.952 9 125325787.652 9      3537.181 9        54.655 9  23848718.717 6         0.000 6      2756.245 6        37.977 6
G21  21157049.868 9 111181026.831 9     -1229.961 9        55.715 9  21157049.151 6         0.000 6      -958.411 6        37.977 6
G29  24264993.232 9 127513344.283 9     -3115.003 9        54.487 9  24264994.770 6         0.000 6     -2427.275 6        37.977 6
G27  22032643.191 9 115782294.276 9      2513.176 9        55.363 9  22032645.134 6         0.000 6      1958.319 6        37.977 6
G16  20503651.818 9 107747397.222 9       592.853 9        55.974 9  20503650.991 6         0.000 6       461.964 6        37.977 6
G26  20638219.270 9 108454552.095 9     -1449.556 9        55.880 9  20638222.080 6         0.000 6     -1129.524 6        37.977 6
G20  21972548.459 9 115466488.123 9      2591.274 9        55.304 9  21972548.797 6         0.000 6      2019.175 6        37.977 6
> 2019 07 03 12 00  2.0000000  0  8       0.000000000000
G07  25371161.028 9 133326304.774 9      2212.745 9        54.123 9  25371161.711 6         0.000 6      1724.217 6        37.977 6
G10  23848041.857 9 125322250.524 9      3537.069 9        54.655 9  23848045.622 6         0.000 6      2756.161 6        37.977 6
G21  21157283.956 9 111182256.971 9     -1230.326 9        55.715 9  21157283.239 6         0.000 6      -958.695 6        37.977 6
G29  24265586.011 9 127516459.347 9     -3115.117 9        54.487 9  24265587.549 6         0.000 6     -2427.367 6        37.977 6
G27  22032164.971 9 115779781.214 9      2512.946 9        55.363 9  22032166.914 6         0.000 6      1958.140 6        37.977 6
G16  20503539.059 9 107746804.672 9       592.240 9        55.974 9  20503538.233 6         0.000 6       461.486 6        37.977 6
G26  20638495.166 9 108456001.935 9     -1450.135 9        55.880 9  20638497.976 6         0.000 6     -1129.976 6        37.977 6
G20  21972055.396 9 115463897.063 9      2590.842 9        55.305 9  21972055.733 6         0.000 6      2018.839 6        37.977 6
> 2019 07 03 12 00  3.0000000  0  8       0.000000000000
G07  25370740.000 9 133324092.261 9      2212.290 9        54.123 9  25370740.683 6         0.000 6      1723.863 6        37.977 6
G10  23847368.787 9 125318713.531 9      3536.938 9        54.656 9  23847372.551 6         0.000 6      2756.058 6        37.977 6
G21  21157518.114 9 111183487.478 9     -1230.690 9        55.715 9  21157517.397 6         0.000 6      -958.979 6        37.977 6
G29  24266178.806 9 127519574.497 9     -3115.204 9        54.487 9  24266180.345 6         0.000 6     -2427.434 6        37.977 6
G27  22031686.796 9 115777268.388 9      2512.711 9        55.364 9  22031688.738 6         0.000 6      1957.957 6        37.977 6
G16  20503426.418 9 107746212.739 9       591.626 9        55.974 9  20503425.592 6         0.000 6       461.008 6        37.977 6
G26  20638771.172 9 108457452.356 9     -1450.712 9        55.880 9  20638773.982 6         0.000 6     -1130.425 6        37.977 6
G20  21971562.417 9 115461306.444 9      2590.404 9        55.305 9  21971562.754 6         0.000 6      2018.498 6        37.977 6
> 2019 07 03 12 00  4.0000000  0  8       0.000000000000
G07  25370319.059 9 133321880.205 9      2211.835 9        54.124 9  25370319.742 6         0.000 6      1723.509 6        37.977 6
G10  23846695.742 9 125315176.665 9      3536.807 9        54.656 9  23846699.506 6         0.000 6      2755.956 6        37.977 6
G21  21157752.340 9 111184718.347 9     -1231.054 9        55.715 9  21157751.623 6         0.000 6      -959.263 6        37.977 6
G29  24266771.618 9 127522689.735 9     -3115.291 9        54.487 9  24266773.158 6         0.000 6     -2427.502 6        37.977 6
G27  22031208.665 9 115774755.795 9      2512.476 9        55.364 9  22031210.607 6         0.000 6      1957.774 6        37.977 6
G16  20503313.893 9 107745621.416 9       591.013 9        55.974 9  20503313.067 6         0.000 6       460.529 6        37.977 6
G26  20639047.287 9 108458903.350 9     -1451.288 9        55.880 9  20639050.098 6         0.000 6     -1130.874 6        37.977 6
G20  21971069.520 9 115458716.260 9      2589.966 9        55.305 9  21971069.857 6         0.000 6      2018.156 6        37.977 6
> 2019 07 03 12 00  5.0000000  0  8       0.000000000000
G07  25369898.204 9 133319668.601 9      2211.380 9        54.124 9  25369898.887 6         0.000 6      1723.154 6        37.977 6
G10  23846022.723 9 125311639.935 9      3536.675 9        54.656 9  23846026.485 6         0.000 6      2755.854 6        37.977 6
G21  21157986.636 9 111185949.582 9     -1231.418 9        55.715 9  21157985.920 6         0.000 6      -959.546 6        37.977 6
G29  24267364.446 9 127525805.059 9     -3115.378 9        54.486 9  24267365.987 6         0.000 6     -2427.570 6        37.977 6
G27  22030730.579 9 115772243.439 9      2512.242 9        55.364 9  22030732.521 6         0.000 6      1957.592 6        37.977 6
G16  20503201.486 9 107745030.710 9       590.399 9        55.974 9  20503200.659 6         0.000 6       460.051 6        37.977 6
G26  20639323.513 9 108460354.925 9     -1451.865 9        55.879 9  20639326.324 6         0.000 6     -1131.324 6        37.977 6
G20  21970576.708 9 115456126.518 9      2589.528 9        55.305 9  21970577.044 6         0.000 6      2017.815 6        37.977 6
> 2019 07 03 12 00  6.0000000  0  8       0.000000000000
G07  25369477.437 9 133317457.455 9      2210.925 9        54.124 9  25369478.119 6         0.000 6      1722.800 6        37.977 6
G10  23845349.727 9 125308103.331 9      3536.544 9        54.656 9  23845353.489 6         0.000 6      2755.751 6        37.977 6
G21  21158221.002 9 111187181.178 9     -1231.781 9        55.714 9  21158220.285 6         0.000 6      -959.830 6        37.977 6
G29  24267957.291 9 127528920.470 9     -3115.465 9        54.486 9  24267958.832 6         0.000 6     -2427.637 6        37.977 6
G27  22030252.537 9 115769731.316 9      2512.007 9        55.364 9  22030254.479 6         0.000 6      1957.409 6        37.977 6
G16  20503089.194 9 107744440.615 9       589.785 9        55.974 9  20503088.368 6         0.000 6       459.573 6        37.977 6
G26  20639599.848 9 108461807.072 9     -1452.442 9        55.879 9  20639602.659 6         0.000 6     -1131.773 6        37.977 6
G20  21970083.978 9 115453537.209 9      2589.090 9        55.305 9  21970084.314 6         0.000 6      2017.474 6        37.977 6
> 2019 07 03 12 00  7.0000000  0  8       0.000000000000
G07  25369056.755 9 133315246.764 9      2210.470 9        54.124 9  25369057.437 6         0.000 6      1722.445 6        37.977 6
G10  23844676.758 9 125304566.861 9      3536.412 9        54.657 9  23844680.519 6         0.000 6      2755.649 6        37.977 6
G21  21158455.436 9 111188413.138 9     -1232.145 9        55.714 9  21158454.719 6         0.000 6      -960.113 6        37.977 6
G29  24268550.152 9 127532035.963 9     -3115.551 9        54.486 9  24268551.693 6         0.000 6     -2427.705 6        37.977 6
G27  22029774.541 9 115767219.433 9      2511.772 9        55.364 9  22029776.483 6         0.000 6      1957.226 6        37.977 6
G16  20502977.021 9 107743851.139 9       589.171 9        55.974 9  20502976.194 6         0.000 6       459.094 6        37.977 6
G26  20639876.293 9 108463259.800 9     -1453.018 9        55.879 9  20639879.104 6         0.000 6     -1132.223 6        37.977 6
G20  21969591.331 9 115450948.339 9      2588.652 9        55.306 9  21969591.667 6         0.000 6      2017.132 6        37.977 6
> 2019 07 03 12 00  8.0000000  0  8       0.000000000000
G07  25368636.160 9 133313036.525 9      2210.015 9        54.124 9  25368636.842 6         0.000 6      1722.090 6        37.977 6
G10  23844003.813 9 125301030.526 9      3536.281 9        54.657 9  23844007.574 6         0.000 6      2755.546 6        37.977 6
G21  21158689.940 9 111189645.465 9     -1232.509 9        55.714 9  21158689.224 6         0.000 6      -960.397 6        37.977 6
G29  24269143.030 9 127535151.547 9     -3115.638 9        54.486 9  24269144.572 6         0.000 6     -2427.773 6        37.977 6
G27  22029296.589 9 115764707.781 9      2511.537 9        55.365 9  22029298.531 6         0.000 6      1957.043 6        37.977 6
G16  20502864.964 9 107743262.275 9       588.557 9        55.974 9  20502864.137 6         0.000 6       458.616 6        37.977 6
G26  20640152.848 9 108464713.105 9     -1453.595 9        55.879 9  20640155.659 6         0.000 6     -1132.672 6        37.977 6
G20  21969098.769 9 115448359.911 9      2588.214 9        55.306 9  21969099.105 6         0.000 6      2016.791 6        37.977 6
> 2019 07 03 12 00  9.0000000  0  8       0.000000000000
G07  25368215.652 9 133310826.744 9      2209.560 9        54.124 9  25368216.334 6         0.000 6      1721.736 6        37.977 6
G10  23843330.893 9 125297494.317 9      3536.149 9        54.657 9  23843334.653 6         0.000 6      2755.444 6        37.977 6
G21  21158924.513 9 111190878.153 9     -1232.873 9        55.714 9  21158923.796 6         0.000 6      -960.680 6        37.977 6
G29  24269735.924 9 127538267.219 9     -3115.725 9        54.486 9  24269737.467 6         0.000 6     -2427.840 6        37.977 6
G27  22028818.681 9 115762196.362 9      2511.302 9        55.365 9  22028820.623 6         0.000 6      1956.860 6        37.977 6
G16  20502753.023 9 107742674.021 9       587.943 9        55.974 9  20502752.196 6         0.000 6       458.137 6        37.977 6
G26  20640429.512 9 108466166.981 9     -1454.171 9        55.879 9  20640432.323 6         0.000 6     -1133.121 6        37.977 6
G20  21968606.289 9 115445771.917 9      2587.775 9        55.306 9  21968606.625 6         0.000 6      2016.449 6        37.977 6
> 2019 07 03 12 00 10.0000000  0  8       0.000000000000
G07  25367795.230 9 133308617.416 9      2209.104 9        54.124 9  25367795.911 6         0.000 6      1721.381 6        37.977 6
G10  23842657.999 9 125293958.245 9      3536.017 9        54.657 9  23842661.758 6         0.000 6      2755.341 6        37.977 6
G21  21159159.155 9 111192111.207 9     -1233.236 9        55.714 9  21159158.439 6         0.000 6      -960.964 6        37.977 6
G29  24270328.835 9 127541382.977 9     -3115.812 9        54.485 9  24270330.379 6         0.000 6     -2427.908 6        37.977 6
G27  22028340.819 9 115759685.181 9      2511.067 9        55.365 9  22028342.760 6         0.000 6      1956.676 6        37.977 6
G16  20502641.199 9 107742086.386 9       587.329 9        55.974 9  20502640.373 6         0.000 6       457.659 6        37.977 6
G26  20640706.287 9 108467621.439 9     -1454.748 9        55.879 9  20640709.098 6         0.000 6     -1133.570 6        37.977 6
G20  21968113.894 9 115443184.366 9      2587.337 9        55.306 9  21968114.229 6         0.000 6      2016.108 6        37.977 6
> 2019 07 03 12 00 11.0000000  0  8       0.000000000000
G07  25367374.896 9 133306408.545 9      2208.649 9        54.125 9  25367375.576 6         0.000 6      1721.026 6        37.977 6
G10  23841985.129 9 125290422.300 9      3535.885 9        54.657 9  23841988.887 6         0.000 6      2755.238 6        37.977 6
G21  21159393.867 9 111193344.622 9     -1233.600 9        55.714 9  21159393.150 6         0.000 6      -961.247 6        37.977 6
G29  24270921.763 9 127544498.822 9     -3115.898 9        54.485 9  24270923.307 6         0.000 6     -2427.975 6        37.977 6
G27  22027863.001 9 115757174.232 9      2510.832 9        55.365 9  22027864.942 6         0.000 6      1956.493 6        37.977 6
G16  20502529.492 9 107741499.360 9       586.715 9        55.974 9  20502528.665 6         0.000 6       457.180 6        37.977 6
G26  20640983.170 9 108469076.469 9     -1455.324 9        55.879 9  20640985.981 6         0.000 6     -1134.020 6        37.977 6
G20  21967621.581 9 115440597.249 9      2586.898 9        55.306 9  21967621.916 6         0.000 6      2015.766 6        37.977 6
> 2019 07 03 12 00 12.0000000  0  8       0.000000000000
G07  25366954.647 9 133304200.128 9      2208.193 9        54.125 9  25366955.328 6         0.000 6      1720.671 6        37.977 6
G10  23841312.285 9 125286886.491 9      3535.753 9        54.658 9  23841316.043 6         0.000 6      2755.135 6        37.977 6
G21  21159628.648 9 111194578.403 9     -1233.964 9        55.714 9  21159627.931 6         0.000 6      -961.530 6        37.977 6
G29  24271514.707 9 127547614.753 9     -3115.985 9        54.485 9  24271516.251 6         0.000 6     -2428.043 6        37.977 6
G27  22027385.227 9 115754663.520 9      2510.597 9        55.365 9  22027387.168 6         0.000 6      1956.310 6        37.977 6
G16  20502417.902 9 107740912.953 9       586.101 9        55.974 9  20502417.076 6         0.000 6       456.702 6        37.977 6
G26  20641260.164 9 108470532.080 9     -1455.901 9        55.879 9  20641262.975 6         0.000 6     -1134.469 6        37.977 6
G20  21967129.352 9 115438010.575 9      2586.460 9        55.306 9  21967129.687 6         0.000 6      2015.424 6        37.977 6
> 2019 07 03 12 00 13.0000000  0  8       0.000000000000
G07  25366534.486 9 133301992.168 9      2207.738 9        54.125 9  25366535.166 6         0.000 6      1720.316 6        37.977 6
G10  23840639.465 9 125283350.811 9      3535.621 9        54.658 9  23840643.222 6         0.000 6      2755.032 6        37.977 6
G21  21159863.497 9 111195812.545 9     -1234.327 9        55.714 9  21159862.781 6         0.000 6      -961.813 6        37.977 6
G29  24272107.667 9 127550730.771 9     -3116.072 9        54.485 9  24272109.212 6         0.000 6     -2428.110 6        37.977 6
G27  22026907.499 9 115752153.041 9      2510.362 9        55.365 9  22026909.439 6         0.000 6      1956.127 6        37.977 6
G16  20502306.429 9 107740327.156 9       585.487 9        55.974 9  20502305.602 6         0.000 6       456.223 6        37.977 6
G26  20641537.266 9 108471988.263 9     -1456.477 9        55.878 9  20641540.078 6         0.000 6     -1134.918 6        37.977 6
G20  21966637.206 9 115435424.335 9      2586.021 9        55.307 9  21966637.541 6         0.000 6      2015.082 6        37.977 6
> 2019 07 03 12 00 14.0000000  0  8       0.000000000000
G07  25366114.410 9 133299784.662 9      2207.282 9        54.125 9  25366115.091 6         0.000 6      1719.961 6        37.977 6
G10  23839966.671 9 125279815.267 9      3535.489 9        54.658 9  23839970.428 6         0.000 6      2754.929 6        37.977 6
G21  21160098.416 9 111197047.053 9     -1234.691 9        55.714 9  21160097.700 6         0.000 6      -962.097 6        37.977 6
G29  24272700.644 9 127553846.876 9     -3116.158 9        54.485 9  24272702.190 6         0.000 6     -2428.178 6        37.977 6
G27  22026429.815 9 115749642.799 9      2510.127 9        55.366 9  22026431.756 6         0.000 6      1955.944 6        37.977 6
G16  20502195.073 9 107739741.977 9       584.872 9        55.974 9  20502194.246 6         0.000 6       455.745 6        37.977 6
G26  20641814.480 9 108473445.027 9     -1457.054 9        55.878 9  20641817.291 6         0.000 6     -1135.367 6        37.977 6
G20  21966145.145 9 115432838.538 9      2585.582 9        55.307 9  21966145.479 6         0.000 6      2014.740 6        37.977 6
> 2019 07 03 12 00 15.0000000  0  8       0.000000000000
G07  25365694.423 9 133297577.616 9      2206.827 9        54.125 9  25365695.103 6         0.000 6      1719.606 6        37.977 6
G10  23839293.902 9 125276279.849 9      3535.356 9        54.658 9  23839297.658 6         0.000 6      2754.826 6        37.977 6
G21  21160333.404 9 111198281.920 9     -1235.054 9        55.714 9  21160332.688 6         0.000 6      -962.380 6        37.977 6
G29  24273293.636 9 127556963.062 9     -3116.245 9        54.484 9  24273295.183 6         0.000 6     -2428.245 6        37.977 6
G27  22025952.176 9 115747132.794 9      2509.892 9        55.366 9  22025954.117 6         0.000 6      1955.761 6        37.977 6
G16  20502083.834 9 107739157.410 9       584.258 9        55.975 9  20502083.007 6         0.000 6       455.266 6        37.977 6
G26  20642091.802 9 108474902.362 9     -1457.630 9        55.878 9  20642094.613 6         0.000 6     -1135.816 6        37.977 6
G20  21965653.165 9 115430253.173 9      2585.143 9        55.307 9  21965653.499 6         0.000 6      2014.398 6        37.977 6
> 2019 07 03 12 00 16.0000000  0  8       0.000000000000
G07  25365274.521 9 133295371.021 9      2206.371 9        54.125 9  25365275.201 6         0.000 6      1719.251 6        37.977 6
G10  23838621.158 9 125272744.569 9      3535.224 9        54.659 9  23838624.914 6         0.000 6      2754.722 6        37.977 6
G21  21160568.461 9 111199517.155 9     -1235.417 9        55.713 9  21160567.745 6         0.000 6      -962.663 6        37.977 6
G29  24273886.646 9 127560079.340 9     -3116.331 9        54.484 9  24273888.193 6         0.000 6     -2428.313 6        37.977 6
G27  22025474.582 9 115744623.022 9      2509.657 9        55.366 9  22025476.522 6         0.000 6      1955.577 6        37.977 6
G16  20501972.711 9 107738573.459 9       583.644 9        55.975 9  20501971.885 6         0.000 6       454.787 6        37.977 6
G26  20642369.234 9 108476360.278 9     -1458.206 9        55.878 9  20642372.046 6         0.000 6     -1136.265 6        37.977 6
G20  21965161.271 9 115427668.254 9      2584.704 9        55.307 9  21965161.604 6         0.000 6      2014.056 6        37.977 6
> 2019 07 03 12 00 17.0000000  0  8       0.000000000000
G07  25364854.707 9 133293164.885 9      2205.915 9        54.125 9  25364855.386 6         0.000 6      1718.896 6        37.977 6
G10  23837948.439 9 125269209.418 9      3535.091 9        54.659 9  23837952.194 6         0.000 6      2754.619 6        37.977 6
G21  21160803.588 9 111200752.751 9     -1235.781 9        55.713 9  21160802.871 6         0.000 6      -962.946 6        37.977 6
G29  24274479.673 9 127563195.705 9     -3116.418 9        54.484 9  24274481.220 6         0.000 6     -2428.380 6        37.977 6
G27  22024997.032 9 115742113.484 9      2509.422 9        55.366 9  22024998.973 6         0.000 6      1955.394 6        37.977 6
G16  20501861.706 9 107737990.119 9       583.029 9        55.975 9  20501860.879 6         0.000 6       454.309 6        37.977 6
G26  20642646.776 9 108477818.766 9     -1458.783 9        55.878 9  20642649.588 6         0.000 6     -1136.714 6        37.977 6
G20  21964669.459 9 115425083.770 9      2584.265 9        55.307 9  21964669.792 6         0.000 6      2013.714 6        37.977 6
> 2019 07 03 12 00 18.0000000  0  8       0.000000000000
G07  25364434.978 9 133290959.201 9      2205.459 9        54.126 9  25364435.658 6         0.000 6      1718.541 6        37.977 6
G10  23837275.747 9 125265674.404 9      3534.958 9        54.659 9  23837279.501 6         0.000 6      2754.516 6        37.977 6
G21  21161038.783 9 111201988.712 9     -1236.144 9        55.713 9  21161038.067 6         0.000 6      -963.229 6        37.977 6
G29  24275072.716 9 127566312.156 9     -3116.505 9        54.484 9  24275074.264 6         0.000 6     -2428.448 6        37.977 6
G27  22024519.528 9 115739604.183 9      2509.186 9        55.366 9  22024521.468 6         0.000 6      1955.211 6        37.977 6
G16  20501750.817 9 107737407.397 9       582.415 9        55.975 9  20501749.991 6         0.000 6       453.830 6        37.977 6
G26  20642924.428 9 108479277.836 9     -1459.359 9        55.878 9  20642927.240 6         0.000 6     -1137.163 6        37.977 6
G20  21964177.731 9 115422499.729 9      2583.826 9        55.308 9  21964178.064 6         0.000 6      2013.372 6        37.977 6
> 2019 07 03 12 00 19.0000000  0  8       0.000000000000
G07  25364015.337 9 133288753.974 9      2205.003 9        54.126 9  25364016.016 6         0.000 6      1718.185 6        37.977 6
G10  23836603.079 9 125262139.523 9      3534.826 9        54.659 9  23836606.832 6         0.000 6      2754.412 6        37.977 6
G21  21161274.048 9 111203225.037 9     -1236.507 9        55.713 9  21161273.332 6         0.000 6      -963.512 6        37.977 6
G29  24275665.775 9 127569428.694 9     -3116.591 9        54.483 9  24275667.324 6         0.000 6     -2428.515 6        37.977 6
G27  22024042.068 9 115737095.116 9      2508.951 9        55.367 9  22024044.008 6         0.000 6      1955.028 6        37.977 6
G16  20501640.046 9 107736825.289 9       581.801 9        55.975 9  20501639.219 6         0.000 6       453.351 6        37.977 6
G26  20643202.189 9 108480737.481 9     -1459.935 9        55.878 9  20643205.001 6         0.000 6     -1137.612 6        37.977 6
G20  21963686.087 9 115419916.128 9      2583.386 9        55.308 9  21963686.420 6         0.000 6      2013.030 6        37.977 6
> 2019 07 03 12 00 20.0000000  0  8       0.000000000000
G07  25363595.782 9 133286549.205 9      2204.547 9        54.126 9  25363596.461 6         0.000 6      1717.830 6        37.977 6
G10  23835930.436 9 125258604.770 9      3534.693 9        54.660 9  23835934.189 6         0.000 6      2754.309 6        37.977 6
G21  21161509.382 9 111204461.722 9     -1236.870 9        55.713 9  21161508.666 6         0.000 6      -963.795 6        37.977 6
G29  24276258.851 9 127572545.318 9     -3116.678 9        54.483 9  24276260.400 6         0.000 6     -2428.582 6        37.977 6
G27  22023564.652 9 115734586.284 9      2508.716 9        55.367 9  22023566.592 6         0.000 6      1954.844 6        37.977 6
G16  20501529.391 9 107736243.792 9       581.186 9        55.975 9  20501528.564 6         0.000 6       452.872 6        37.977 6
G26  20643480.060 9 108482197.698 9     -1460.511 9        55.878 9  20643482.872 6         0.000 6     -1138.061 6        37.977 6
G20  21963194.526 9 115417332.961 9      2582.947 9        55.308 9  21963194.859 6         0.000 6      2012.687 6        37.977 6
> 2019 07 03 12 00 21.0000000  0  8       0.000000000000
G07  25363176.314 9 133284344.889 9      2204.091 9        54.126 9  25363176.993 6         0.000 6      1717.474 6        37.977 6
G10  23835257.819 9 125255070.155 9      3534.560 9        54.660 9  23835261.571 6         0.000 6      2754.205 6        37.977 6
G21  21161744.785 9 111205698.773 9     -1237.233 9        55.713 9  21161744.069 6         0.000 6      -964.078 6        37.977 6
G29  24276851.943 9 127575662.029 9     -3116.764 9        54.483 9  24276853.493 6         0.000 6     -2428.650 6        37.977 6
G27  22023087.282 9 115732077.688 9      2508.480 9        55.367 9  22023089.221 6         0.000 6      1954.661 6        37.977 6
G16  20501418.853 9 107735662.913 9       580.572 9        55.975 9  20501418.026 6         0.000 6       452.394 6        37.977 6
G26  20643758.041 9 108483658.496 9     -1461.088 9        55.878 9  20643760.853 6         0.000 6     -1138.510 6        37.977 6
G20  21962703.050 9 115414750.239 9      2582.507 9        55.308 9  21962703.382 6         0.000 6      2012.345 6        37.977 6
> 2019 07 03 12 00 22.0000000  0  8       0.000000000000
G07  25362756.934 9 133282141.036 9      2203.635 9        54.126 9  25362757.613 6         0.000 6      1717.119 6        37.977 6
G10  23834585.226 9 125251535.666 9      3534.426 9        54.660 9  23834588.977 6         0.000 6      2754.101 6        37.977 6
G21  21161980.256 9 111206936.182 9     -1237.596 9        55.713 9  21161979.540 6         0.000 6      -964.361 6        37.977 6
G29  24277445.051 9 127578778.820 9     -3116.850 9        54.483 9  24277446.601 6         0.000 6     -2428.717 6        37.977 6
G27  22022609.957 9 115729569.330 9      2508.245 9        55.367 9  22022611.896 6         0.000 6      1954.477 6        37.977 6
G16  20501308.432 9 107735082.647 9       579.957 9        55.975 9  20501307.605 6         0.000 6       451.915 6        37.977 6
G26  20644036.130 9 108485119.865 9     -1461.664 9        55.877 9  20644038.943 6         0.000 6     -1138.959 6        37.977 6
G20  21962211.655 9 115412167.948 9      2582.068 9        55.308 9  21962211.987 6         0.000 6      2012.002 6        37.977 6
> 2019 07 03 12 00 23.0000000  0  8       0.000000000000
G07  25362337.640 9 133279937.633 9      2203.178 9        54.126 9  25362338.318 6         0.000 6      1716.763 6        37.977 6
G10  23833912.660 9 125248001.317 9      3534.293 9        54.660 9  23833916.410 6         0.000 6      2753.997 6        37.977 6
G21  21162215.797 9 111208173.959 9     -1237.959 9        55.713 9  21162215.081 6         0.000 6      -964.644 6        37.977 6
G29  24278038.176 9 127581895.704 9     -3116.937 9        54.483 9  24278039.727 6         0.000 6     -2428.785 6        37.977 6
G27  22022132.676 9 115727061.206 9      2508.010 9        55.367 9  22022134.615 6         0.000 6      1954.294 6        37.977 6
G16  20501198.128 9 107734502.997 9       579.343 9        55.975 9  20501197.302 6         0.000 6       451.436 6        37.977 6
G26  20644314.330 9 108486581.815 9     -1462.240 9        55.877 9  20644317.143 6         0.000 6     -1139.408 6        37.977 6
G20  21961720.346 9 115409586.105 9      2581.628 9        55.309 9  21961720.677 6         0.000 6      2011.659 6        37.977 6
> 2019 07 03 12 00 24.0000000  0  8       0.000000000000
G07  25361918.433 9 133277734.689 9      2202.722 9        54.126 9  25361919.111 6         0.000 6      1716.408 6        37.977 6
G10  23833240.118 9 125244467.097 9      3534.160 9        54.661 9  23833243.868 6         0.000 6      2753.894 6        37.977 6
G21  21162451.407 9 111209412.097 9     -1238.322 9        55.713 9  21162450.691 6         0.000 6      -964.926 6        37.977 6
G29  24278631.317 9 127585012.674 9     -3117.023 9        54.482 9  24278632.869 6         0.000 6     -2428.852 6        37.977 6
G27  22021655.440 9 115724553.315 9      2507.774 9        55.368 9  22021657.379 6         0.000 6      1954.110 6        37.977 6
G16  20501087.941 9 107733923.959 9       578.728 9        55.975 9  20501087.114 6         0.000 6       450.957 6        37.977 6
G26  20644592.639 9 108488044.336 9     -1462.816 9        55.877 9  20644595.452 6         0.000 6     -1139.857 6        37.977 6
G20  21961229.119 9 115407004.697 9      2581.188 9        55.309 9  21961229.451 6         0.000 6      2011.317 6        37.977 6
> 2019 07 03 12 00 25.0000000  0  8       0.000000000000
G07  25361499.312 9 133275532.199 9      2202.266 9        54.127 9  25361499.990 6         0.000 6      1716.052 6        37.977 6
G10  23832567.602 9 125240933.015 9      3534.026 9        54.661 9  23832571.352 6         0.000 6      2753.789 6        37.977 6
G21  21162687.086 9 111210650.599 9     -1238.685 9        55.713 9  21162686.371 6         0.000 6      -965.209 6        37.977 6
G29  24279224.475 9 127588129.730 9     -3117.110 9        54.482 9  24279226.028 6         0.000 6     -2428.919 6        37.977 6
G27  22021178.249 9 115722045.661 9      2507.539 9        55.368 9  22021180.187 6         0.000 6      1953.927 6        37.977 6
G16  20500977.871 9 107733345.538 9       578.113 9        55.975 9  20500977.045 6         0.000 6       450.478 6        37.977 6
G26  20644871.059 9 108489507.438 9     -1463.392 9        55.877 9  20644873.871 6         0.000 6     -1140.306 6        37.977 6
G20  21960737.977 9 115404423.733 9      2580.749 9        55.309 9  21960738.308 6         0.000 6      2010.974 6        37.977 6
> 2019 07 03 12 00 26.0000000  0  8       0.000000000000
G07  25361080.279 9 133273330.168 9      2201.809 9        54.127 9  25361080.957 6         0.000 6      1715.696 6        37.977 6
G10  23831895.111 9 125237399.061 9      3533.893 9        54.661 9  23831898.860 6         0.000 6      2753.685 6        37.977 6
G21  21162922.834 9 111211889.462 9     -1239.047 9        55.713 9  21162922.119 6         0.000 6      -965.492 6        37.977 6
G29  24279817.650 9 127591246.873 9     -3117.196 9        54.482 9  24279819.203 6         0.000 6     -2428.986 6        37.977 6
G27  22020701.102 9 115719538.241 9      2507.303 9        55.368 9  22020703.040 6         0.000 6      1953.743 6        37.977 6
G16  20500867.918 9 107732767.729 9       577.499 9        55.975 9  20500867.091 6         0.000 6       449.999 6        37.977 6
G26  20645149.587 9 108490971.112 9     -1463.968 9        55.877 9  20645152.400 6         0.000 6     -1140.755 6        37.977 6
G20  21960246.918 9 115401843.205 9      2580.309 9        55.309 9  21960247.249 6         0.000 6      2010.631 6        37.977 6
> 2019 07 03 12 00 27.0000000  0  8       0.000000000000
G07  25360661.332 9 133271128.591 9      2201.352 9        54.127 9  25360662.010 6         0.000 6      1715.340 6        37.977 6
G10  23831222.647 9 125233865.246 9      3533.759 9        54.661 9  23831226.395 6         0.000 6      2753.581 6        37.977 6
G21  21163158.652 9 111213128.690 9     -1239.410 9        55.712 9  21163157.936 6         0.000 6      -965.774 6        37.977 6
G29  24280410.841 9 127594364.102 9     -3117.282 9        54.482 9  24280412.395 6         0.000 6     -2429.054 6        37.977 6
G27  22020224.000 9 115717031.058 9      2507.068 9        55.368 9  22020225.939 6         0.000 6      1953.560 6        37.977 6
G16  20500758.082 9 107732190.538 9       576.884 9        55.975 9  20500757.255 6         0.000 6       449.520 6        37.977 6
G26  20645428.225 9 108492435.366 9     -1464.544 9        55.877 9  20645431.038 6         0.000 6     -1141.203 6        37.977 6
G20  21959755.944 9 115399263.121 9      2579.869 9        55.309 9  21959756.274 6         0.000 6      2010.288 6        37.977 6
> 2019 07 03 12 00 28.0000000  0  8       0.000000000000
G07  25360242.472 9 133268927.470 9      2200.896 9        54.127 9  25360243.149 6         0.000 6      1714.985 6        37.977 6
G10  23830550.207 9 125230331.564 9      3533.625 9        54.662 9  23830553.955 6         0.000 6      2753.477 6        37.977 6
G21  21163394.538 9 111214368.281 9     -1239.773 9        55.712 9  21163393.823 6         0.000 6      -966.057 6        37.977 6
G29  24281004.048 9 127597481.417 9     -3117.369 9        54.482 9  24281005.603 6         0.000 6     -2429.121 6        37.977 6
G27  22019746.944 9 115714524.111 9      2506.832 9        55.368 9  22019748.882 6         0.000 6      1953.376 6        37.977 6
G16  20500648.363 9 107731613.962 9       576.269 9        55.975 9  20500647.536 6         0.000 6       449.041 6        37.977 6
G26  20645706.974 9 108493900.196 9     -1465.120 9        55.877 9  20645709.787 6         0.000 6     -1141.652 6        37.977 6
G20  21959265.053 9 115396683.477 9      2579.428 9        55.310 9  21959265.383 6         0.000 6      2009.945 6        37.977 6
> 2019 07 03 12 00 29.0000000  0  8       0.000000000000
G07  25359823.700 9 133266726.809 9      2200.439 9        54.127 9  25359824.377 6         0.000 6      1714.629 6        37.977 6
G10  23829877.793 9 125226798.012 9      3533.492 9        54.662 9  23829881.539 6         0.000 6      2753.373 6        37.977 6
G21  21163630.493 9 111215608.232 9     -1240.135 9        55.712 9  21163629.778 6         0.000 6      -966.339 6        37.977 6
G29  24281597.272 9 127600598.819 9     -3117.455 9        54.481 9  24281598.827 6         0.000 6     -2429.188 6        37.977 6
G27  22019269.931 9 115712017.398 9      2506.596 9        55.368 9  22019271.870 6         0.000 6      1953.193 6        37.977 6
G16  20500538.761 9 107731037.997 9       575.654 9        55.975 9  20500537.934 6         0.000 6       448.562 6        37.977 6
G26  20645985.831 9 108495365.597 9     -1465.696 9        55.877 9  20645988.644 6         0.000 6     -1142.101 6        37.977 6
G20  21958774.245 9 115394104.269 9      2578.988 9        55.310 9  21958774.575 6         0.000 6      2009.602 6        37.977 6
> 2019 07 03 12 00 30.0000000  0  8       0.000000000000
G07  25359405.014 9 133264526.605 9      2199.982 9        54.127 9  25359405.691 6         0.000 6      1714.273 6        37.977 6
G10  23829205.404 9 125223264.596 9      3533.358 9        54.662 9  23829209.150 6         0.000 6      2753.268 6        37.977 6
G21  21163866.517 9 111216848.546 9     -1240.498 9        55.712 9  21163865.802 6         0.000 6      -966.622 6        37.977 6
G29  24282190.511 9 127603716.302 9     -3117.541 9        54.481 9  24282192.067 6         0.000 6     -2429.255 6        37.977 6
G27  22018792.965 9 115709510.926 9      2506.361 9        55.369 9  22018794.903 6         0.000 6      1953.009 6        37.977 6
G16  20500429.276 9 107730462.652 9       575.039 9        55.975 9  20500428.449 6         0.000 6       448.083 6        37.977 6
G26  20646264.798 9 108496831.579 9     -1466.272 9        55.877 9  20646267.611 6         0.000 6     -1142.550 6        37.977 6
G20  21958283.521 9 115391525.502 9      2578.548 9        55.310 9  21958283.851 6         0.000 6      2009.259 6        37.977 6
> 2019 07 03 12 00 31.0000000  0  8       0.000000000000
G07  25358986.415 9 133262326.858 9      2199.525 9        54.127 9  25358987.092 6         0.000 6      1713.917 6        37.977 6
G10  23828533.040 9 125219731.312 9      3533.223 9        54.662 9  23828536.786 6         0.000 6      2753.164 6        37.977 6
G21  21164102.610 9 111218089.222 9     -1240.860 9        55.712 9  21164101.895 6         0.000 6      -966.904 6        37.977 6
G29  24282783.768 9 127606833.876 9     -3117.627 9        54.481 9  24282785.324 6         0.000 6     -2429.323 6        37.977 6
G27  22018316.043 9 115707004.684 9      2506.125 9        55.369 9  22018317.980 6         0.000 6      1952.825 6        37.977 6
G16  20500319.908 9 107729887.916 9       574.424 9        55.975 9  20500319.081 6         0.000 6       447.604 6        37.977 6
G26  20646543.874 9 108498298.132 9     -1466.847 9        55.876 9  20646546.687 6         0.000 6     -1142.998 6        37.977 6
G20  21957792.881 9 115388947.175 9      2578.107 9        55.310 9  21957793.211 6         0.000 6      2008.916 6        37.977 6
> 2019 07 03 12 00 32.0000000  0  8       0.000000000000
G07  25358567.903 9 133260127.565 9      2199.068 9        54.128 9  25358568.579 6         0.000 6      1713.561 6        37.977 6
G10  23827860.703 9 125216198.166 9      3533.089 9        54.663 9  23827864.448 6         0.000 6      2753.059 6        37.977 6
G21  21164338.772 9 111219330.263 9     -1241.223 9        55.712 9  21164338.057 6         0.000 6      -967.187 6        37.977 6
G29  24283377.040 9 127609951.536 9     -3117.714 9        54.481 9  24283378.598 6         0.000 6     -2429.390 6        37.977 6
G27  22017839.165 9 115704498.679 9      2505.889 9        55.369 9  22017841.103 6         0.000 6      1952.642 6        37.977 6
G16  20500210.657 9 107729313.799 9       573.810 9        55.975 9  20500209.830 6         0.000 6       447.124 6        37.977 6
G26  20646823.061 9 108499765.265 9     -1467.423 9        55.876 9  20646825.874 6         0.000 6     -1143.447 6        37.977 6
G20  21957302.326 9 115386369.293 9      2577.667 9        55.310 9  21957302.655 6         0.000 6      2008.573 6        37.977 6
> 2019 07 03 12 00 33.0000000  0  8       0.000000000000
G07  25358149.478 9 133257928.731 9      2198.611 9        54.128 9  25358150.154 6         0.000 6      1713.204 6        37.977 6
G10  23827188.390 9 125212665.151 9      3532.955 9        54.663 9  23827192.134 6         0.000 6      2752.955 6        37.977 6
G21  21164575.003 9 111220571.664 9     -1241.585 9        55.712 9  21164574.288 6         0.000 6      -967.469 6        37.977 6
G29  24283970.330 9 127613069.283 9     -3117.800 9        54.481 9  24283971.888 6         0.000 6     -2429.457 6        37.977 6
G27  22017362.333 9 115701992.909 9      2505.653 9        55.369 9  22017364.270 6         0.000 6      1952.458 6        37.977 6
G16  20500101.522 9 107728740.294 9       573.195 9        55.975 9  20500100.696 6         0.000 6       446.645 6        37.977 6
G26  20647102.356 9 108501232.970 9     -1467.999 9        55.876 9  20647105.169 6         0.000 6     -1143.896 6        37.977 6
G20  21956811.853 9 115383791.847 9      2577.226 9        55.311 9  21956812.182 6         0.000 6      2008.229 6        37.977 6
> 2019 07 03 12 00 34.0000000  0  8       0.000000000000
G07  25357731.140 9 133255730.352 9      2198.154 9        54.128 9  25357731.816 6         0.000 6      1712.848 6        37.977 6
G10  23826516.104 9 125209132.274 9      3532.821 9        54.663 9  23826519.848 6         0.000 6      2752.850 6        37.977 6
G21  21164811.304 9 111221813.430 9     -1241.948 9        55.712 9  21164810.588 6         0.000 6      -967.752 6        37.977 6
G29  24284563.636 9 127616187.116 9     -3117.886 9        54.480 9  24284565.194 6         0.000 6     -2429.524 6        37.977 6
G27  22016885.545 9 115699487.376 9      2505.418 9        55.369 9  22016887.482 6         0.000 6      1952.274 6        37.977 6
G16  20499992.506 9 107728167.407 9       572.580 9        55.975 9  20499991.679 6         0.000 6       446.166 6        37.977 6
G26  20647381.761 9 108502701.255 9     -1468.575 9        55.876 9  20647384.575 6         0.000 6     -1144.344 6        37.977 6
G20  21956321.465 9 115381214.845 9      2576.785 9        55.311 9  21956321.794 6         0.000 6      2007.886 6        37.977 6
> 2019 07 03 12 00 35.0000000  0  8       0.000000000000
G07  25357312.889 9 133253532.433 9      2197.697 9        54.128 9  25357313.565 6         0.000 6      1712.492 6        37.977 6
G10  23825843.843 9 125205599.527 9      3532.686 9        54.663 9  23825847.585 6         0.000 6      2752.745 6        37.977 6
G21  21165047.672 9 111223055.555 9     -1242.310 9        55.712 9  21165046.957 6         0.000 6      -968.034 6        37.977 6
G29  24285156.958 9 127619305.035 9     -3117.972 9        54.480 9  24285158.517 6         0.000 6     -2429.591 6        37.977 6
G27  22016408.802 9 115696982.078 9      2505.182 9        55.370 9  22016410.739 6         0.000 6      1952.090 6        37.977 6
G16  20499883.605 9 107727595.132 9       571.964 9        55.975 9  20499882.778 6         0.000 6       445.687 6        37.977 6
G26  20647661.276 9 108504170.111 9     -1469.150 9        55.876 9  20647664.090 6         0.000 6     -1144.793 6        37.977 6
G20  21955831.160 9 115378638.281 9      2576.345 9        55.311 9  21955831.489 6         0.000 6      2007.542 6        37.977 6
> 2019 07 03 12 00 36.0000000  0  8       0.000000000000
G07  25356894.725 9 133251334.969 9      2197.239 9        54.128 9  25356895.400 6         0.000 6      1712.135 6        37.977 6
G10  23825171.608 9 125202066.918 9      3532.551 9        54.664 9  23825175.350 6         0.000 6      2752.640 6        37.977 6
G21  21165284.111 9 111224298.046 9     -1242.672 9        55.712 9  21165283.395 6         0.000 6      -968.316 6        37.977 6
G29  24285750.296 9 127622423.040 9     -3118.058 9        54.480 9  24285751.856 6         0.000 6     -2429.658 6        37.977 6
G27  22015932.104 9 115694477.017 9      2504.946 9        55.370 9  22015934.041 6         0.000 6      1951.906 6        37.977 6
G16  20499774.823 9 107727023.475 9       571.349 9        55.975 9  20499773.996 6         0.000 6       445.207 6        37.977 6
G26  20647940.901 9 108505639.547 9     -1469.726 9        55.876 9  20647943.714 6         0.000 6     -1145.241 6        37.977 6
G20  21955340.940 9 115376062.161 9      2575.904 9        55.311 9  21955341.268 6         0.000 6      2007.199 6        37.977 6
> 2019 07 03 12 00 37.0000000  0  8       0.000000000000
G07  25356476.648 9 133249137.962 9      2196.782 9        54.128 9  25356477.323 6         0.000 6      1711.779 6        37.977 6
G10  23824499.398 9 125198534.445 9      3532.417 9        54.664 9  23824503.140 6         0.000 6      2752.535 6        37.977 6
G21  21165520.618 9 111225540.898 9     -1243.034 9        55.711 9  21165519.902 6         0.000 6      -968.598 6        37.977 6
G29  24286343.651 9 127625541.131 9     -3118.144 9        54.480 9  24286345.212 6         0.000 6     -2429.725 6        37.977 6
G27  22015455.451 9 115691972.192 9      2504.710 9        55.370 9  22015457.388 6         0.000 6      1951.723 6        37.977 6
G16  20499666.157 9 107726452.433 9       570.734 9        55.976 9  20499665.330 6         0.000 6       444.728 6        37.977 6
G26  20648220.635 9 108507109.559 9     -1470.302 9        55.876 9  20648223.449 6         0.000 6     -1145.690 6        37.977 6
G20  21954850.804 9 115373486.483 9      2575.463 9        55.311 9  21954851.132 6         0.000 6      2006.855 6        37.977 6
> 2019 07 03 12 00 38.0000000  0  8       0.000000000000
G07  25356058.659 9 133246941.418 9      2196.325 9        54.128 9  25356059.334 6         0.000 6      1711.423 6        37.977 6
G10  23823827.213 9 125195002.100 9      3532.282 9        54.664 9  23823830.954 6         0.000 6      2752.430 6        37.977 6
G21  21165757.193 9 111226784.108 9     -1243.396 9        55.711 9  21165756.478 6         0.000 6      -968.880 6        37.977 6
G29  24286937.022 9 127628659.303 9     -3118.230 9        54.479 9  24286938.583 6         0.000 6     -2429.793 6        37.977 6
G27  22014978.844 9 115689467.604 9      2504.474 9        55.370 9  22014980.780 6         0.000 6      1951.539 6        37.977 6
G16  20499557.608 9 107725882.005 9       570.119 9        55.976 9  20499556.781 6         0.000 6       444.249 6        37.977 6
G26  20648500.478 9 108508580.142 9     -1470.877 9        55.876 9  20648503.292 6         0.000 6     -1146.139 6        37.977 6
G20  21954360.750 9 115370911.238 9      2575.022 9        55.311 9  21954361.078 6         0.000 6      2006.511 6        37.977 6
> 2019 07 03 12 00 39.0000000  0  8       0.000000000000
G07  25355640.756 9 133244745.326 9      2195.867 9        54.129 9  25355641.430 6         0.000 6      1711.066 6        37.977 6
G10  23823155.055 9 125191469.896 9      3532.147 9        54.664 9  23823158.795 6         0.000 6      2752.325 6        37.977 6
G21  21165993.838 9 111228027.685 9     -1243.758 9        55.711 9  21165993.123 6         0.000 6      -969.163 6        37.977 6
G29  24287530.409 9 127631777.566 9     -3118.317 9        54.479 9  24287531.971 6         0.000 6     -2429.860 6        37.977 6
G27  22014502.281 9 115686963.251 9      2504.238 9        55.370 9  22014504.217 6         0.000 6      1951.355 6        37.977 6
G16  20499449.176 9 107725312.194 9       569.504 9        55.976 9  20499448.350 6         0.000 6       443.769 6        37.977 6
G26  20648780.431 9 108510051.305 9     -1471.453 9        55.875 9  20648783.245 6         0.000 6     -1146.587 6        37.977 6
G20  21953870.782 9 115368336.441 9      2574.580 9        55.312 9  21953871.109 6         0.000 6      2006.168 6        37.977 6
> 2019 07 03 12 00 40.0000000  0  8       0.000000000000
G07  25355222.940 9 133242549.694 9      2195.409 9        54.129 9  25355223.615 6         0.000 6      1710.710 6        37.977 6
G10  23822482.922 9 125187937.823 9      3532.012 9        54.665 9  23822486.661 6         0.000 6      2752.220 6        37.977 6
G21  21166230.551 9 111229271.621 9     -1244.120 9        55.711 9  21166229.836 6         0.000 6      -969.445 6        37.977 6
G29  24288123.814 9 127634895.916 9     -3118.403 9        54.479 9  24288125.376 6         0.000 6     -2429.927 6        37.977 6
G27  22014025.762 9 115684459.132 9      2504.002 9        55.371 9  22014027.698 6         0.000 6      1951.171 6        37.977 6
G16  20499340.861 9 107724742.994 9       568.889 9        55.976 9  20499340.035 6         0.000 6       443.290 6        37.977 6
G26  20649060.493 9 108511523.039 9     -1472.028 9        55.875 9  20649063.307 6         0.000 6     -1147.035 6        37.977 6
G20  21953380.897 9 115365762.082 9      2574.139 9        55.312 9  21953381.224 6         0.000 6      2005.824 6        37.977 6
> 2019 07 03 12 00 41.0000000  0  8       0.000000000000
G07  25354805.211 9 133240354.517 9      2194.952 9        54.129 9  25354805.885 6         0.000 6      1710.353 6        37.977 6
G10  23821810.815 9 125184405.889 9      3531.877 9        54.665 9  23821814.554 6         0.000 6      2752.115 6        37.977 6
G21  21166467.334 9 111230515.922 9     -1244.482 9        55.711 9  21166466.619 6         0.000 6      -969.727 6        37.977 6
G29  24288717.234 9 127638014.351 9     -3118.489 9        54.479 9  24288718.797 6         0.000 6     -2429.994 6        37.977 6
G27  22013549.289 9 115681955.251 9      2503.766 9        55.371 9  22013551.225 6         0.000 6      1950.987 6        37.977 6
G16  20499232.664 9 107724174.413 9       568.273 9        55.976 9  20499231.837 6         0.000 6       442.810 6        37.977 6
G26  20649340.666 9 108512995.354 9     -1472.604 9        55.875 9  20649343.480 6         0.000 6     -1147.484 6        37.977 6
G20  21952891.097 9 115363188.168 9      2573.698 9        55.312 9  21952891.423 6         0.000 6      2005.480 6        37.977 6
> 2019 07 03 12 00 42.0000000  0  8       0.000000000000
G07  25354387.570 9 133238159.801 9      2194.494 9        54.129 9  25354388.244 6         0.000 6      1709.996 6        37.977 6
G10  23821138.734 9 125180874.086 9      3531.742 9        54.665 9  23821142.472 6         0.000 6      2752.009 6        37.977 6
G21  21166704.185 9 111231760.582 9     -1244.844 9        55.711 9  21166703.470 6         0.000 6      -970.009 6        37.977 6
G29  24289310.671 9 127641132.873 9     -3118.575 9        54.479 9  24289312.234 6         0.000 6     -2430.061 6        37.977 6
G27  22013072.860 9 115679451.605 9      2503.530 9        55.371 9  22013074.796 6         0.000 6      1950.803 6        37.977 6
G16  20499124.583 9 107723606.444 9       567.658 9        55.976 9  20499123.756 6         0.000 6       442.331 6        37.977 6
G26  20649620.947 9 108514468.238 9     -1473.179 9        55.875 9  20649623.761 6         0.000 6     -1147.932 6        37.977 6
G20  21952401.379 9 115360614.692 9      2573.256 9        55.312 9  21952401.706 6         0.000 6      2005.136 6        37.977 6
> 2019 07 03 12 00 43.0000000  0  8       0.000000000000
G07  25353970.015 9 133235965.539 9      2194.036 9        54.129 9  25353970.689 6         0.000 6      1709.639 6        37.977 6
G10  23820466.678 9 125177342.423 9      3531.606 9        54.665 9  23820470.416 6         0.000 6      2751.904 6        37.977 6
G21  21166941.105 9 111233005.606 9     -1245.206 9        55.711 9  21166940.390 6         0.000 6      -970.291 6        37.977 6
G29  24289904.124 9 127644251.480 9     -3118.661 9        54.478 9  24289905.688 6         0.000 6     -2430.128 6        37.977 6
G27  22012596.477 9 115676948.196 9      2503.293 9        55.371 9  22012598.413 6         0.000 6      1950.619 6        37.977 6
G16  20499016.620 9 107723039.094 9       567.043 9        55.976 9  20499015.793 6         0.000 6       441.851 6        37.977 6
G26  20649901.338 9 108515941.704 9     -1473.755 9        55.875 9  20649904.153 6         0.000 6     -1148.381 6        37.977 6
G20  21951911.747 9 115358041.661 9      2572.815 9        55.312 9  21951912.073 6         0.000 6      2004.792 6        37.977 6
> 2019 07 03 12 00 44.0000000  0  8       0.000000000000
G07  25353552.548 9 133233771.739 9      2193.578 9        54.129 9  25353553.222 6         0.000 6      1709.283 6        37.977 6
G10  23819794.648 9 125173810.891 9      3531.471 9        54.666 9  23819798.385 6         0.000 6      2751.798 6        37.977 6
G21  21167178.094 9 111234250.990 9     -1245.568 9        55.711 9  21167177.379 6         0.000 6      -970.572 6        37.977 6
G29  24290497.594 9 127647370.173 9     -3118.746 9        54.478 9  24290499.158 6         0.000 6     -2430.195 6        37.977 6
G27  22012120.138 9 115674445.021 9      2503.057 9        55.371 9  22012122.074 6         0.000 6      1950.435 6        37.977 6
G16  20498908.773 9 107722472.356 9       566.427 9        55.976 9  20498907.947 6         0.000 6       441.372 6        37.977 6
G26  20650181.838 9 108517415.739 9     -1474.330 9        55.875 9  20650184.653 6         0.000 6     -1148.829 6        37.977 6
G20  21951422.198 9 115355469.068 9      2572.373 9        55.313 9  21951422.524 6         0.000 6      2004.448 6        37.977 6
> 2019 07 03 12 00 45.0000000  0  8       0.000000000000
G07  25353135.168 9 133231578.393 9      2193.120 9        54.129 9  25353135.841 6         0.000 6      1708.926 6        37.977 6
G10  23819122.644 9 125170279.498 9      3531.335 9        54.666 9  23819126.381 6         0.000 6      2751.692 6        37.977 6
G21  21167415.152 9 111235496.738 9     -1245.929 9        55.711 9  21167414.437 6         0.000 6      -970.854 6        37.977 6
G29  24291091.079 9 127650488.952 9     -3118.832 9        54.478 9  24291092.645 6         0.000 6     -2430.262 6        37.977 6
G27  22011643.845 9 115671942.085 9      2502.821 9        55.371 9  22011645.780 6         0.000 6      1950.251 6        37.977 6
G16  20498801.044 9 107721906.237 9       565.812 9        55.976 9  20498800.218 6         0.000 6       440.892 6        37.977 6
G26  20650462.448 9 108518890.355 9     -1474.905 9        55.875 9  20650465.263 6         0.000 6     -1149.277 6        37.977 6
G20  21950932.734 9 115352896.920 9      2571.931 9        55.313 9  21950933.059 6         0.000 6      2004.103 6        37.977 6
> 2019 07 03 12 00 46.0000000  0  8       0.000000000000
G07  25352717.875 9 133229385.511 9      2192.662 9        54.130 9  25352718.548 6         0.000 6      1708.569 6        37.977 6
G10  23818450.665 9 125166748.235 9      3531.200 9        54.666 9  23818454.401 6         0.000 6      2751.587 6        37.977 6
G21  21167652.278 9 111236742.843 9     -1246.291 9        55.711 9  21167651.563 6         0.000 6      -971.136 6        37.977 6
G29  24291684.581 9 127653607.812 9     -3118.918 9        54.478 9  24291686.147 6         0.000 6     -2430.328 6        37.977 6
G27  22011167.597 9 115669439.387 9      2502.585 9        55.372 9  22011169.532 6         0.000 6      1950.067 6        37.977 6
G16  20498693.432 9 107721340.731 9       565.196 9        55.976 9  20498692.605 6         0.000 6       440.413 6        37.977 6
G26  20650743.167 9 108520365.542 9     -1475.481 9        55.875 9  20650745.982 6         0.000 6     -1149.726 6        37.977 6
G20  21950443.352 9 115350325.207 9      2571.489 9        55.313 9  21950443.677 6         0.000 6      2003.759 6        37.977 6
> 2019 07 03 12 00 47.0000000  0  8       0.000000000000
G07  25352300.669 9 133227193.082 9      2192.204 9        54.130 9  25352301.342 6         0.000 6      1708.212 6        37.977 6
G10  23817778.713 9 125163217.114 9      3531.064 9        54.666 9  23817782.448 6         0.000 6      2751.481 6        37.977 6
G21  21167889.474 9 111237989.314 9     -1246.653 9        55.710 9  21167888.759 6         0.000 6      -971.418 6        37.977 6
G29  24292278.099 9 127656726.763 9     -3119.004 9        54.478 9  24292279.666 6         0.000 6     -2430.395 6        37.977 6
G27  22010691.393 9 115666936.923 9      2502.348 9        55.372 9  22010693.328 6         0.000 6      1949.882 6        37.977 6
G16  20498585.938 9 107720775.843 9       564.581 9        55.976 9  20498585.111 6         0.000 6       439.933 6        37.977 6
G26  20651023.997 9 108521841.308 9     -1476.056 9        55.875 9  20651026.812 6         0.000 6     -1150.174 6        37.977 6
G20  21949954.056 9 115347753.944 9      2571.047 9        55.313 9  21949954.381 6         0.000 6      2003.415 6        37.977 6
> 2019 07 03 12 00 48.0000000  0  8       0.000000000000
G07  25351883.550 9 133225001.111 9      2191.745 9        54.130 9  25351884.223 6         0.000 6      1707.855 6        37.977 6
G10  23817106.787 9 125159686.129 9      3530.928 9        54.667 9  23817110.521 6         0.000 6      2751.375 6        37.977 6
G21  21168126.738 9 111239236.147 9     -1247.014 9        55.710 9  21168126.024 6         0.000 6      -971.700 6        37.977 6
G29  24292871.634 9 127659845.800 9     -3119.090 9        54.477 9  24292873.201 6         0.000 6     -2430.462 6        37.977 6
G27  22010215.234 9 115664434.696 9      2502.112 9        55.372 9  22010217.169 6         0.000 6      1949.698 6        37.977 6
G16  20498478.560 9 107720211.570 9       563.965 9        55.976 9  20498477.733 6         0.000 6       439.453 6        37.977 6
G26  20651304.936 9 108523317.650 9     -1476.631 9        55.874 9  20651307.751 6         0.000 6     -1150.622 6        37.977 6
G20  21949464.844 9 115345183.122 9      2570.605 9        55.313 9  21949465.169 6         0.000 6      2003.070 6        37.977 6
> 2019 07 03 12 00 49.0000000  0  8       0.000000000000
G07  25351466.519 9 133222809.601 9      2191.287 9        54.130 9  25351467.192 6         0.000 6      1707.497 6        37.977 6
G10  23816434.886 9 125156155.275 9      3530.792 9        54.667 9  23816438.620 6         0.000 6      2751.269 6        37.977 6
G21  21168364.071 9 111240483.339 9     -1247.376 9        55.710 9  21168363.356 6         0.000 6      -971.981 6        37.977 6
G29  24293465.185 9 127662964.923 9     -3119.176 9        54.477 9  24293466.753 6         0.000 6     -2430.529 6        37.977 6
G27  22009739.120 9 115661932.703 9      2501.876 9        55.372 9  22009741.055 6         0.000 6      1949.514 6        37.977 6
G16  20498371.299 9 107719647.910 9       563.349 9        55.976 9  20498370.472 6         0.000 6       438.974 6        37.977 6
G26  20651585.983 9 108524794.562 9     -1477.206 9        55.874 9  20651588.798 6         0.000 6     -1151.070 6        37.977 6
G20  21948975.715 9 115342612.738 9      2570.163 9        55.314 9  21948976.040 6         0.000 6      2002.726 6        37.977 6
> 2019 07 03 12 00 50.0000000  0  8       0.000000000000
G07  25351049.575 9 133220618.547 9      2190.829 9        54.130 9  25351050.247 6         0.000 6      1707.140 6        37.977 6
G10  23815763.012 9 125152624.562 9      3530.656 9        54.667 9  23815766.744 6         0.000 6      2751.163 6        37.977 6
G21  21168601.473 9 111241730.894 9     -1247.737 9        55.710 9  21168600.759 6         0.000 6      -972.263 6        37.977 6
G29  24294058.753 9 127666084.132 9     -3119.262 9        54.477 9  24294060.321 6         0.000 6     -2430.596 6        37.977 6
G27  22009263.052 9 115659430.948 9      2501.639 9        55.372 9  22009264.986 6         0.000 6      1949.330 6        37.977 6
G16  20498264.156 9 107719084.868 9       562.734 9        55.976 9  20498263.329 6         0.000 6       438.494 6        37.977 6
G26  20651867.141 9 108526272.055 9     -1477.782 9        55.874 9  20651869.956 6         0.000 6     -1151.519 6        37.977 6
G20  21948486.672 9 115340042.801 9      2569.721 9        55.314 9  21948486.996 6         0.000 6      2002.381 6        37.977 6
> 2019 07 03 12 00 51.0000000  0  8       0.000000000000
G07  25350632.718 9 133218427.953 9      2190.370 9        54.130 9  25350633.390 6         0.000 6      1706.783 6        37.977 6
G10  23815091.162 9 125149093.980 9      3530.520 9        54.667 9  23815094.894 6         0.000 6      2751.057 6        37.977 6
G21  21168838.944 9 111242978.809 9     -1248.098 9        55.710 9  21168838.229 6         0.000 6      -972.544 6        37.977 6
G29  24294652.337 9 127669203.426 9     -3119.347 9        54.477 9  24294653.906 6         0.000 6     -2430.663 6        37.977 6
G27  22008787.028 9 115656929.428 9      2501.403 9        55.373 9  22008788.962 6         0.000 6      1949.146 6        37.977 6
G16  20498157.129 9 107718522.439 9       562.118 9        55.976 9  20498156.302 6         0.000 6       438.014 6        37.977 6
G26  20652148.407 9 108527750.117 9     -1478.357 9        55.874 9  20652151.223 6         0.000 6     -1151.967 6        37.977 6
G20  21947997.711 9 115337473.301 9      2569.278 9        55.314 9  21947998.035 6         0.000 6      2002.036 6        37.977 6
> 2019 07 03 12 00 52.0000000  0  8       0.000000000000
G07  25350215.948 9 133216237.816 9      2189.912 9        54.130 9  25350216.620 6         0.000 6      1706.426 6        37.977 6
G10  23814419.340 9 125145563.539 9      3530.383 9        54.668 9  23814423.071 6         0.000 6      2750.951 6        37.977 6
G21  21169076.483 9 111244227.087 9     -1248.460 9        55.710 9  21169075.769 6         0.000 6      -972.826 6        37.977 6
G29  24295245.937 9 127672322.806 9     -3119.433 9        54.477 9  24295247.507 6         0.000 6     -2430.730 6        37.977 6
G27  22008311.049 9 115654428.147 9      2501.166 9        55.373 9  22008312.984 6         0.000 6      1948.961 6        37.977 6
G16  20498050.220 9 107717960.629 9       561.502 9        55.976 9  20498049.393 6         0.000 6       437.534 6        37.977 6
G26  20652429.784 9 108529228.760 9     -1478.932 9        55.874 9  20652432.599 6         0.000 6     -1152.415 6        37.977 6
G20  21947508.836 9 115334904.249 9      2568.836 9        55.314 9  21947509.160 6         0.000 6      2001.692 6        37.977 6
> 2019 07 03 12 00 53.0000000  0  8       0.000000000000
G07  25349799.266 9 133214048.140 9      2189.453 9        54.131 9  25349799.937 6         0.000 6      1706.068 6        37.977 6
G10  23813747.542 9 125142033.230 9      3530.247 9        54.668 9  23813751.273 6         0.000 6      2750.845 6        37.977 6
G21  21169314.091 9 111245475.725 9     -1248.821 9        55.710 9  21169313.377 6         0.000 6      -973.108 6        37.977 6
G29  24295839.554 9 127675442.272 9     -3119.519 9        54.476 9  24295841.124 6         0.000 6     -2430.796 6        37.977 6
G27  22007835.115 9 115651927.100 9      2500.930 9        55.373 9  22007837.049 6         0.000 6      1948.777 6        37.977 6
G16  20497943.428 9 107717399.431 9       560.887 9        55.976 9  20497942.601 6         0.000 6       437.054 6        37.977 6
G26  20652711.269 9 108530707.973 9     -1479.507 9        55.874 9  20652714.085 6         0.000 6     -1152.863 6        37.977 6
G20  21947020.044 9 115332335.634 9      2568.393 9        55.314 9  21947020.367 6         0.000 6      2001.347 6        37.977 6
> 2019 07 03 12 00 54.0000000  0  8       0.000000000000
G07  25349382.671 9 133211858.922 9      2188.994 9        54.131 9  25349383.342 6         0.000 6      1705.711 6        37.977 6
G10  23813075.771 9 125138503.060 9      3530.111 9        54.668 9  23813079.501 6         0.000 6      2750.738 6        37.977 6
G21  21169551.768 9 111246724.724 9     -1249.182 9        55.710 9  21169551.053 6         0.000 6      -973.389 6        37.977 6
G29  24296433.186 9 127678561.818 9     -3119.605 9        54.476 9  24296434.756 6         0.000 6     -2430.863 6        37.977 6
G27  22007359.228 9 115649426.295 9      2500.693 9        55.373 9  22007361.161 6         0.000 6      1948.593 6        37.977 6
G16  20497836.753 9 107716838.854 9       560.271 9        55.976 9  20497835.927 6         0.000 6       436.575 6        37.977 6
G26  20652992.864 9 108532187.765 9     -1480.082 9        55.874 9  20652995.680 6         0.000 6     -1153.311 6        37.977 6
G20  21946531.337 9 115329767.464 9      2567.951 9        55.315 9  21946531.660 6         0.000 6      2001.002 6        37.977 6
> 2019 07 03 12 00 55.0000000  0  8       0.000000000000
G07  25348966.163 9 133209670.164 9      2188.536 9        54.131 9  25348966.834 6         0.000 6      1705.353 6        37.977 6
G10  23812404.025 9 125134973.024 9      3529.974 9        54.668 9  23812407.755 6         0.000 6      2750.632 6        37.977 6
G21  21169789.513 9 111247974.083 9     -1249.543 9        55.710 9  21169788.799 6         0.000 6      -973.670 6        37.977 6
G29  24297026.835 9 127681681.455 9     -3119.690 9        54.476 9  24297028.406 6         0.000 6     -2430.930 6        37.977 6
G27  22006883.384 9 115646925.721 9      2500.456 9        55.373 9  22006885.317 6         0.000 6      1948.408 6        37.977 6
G16  20497730.195 9 107716278.888 9       559.655 9        55.976 9  20497729.369 6         0.000 6       436.095 6        37.977 6
G26  20653274.568 9 108533668.128 9     -1480.657 9        55.874 9  20653277.384 6         0.000 6     -1153.759 6        37.977 6
G20  21946042.713 9 115327199.734 9      2567.508 9        55.315 9  21946043.036 6         0.000 6      2000.657 6        37.977 6
> 2019 07 03 12 00 56.0000000  0  8       0.000000000000
G07  25348549.742 9 133207481.861 9      2188.077 9        54.131 9  25348550.413 6         0.000 6      1704.996 6        37.977 6
G10  23811732.307 9 125131443.129 9      3529.837 9        54.669 9  23811736.036 6         0.000 6      2750.525 6        37.977 6
G21  21170027.328 9 111249223.807 9     -1249.905 9        55.710 9  21170026.613 6         0.000 6      -973.952 6        37.977 6
G29  24297620.500 9 127684801.178 9     -3119.776 9        54.476 9  24297622.072 6         0.000 6     -2430.997 6        37.977 6
G27  22006407.585 9 115644425.385 9      2500.220 9        55.374 9  22006409.519 6         0.000 6      1948.224 6        37.977 6
G16  20497623.755 9 107715719.541 9       559.039 9        55.976 9  20497622.928 6         0.000 6       435.615 6        37.977 6
G26  20653556.383 9 108535149.071 9     -1481.232 9        55.873 9  20653559.199 6         0.000 6     -1154.207 6        37.977 6
G20  21945554.175 9 115324632.452 9      2567.065 9        55.315 9  21945554.497 6         0.000 6      2000.312 6        37.977 6
> 2019 07 03 12 00 57.0000000  0  8       0.000000000000
G07  25348133.409 9 133205294.017 9      2187.618 9        54.131 9  25348134.080 6         0.000 6      1704.638 6        37.977 6
G10  23811060.614 9 125127913.371 9      3529.700 9        54.669 9  23811064.342 6         0.000 6      2750.419 6        37.977 6
G21  21170265.211 9 111250473.891 9     -1250.266 9        55.709 9  21170264.497 6         0.000 6      -974.233 6        37.977 6
G29  24298214.182 9 127687920.987 9     -3119.862 9        54.475 9  24298215.755 6         0.000 6     -2431.064 6        37.977 6
G27  22005931.832 9 115641925.287 9      2499.983 9        55.374 9  22005933.765 6         0.000 6      1948.039 6        37.977 6
G16  20497517.432 9 107715160.810 9       558.423 9        55.976 9  20497516.605 6         0.000 6       435.135 6        37.977 6
G26  20653838.307 9 108536630.588 9     -1481.807 9        55.873 9  20653841.123 6         0.000 6     -1154.655 6        37.977 6
G20  21945065.721 9 115322065.613 9      2566.622 9        55.315 9  21945066.043 6         0.000 6      1999.967 6        37.977 6
> 2019 07 03 12 00 58.0000000  0  8       0.000000000000
G07  25347717.163 9 133203106.635 9      2187.159 9        54.131 9  25347717.834 6         0.000 6      1704.281 6        37.977 6
G10  23810388.947 9 125124383.745 9      3529.563 9        54.669 9  23810392.674 6         0.000 6      2750.312 6        37.977 6
G21  21170503.163 9 111251724.334 9     -1250.627 9        55.709 9  21170502.448 6         0.000 6      -974.514 6        37.977 6
G29  24298807.880 9 127691040.881 9     -3119.947 9        54.475 9  24298809.453 6         0.000 6     -2431.130 6        37.977 6
G27  22005456.123 9 115639425.423 9      2499.746 9        55.374 9  22005458.056 6         0.000 6      1947.855 6        37.977 6
G16  20497411.226 9 107714602.692 9       557.807 9        55.976 9  20497410.399 6         0.000 6       434.655 6        37.977 6
G26  20654120.339 9 108538112.676 9     -1482.382 9        55.873 9  20654123.155 6         0.000 6     -1155.103 6        37.977 6
G20  21944577.350 9 115319499.212 9      2566.179 9        55.315 9  21944577.672 6         0.000 6      1999.621 6        37.977 6
> 2019 07 03 12 00 59.0000000  0  8       0.000000000000
G07  25347301.004 9 133200919.710 9      2186.700 9        54.131 9  25347301.675 6         0.000 6      1703.923 6        37.977 6
G10  23809717.306 9 125120854.261 9      3529.426 9        54.669 9  23809721.033 6         0.000 6      2750.205 6        37.977 6
G21  21170741.183 9 111252975.140 9     -1250.987 9        55.709 9  21170740.469 6         0.000 6      -974.796 6        37.977 6
G29  24299401.594 9 127694160.861 9     -3120.033 9        54.475 9  24299403.168 6         0.000 6     -2431.197 6        37.977 6
G27  22004980.460 9 115636925.798 9      2499.510 9        55.374 9  22004982.393 6         0.000 6      1947.670 6        37.977 6
G16  20497305.137 9 107714045.193 9       557.191 9        55.977 9  20497304.311 6         0.000 6       434.175 6        37.977 6
G26  20654402.481 9 108539595.344 9     -1482.957 9        55.873 9  20654405.298 6         0.000 6     -1155.551 6        37.977 6
G20  21944089.064 9 115316933.259 9      2565.736 9        55.316 9  21944089.386 6         0.000 6      1999.276 6        37.977 6
> 2019 07 03 12 01  0.0000000  0  8       0.000000000000
G07  25346884.934 9 133198733.246 9      2186.241 9        54.132 9  25346885.604 6         0.000 6      1703.565 6        37.977 6
G10  23809045.691 9 125117324.909 9      3529.289 9        54.669 9  23809049.417 6         0.000 6      2750.098 6        37.977 6
G21  21170979.272 9 111254226.305 9     -1251.348 9        55.709 9  21170978.558 6         0.000 6      -975.077 6        37.977 6
G29  24299995.325 9 127697280.926 9     -3120.118 9        54.475 9  24299996.900 6         0.000 6     -2431.264 6        37.977 6
G27  22004504.841 9 115634426.407 9      2499.273 9        55.374 9  22004506.774 6         0.000 6      1947.486 6        37.977 6
G16  20497199.165 9 107713488.307 9       556.575 9        55.977 9  20497198.339 6         0.000 6       433.695 6        37.977 6
G26  20654684.732 9 108541078.581 9     -1483.531 9        55.873 9  20654687.549 6         0.000 6     -1155.999 6        37.977 6
G20  21943600.862 9 115314367.745 9      2565.293 9        55.316 9  21943601.184 6         0.000 6      1998.931 6        37.977 6
> 2019 07 03 12 01  1.0000000  0  8       0.000000000000
G07  25346468.950 9 133196547.241 9      2185.781 9        54.132 9  25346469.620 6         0.000 6      1703.207 6        37.977 6
G10  23808374.102 9 125113795.697 9      3529.152 9        54.670 9  23808377.828 6         0.000 6      2749.991 6        37.977 6
G21  21171217.430 9 111255477.831 9     -1251.709 9        55.709 9  21171216.716 6         0.000 6      -975.358 6        37.977 6
G29  24300589.071 9 127700401.072 9     -3120.204 9        54.475 9  24300590.646 6         0.000 6     -2431.330 6        37.977 6
G27  22004029.268 9 115631927.260 9      2499.036 9        55.374 9  22004031.201 6         0.000 6      1947.301 6        37.977 6
G16  20497093.312 9 107712932.041 9       555.959 9        55.977 9  20497092.485 6         0.000 6       433.215 6        37.977 6
G26  20654967.094 9 108542562.398 9     -1484.106 9        55.873 9  20654969.910 6         0.000 6     -1156.447 6        37.977 6
G20  21943112.745 9 115311802.675 9      2564.850 9        55.316 9  21943113.066 6         0.000 6      1998.585 6        37.977 6
> 2019 07 03 12 01  2.0000000  0  8       0.000000000000
G07  25346053.054 9 133194361.696 9      2185.322 9        54.132 9  25346053.723 6         0.000 6      1702.849 6        37.977 6
G10  23807702.539 9 125110266.620 9      3529.015 9        54.670 9  23807706.264 6         0.000 6      2749.884 6        37.977 6
G21  21171455.656 9 111256729.717 9     -1252.070 9        55.709 9  21171454.942 6         0.000 6      -975.639 6        37.977 6
G29  24301182.834 9 127703521.308 9     -3120.289 9        54.474 9  24301184.410 6         0.000 6     -2431.397 6        37.977 6
G27  22003553.740 9 115629428.343 9      2498.799 9        55.375 9  22003555.672 6         0.000 6      1947.117 6        37.977 6
G16  20496987.574 9 107712376.387 9       555.343 9        55.977 9  20496986.747 6         0.000 6       432.735 6        37.977 6
G26  20655249.564 9 108544046.785 9     -1484.681 9        55.873 9  20655252.380 6         0.000 6     -1156.895 6        37.977 6
G20  21942624.712 9 115309238.047 9      2564.406 9        55.316 9  21942625.032 6         0.000 6      1998.240 6        37.977 6
> 2019 07 03 12 01  3.0000000  0  8       0.000000000000
G07  25345637.245 9 133192176.608 9      2184.862 9        54.132 9  25345637.914 6         0.000 6      1702.491 6        37.977 6
G10  23807031.003 9 125106737.685 9      3528.877 9        54.670 9  23807034.727 6         0.000 6      2749.777 6        37.977 6
G21  21171693.951 9 111257981.967 9     -1252.431 9        55.709 9  21171693.237 6         0.000 6      -975.920 6        37.977 6
G29  24301776.614 9 127706641.630 9     -3120.375 9        54.474 9  24301778.190 6         0.000 6     -2431.464 6        37.977 6
G27  22003078.257 9 115626929.665 9      2498.562 9        55.375 9  22003080.189 6         0.000 6      1946.932 6        37.977 6
G16  20496881.955 9 107711821.352 9       554.727 9        55.977 9  20496881.128 6         0.000 6       432.254 6        37.977 6
G26  20655532.144 9 108545531.752 9     -1485.256 9        55.873 9  20655534.960 6         0.000 6     -1157.343 6        37.977 6
G20  21942136.764 9 115306673.867 9      2563.963 9        55.316 9  21942137.084 6         0.000 6      1997.894 6        37.977 6
> 2019 07 03 12 01  4.0000000  0  8       0.000000000000
G07  25345221.523 9 133189991.981 9      2184.403 9        54.132 9  25345222.193 6         0.000 6      1702.133 6        37.977 6
G10  23806359.492 9 125103208.882 9      3528.740 9        54.670 9  23806363.216 6         0.000 6      2749.670 6        37.977 6
G21  21171932.315 9 111259234.575 9     -1252.791 9        55.709 9  21171931.601 6         0.000 6      -976.201 6        37.977 6
G29  24302370.409 9 127709762.038 9     -3120.460 9        54.474 9  24302371.987 6         0.000 6     -2431.530 6        37.977 6
G27  22002602.818 9 115624431.222 9      2498.325 9        55.375 9  22002604.750 6         0.000 6      1946.748 6        37.977 6
G16  20496776.452 9 107711266.931 9       554.110 9        55.977 9  20496775.625 6         0.000 6       431.774 6        37.977 6
G26  20655814.832 9 108547017.288 9     -1485.830 9        55.873 9  20655817.649 6         0.000 6     -1157.790 6        37.977 6
G20  21941648.899 9 115304110.126 9      2563.519 9        55.316 9  21941649.219 6         0.000 6      1997.549 6        37.977 6
> 2019 07 03 12 01  5.0000000  0  8       0.000000000000
G07  25344805.889 9 133187807.811 9      2183.943 9        54.132 9  25344806.558 6         0.000 6      1701.775 6        37.977 6
G10  23805688.008 9 125099680.222 9      3528.602 9        54.671 9  23805691.731 6         0.000 6      2749.563 6        37.977 6
G21  21172170.747 9 111260487.545 9     -1253.152 9        55.709 9  21172170.033 6         0.000 6      -976.482 6        37.977 6
G29  24302964.221 9 127712882.531 9     -3120.546 9        54.474 9  24302965.799 6         0.000 6     -2431.597 6        37.977 6
G27  22002127.425 9 115621933.019 9      2498.088 9        55.375 9  22002129.357 6         0.000 6      1946.563 6        37.977 6
G16  20496671.067 9 107710713.129 9       553.494 9        55.977 9  20496670.240 6         0.000 6       431.294 6        37.977 6
G26  20656097.631 9 108548503.404 9     -1486.405 9        55.872 9  20656100.448 6         0.000 6     -1158.238 6        37.977 6
G20  21941161.120 9 115301546.833 9      2563.076 9        55.317 9  21941161.440 6         0.000 6      1997.203 6        37.977 6
> 2019 07 03 12 01  6.0000000  0  8       0.000000000000
G07  25344390.343 9 133185624.104 9      2183.484 9        54.132 9  25344391.011 6         0.000 6      1701.417 6        37.977 6
G10  23805016.550 9 125096151.695 9      3528.464 9        54.671 9  23805020.272 6         0.000 6      2749.455 6        37.977 6
G21  21172409.248 9 111261740.874 9     -1253.512 9        55.709 9  21172408.534 6         0.000 6      -976.763 6        37.977 6
G29  24303558.050 9 127716003.109 9     -3120.631 9        54.474 9  24303559.628 6         0.000 6     -2431.663 6        37.977 6
G27  22001652.077 9 115619435.050 9      2497.851 9        55.375 9  22001654.009 6         0.000 6      1946.378 6        37.977 6
G16  20496565.798 9 107710159.939 9       552.878 9        55.977 9  20496564.971 6         0.000 6       430.814 6        37.977 6
G26  20656380.538 9 108549990.090 9     -1486.980 9        55.872 9  20656383.355 6         0.000 6     -1158.686 6        37.977 6
G20  21940673.424 9 115298983.979 9      2562.632 9        55.317 9  21940673.744 6         0.000 6      1996.857 6        37.977 6
> 2019 07 03 12 01  7.0000000  0  8       0.000000000000
G07  25343974.883 9 133183440.854 9      2183.024 9        54.133 9  25343975.552 6         0.000 6      1701.059 6        37.977 6
G10  23804345.119 9 125092623.310 9      3528.326 9        54.671 9  23804348.840 6         0.000 6      2749.348 6        37.977 6
G21  21172647.818 9 111262994.566 9     -1253.873 9        55.709 9  21172647.104 6         0.000 6      -977.044 6        37.977 6
G29  24304151.894 9 127719123.773 9     -3120.717 9        54.473 9  24304153.473 6         0.000 6     -2431.730 6        37.977 6
G27  22001176.774 9 115616937.320 9      2497.614 9        55.376 9  22001178.706 6         0.000 6      1946.193 6        37.977 6
G16  20496460.648 9 107709607.370 9       552.261 9        55.977 9  20496459.821 6         0.000 6       430.334 6        37.977 6
G26  20656663.556 9 108551477.356 9     -1487.554 9        55.872 9  20656666.373 6         0.000 6     -1159.134 6        37.977 6
G20  21940185.814 9 115296421.574 9      2562.188 9        55.317 9  21940186.133 6         0.000 6      1996.511 6        37.977 6
> 2019 07 03 12 01  8.0000000  0  8       0.000000000000
G07  25343559.511 9 133181258.063 9      2182.564 9        54.133 9  25343560.180 6         0.000 6      1700.700 6        37.977 6
G10  23803673.713 9 125089095.063 9      3528.188 9        54.671 9  23803677.435 6         0.000 6      2749.240 6        37.977 6
G21  21172886.456 9 111264248.619 9     -1254.233 9        55.708 9  21172885.742 6         0.000 6      -977.325 6        37.977 6
G29  24304745.755 9 127722244.522 9     -3120.802 9        54.473 9  24304747.335 6         0.000 6     -2431.796 6        37.977 6
G27  22000701.517 9 115614439.827 9      2497.377 9        55.376 9  22000703.448 6         0.000 6      1946.009 6        37.977 6
G16  20496355.614 9 107709055.416 9       551.645 9        55.977 9  20496354.788 6         0.000 6       429.853 6        37.977 6
G26  20656946.683 9 108552965.196 9     -1488.129 9        55.872 9  20656949.500 6         0.000 6     -1159.581 6        37.977 6
G20  21939698.288 9 115293859.612 9      2561.744 9        55.317 9  21939698.607 6         0.000 6      1996.165 6        37.977 6
> 2019 07 03 12 01  9.0000000  0  8       0.000000000000
G07  25343144.228 9 133179075.738 9      2182.104 9        54.133 9  25343144.896 6         0.000 6      1700.342 6        37.977 6
G10  23803002.333 9 125085566.948 9      3528.050 9        54.672 9  23803006.054 6         0.000 6      2749.133 6        37.977 6
G21  21173125.162 9 111265503.027 9     -1254.594 9        55.708 9  21173124.448 6         0.000 6      -977.606 6        37.977 6
G29  24305339.631 9 127725365.352 9     -3120.887 9        54.473 9  24305341.211 6         0.000 6     -2431.863 6        37.977 6
G27  22000226.305 9 115611942.573 9      2497.140 9        55.376 9  22000228.236 6         0.000 6      1945.824 6        37.977 6
G16  20496250.698 9 107708504.078 9       551.029 9        55.977 9  20496249.871 6         0.000 6       429.373 6        37.977 6
G26  20657229.918 9 108554453.605 9     -1488.703 9        55.872 9  20657232.735 6         0.000 6     -1160.029 6        37.977 6
G20  21939210.845 9 115291298.087 9      2561.300 9        55.317 9  21939211.164 6         0.000 6      1995.819 6        37.977 6
> 2019 07 03 12 01 10.0000000  0  8       0.000000000000
G07  25342729.031 9 133176893.867 9      2181.644 9        54.133 9  25342729.699 6         0.000 6      1699.984 6        37.977 6
G10  23802330.981 9 125082038.977 9      3527.912 9        54.672 9  23802334.701 6         0.000 6      2749.025 6        37.977 6
G21  21173363.938 9 111266757.800 9     -1254.954 9        55.708 9  21173363.224 6         0.000 6      -977.886 6        37.977 6
G29  24305933.524 9 127728486.272 9     -3120.973 9        54.473 9  24305935.105 6         0.000 6     -2431.929 6        37.977 6
G27  21999751.137 9 115609445.555 9      2496.903 9        55.376 9  21999753.069 6         0.000 6      1945.639 6        37.977 6
G16  20496145.900 9 107707953.357 9       550.412 9        55.977 9  20496145.073 6         0.000 6       428.893 6        37.977 6
G26  20657513.263 9 108555942.594 9     -1489.278 9        55.872 9  20657516.081 6         0.000 6     -1160.477 6        37.977 6
G20  21938723.488 9 115288737.014 9      2560.856 9        55.318 9  21938723.806 6         0.000 6      1995.473 6        37.977 6
> 2019 07 03 12 01 11.0000000  0  8       0.000000000000
G07  25342313.922 9 133174712.459 9      2181.185 9        54.133 9  25342314.590 6         0.000 6      1699.625 6        37.977 6
G10  23801659.654 9 125078511.140 9      3527.774 9        54.672 9  23801663.373 6         0.000 6      2748.917 6        37.977 6
G21  21173602.781 9 111268012.931 9     -1255.314 9        55.708 9  21173602.068 6         0.000 6      -978.167 6        37.977 6
G29  24306527.434 9 127731607.277 9     -3121.058 9        54.472 9  24306529.015 6         0.000 6     -2431.996 6        37.977 6
G27  21999276.015 9 115606948.772 9      2496.665 9        55.376 9  21999277.946 6         0.000 6      1945.454 6        37.977 6
G16  20496041.218 9 107707403.250 9       549.796 9        55.977 9  20496040.391 6         0.000 6       428.412 6        37.977 6
G26  20657796.717 9 108557432.153 9     -1489.852 9        55.872 9  20657799.535 6         0.000 6     -1160.924 6        37.977 6
G20  21938236.215 9 115286176.380 9      2560.412 9        55.318 9  21938236.533 6         0.000 6      1995.127 6        37.977 6
> 2019 07 03 12 01 12.0000000  0  8       0.000000000000
G07  25341898.900 9 133172531.508 9      2180.724 9        54.133 9  25341899.568 6         0.000 6      1699.267 6        37.977 6
G10  23800988.354 9 125074983.446 9      3527.636 9        54.672 9  23800992.072 6         0.000 6      2748.810 6        37.977 6
G21  21173841.694 9 111269268.424 9     -1255.674 9        55.708 9  21173840.980 6         0.000 6      -978.448 6        37.977 6
G29  24307121.359 9 127734728.367 9     -3121.143 9        54.472 9  24307122.942 6         0.000 6     -2432.062 6        37.977 6
G27  21998800.938 9 115604452.228 9      2496.428 9        55.377 9  21998802.869 6         0.000 6      1945.269 6        37.977 6
G16  20495936.654 9 107706853.763 9       549.179 9        55.977 9  20495935.827 6         0.000 6       427.932 6        37.977 6
G26  20658080.281 9 108558922.290 9     -1490.427 9        55.872 9  20658083.099 6         0.000 6     -1161.372 6        37.977 6
G20  21937749.027 9 115283616.195 9      2559.967 9        55.318 9  21937749.345 6         0.000 6      1994.781 6        37.977 6
> 2019 07 03 12 01 13.0000000  0  8       0.000000000000
G07  25341483.967 9 133170351.020 9      2180.264 9        54.133 9  25341484.634 6         0.000 6      1698.908 6        37.977 6
G10  23800317.080 9 125071455.886 9      3527.497 9        54.673 9  23800320.797 6         0.000 6      2748.702 6        37.977 6
G21  21174080.675 9 111270524.276 9     -1256.034 9        55.708 9  21174079.961 6         0.000 6      -978.728 6        37.977 6
G29  24307715.301 9 127737849.543 9     -3121.229 9        54.472 9  24307716.884 6         0.000 6     -2432.129 6        37.977 6
G27  21998325.906 9 115601955.919 9      2496.191 9        55.377 9  21998327.836 6         0.000 6      1945.084 6        37.977 6
G16  20495832.206 9 107706304.888 9       548.563 9        55.977 9  20495831.379 6         0.000 6       427.451 6        37.977 6
G26  20658363.954 9 108560412.998 9     -1491.001 9        55.871 9  20658366.772 6         0.000 6     -1161.820 6        37.977 6
G20  21937261.923 9 115281056.450 9      2559.523 9        55.318 9  21937262.240 6         0.000 6      1994.435 6        37.977 6
> 2019 07 03 12 01 14.0000000  0  8       0.000000000000
G07  25341069.120 9 133168170.990 9      2179.804 9        54.134 9  25341069.787 6         0.000 6      1698.549 6        37.977 6
G10  23799645.832 9 125067928.469 9      3527.358 9        54.673 9  23799649.550 6         0.000 6      2748.594 6        37.977 6
G21  21174319.724 9 111271780.489 9     -1256.395 9        55.708 9  21174319.011 6         0.000 6      -979.009 6        37.977 6
G29  24308309.260 9 127740970.804 9     -3121.314 9        54.472 9  24308310.843 6         0.000 6     -2432.195 6        37.977 6
G27  21997850.919 9 115599459.850 9      2495.953 9        55.377 9  21997852.849 6         0.000 6      1944.899 6        37.977 6
G16  20495727.877 9 107705756.634 9       547.946 9        55.977 9  20495727.050 6         0.000 6       426.971 6        37.977 6
G26  20658647.737 9 108561904.285 9     -1491.576 9        55.871 9  20658650.555 6         0.000 6     -1162.267 6        37.977 6
G20  21936774.904 9 115278497.154 9      2559.078 9        55.318 9  21936775.221 6         0.000 6      1994.088 6        37.977 6
> 2019 07 03 12 01 15.0000000  0  8       0.000000000000
G07  25340654.361 9 133165991.422 9      2179.344 9        54.134 9  25340655.028 6         0.000 6      1698.191 6        37.977 6
G10  23798974.611 9 125064401.186 9      3527.220 9        54.673 9  23798978.327 6         0.000 6      2748.486 6        37.977 6
G21  21174558.842 9 111273037.061 9     -1256.755 9        55.708 9  21174558.128 6         0.000 6      -979.289 6        37.977 6
G29  24308903.234 9 127744092.151 9     -3121.399 9        54.472 9  24308904.818 6         0.000 6     -2432.262 6        37.977 6
G27  21997375.977 9 115596964.016 9      2495.716 9        55.377 9  21997377.907 6         0.000 6      1944.715 6        37.977 6
G16  20495623.664 9 107705208.993 9       547.329 9        55.977 9  20495622.838 6         0.000 6       426.490 6        37.977 6
G26  20658931.628 9 108563396.141 9     -1492.150 9        55.871 9  20658934.446 6         0.000 6     -1162.715 6        37.977 6
G20  21936287.969 9 115275938.298 9      2558.634 9        55.319 9  21936288.286 6         0.000 6      1993.742 6        37.977 6
> 2019 07 03 12 01 16.0000000  0  8       0.000000000000
G07  25340239.690 9 133163812.312 9      2178.883 9        54.134 9  25340240.356 6         0.000 6      1697.832 6        37.977 6
G10  23798303.416 9 125060874.047 9      3527.081 9        54.673 9  23798307.132 6         0.000 6      2748.377 6        37.977 6
G21  21174798.029 9 111274293.995 9     -1257.115 9        55.708 9  21174797.315 6         0.000 6      -979.570 6        37.977 6
G29  24309497.225 9 127747213.582 9     -3121.484 9        54.471 9  24309498.809 6         0.000 6     -2432.328 6        37.977 6
G27  21996901.081 9 115594468.421 9      2495.479 9        55.377 9  21996903.011 6         0.000 6      1944.530 6        37.977 6
G16  20495519.570 9 107704661.972 9       546.713 9        55.977 9  20495518.743 6         0.000 6       426.010 6        37.977 6
G26  20659215.629 9 108564888.576 9     -1492.724 9        55.871 9  20659218.447 6         0.000 6     -1163.162 6        37.977 6
G20  21935801.120 9 115273379.892 9      2558.189 9        55.319 9  21935801.436 6         0.000 6      1993.395 6        37.977 6
> 2019 07 03 12 01 17.0000000  0  8       0.000000000000
G07  25339825.107 9 133161633.666 9      2178.423 9        54.134 9  25339825.773 6         0.000 6      1697.473 6        37.977 6
G10  23797632.248 9 125057347.043 9      3526.942 9        54.674 9  23797635.963 6         0.000 6      2748.269 6        37.977 6
G21  21175037.284 9 111275551.286 9     -1257.474 9        55.708 9  21175036.570 6         0.000 6      -979.850 6        37.977 6
G29  24310091.230 9 127750335.094 9     -3121.570 9        54.471 9  24310092.816 6         0.000 6     -2432.394 6        37.977 6
G27  21996426.230 9 115591973.067 9      2495.241 9        55.378 9  21996428.160 6         0.000 6      1944.345 6        37.977 6
G16  20495415.593 9 107704115.569 9       546.096 9        55.977 9  20495414.766 6         0.000 6       425.529 6        37.977 6
G26  20659499.740 9 108566381.585 9     -1493.298 9        55.871 9  20659502.558 6         0.000 6     -1163.610 6        37.977 6
G20  21935314.354 9 115270821.926 9      2557.744 9        55.319 9  21935314.671 6         0.000 6      1993.049 6        37.977 6
> 2019 07 03 12 01 18.0000000  0  8       0.000000000000
G07  25339410.611 9 133159455.480 9      2177.962 9        54.134 9  25339411.277 6         0.000 6      1697.114 6        37.977 6
G10  23796961.106 9 125053820.177 9      3526.803 9        54.674 9  23796964.820 6         0.000 6      2748.161 6        37.977 6
G21  21175276.607 9 111276808.938 9     -1257.834 9        55.707 9  21175275.893 6         0.000 6      -980.131 6        37.977 6
G29  24310685.254 9 127753456.696 9     -3121.655 9        54.471 9  24310686.839 6         0.000 6     -2432.461 6        37.977 6
G27  21995951.424 9 115589477.946 9      2495.004 9        55.378 9  21995953.354 6         0.000 6      1944.159 6        37.977 6
G16  20495311.732 9 107703569.778 9       545.479 9        55.977 9  20495310.905 6         0.000 6       425.049 6        37.977 6
G26  20659783.959 9 108567875.164 9     -1493.873 9        55.871 9  20659786.777 6         0.000 6     -1164.057 6        37.977 6
G20  21934827.673 9 115268264.405 9      2557.299 9        55.319 9  21934827.989 6         0.000 6      1992.702 6        37.977 6
> 2019 07 03 12 01 19.0000000  0  8       0.000000000000
G07  25338996.202 9 133157277.751 9      2177.501 9        54.134 9  25338996.868 6         0.000 6      1696.755 6        37.977 6
G10  23796289.991 9 125050293.454 9      3526.664 9        54.674 9  23796293.704 6         0.000 6      2748.052 6        37.977 6
G21  21175515.999 9 111278066.951 9     -1258.194 9        55.707 9  21175515.285 6         0.000 6      -980.411 6        37.977 6
G29  24311279.293 9 127756578.383 9     -3121.740 9        54.471 9  24311280.879 6         0.000 6     -2432.527 6        37.977 6
G27  21995476.663 9 115586983.063 9      2494.766 9        55.378 9  21995478.593 6         0.000 6      1943.974 6        37.977 6
G16  20495207.990 9 107703024.607 9       544.862 9        55.977 9  20495207.163 6         0.000 6       424.568 6        37.977 6
G26  20660068.288 9 108569369.322 9     -1494.447 9        55.871 9  20660071.106 6         0.000 6     -1164.504 6        37.977 6
G20  21934341.078 9 115265707.332 9      2556.854 9        55.319 9  21934341.394 6         0.000 6      1992.355 6        37.977 6
> 2019 07 03 12 01 20.0000000  0  8       0.000000000000
G07  25338581.882 9 133155100.487 9      2177.041 9        54.134 9  25338582.547 6         0.000 6      1696.396 6        37.977 6
G10  23795618.901 9 125046766.866 9      3526.525 9        54.674 9  23795622.614 6         0.000 6      2747.944 6        37.977 6
G21  21175755.459 9 111279325.322 9     -1258.554 9        55.707 9  21175754.746 6         0.000 6      -980.692 6        37.977 6
G29  24311873.348 9 127759700.155 9     -3121.825 9        54.471 9  24311874.935 6         0.000 6     -2432.593 6        37.977 6
G27  21995001.947 9 115584488.417 9      2494.529 9        55.378 9  21995003.876 6         0.000 6      1943.789 6        37.977 6
G16  20495104.364 9 107702480.050 9       544.246 9        55.977 9  20495103.537 6         0.000 6       424.087 6        37.977 6
G26  20660352.725 9 108570864.049 9     -1495.021 9        55.871 9  20660355.544 6         0.000 6     -1164.952 6        37.977 6
G20  21933854.566 9 115263150.701 9      2556.409 9        55.320 9  21933854.882 6         0.000 6      1992.008 6        37.977 6
> 2019 07 03 12 01 21.0000000  0  8       0.000000000000
G07  25338167.649 9 133152923.680 9      2176.580 9        54.135 9  25338168.314 6         0.000 6      1696.037 6        37.977 6
G10  23794947.839 9 125043240.422 9      3526.385 9        54.675 9  23794951.552 6         0.000 6      2747.835 6        37.977 6
G21  21175994.988 9 111280584.055 9     -1258.914 9        55.707 9  21175994.275 6         0.000 6      -980.972 6        37.977 6
G29  24312467.420 9 127762822.012 9     -3121.910 9        54.470 9  24312469.008 6         0.000 6     -2432.660 6        37.977 6
G27  21994527.276 9 115581994.009 9      2494.291 9        55.378 9  21994529.206 6         0.000 6      1943.604 6        37.977 6
G16  20495000.856 9 107701936.113 9       543.629 9        55.978 9  20495000.029 6         0.000 6       423.607 6        37.977 6
G26  20660637.273 9 108572359.356 9     -1495.595 9        55.870 9  20660640.092 6         0.000 6     -1165.399 6        37.977 6
G20  21933368.140 9 115260594.518 9      2555.964 9        55.320 9  21933368.455 6         0.000 6      1991.661 6        37.977 6
> 2019 07 03 12 01 22.0000000  0  8       0.000000000000
G07  25337753.504 9 133150747.337 9      2176.119 9        54.135 9  25337754.169 6         0.000 6      1695.678 6        37.977 6
G10  23794276.803 9 125039714.113 9      3526.246 9        54.675 9  23794280.515 6         0.000 6      2747.727 6        37.977 6
G21  21176234.585 9 111281843.145 9     -1259.273 9        55.707 9  21176233.872 6         0.000 6      -981.252 6        37.977 6
G29  24313061.508 9 127765943.955 9     -3121.995 9        54.470 9  24313063.096 6         0.000 6     -2432.726 6        37.977 6
G27  21994052.651 9 115579499.838 9      2494.053 9        55.378 9  21994054.580 6         0.000 6      1943.419 6        37.977 6
G16  20494897.465 9 107701392.789 9       543.012 9        55.978 9  20494896.638 6         0.000 6       423.126 6        37.977 6
G26  20660921.929 9 108573855.231 9     -1496.169 9        55.870 9  20660924.748 6         0.000 6     -1165.847 6        37.977 6
G20  21932881.798 9 115258038.777 9      2555.519 9        55.320 9  21932882.113 6         0.000 6      1991.315 6        37.977 6
> 2019 07 03 12 01 23.0000000  0  8       0.000000000000
G07  25337339.446 9 133148571.452 9      2175.658 9        54.135 9  25337340.111 6         0.000 6      1695.319 6        37.977 6
G10  23793605.794 9 125036187.947 9      3526.106 9        54.675 9  23793609.505 6         0.000 6      2747.618 6        37.977 6
G21  21176474.251 9 111283102.598 9     -1259.633 9        55.707 9  21176473.538 6         0.000 6      -981.532 6        37.977 6
G29  24313655.612 9 127769065.982 9     -3122.080 9        54.470 9  24313657.201 6         0.000 6     -2432.792 6        37.977 6
G27  21993578.071 9 115577005.906 9      2493.816 9        55.379 9  21993580.000 6         0.000 6      1943.234 6        37.977 6
G16  20494794.192 9 107700850.086 9       542.395 9        55.978 9  20494793.365 6         0.000 6       422.645 6        37.977 6
G26  20661206.695 9 108575351.685 9     -1496.743 9        55.870 9  20661209.514 6         0.000 6     -1166.294 6        37.977 6
G20  21932395.541 9 115255483.486 9      2555.073 9        55.320 9  21932395.856 6         0.000 6      1990.967 6        37.977 6
> 2019 07 03 12 01 24.0000000  0  8       0.000000000000
G07  25336925.476 9 133146396.030 9      2175.197 9        54.135 9  25336926.141 6         0.000 6      1694.960 6        37.977 6
G10  23792934.810 9 125032661.917 9      3525.967 9        54.675 9  23792938.521 6         0.000 6      2747.509 6        37.977 6
G21  21176713.985 9 111284362.407 9     -1259.992 9        55.707 9  21176713.272 6         0.000 6      -981.812 6        37.977 6
G29  24314249.732 9 127772188.094 9     -3122.165 9        54.470 9  24314251.322 6         0.000 6     -2432.859 6        37.977 6
G27  21993103.536 9 115574512.210 9      2493.578 9        55.379 9  21993105.465 6         0.000 6      1943.049 6        37.977 6
G16  20494691.036 9 107700307.997 9       541.778 9        55.978 9  20494690.209 6         0.000 6       422.165 6        37.977 6
G26  20661491.570 9 108576848.709 9     -1497.317 9        55.870 9  20661494.389 6         0.000 6     -1166.741 6        37.977 6
G20  21931909.368 9 115252928.635 9      2554.628 9        55.320 9  21931909.683 6         0.000 6      1990.620 6        37.977 6
> 2019 07 03 12 01 25.0000000  0  8       0.000000000000
G07  25336511.594 9 133144221.070 9      2174.736 9        54.135 9  25336512.259 6         0.000 6      1694.600 6        37.977 6
G10  23792263.854 9 125029136.028 9      3525.827 9        54.676 9  23792267.564 6         0.000 6      2747.400 6        37.977 6
G21  21176953.787 9 111285622.576 9     -1260.352 9        55.707 9  21176953.074 6         0.000 6      -982.092 6        37.977 6
G29  24314843.867 9 127775310.287 9     -3122.250 9        54.470 9  24314845.458 6         0.000 6     -2432.925 6        37.977 6
G27  21992629.047 9 115572018.757 9      2493.340 9        55.379 9  21992630.976 6         0.000 6      1942.863 6        37.977 6
G16  20494587.998 9 107699766.529 9       541.161 9        55.978 9  20494587.171 6         0.000 6       421.684 6        37.977 6
G26  20661776.554 9 108578346.311 9     -1497.891 9        55.870 9  20661779.373 6         0.000 6     -1167.188 6        37.977 6
G20  21931423.280 9 115250374.231 9      2554.182 9        55.321 9  21931423.595 6         0.000 6      1990.273 6        37.977 6
> 2019 07 03 12 01 26.0000000  0  8       0.000000000000
G07  25336097.800 9 133142046.568 9      2174.275 9        54.135 9  25336098.464 6         0.000 6      1694.241 6        37.977 6
G10  23791592.925 9 125025610.282 9      3525.687 9        54.676 9  23791596.634 6         0.000 6      2747.291 6        37.977 6
G21  21177193.659 9 111286883.107 9     -1260.711 9        55.707 9  21177192.945 6         0.000 6      -982.373 6        37.977 6
G29  24315438.020 9 127778432.569 9     -3122.335 9        54.469 9  24315439.611 6         0.000 6     -2432.991 6        37.977 6
G27  21992154.603 9 115569525.538 9      2493.103 9        55.379 9  21992156.531 6         0.000 6      1942.678 6        37.977 6
G16  20494485.077 9 107699225.676 9       540.544 9        55.978 9  20494484.250 6         0.000 6       421.203 6        37.977 6
G26  20662061.648 9 108579844.487 9     -1498.465 9        55.870 9  20662064.467 6         0.000 6     -1167.636 6        37.977 6
G20  21930937.278 9 115247820.276 9      2553.737 9        55.321 9  21930937.592 6         0.000 6      1989.926 6        37.977 6
> 2019 07 03 12 01 27.0000000  0  8       0.000000000000
G07  25335684.093 9 133139872.530 9      2173.814 9        54.135 9  25335684.757 6         0.000 6      1693.882 6        37.977 6
G10  23790922.021 9 125022084.671 9      3525.547 9        54.676 9  23790925.730 6         0.000 6      2747.182 6        37.977 6
G21  21177433.598 9 111288143.995 9     -1261.071 9        55.707 9  21177432.885 6         0.000 6      -982.653 6        37.977 6
G29  24316032.189 9 127781554.937 9     -3122.420 9        54.469 9  24316033.780 6         0.000 6     -2433.057 6        37.977 6
G27  21991680.203 9 115567032.556 9      2492.865 9        55.379 9  21991682.132 6         0.000 6      1942.493 6        37.977 6
G16  20494382.273 9 107698685.438 9       539.927 9        55.978 9  20494381.446 6         0.000 6       420.722 6        37.977 6
G26  20662346.850 9 108581343.233 9     -1499.039 9        55.870 9  20662349.669 6         0.000 6     -1168.083 6        37.977 6
G20  21930451.360 9 115245266.762 9      2553.291 9        55.321 9  21930451.673 6         0.000 6      1989.579 6        37.977 6
> 2019 07 03 12 01 28.0000000  0  8       0.000000000000
G07  25335270.474 9 133137698.951 9      2173.352 9        54.136 9  25335271.138 6         0.000 6      1693.522 6        37.977 6
G10  23790251.145 9 125018559.205 9      3525.407 9        54.676 9  23790254.854 6         0.000 6      2747.073 6        37.977 6
G21  21177673.606 9 111289405.244 9     -1261.430 9        55.706 9  21177672.893 6         0.000 6      -982.933 6        37.977 6
G29  24316626.373 9 127784677.389 9     -3122.505 9        54.469 9  24316627.966 6         0.000 6     -2433.123 6        37.977 6
G27  21991205.850 9 115564539.812 9      2492.627 9        55.380 9  21991207.778 6         0.000 6      1942.307 6        37.977 6
G16  20494279.587 9 107698145.820 9       539.309 9        55.978 9  20494278.760 6         0.000 6       420.241 6        37.977 6
G26  20662632.162 9 108582842.557 9     -1499.613 9        55.870 9  20662634.982 6         0.000 6     -1168.530 6        37.977 6
G20  21929965.527 9 115242713.699 9      2552.845 9        55.321 9  21929965.840 6         0.000 6      1989.231 6        37.977 6
> 2019 07 03 12 01 29.0000000  0  8       0.000000000000
G07  25334856.944 9 133135525.836 9      2172.891 9        54.136 9  25334857.607 6         0.000 6      1693.163 6        37.977 6
G10  23789580.295 9 125015033.874 9      3525.267 9        54.677 9  23789584.003 6         0.000 6      2746.964 6        37.977 6
G21  21177913.681 9 111290666.851 9     -1261.789 9        55.706 9  21177912.968 6         0.000 6      -983.212 6        37.977 6
G29  24317220.574 9 127787799.926 9     -3122.590 9        54.469 9  24317222.167 6         0.000 6     -2433.190 6        37.977 6
G27  21990731.541 9 115562047.305 9      2492.389 9        55.380 9  21990733.469 6         0.000 6      1942.122 6        37.977 6
G16  20494177.018 9 107697606.816 9       538.692 9        55.978 9  20494176.191 6         0.000 6       419.760 6        37.977 6
G26  20662917.583 9 108584342.450 9     -1500.187 9        55.870 9  20662920.402 6         0.000 6     -1168.977 6        37.977 6
G20  21929479.778 9 115240161.077 9      2552.399 9        55.321 9  21929480.091 6         0.000 6      1988.884 6        37.977 6
> 2019 07 03 12 01 30.0000000  0  8       0.000000000000
G07  25334443.500 9 133133353.179 9      2172.429 9        54.136 9  25334444.164 6         0.000 6      1692.803 6        37.977 6
G10  23788909.473 9 125011508.688 9      3525.126 9        54.677 9  23788913.179 6         0.000 6      2746.854 6        37.977 6
G21  21178153.826 9 111291928.819 9     -1262.148 9        55.706 9  21178153.113 6         0.000 6      -983.492 6        37.977 6
G29  24317814.792 9 127790922.548 9     -3122.675 9        54.468 9  24317816.385 6         0.000 6     -2433.256 6        37.977 6
G27  21990257.277 9 115559555.038 9      2492.151 9        55.380 9  21990259.205 6         0.000 6      1941.937 6        37.977 6
G16  20494074.567 9 107697068.432 9       538.075 9        55.978 9  20494073.740 6         0.000 6       419.279 6        37.977 6
G26  20663203.113 9 108585842.922 9     -1500.760 9        55.869 9  20663205.933 6         0.000 6     -1169.424 6        37.977 6
G20  21928994.115 9 115237608.905 9      2551.953 9        55.321 9  21928994.428 6         0.000 6      1988.536 6        37.977 6
> 2019 07 03 12 01 31.0000000  0  8       0.000000000000
G07  25334030.145 9 133131180.987 9      2171.968 9        54.136 9  25334030.808 6         0.000 6      1692.443 6        37.977 6
G10  23788238.676 9 125007983.638 9      3524.986 9        54.677 9  23788242.382 6         0.000 6      2746.745 6        37.977 6
G21  21178394.039 9 111293191.143 9     -1262.507 9        55.706 9  21178393.326 6         0.000 6      -983.772 6        37.977 6
G29  24318409.025 9 127794045.255 9     -3122.760 9        54.468 9  24318410.619 6         0.000 6     -2433.322 6        37.977 6
G27  21989783.059 9 115557063.007 9      2491.913 9        55.380 9  21989784.987 6         0.000 6      1941.751 6        37.977 6
G16  20493972.233 9 107696530.663 9       537.458 9        55.978 9  20493971.406 6         0.000 6       418.798 6        37.977 6
G26  20663488.752 9 108587343.963 9     -1501.334 9        55.869 9  20663491.572 6         0.000 6     -1169.871 6        37.977 6
G20  21928508.536 9 115235057.175 9      2551.507 9        55.322 9  21928508.849 6         0.000 6      1988.189 6        37.977 6
> 2019 07 03 12 01 32.0000000  0  8       0.000000000000
G07  25333616.878 9 133129009.257 9      2171.506 9        54.136 9  25333617.541 6         0.000 6      1692.084 6        37.977 6
G10  23787567.906 9 125004458.730 9      3524.846 9        54.677 9  23787571.612 6         0.000 6      2746.636 6        37.977 6
G21  21178634.320 9 111294453.827 9     -1262.866 9        55.706 9  21178633.607 6         0.000 6      -984.052 6        37.977 6
G29  24319003.273 9 127797168.042 9     -3122.845 9        54.468 9  24319004.868 6         0.000 6     -2433.388 6        37.977 6
G27  21989308.887 9 115554571.219 9      2491.675 9        55.380 9  21989310.815 6         0.000 6      1941.566 6        37.977 6
G16  20493870.017 9 107695993.515 9       536.840 9        55.978 9  20493869.190 6         0.000 6       418.317 6        37.977 6
G26  20663774.501 9 108588845.582 9     -1501.908 9        55.869 9  20663777.321 6         0.000 6     -1170.318 6        37.977 6
G20  21928023.043 9 115232505.892 9      2551.061 9        55.322 9  21928023.355 6         0.000 6      1987.841 6        37.977 6
> 2019 07 03 12 01 33.0000000  0  8       0.000000000000
G07  25333203.698 9 133126837.988 9      2171.044 9        54.136 9  25333204.361 6         0.000 6      1691.724 6        37.977 6
G10  23786897.163 9 125000933.961 9      3524.705 9        54.678 9  23786900.868 6         0.000 6      2746.526 6        37.977 6
G21  21178874.669 9 111295716.870 9     -1263.225 9        55.706 9  21178873.956 6         0.000 6      -984.332 6        37.977 6
G29  24319597.539 9 127800290.919 9     -3122.929 9        54.468 9  24319599.135 6         0.000 6     -2433.454 6        37.977 6
G27  21988834.760 9 115552079.664 9      2491.437 9        55.381 9  21988836.687 6         0.000 6      1941.380 6        37.977 6
G16  20493767.918 9 107695456.980 9       536.223 9        55.978 9  20493767.091 6         0.000 6       417.836 6        37.977 6
G26  20664060.358 9 108590347.770 9     -1502.482 9        55.869 9  20664063.179 6         0.000 6     -1170.765 6        37.977 6
G20  21927537.633 9 115229955.055 9      2550.615 9        55.322 9  21927537.946 6         0.000 6      1987.493 6        37.977 6
> 2019 07 03 12 01 34.0000000  0  8       0.000000000000
G07  25332790.606 9 133124667.178 9      2170.583 9        54.136 9  25332791.269 6         0.000 6      1691.364 6        37.977 6
G10  23786226.447 9 124997409.337 9      3524.564 9        54.678 9  23786230.152 6         0.000 6      2746.416 6        37.977 6
G21  21179115.087 9 111296980.275 9     -1263.584 9        55.706 9  21179114.374 6         0.000 6      -984.611 6        37.977 6
G29  24320191.821 9 127803413.880 9     -3123.014 9        54.468 9  24320193.417 6         0.000 6     -2433.520 6        37.977 6
G27  21988360.677 9 115549588.349 9      2491.199 9        55.381 9  21988362.605 6         0.000 6      1941.195 6        37.977 6
G16  20493665.937 9 107694921.065 9       535.606 9        55.978 9  20493665.110 6         0.000 6       417.355 6        37.977 6
G26  20664346.326 9 108591850.537 9     -1503.055 9        55.869 9  20664349.146 6         0.000 6     -1171.212 6        37.977 6
G20  21927052.310 9 115227404.668 9      2550.168 9        55.322 9  21927052.622 6         0.000 6      1987.145 6        37.977 6
> 2019 07 03 12 01 35.0000000  0  8       0.000000000000
G07  25332377.603 9 133122496.832 9      2170.121 9        54.137 9  25332378.265 6         0.000 6      1691.004 6        37.977 6
G10  23785555.758 9 124993884.850 9      3524.424 9        54.678 9  23785559.461 6         0.000 6      2746.307 6        37.977 6
G21  21179355.573 9 111298244.035 9     -1263.943 9        55.706 9  21179354.860 6         0.000 6      -984.891 6        37.977 6
G29  24320786.119 9 127806536.926 9     -3123.099 9        54.467 9  24320787.716 6         0.000 6     -2433.586 6        37.977 6
G27  21987886.640 9 115547097.269 9      2490.961 9        55.381 9  21987888.567 6         0.000 6      1941.009 6        37.977 6
G16  20493564.072 9 107694385.765 9       534.988 9        55.978 9  20493563.246 6         0.000 6       416.874 6        37.977 6
G26  20664632.401 9 108593353.872 9     -1503.629 9        55.869 9  20664635.222 6         0.000 6     -1171.659 6        37.977 6
G20  21926567.071 9 115224854.723 9      2549.722 9        55.322 9  21926567.383 6         0.000 6      1986.797 6        37.977 6
> 2019 07 03 12 01 36.0000000  0  8       0.000000000000
G07  25331964.686 9 133120326.946 9      2169.659 9        54.137 9  25331965.348 6         0.000 6      1690.644 6        37.977 6
G10  23784885.096 9 124990360.507 9      3524.283 9        54.678 9  23784888.798 6         0.000 6      2746.197 6        37.977 6
G21  21179596.127 9 111299508.157 9     -1264.302 9        55.706 9  21179595.414 6         0.000 6      -985.171 6        37.977 6
G29  24321380.433 9 127809660.058 9     -3123.184 9        54.467 9  24321382.030 6         0.000 6     -2433.652 6        37.977 6
G27  21987412.649 9 115544606.430 9      2490.723 9        55.381 9  21987414.576 6         0.000 6      1940.824 6        37.977 6
G16  20493462.326 9 107693851.086 9       534.371 9        55.978 9  20493461.499 6         0.000 6       416.393 6        37.977 6
G26  20664918.587 9 108594857.786 9     -1504.202 9        55.869 9  20664921.407 6         0.000 6     -1172.106 6        37.977 6
G20  21926081.918 9 115222305.229 9      2549.275 9        55.323 9  21926082.229 6         0.000 6      1986.449 6        37.977 6
> 2019 07 03 12 01 37.0000000  0  8       0.000000000000
G07  25331551.858 9 133118157.522 9      2169.197 9        54.137 9  25331552.520 6         0.000 6      1690.284 6        37.977 6
G10  23784214.460 9 124986836.306 9      3524.142 9        54.679 9  23784218.163 6         0.000 6      2746.087 6        37.977 6
G21  21179836.750 9 111300772.638 9     -1264.661 9        55.706 9  21179836.037 6         0.000 6      -985.450 6        37.977 6
G29  24321974.763 9 127812783.273 9     -3123.268 9        54.467 9  24321976.361 6         0.000 6     -2433.718 6        37.977 6
G27  21986938.703 9 115542115.830 9      2490.484 9        55.381 9  21986940.630 6         0.000 6      1940.638 6        37.977 6
G16  20493360.698 9 107693317.023 9       533.753 9        55.978 9  20493359.871 6         0.000 6       415.912 6        37.977 6
G26  20665204.882 9 108596362.273 9     -1504.776 9        55.869 9  20665207.702 6         0.000 6     -1172.553 6        37.977 6
G20  21925596.849 9 115219756.182 9      2548.828 9        55.323 9  21925597.160 6         0.000 6      1986.101 6        37.977 6
> 2019 07 03 12 01 38.0000000  0  8       0.000000000000
G07  25331139.118 9 133115988.563 9      2168.735 9        54.137 9  25331139.780 6         0.000 6      1689.924 6        37.977 6
G10  23783543.851 9 124983312.241 9      3524.000 9        54.679 9  23783547.553 6         0.000 6      2745.977 6        37.977 6
G21  21180077.441 9 111302037.476 9     -1265.020 9        55.705 9  21180076.728 6         0.000 6      -985.730 6        37.977 6
G29  24322569.109 9 127815906.574 9     -3123.353 9        54.467 9  24322570.708 6         0.000 6     -2433.784 6        37.977 6
G27  21986464.802 9 115539625.465 9      2490.246 9        55.381 9  21986466.728 6         0.000 6      1940.452 6        37.977 6
G16  20493259.186 9 107692783.576 9       533.136 9        55.978 9  20493258.359 6         0.000 6       415.431 6        37.977 6
G26  20665491.285 9 108597867.330 9     -1505.350 9        55.868 9  20665494.105 6         0.000 6     -1173.000 6        37.977 6
G20  21925111.865 9 115217207.577 9      2548.382 9        55.323 9  21925112.176 6         0.000 6      1985.753 6        37.977 6
> 2019 07 03 12 01 39.0000000  0  8       0.000000000000
G07  25330726.466 9 133113820.063 9      2168.272 9        54.137 9  25330727.127 6         0.000 6      1689.564 6        37.977 6
G10  23782873.270 9 124979788.321 9      3523.859 9        54.679 9  23782876.970 6         0.000 6      2745.867 6        37.977 6
G21  21180318.200 9 111303302.674 9     -1265.378 9        55.705 9  21180317.487 6         0.000 6      -986.009 6        37.977 6
G29  24323163.472 9 127819029.959 9     -3123.438 9        54.467 9  24323165.071 6         0.000 6     -2433.850 6        37.977 6
G27  21985990.946 9 115537135.341 9      2490.008 9        55.382 9  21985992.873 6         0.000 6      1940.267 6        37.977 6
G16  20493157.792 9 107692250.749 9       532.518 9        55.978 9  20493156.965 6         0.000 6       414.949 6        37.977 6
G26  20665777.798 9 108599372.964 9     -1505.923 9        55.868 9  20665780.619 6         0.000 6     -1173.447 6        37.977 6
G20  21924626.967 9 115214659.423 9      2547.935 9        55.323 9  21924627.277 6         0.000 6      1985.405 6        37.977 6
> 2019 07 03 12 01 40.0000000  0  8       0.000000000000
G07  25330313.902 9 133111652.031 9      2167.810 9        54.137 9  25330314.563 6         0.000 6      1689.204 6        37.977 6
G10  23782202.714 9 124976264.537 9      3523.718 9        54.679 9  23782206.414 6         0.000 6      2745.757 6        37.977 6
G21  21180559.027 9 111304568.226 9     -1265.737 9        55.705 9  21180558.314 6         0.000 6      -986.289 6        37.977 6
G29  24323757.849 9 127822153.424 9     -3123.522 9        54.466 9  24323759.449 6         0.000 6     -2433.916 6        37.977 6
G27  21985517.137 9 115534645.456 9      2489.770 9        55.382 9  21985519.063 6         0.000 6      1940.081 6        37.977 6
G16  20493056.516 9 107691718.537 9       531.901 9        55.978 9  20493055.689 6         0.000 6       414.468 6        37.977 6
G26  20666064.419 9 108600879.167 9     -1506.496 9        55.868 9  20666067.240 6         0.000 6     -1173.894 6        37.977 6
G20  21924142.152 9 115212111.709 9      2547.488 9        55.323 9  21924142.462 6         0.000 6      1985.057 6        37.977 6
> 2019 07 03 12 01 41.0000000  0  8       0.000000000000
G07  25329901.425 9 133109484.455 9      2167.348 9        54.137 9  25329902.086 6         0.000 6      1688.843 6        37.977 6
G10  23781532.186 9 124972740.900 9      3523.576 9        54.680 9  23781535.885 6         0.000 6      2745.647 6        37.977 6
G21  21180799.923 9 111305834.142 9     -1266.096 9        55.705 9  21180799.210 6         0.000 6      -986.568 6        37.977 6
G29  24324352.244 9 127825276.978 9     -3123.607 9        54.466 9  24324353.844 6         0.000 6     -2433.982 6        37.977 6
G27  21985043.372 9 115532155.809 9      2489.531 9        55.382 9  21985045.298 6         0.000 6      1939.895 6        37.977 6
G16  20492955.357 9 107691186.946 9       531.283 9        55.978 9  20492954.530 6         0.000 6       413.987 6        37.977 6
G26  20666351.150 9 108602385.948 9     -1507.070 9        55.868 9  20666353.971 6         0.000 6     -1174.341 6        37.977 6
G20  21923657.424 9 115209564.450 9      2547.041 9        55.324 9  21923657.733 6         0.000 6      1984.708 6        37.977 6
> 2019 07 03 12 01 42.0000000  0  8       0.000000000000
G07  25329489.037 9 133107317.345 9      2166.885 9        54.138 9  25329489.698 6         0.000 6      1688.483 6        37.977 6
G10  23780861.684 9 124969217.401 9      3523.435 9        54.680 9  23780865.383 6         0.000 6      2745.536 6        37.977 6
G21  21181040.886 9 111307100.414 9     -1266.454 9        55.705 9  21181040.174 6         0.000 6      -986.848 6        37.977 6
G29  24324946.654 9 127828400.617 9     -3123.692 9        54.466 9  24324948.256 6         0.000 6     -2434.048 6        37.977 6
G27  21984569.652 9 115529666.397 9      2489.293 9        55.382 9  21984571.578 6         0.000 6      1939.709 6        37.977 6
G16  20492854.316 9 107690655.968 9       530.665 9        55.978 9  20492853.489 6         0.000 6       413.505 6        37.977 6
G26  20666637.990 9 108603893.298 9     -1507.643 9        55.868 9  20666640.811 6         0.000 6     -1174.787 6        37.977 6
G20  21923172.780 9 115207017.633 9      2546.594 9        55.324 9  21923173.089 6         0.000 6      1984.360 6        37.977 6
> 2019 07 03 12 01 43.0000000  0  8       0.000000000000
G07  25329076.737 9 133105150.694 9      2166.423 9        54.138 9  25329077.397 6         0.000 6      1688.123 6        37.977 6
G10  23780191.210 9 124965694.047 9      3523.293 9        54.680 9  23780194.909 6         0.000 6      2745.426 6        37.977 6
G21  21181281.919 9 111308367.046 9     -1266.813 9        55.705 9  21181281.206 6         0.000 6      -987.127 6        37.977 6
G29  24325541.081 9 127831524.341 9     -3123.776 9        54.466 9  24325542.683 6         0.000 6     -2434.114 6        37.977 6
G27  21984095.978 9 115527177.226 9      2489.054 9        55.382 9  21984097.904 6         0.000 6      1939.524 6        37.977 6
G16  20492753.392 9 107690125.612 9       530.048 9        55.978 9  20492752.565 6         0.000 6       413.024 6        37.977 6
G26  20666924.939 9 108605401.226 9     -1508.217 9        55.868 9  20666927.761 6         0.000 6     -1175.234 6        37.977 6
G20  21922688.221 9 115204471.267 9      2546.146 9        55.324 9  21922688.531 6         0.000 6      1984.011 6        37.977 6
> 2019 07 03 12 01 44.0000000  0  8       0.000000000000
G07  25328664.525 9 133102984.509 9      2165.960 9        54.138 9  25328665.185 6         0.000 6      1687.762 6        37.977 6
G10  23779520.763 9 124962170.831 9      3523.151 9        54.680 9  23779524.460 6         0.000 6      2745.315 6        37.977 6
G21  21181523.019 9 111309634.035 9     -1267.171 9        55.705 9  21181522.306 6         0.000 6      -987.406 6        37.977 6
G29  24326135.524 9 127834648.149 9     -3123.861 9        54.465 9  24326137.127 6         0.000 6     -2434.180 6        37.977 6
G27  21983622.349 9 115524688.292 9      2488.816 9        55.383 9  21983624.275 6         0.000 6      1939.338 6        37.977 6
G16  20492652.586 9 107689595.870 9       529.430 9        55.979 9  20492651.759 6         0.000 6       412.543 6        37.977 6
G26  20667211.997 9 108606909.723 9     -1508.790 9        55.868 9  20667214.818 6         0.000 6     -1175.681 6        37.977 6
G20  21922203.748 9 115201925.345 9      2545.699 9        55.324 9  21922204.057 6         0.000 6      1983.663 6        37.977 6
> 2019 07 03 12 01 45.0000000  0  8       0.000000000000
G07  25328252.400 9 133100818.784 9      2165.498 9        54.138 9  25328253.060 6         0.000 6      1687.402 6        37.977 6
G10  23778850.343 9 124958647.761 9      3523.010 9        54.681 9  23778854.040 6         0.000 6      2745.205 6        37.977 6
G21  21181764.187 9 111310901.384 9     -1267.529 9        55.705 9  21181763.475 6         0.000 6      -987.685 6        37.977 6
G29  24326729.983 9 127837772.042 9     -3123.945 9        54.465 9  24326731.586 6         0.000 6     -2434.246 6        37.977 6
G27  21983148.766 9 115522199.598 9      2488.578 9        55.383 9  21983150.691 6         0.000 6      1939.152 6        37.977 6
G16  20492551.897 9 107689066.749 9       528.812 9        55.979 9  20492551.071 6         0.000 6       412.061 6        37.977 6
G26  20667499.165 9 108608418.798 9     -1509.363 9        55.868 9  20667501.986 6         0.000 6     -1176.128 6        37.977 6
G20  21921719.360 9 115199379.874 9      2545.252 9        55.324 9  21921719.669 6         0.000 6      1983.314 6        37.977 6
> 2019 07 03 12 01 46.0000000  0  8       0.000000000000
G07  25327840.364 9 133098653.521 9      2165.035 9        54.138 9  25327841.024 6         0.000 6      1687.041 6        37.977 6
G10  23778179.950 9 124955124.833 9      3522.868 9        54.681 9  23778183.646 6         0.000 6      2745.094 6        37.977 6
G21  21182005.424 9 111312169.092 9     -1267.888 9        55.705 9  21182004.712 6         0.000 6      -987.965 6        37.977 6
G29  24327324.458 9 127840896.019 9     -3124.030 9        54.465 9  24327326.062 6         0.000 6     -2434.312 6        37.977 6
G27  21982675.228 9 115519711.142 9      2488.339 9        55.383 9  21982677.153 6         0.000 6      1938.966 6        37.977 6
G16  20492451.327 9 107688538.246 9       528.194 9        55.979 9  20492450.500 6         0.000 6       411.580 6        37.977 6
G26  20667786.442 9 108609928.445 9     -1509.936 9        55.867 9  20667789.263 6         0.000 6     -1176.574 6        37.977 6
G20  21921235.057 9 115196834.851 9      2544.804 9        55.325 9  21921235.366 6         0.000 6      1982.965 6        37.977 6
> 2019 07 03 12 01 47.0000000  0  8       0.000000000000
G07  25327428.416 9 133096488.723 9      2164.572 9        54.138 9  25327429.076 6         0.000 6      1686.681 6        37.977 6
G10  23777509.583 9 124951602.043 9      3522.726 9        54.681 9  23777513.279 6         0.000 6      2744.984 6        37.977 6
G21  21182246.729 9 111313437.156 9     -1268.246 9        55.705 9  21182246.017 6         0.000 6      -988.244 6        37.977 6
G29  24327918.949 9 127844020.081 9     -3124.114 9        54.465 9  24327920.554 6         0.000 6     -2434.377 6        37.977 6
G27  21982201.735 9 115517222.923 9      2488.100 9        55.383 9  21982203.660 6         0.000 6      1938.780 6        37.977 6
G16  20492350.873 9 107688010.358 9       527.576 9        55.979 9  20492350.046 6         0.000 6       411.098 6        37.977 6
G26  20668073.827 9 108611438.662 9     -1510.510 9        55.867 9  20668076.648 6         0.000 6     -1177.021 6        37.977 6
G20  21920750.839 9 115194290.271 9      2544.356 9        55.325 9  21920751.147 6         0.000 6      1982.616 6        37.977 6
> 2019 07 03 12 01 48.0000000  0  8       0.000000000000
G07  25327016.556 9 133094324.389 9      2164.109 9        54.138 9  25327017.216 6         0.000 6      1686.320 6        37.977 6
G10  23776839.244 9 124948079.396 9      3522.583 9        54.681 9  23776842.939 6         0.000 6      2744.873 6        37.977 6
G21  21182488.102 9 111314705.578 9     -1268.604 9        55.704 9  21182487.390 6         0.000 6      -988.523 6        37.977 6
G29  24328513.456 9 127847144.222 9     -3124.199 9        54.465 9  24328515.061 6         0.000 6     -2434.443 6        37.977 6
G27  21981728.289 9 115514734.948 9      2487.862 9        55.383 9  21981730.214 6         0.000 6      1938.594 6        37.977 6
G16  20492250.537 9 107687483.092 9       526.958 9        55.979 9  20492249.711 6         0.000 6       410.617 6        37.977 6
G26  20668361.321 9 108612949.456 9     -1511.083 9        55.867 9  20668364.143 6         0.000 6     -1177.467 6        37.977 6
G20  21920266.706 9 115191746.140 9      2543.909 9        55.325 9  21920267.014 6         0.000 6      1982.268 6        37.977 6
> 2019 07 03 12 01 49.0000000  0  8       0.000000000000
G07  25326604.784 9 133092160.517 9      2163.646 9        54.139 9  25326605.444 6         0.000 6      1685.959 6        37.977 6
G10  23776168.931 9 124944556.890 9      3522.441 9        54.682 9  23776172.625 6         0.000 6      2744.762 6        37.977 6
G21  21182729.543 9 111315974.358 9     -1268.962 9        55.704 9  21182728.830 6         0.000 6      -988.802 6        37.977 6
G29  24329107.979 9 127850268.453 9     -3124.283 9        54.464 9  24329109.585 6         0.000 6     -2434.509 6        37.977 6
G27  21981254.887 9 115512247.207 9      2487.623 9        55.384 9  21981256.812 6         0.000 6      1938.408 6        37.977 6
G16  20492150.319 9 107686956.439 9       526.340 9        55.979 9  20492149.492 6         0.000 6       410.135 6        37.977 6
G26  20668648.925 9 108614460.818 9     -1511.656 9        55.867 9  20668651.746 6         0.000 6     -1177.914 6        37.977 6
G20  21919782.658 9 115189202.455 9      2543.461 9        55.325 9  21919782.966 6         0.000 6      1981.919 6        37.977 6
> 2019 07 03 12 01 50.0000000  0  8       0.000000000000
G07  25326193.100 9 133089997.106 9      2163.183 9        54.139 9  25326193.759 6         0.000 6      1685.598 6        37.977 6
G10  23775498.646 9 124941034.531 9      3522.299 9        54.682 9  23775502.340 6         0.000 6      2744.651 6        37.977 6
G21  21182971.052 9 111317243.498 9     -1269.320 9        55.704 9  21182970.340 6         0.000 6      -989.081 6        37.977 6
G29  24329702.518 9 127853392.768 9     -3124.368 9        54.464 9  24329704.125 6         0.000 6     -2434.575 6        37.977 6
G27  21980781.531 9 115509759.706 9      2487.384 9        55.384 9  21980783.455 6         0.000 6      1938.222 6        37.977 6
G16  20492050.218 9 107686430.408 9       525.722 9        55.979 9  20492049.391 6         0.000 6       409.654 6        37.977 6
G26  20668936.638 9 108615972.759 9     -1512.229 9        55.867 9  20668939.460 6         0.000 6     -1178.361 6        37.977 6
G20  21919298.696 9 115186659.223 9      2543.013 9        55.325 9  21919299.004 6         0.000 6      1981.570 6        37.977 6
> 2019 07 03 12 01 51.0000000  0  8       0.000000000000
G07  25325781.505 9 133087834.161 9      2162.720 9        54.139 9  25325782.163 6         0.000 6      1685.237 6        37.977 6
G10  23774828.388 9 124937512.310 9      3522.156 9        54.682 9  23774832.081 6         0.000 6      2744.540 6        37.977 6
G21  21183212.629 9 111318512.994 9     -1269.678 9        55.704 9  21183211.917 6         0.000 6      -989.360 6        37.977 6
G29  24330297.074 9 127856517.168 9     -3124.452 9        54.464 9  24330298.681 6         0.000 6     -2434.641 6        37.977 6
G27  21980308.219 9 115507272.441 9      2487.146 9        55.384 9  21980310.144 6         0.000 6      1938.036 6        37.977 6
G16  20491950.235 9 107685904.991 9       525.104 9        55.979 9  20491949.408 6         0.000 6       409.172 6        37.977 6
G26  20669224.459 9 108617485.268 9     -1512.802 9        55.867 9  20669227.281 6         0.000 6     -1178.807 6        37.977 6
G20  21918814.819 9 115184116.434 9      2542.565 9        55.325 9  21918815.126 6         0.000 6      1981.221 6        37.977 6
> 2019 07 03 12 01 52.0000000  0  8       0.000000000000
G07  25325369.997 9 133085671.676 9      2162.257 9        54.139 9  25325370.655 6         0.000 6      1684.876 6        37.977 6
G10  23774158.157 9 124933990.235 9      3522.014 9        54.682 9  23774161.850 6         0.000 6      2744.429 6        37.977 6
G21  21183454.275 9 111319782.851 9     -1270.036 9        55.704 9  21183453.563 6         0.000 6      -989.639 6        37.977 6
G29  24330891.645 9 127859641.652 9     -3124.537 9        54.464 9  24330893.253 6         0.000 6     -2434.706 6        37.977 6
G27  21979834.954 9 115504785.418 9      2486.907 9        55.384 9  21979836.878 6         0.000 6      1937.850 6        37.977 6
G16  20491850.370 9 107685380.196 9       524.486 9        55.979 9  20491849.543 6         0.000 6       408.691 6        37.977 6
G26  20669512.390 9 108618998.354 9     -1513.375 9        55.867 9  20669515.212 6         0.000 6     -1179.254 6        37.977 6
G20  21918331.027 9 115181574.098 9      2542.117 9        55.326 9  21918331.334 6         0.000 6      1980.871 6        37.977 6
> 2019 07 03 12 01 53.0000000  0  8       0.000000000000
G07  25324958.578 9 133083509.656 9      2161.794 9        54.139 9  25324959.236 6         0.000 6      1684.516 6        37.977 6
G10  23773487.953 9 124930468.299 9      3521.871 9        54.682 9  23773491.645 6         0.000 6      2744.318 6        37.977 6
G21  21183695.989 9 111321053.063 9     -1270.394 9        55.704 9  21183695.277 6         0.000 6      -989.918 6        37.977 6
G29  24331486.233 9 127862766.220 9     -3124.621 9        54.464 9  24331487.841 6         0.000 6     -2434.772 6        37.977 6
G27  21979361.734 9 115502298.631 9      2486.668 9        55.384 9  21979363.658 6         0.000 6      1937.664 6        37.977 6
G16  20491750.621 9 107684856.016 9       523.868 9        55.979 9  20491749.795 6         0.000 6       408.209 6        37.977 6
G26  20669800.429 9 108620512.009 9     -1513.948 9        55.867 9  20669803.252 6         0.000 6     -1179.700 6        37.977 6
G20  21917847.320 9 115179032.205 9      2541.669 9        55.326 9  21917847.627 6         0.000 6      1980.522 6        37.977 6
> 2019 07 03 12 01 54.0000000  0  8       0.000000000000
G07  25324547.246 9 133081348.098 9      2161.330 9        54.139 9  25324547.904 6         0.000 6      1684.154 6        37.977 6
G10  23772817.777 9 124926946.510 9      3521.728 9        54.683 9  23772821.468 6         0.000 6      2744.206 6        37.977 6
G21  21183937.771 9 111322323.635 9     -1270.752 9        55.704 9  21183937.059 6         0.000 6      -990.196 6        37.977 6
G29  24332080.837 9 127865890.873 9     -3124.705 9        54.463 9  24332082.445 6         0.000 6     -2434.838 6        37.977 6
G27  21978888.559 9 115499812.085 9      2486.429 9        55.384 9  21978890.483 6         0.000 6      1937.478 6        37.977 6
G16  20491650.991 9 107684332.457 9       523.250 9        55.979 9  20491650.165 6         0.000 6       407.727 6        37.977 6
G26  20670088.578 9 108622026.242 9     -1514.521 9        55.867 9  20670091.401 6         0.000 6     -1180.147 6        37.977 6
G20  21917363.700 9 115176490.765 9      2541.220 9        55.326 9  21917364.006 6         0.000 6      1980.173 6        37.977 6
> 2019 07 03 12 01 55.0000000  0  8       0.000000000000
G07  25324136.003 9 133079187.003 9      2160.867 9        54.139 9  25324136.660 6         0.000 6      1683.793 6        37.977 6
G10  23772147.628 9 124923424.864 9      3521.585 9        54.683 9  23772151.319 6         0.000 6      2744.095 6        37.977 6
G21  21184179.621 9 111323594.565 9     -1271.110 9        55.704 9  21184178.909 6         0.000 6      -990.475 6        37.977 6
G29  24332675.456 9 127869015.610 9     -3124.790 9        54.463 9  24332677.066 6         0.000 6     -2434.904 6        37.977 6
G27  21978415.430 9 115497325.778 9      2486.190 9        55.385 9  21978417.354 6         0.000 6      1937.292 6        37.977 6
G16  20491551.479 9 107683809.516 9       522.632 9        55.979 9  20491550.652 6         0.000 6       407.245 6        37.977 6
G26  20670376.837 9 108623541.047 9     -1515.094 9        55.866 9  20670379.659 6         0.000 6     -1180.593 6        37.977 6
G20  21916880.164 9 115173949.774 9      2540.772 9        55.326 9  21916880.470 6         0.000 6      1979.823 6        37.977 6
> 2019 07 03 12 01 56.0000000  0  8       0.000000000000
G07  25323724.848 9 133077026.376 9      2160.404 9        54.139 9  25323725.506 6         0.000 6      1683.432 6        37.977 6
G10  23771477.505 9 124919903.354 9      3521.442 9        54.683 9  23771481.195 6         0.000 6      2743.984 6        37.977 6
G21  21184421.538 9 111324865.848 9     -1271.467 9        55.704 9  21184420.826 6         0.000 6      -990.754 6        37.977 6
G29  24333270.091 9 127872140.426 9     -3124.874 9        54.463 9  24333271.701 6         0.000 6     -2434.969 6        37.977 6
G27  21977942.347 9 115494839.711 9      2485.952 9        55.385 9  21977944.270 6         0.000 6      1937.106 6        37.977 6
G16  20491452.084 9 107683287.192 9       522.013 9        55.979 9  20491451.257 6         0.000 6       406.764 6        37.977 6
G26  20670665.203 9 108625056.421 9     -1515.667 9        55.866 9  20670668.026 6         0.000 6     -1181.039 6        37.977 6
G20  21916396.713 9 115171409.223 9      2540.323 9        55.326 9  21916397.018 6         0.000 6      1979.474 6        37.977 6
> 2019 07 03 12 01 57.0000000  0  8       0.000000000000
G07  25323313.781 9 133074866.208 9      2159.940 9        54.140 9  25323314.439 6         0.000 6      1683.071 6        37.977 6
G10  23770807.411 9 124916381.994 9      3521.299 9        54.683 9  23770811.100 6         0.000 6      2743.872 6        37.977 6
G21  21184663.524 9 111326137.494 9     -1271.825 9        55.704 9  21184662.812 6         0.000 6      -991.033 6        37.977 6
G29  24333864.743 9 127875265.332 9     -3124.958 9        54.463 9  24333866.353 6         0.000 6     -2435.035 6        37.977 6
G27  21977469.309 9 115492353.882 9      2485.713 9        55.385 9  21977471.232 6         0.000 6      1936.920 6        37.977 6
G16  20491352.807 9 107682765.487 9       521.395 9        55.979 9  20491351.980 6         0.000 6       406.282 6        37.977 6
G26  20670953.679 9 108626572.372 9     -1516.240 9        55.866 9  20670956.502 6         0.000 6     -1181.486 6        37.977 6
G20  21915913.348 9 115168869.128 9      2539.875 9        55.327 9  21915913.653 6         0.000 6      1979.124 6        37.977 6
> 2019 07 03 12 01 58.0000000  0  8       0.000000000000
G07  25322902.803 9 133072706.506 9      2159.476 9        54.140 9  25322903.460 6         0.000 6      1682.710 6        37.977 6
G10  23770137.342 9 124912860.773 9      3521.156 9        54.684 9  23770141.031 6         0.000 6      2743.760 6        37.977 6
G21  21184905.578 9 111327409.494 9     -1272.183 9        55.703 9  21184904.866 6         0.000 6      -991.311 6        37.977 6
G29  24334459.410 9 127878390.321 9     -3125.042 9        54.463 9  24334461.022 6         0.000 6     -2435.101 6        37.977 6
G27  21976996.316 9 115489868.289 9      2485.474 9        55.385 9  21976998.239 6         0.000 6      1936.733 6        37.977 6
G16  20491253.647 9 107682244.398 9       520.777 9        55.979 9  20491252.820 6         0.000 6       405.800 6        37.977 6
G26  20671242.264 9 108628088.891 9     -1516.812 9        55.866 9  20671245.087 6         0.000 6     -1181.932 6        37.977 6
G20  21915430.068 9 115166329.478 9      2539.426 9        55.327 9  21915430.373 6         0.000 6      1978.775 6        37.977 6
> 2019 07 03 12 01 59.0000000  0  8       0.000000000000
G07  25322491.912 9 133070547.265 9      2159.013 9        54.140 9  25322492.570 6         0.000 6      1682.348 6        37.977 6
G10  23769467.302 9 124909339.699 9      3521.012 9        54.684 9  23769470.990 6         0.000 6      2743.649 6        37.977 6
G21  21185147.700 9 111328681.855 9     -1272.540 9        55.703 9  21185146.989 6         0.000 6      -991.590 6        37.977 6
G29  24335054.094 9 127881515.396 9     -3125.127 9        54.462 9  24335055.706 6         0.000 6     -2435.166 6        37.977 6
G27  21976523.369 9 115487382.938 9      2485.235 9        55.385 9  21976525.292 6         0.000 6      1936.547 6        37.977 6
G16  20491154.605 9 107681723.930 9       520.159 9        55.979 9  20491153.778 6         0.000 6       405.318 6        37.977 6
G26  20671530.958 9 108629605.988 9     -1517.385 9        55.866 9  20671533.781 6         0.000 6     -1182.378 6        37.977 6
G20  21914946.874 9 115163790.281 9      2538.977 9        55.327 9  21914947.179 6         0.000 6      1978.425 6        37.977 6
> 2019 07 03 12 02  0.0000000  0  8       0.000000000000
G07  25322081.111 9 133068388.492 9      2158.549 9        54.140 9  25322081.768 6         0.000 6      1681.987 6        37.977 6
G10  23768797.288 9 124905818.763 9      3520.869 9        54.684 9  23768800.976 6         0.000 6      2743.537 6        37.977 6
G21  21185389.890 9 111329954.570 9     -1272.898 9        55.703 9  21185389.178 6         0.000 6      -991.869 6        37.977 6
G29  24335648.794 9 127884640.552 9     -3125.211 9        54.462 9  24335650.406 6         0.000 6     -2435.232 6        37.977 6
G27  21976050.467 9 115484897.824 9      2484.996 9        55.386 9  21976052.390 6         0.000 6      1936.361 6        37.977 6
G16  20491055.681 9 107681204.077 9       519.540 9        55.979 9  20491054.854 6         0.000 6       404.837 6        37.977 6
G26  20671819.760 9 108631123.652 9     -1517.958 9        55.866 9  20671822.583 6         0.000 6     -1182.825 6        37.977 6
G20  21914463.764 9 115161251.526 9      2538.529 9        55.327 9  21914464.069 6         0.000 6      1978.075 6        37.977 6
