     3.00           Observation Data    M (Mixed)           RINEX VERSION / TYPE
SimGEN V6.06.00     Spirent             03-Jul-19 12:00     PGM / RUN BY / DATE 
                                                            MARKER NAME         
1                                                           MARKER NUMBER       
GROUND_CRAFT                                                MARKER TYPE         
jin4hi              Spirent                                 OBSERVER / AGENCY   
rec_num             rec_type            rec_vers            REC # / TYPE / VERS 
1                   ant_type                                ANT # / TYPE        
  1000.000                                                  INTERVAL            
  2019     7     3    12     0    1.0000000     GPS         TIME OF FIRST OBS   
  4162643.4990   664458.4810  4770549.9870                  APPROX POSITION XYZ 
        0.0000        0.0000        0.0000                  ANTENNA: DELTA H/E/N
G    8 C1C L1C D1C S1C C2C L2C D2C S2C                      SYS / # / OBS TYPES 
        0.0000        0.0000        0.0000                  ANTENNA: DELTA X/Y/Z
DBHZ                                                        SIGNAL STRENGTH UNIT
                                                            END OF HEADER       
> 2019 07 03 12 00  1.0000000  0  8       0.000000000000
G07  25371599.162 9 133328607.179 9      2213.118 9        54.123 9  25371599.845 6         0.000 6      1724.508 6        37.977 6
G10  23848706.401 9 125325742.716 9      3537.192 9        54.655 9  23848710.166 6         0.000 6      2756.253 6        37.977 6
G21  21157029.120 9 111180917.803 9     -1229.930 9        55.715 9  21157028.404 6         0.000 6      -958.387 6        37.977 6
G29  24264935.068 9 127513038.629 9     -3115.000 9        54.487 9  24264936.606 6         0.000 6     -2427.273 6        37.977 6
G27  22032686.329 9 115782520.967 9      2513.205 9        55.363 9  22032688.272 6         0.000 6      1958.342 6        37.977 6
G16  20503672.651 9 107747506.702 9       592.864 9        55.974 9  20503671.825 6         0.000 6       461.972 6        37.977 6
G26  20638229.504 9 108454605.877 9     -1449.551 9        55.880 9  20638232.315 6         0.000 6     -1129.520 6        37.977 6
G20  21972526.108 9 115466370.666 9      2591.285 9        55.304 9  21972526.445 6         0.000 6      2019.183 6        37.977 6
> 2019 07 03 12 00  2.0000000  0  8       0.000000000000
G07  25371178.052 9 133326394.236 9      2212.719 9        54.123 9  25371178.735 6         0.000 6      1724.197 6        37.977 6
G10  23848033.305 9 125322205.581 9      3537.080 9        54.655 9  23848037.069 6         0.000 6      2756.169 6        37.977 6
G21  21157263.203 9 111182147.916 9     -1230.295 9        55.715 9  21157262.486 6         0.000 6      -958.672 6        37.977 6
G29  24265527.846 9 127516153.689 9     -3115.114 9        54.487 9  24265529.384 6         0.000 6     -2427.364 6        37.977 6
G27  22032208.104 9 115780007.877 9      2512.975 9        55.363 9  22032210.046 6         0.000 6      1958.163 6        37.977 6
G16  20503559.891 9 107746914.144 9       592.251 9        55.974 9  20503559.065 6         0.000 6       461.494 6        37.977 6
G26  20638505.400 9 108456055.716 9     -1450.130 9        55.880 9  20638508.210 6         0.000 6     -1129.971 6        37.977 6
G20  21972033.043 9 115463779.599 9      2590.852 9        55.305 9  21972033.381 6         0.000 6      2018.847 6        37.977 6
> 2019 07 03 12 00  3.0000000  0  8       0.000000000000
G07  25370757.030 9 133324181.751 9      2212.264 9        54.123 9  25370757.712 6         0.000 6      1723.843 6        37.977 6
G10  23847360.232 9 125318668.574 9      3536.949 9        54.656 9  23847363.996 6         0.000 6      2756.066 6        37.977 6
G21  21157497.355 9 111183378.390 9     -1230.660 9        55.715 9  21157496.638 6         0.000 6      -958.956 6        37.977 6
G29  24266120.641 9 127519268.837 9     -3115.201 9        54.487 9  24266122.180 6         0.000 6     -2427.432 6        37.977 6
G27  22031729.922 9 115777495.020 9      2512.741 9        55.364 9  22031731.865 6         0.000 6      1957.980 6        37.977 6
G16  20503447.248 9 107746322.197 9       591.637 9        55.974 9  20503446.421 6         0.000 6       461.016 6        37.977 6
G26  20638781.404 9 108457506.127 9     -1450.706 9        55.880 9  20638784.215 6         0.000 6     -1130.421 6        37.977 6
G20  21971540.061 9 115461188.966 9      2590.415 9        55.305 9  21971540.398 6         0.000 6      2018.506 6        37.977 6
> 2019 07 03 12 00  4.0000000  0  8       0.000000000000
G07  25370336.093 9 133321969.718 9      2211.809 9        54.124 9  25370336.776 6         0.000 6      1723.489 6        37.977 6
G10  23846687.186 9 125315131.702 9      3536.817 9        54.656 9  23846690.949 6         0.000 6      2755.964 6        37.977 6
G21  21157731.576 9 111184609.231 9     -1231.024 9        55.715 9  21157730.859 6         0.000 6      -959.239 6        37.977 6
G29  24266713.452 9 127522384.071 9     -3115.288 9        54.487 9  24266714.992 6         0.000 6     -2427.500 6        37.977 6
G27  22031251.786 9 115774982.400 9      2512.506 9        55.364 9  22031253.728 6         0.000 6      1957.797 6        37.977 6
G16  20503334.721 9 107745730.867 9       591.023 9        55.974 9  20503333.895 6         0.000 6       460.538 6        37.977 6
G26  20639057.520 9 108458957.120 9     -1451.283 9        55.880 9  20639060.330 6         0.000 6     -1130.870 6        37.977 6
G20  21971047.163 9 115458598.775 9      2589.977 9        55.305 9  21971047.500 6         0.000 6      2018.165 6        37.977 6
> 2019 07 03 12 00  5.0000000  0  8       0.000000000000
G07  25369915.243 9 133319758.140 9      2211.354 9        54.124 9  25369915.925 6         0.000 6      1723.134 6        37.977 6
G10  23846014.165 9 125311594.961 9      3536.686 9        54.656 9  23846017.927 6         0.000 6      2755.862 6        37.977 6
G21  21157965.867 9 111185840.436 9     -1231.387 9        55.715 9  21157965.150 6         0.000 6      -959.523 6        37.977 6
G29  24267306.280 9 127525499.392 9     -3115.375 9        54.486 9  24267307.820 6         0.000 6     -2427.567 6        37.977 6
G27  22030773.694 9 115772470.014 9      2512.271 9        55.364 9  22030775.637 6         0.000 6      1957.615 6        37.977 6
G16  20503222.312 9 107745140.151 9       590.409 9        55.974 9  20503221.485 6         0.000 6       460.059 6        37.977 6
G26  20639333.744 9 108460408.690 9     -1451.860 9        55.879 9  20639336.555 6         0.000 6     -1131.320 6        37.977 6
G20  21970554.349 9 115456009.021 9      2589.539 9        55.305 9  21970554.686 6         0.000 6      2017.824 6        37.977 6
> 2019 07 03 12 00  6.0000000  0  8       0.000000000000
G07  25369494.480 9 133317547.019 9      2210.899 9        54.124 9  25369495.162 6         0.000 6      1722.780 6        37.977 6
G10  23845341.167 9 125308058.347 9      3536.554 9        54.656 9  23845344.929 6         0.000 6      2755.759 6        37.977 6
G21  21158200.226 9 111187072.002 9     -1231.751 9        55.714 9  21158199.510 6         0.000 6      -959.806 6        37.977 6
G29  24267899.124 9 127528614.800 9     -3115.461 9        54.486 9  24267900.665 6         0.000 6     -2427.635 6        37.977 6
G27  22030295.647 9 115769957.861 9      2512.036 9        55.364 9  22030297.589 6         0.000 6      1957.432 6        37.977 6
G16  20503110.018 9 107744550.045 9       589.796 9        55.974 9  20503109.192 6         0.000 6       459.581 6        37.977 6
G26  20639610.078 9 108461860.831 9     -1452.436 9        55.879 9  20639612.889 6         0.000 6     -1131.769 6        37.977 6
G20  21970061.617 9 115453419.702 9      2589.101 9        55.305 9  21970061.953 6         0.000 6      2017.482 6        37.977 6
> 2019 07 03 12 00  7.0000000  0  8       0.000000000000
G07  25369073.803 9 133315336.351 9      2210.444 9        54.124 9  25369074.485 6         0.000 6      1722.425 6        37.977 6
G10  23844668.196 9 125304521.869 9      3536.423 9        54.657 9  23844671.957 6         0.000 6      2755.657 6        37.977 6
G21  21158434.655 9 111188303.935 9     -1232.115 9        55.714 9  21158433.939 6         0.000 6      -960.090 6        37.977 6
G29  24268491.985 9 127531730.295 9     -3115.548 9        54.486 9  24268493.526 6         0.000 6     -2427.702 6        37.977 6
G27  22029817.645 9 115767445.945 9      2511.801 9        55.364 9  22029819.587 6         0.000 6      1957.249 6        37.977 6
G16  20502997.842 9 107743960.556 9       589.182 9        55.974 9  20502997.016 6         0.000 6       459.103 6        37.977 6
G26  20639886.522 9 108463313.554 9     -1453.013 9        55.879 9  20639889.333 6         0.000 6     -1132.218 6        37.977 6
G20  21969568.969 9 115450830.825 9      2588.663 9        55.306 9  21969569.305 6         0.000 6      2017.141 6        37.977 6
> 2019 07 03 12 00  8.0000000  0  8       0.000000000000
G07  25368653.214 9 133313126.143 9      2209.989 9        54.124 9  25368653.896 6         0.000 6      1722.070 6        37.977 6
G10  23843995.248 9 125300985.516 9      3536.291 9        54.657 9  23843999.009 6         0.000 6      2755.554 6        37.977 6
G21  21158669.153 9 111189536.226 9     -1232.479 9        55.714 9  21158668.436 6         0.000 6      -960.373 6        37.977 6
G29  24269084.861 9 127534845.871 9     -3115.635 9        54.486 9  24269086.403 6         0.000 6     -2427.770 6        37.977 6
G27  22029339.688 9 115764934.265 9      2511.567 9        55.364 9  22029341.629 6         0.000 6      1957.066 6        37.977 6
G16  20502885.783 9 107743371.680 9       588.568 9        55.974 9  20502884.956 6         0.000 6       458.624 6        37.977 6
G26  20640163.075 9 108464766.849 9     -1453.590 9        55.879 9  20640165.886 6         0.000 6     -1132.668 6        37.977 6
G20  21969076.403 9 115448242.379 9      2588.224 9        55.306 9  21969076.739 6         0.000 6      2016.799 6        37.977 6
> 2019 07 03 12 00  9.0000000  0  8       0.000000000000
G07  25368232.710 9 133310916.385 9      2209.534 9        54.124 9  25368233.392 6         0.000 6      1721.716 6        37.977 6
G10  23843322.327 9 125297449.302 9      3536.159 9        54.657 9  23843326.087 6         0.000 6      2755.452 6        37.977 6
G21  21158903.720 9 111190768.887 9     -1232.843 9        55.714 9  21158903.004 6         0.000 6      -960.657 6        37.977 6
G29  24269677.755 9 127537961.540 9     -3115.722 9        54.486 9  24269679.298 6         0.000 6     -2427.838 6        37.977 6
G27  22028861.775 9 115762422.819 9      2511.332 9        55.365 9  22028863.716 6         0.000 6      1956.883 6        37.977 6
G16  20502773.840 9 107742783.419 9       587.954 9        55.974 9  20502773.014 6         0.000 6       458.146 6        37.977 6
G26  20640439.739 9 108466220.725 9     -1454.166 9        55.879 9  20640442.550 6         0.000 6     -1133.117 6        37.977 6
G20  21968583.922 9 115445654.378 9      2587.786 9        55.306 9  21968584.258 6         0.000 6      2016.458 6        37.977 6
> 2019 07 03 12 00 10.0000000  0  8       0.000000000000
G07  25367812.294 9 133308707.085 9      2209.079 9        54.124 9  25367812.975 6         0.000 6      1721.361 6        37.977 6
G10  23842649.430 9 125293913.215 9      3536.028 9        54.657 9  23842653.189 6         0.000 6      2755.349 6        37.977 6
G21  21159138.357 9 111192001.908 9     -1233.206 9        55.714 9  21159137.640 6         0.000 6      -960.940 6        37.977 6
G29  24270270.666 9 127541077.295 9     -3115.808 9        54.485 9  24270272.209 6         0.000 6     -2427.905 6        37.977 6
G27  22028383.906 9 115759911.606 9      2511.097 9        55.365 9  22028385.847 6         0.000 6      1956.700 6        37.977 6
G16  20502662.014 9 107742195.770 9       587.340 9        55.974 9  20502661.188 6         0.000 6       457.667 6        37.977 6
G26  20640716.512 9 108467675.173 9     -1454.743 9        55.879 9  20640719.323 6         0.000 6     -1133.566 6        37.977 6
G20  21968091.524 9 115443066.812 9      2587.348 9        55.306 9  21968091.859 6         0.000 6      2016.116 6        37.977 6
> 2019 07 03 12 00 11.0000000  0  8       0.000000000000
G07  25367391.963 9 133306498.238 9      2208.623 9        54.125 9  25367392.644 6         0.000 6      1721.006 6        37.977 6
G10  23841976.559 9 125290377.264 9      3535.896 9        54.657 9  23841980.317 6         0.000 6      2755.246 6        37.977 6
G21  21159373.063 9 111193235.296 9     -1233.570 9        55.714 9  21159372.346 6         0.000 6      -961.224 6        37.977 6
G29  24270863.593 9 127544193.136 9     -3115.895 9        54.485 9  24270865.137 6         0.000 6     -2427.973 6        37.977 6
G27  22027906.083 9 115757400.629 9      2510.862 9        55.365 9  22027908.024 6         0.000 6      1956.516 6        37.977 6
G16  20502550.306 9 107741608.737 9       586.726 9        55.974 9  20502549.479 6         0.000 6       457.189 6        37.977 6
G26  20640993.395 9 108469130.202 9     -1455.319 9        55.879 9  20640996.206 6         0.000 6     -1134.015 6        37.977 6
G20  21967599.210 9 115440479.688 9      2586.909 9        55.306 9  21967599.545 6         0.000 6      2015.774 6        37.977 6
> 2019 07 03 12 00 12.0000000  0  8       0.000000000000
G07  25366971.720 9 133304289.849 9      2208.168 9        54.125 9  25366972.401 6         0.000 6      1720.651 6        37.977 6
G10  23841303.712 9 125286841.441 9      3535.763 9        54.658 9  23841307.470 6         0.000 6      2755.143 6        37.977 6
G21  21159607.837 9 111194469.044 9     -1233.934 9        55.714 9  21159607.121 6         0.000 6      -961.507 6        37.977 6
G29  24271456.536 9 127547309.065 9     -3115.982 9        54.485 9  24271458.081 6         0.000 6     -2428.040 6        37.977 6
G27  22027428.303 9 115754889.885 9      2510.627 9        55.365 9  22027430.244 6         0.000 6      1956.333 6        37.977 6
G16  20502438.713 9 107741022.315 9       586.111 9        55.974 9  20502437.887 6         0.000 6       456.710 6        37.977 6
G26  20641270.387 9 108470585.803 9     -1455.896 9        55.879 9  20641273.198 6         0.000 6     -1134.465 6        37.977 6
G20  21967106.978 9 115437892.999 9      2586.470 9        55.306 9  21967107.313 6         0.000 6      2015.433 6        37.977 6
> 2019 07 03 12 00 13.0000000  0  8       0.000000000000
G07  25366551.563 9 133302081.912 9      2207.712 9        54.125 9  25366552.244 6         0.000 6      1720.296 6        37.977 6
G10  23840630.891 9 125283305.754 9      3535.631 9        54.658 9  23840634.648 6         0.000 6      2755.040 6        37.977 6
G21  21159842.682 9 111195703.159 9     -1234.297 9        55.714 9  21159841.965 6         0.000 6      -961.790 6        37.977 6
G29  24272049.496 9 127550425.080 9     -3116.069 9        54.485 9  24272051.041 6         0.000 6     -2428.108 6        37.977 6
G27  22026950.569 9 115752379.379 9      2510.392 9        55.365 9  22026952.510 6         0.000 6      1956.150 6        37.977 6
G16  20502327.239 9 107740436.511 9       585.497 9        55.974 9  20502326.412 6         0.000 6       456.232 6        37.977 6
G26  20641547.490 9 108472041.985 9     -1456.472 9        55.878 9  20641550.301 6         0.000 6     -1134.914 6        37.977 6
G20  21966614.831 9 115435306.752 9      2586.032 9        55.307 9  21966615.165 6         0.000 6      2015.091 6        37.977 6
> 2019 07 03 12 00 14.0000000  0  8       0.000000000000
G07  25366131.493 9 133299874.431 9      2207.257 9        54.125 9  25366132.173 6         0.000 6      1719.941 6        37.977 6
G10  23839958.095 9 125279770.200 9      3535.499 9        54.658 9  23839961.852 6         0.000 6      2754.937 6        37.977 6
G21  21160077.595 9 111196937.637 9     -1234.660 9        55.714 9  21160076.879 6         0.000 6      -962.073 6        37.977 6
G29  24272642.472 9 127553541.182 9     -3116.155 9        54.485 9  24272644.018 6         0.000 6     -2428.175 6        37.977 6
G27  22026472.880 9 115749869.107 9      2510.157 9        55.366 9  22026474.821 6         0.000 6      1955.967 6        37.977 6
G16  20502215.881 9 107739851.321 9       584.883 9        55.974 9  20502215.054 6         0.000 6       455.753 6        37.977 6
G26  20641824.702 9 108473498.744 9     -1457.048 9        55.878 9  20641827.513 6         0.000 6     -1135.363 6        37.977 6
G20  21966122.767 9 115432720.945 9      2585.593 9        55.307 9  21966123.101 6         0.000 6      2014.749 6        37.977 6
> 2019 07 03 12 00 15.0000000  0  8       0.000000000000
G07  25365711.510 9 133297667.409 9      2206.801 9        54.125 9  25365712.190 6         0.000 6      1719.586 6        37.977 6
G10  23839285.324 9 125276234.773 9      3535.367 9        54.658 9  23839289.080 6         0.000 6      2754.834 6        37.977 6
G21  21160312.577 9 111198172.476 9     -1235.024 9        55.714 9  21160311.861 6         0.000 6      -962.356 6        37.977 6
G29  24273235.465 9 127556657.370 9     -3116.242 9        54.484 9  24273237.011 6         0.000 6     -2428.243 6        37.977 6
G27  22025995.235 9 115747359.069 9      2509.922 9        55.366 9  22025997.176 6         0.000 6      1955.784 6        37.977 6
G16  20502104.639 9 107739266.742 9       584.269 9        55.975 9  20502103.812 6         0.000 6       455.274 6        37.977 6
G26  20642102.023 9 108474956.074 9     -1457.625 9        55.878 9  20642104.834 6         0.000 6     -1135.812 6        37.977 6
G20  21965630.786 9 115430135.572 9      2585.154 9        55.307 9  21965631.120 6         0.000 6      2014.407 6        37.977 6
> 2019 07 03 12 00 16.0000000  0  8       0.000000000000
G07  25365291.613 9 133295460.842 9      2206.345 9        54.125 9  25365292.293 6         0.000 6      1719.231 6        37.977 6
G10  23838612.578 9 125272699.482 9      3535.234 9        54.659 9  23838616.334 6         0.000 6      2754.731 6        37.977 6
G21  21160547.629 9 111199407.679 9     -1235.387 9        55.713 9  21160546.912 6         0.000 6      -962.640 6        37.977 6
G29  24273828.473 9 127559773.640 9     -3116.328 9        54.484 9  24273830.020 6         0.000 6     -2428.310 6        37.977 6
G27  22025517.636 9 115744849.272 9      2509.686 9        55.366 9  22025519.576 6         0.000 6      1955.600 6        37.977 6
G16  20501993.515 9 107738682.782 9       583.654 9        55.975 9  20501992.688 6         0.000 6       454.796 6        37.977 6
G26  20642379.454 9 108476413.985 9     -1458.201 9        55.878 9  20642382.266 6         0.000 6     -1136.261 6        37.977 6
G20  21965138.889 9 115427550.639 9      2584.715 9        55.307 9  21965139.223 6         0.000 6      2014.065 6        37.977 6
> 2019 07 03 12 00 17.0000000  0  8       0.000000000000
G07  25364871.804 9 133293254.731 9      2205.890 9        54.125 9  25364872.483 6         0.000 6      1718.876 6        37.977 6
G10  23837939.857 9 125269164.320 9      3535.101 9        54.659 9  23837943.612 6         0.000 6      2754.627 6        37.977 6
G21  21160782.749 9 111200643.244 9     -1235.750 9        55.713 9  21160782.033 6         0.000 6      -962.923 6        37.977 6
G29  24274421.499 9 127562890.001 9     -3116.415 9        54.484 9  24274423.047 6         0.000 6     -2428.378 6        37.977 6
G27  22025040.081 9 115742339.704 9      2509.451 9        55.366 9  22025042.021 6         0.000 6      1955.417 6        37.977 6
G16  20501882.507 9 107738099.432 9       583.040 9        55.975 9  20501881.680 6         0.000 6       454.317 6        37.977 6
G26  20642656.995 9 108477872.468 9     -1458.777 9        55.878 9  20642659.807 6         0.000 6     -1136.710 6        37.977 6
G20  21964647.075 9 115424966.144 9      2584.276 9        55.307 9  21964647.408 6         0.000 6      2013.723 6        37.977 6
> 2019 07 03 12 00 18.0000000  0  8       0.000000000000
G07  25364452.080 9 133291049.073 9      2205.434 9        54.126 9  25364452.760 6         0.000 6      1718.521 6        37.977 6
G10  23837267.163 9 125265629.296 9      3534.969 9        54.659 9  23837270.917 6         0.000 6      2754.524 6        37.977 6
G21  21161017.939 9 111201879.176 9     -1236.114 9        55.713 9  21161017.223 6         0.000 6      -963.206 6        37.977 6
G29  24275014.541 9 127566006.449 9     -3116.502 9        54.484 9  24275016.090 6         0.000 6     -2428.445 6        37.977 6
G27  22024562.570 9 115739830.373 9      2509.216 9        55.366 9  22024564.510 6         0.000 6      1955.234 6        37.977 6
G16  20501771.617 9 107737516.699 9       582.426 9        55.975 9  20501770.790 6         0.000 6       453.838 6        37.977 6
G26  20642934.646 9 108479331.532 9     -1459.354 9        55.878 9  20642937.458 6         0.000 6     -1137.159 6        37.977 6
G20  21964155.346 9 115422382.092 9      2583.837 9        55.308 9  21964155.679 6         0.000 6      2013.380 6        37.977 6
> 2019 07 03 12 00 19.0000000  0  8       0.000000000000
G07  25364032.444 9 133288843.874 9      2204.978 9        54.126 9  25364033.123 6         0.000 6      1718.165 6        37.977 6
G10  23836594.492 9 125262094.400 9      3534.836 9        54.659 9  23836598.246 6         0.000 6      2754.420 6        37.977 6
G21  21161253.198 9 111203115.468 9     -1236.477 9        55.713 9  21161252.482 6         0.000 6      -963.489 6        37.977 6
G29  24275607.600 9 127569122.984 9     -3116.588 9        54.484 9  24275609.149 6         0.000 6     -2428.513 6        37.977 6
G27  22024085.104 9 115737321.275 9      2508.981 9        55.367 9  22024087.044 6         0.000 6      1955.051 6        37.977 6
G16  20501660.843 9 107736934.577 9       581.811 9        55.975 9  20501660.016 6         0.000 6       453.359 6        37.977 6
G26  20643212.405 9 108480791.167 9     -1459.930 9        55.878 9  20643215.218 6         0.000 6     -1137.608 6        37.977 6
G20  21963663.699 9 115419798.476 9      2583.397 9        55.308 9  21963664.032 6         0.000 6      2013.038 6        37.977 6
> 2019 07 03 12 00 20.0000000  0  8       0.000000000000
G07  25363612.894 9 133286639.128 9      2204.521 9        54.126 9  25363613.573 6         0.000 6      1717.810 6        37.977 6
G10  23835921.848 9 125258559.641 9      3534.703 9        54.660 9  23835925.601 6         0.000 6      2754.317 6        37.977 6
G21  21161488.526 9 111204352.125 9     -1236.840 9        55.713 9  21161487.810 6         0.000 6      -963.772 6        37.977 6
G29  24276200.675 9 127572239.605 9     -3116.675 9        54.483 9  24276202.225 6         0.000 6     -2428.580 6        37.977 6
G27  22023607.684 9 115734812.415 9      2508.745 9        55.367 9  22023609.623 6         0.000 6      1954.867 6        37.977 6
G16  20501550.186 9 107736353.073 9       581.197 9        55.975 9  20501549.359 6         0.000 6       452.881 6        37.977 6
G26  20643490.276 9 108482251.384 9     -1460.506 9        55.878 9  20643493.088 6         0.000 6     -1138.057 6        37.977 6
G20  21963172.137 9 115417215.303 9      2582.958 9        55.308 9  21963172.469 6         0.000 6      2012.696 6        37.977 6
> 2019 07 03 12 00 21.0000000  0  8       0.000000000000
G07  25363193.432 9 133284434.841 9      2204.065 9        54.126 9  25363194.110 6         0.000 6      1717.454 6        37.977 6
G10  23835249.228 9 125255025.011 9      3534.570 9        54.660 9  23835252.980 6         0.000 6      2754.213 6        37.977 6
G21  21161723.923 9 111205589.144 9     -1237.203 9        55.713 9  21161723.207 6         0.000 6      -964.054 6        37.977 6
G29  24276793.767 9 127575356.313 9     -3116.761 9        54.483 9  24276795.317 6         0.000 6     -2428.647 6        37.977 6
G27  22023130.307 9 115732303.788 9      2508.510 9        55.367 9  22023132.247 6         0.000 6      1954.684 6        37.977 6
G16  20501439.646 9 107735772.180 9       580.582 9        55.975 9  20501438.819 6         0.000 6       452.402 6        37.977 6
G26  20643768.255 9 108483712.171 9     -1461.082 9        55.878 9  20643771.067 6         0.000 6     -1138.506 6        37.977 6
G20  21962680.657 9 115414632.565 9      2582.518 9        55.308 9  21962680.989 6         0.000 6      2012.353 6        37.977 6
> 2019 07 03 12 00 22.0000000  0  8       0.000000000000
G07  25362774.055 9 133282231.008 9      2203.609 9        54.126 9  25362774.734 6         0.000 6      1717.099 6        37.977 6
G10  23834576.635 9 125251490.518 9      3534.437 9        54.660 9  23834580.386 6         0.000 6      2754.109 6        37.977 6
G21  21161959.389 9 111206826.528 9     -1237.566 9        55.713 9  21161958.674 6         0.000 6      -964.337 6        37.977 6
G29  24277386.875 9 127578473.107 9     -3116.847 9        54.483 9  24277388.426 6         0.000 6     -2428.715 6        37.977 6
G27  22022652.976 9 115729795.398 9      2508.275 9        55.367 9  22022654.915 6         0.000 6      1954.500 6        37.977 6
G16  20501329.223 9 107735191.905 9       579.968 9        55.975 9  20501328.397 6         0.000 6       451.923 6        37.977 6
G26  20644046.344 9 108485173.540 9     -1461.658 9        55.877 9  20644049.157 6         0.000 6     -1138.955 6        37.977 6
G20  21962189.262 9 115412050.271 9      2582.079 9        55.308 9  21962189.594 6         0.000 6      2012.011 6        37.977 6
> 2019 07 03 12 00 23.0000000  0  8       0.000000000000
G07  25362354.766 9 133280027.630 9      2203.153 9        54.126 9  25362355.444 6         0.000 6      1716.743 6        37.977 6
G10  23833904.066 9 125247956.159 9      3534.304 9        54.660 9  23833907.817 6         0.000 6      2754.005 6        37.977 6
G21  21162194.925 9 111208064.274 9     -1237.929 9        55.713 9  21162194.209 6         0.000 6      -964.620 6        37.977 6
G29  24277980.000 9 127581589.987 9     -3116.934 9        54.483 9  24277981.551 6         0.000 6     -2428.782 6        37.977 6
G27  22022175.690 9 115727287.244 9      2508.039 9        55.367 9  22022177.629 6         0.000 6      1954.317 6        37.977 6
G16  20501218.918 9 107734612.245 9       579.353 9        55.975 9  20501218.091 6         0.000 6       451.444 6        37.977 6
G26  20644324.543 9 108486635.485 9     -1462.235 9        55.877 9  20644327.356 6         0.000 6     -1139.404 6        37.977 6
G20  21961697.951 9 115409468.417 9      2581.639 9        55.309 9  21961698.282 6         0.000 6      2011.668 6        37.977 6
> 2019 07 03 12 00 24.0000000  0  8       0.000000000000
G07  25361935.564 9 133277824.715 9      2202.696 9        54.126 9  25361936.242 6         0.000 6      1716.388 6        37.977 6
G10  23833231.522 9 125244421.926 9      3534.170 9        54.661 9  23833235.272 6         0.000 6      2753.902 6        37.977 6
G21  21162430.529 9 111209302.379 9     -1238.292 9        55.713 9  21162429.813 6         0.000 6      -964.903 6        37.977 6
G29  24278573.140 9 127584706.949 9     -3117.020 9        54.482 9  24278574.692 6         0.000 6     -2428.850 6        37.977 6
G27  22021698.448 9 115724779.327 9      2507.804 9        55.368 9  22021700.387 6         0.000 6      1954.134 6        37.977 6
G16  20501108.728 9 107734033.197 9       578.739 9        55.975 9  20501107.902 6         0.000 6       450.965 6        37.977 6
G26  20644602.851 9 108488098.001 9     -1462.811 9        55.877 9  20644605.664 6         0.000 6     -1139.853 6        37.977 6
G20  21961206.722 9 115406886.995 9      2581.199 9        55.309 9  21961207.053 6         0.000 6      2011.325 6        37.977 6
> 2019 07 03 12 00 25.0000000  0  8       0.000000000000
G07  25361516.449 9 133275622.250 9      2202.240 9        54.127 9  25361517.126 6         0.000 6      1716.032 6        37.977 6
G10  23832559.005 9 125240887.834 9      3534.037 9        54.661 9  23832562.754 6         0.000 6      2753.798 6        37.977 6
G21  21162666.202 9 111210540.852 9     -1238.655 9        55.713 9  21162665.486 6         0.000 6      -965.186 6        37.977 6
G29  24279166.297 9 127587824.003 9     -3117.107 9        54.482 9  24279167.850 6         0.000 6     -2428.917 6        37.977 6
G27  22021221.252 9 115722271.644 9      2507.568 9        55.368 9  22021223.190 6         0.000 6      1953.950 6        37.977 6
G16  20500998.657 9 107733454.766 9       578.124 9        55.975 9  20500997.830 6         0.000 6       450.486 6        37.977 6
G26  20644881.270 9 108489561.098 9     -1463.387 9        55.877 9  20644884.082 6         0.000 6     -1140.302 6        37.977 6
G20  21960715.577 9 115404306.020 9      2580.759 9        55.309 9  21960715.908 6         0.000 6      2010.982 6        37.977 6
> 2019 07 03 12 00 26.0000000  0  8       0.000000000000
G07  25361097.420 9 133273420.245 9      2201.783 9        54.127 9  25361098.098 6         0.000 6      1715.676 6        37.977 6
G10  23831886.512 9 125237353.870 9      3533.903 9        54.661 9  23831890.260 6         0.000 6      2753.694 6        37.977 6
G21  21162901.944 9 111211779.685 9     -1239.017 9        55.713 9  21162901.229 6         0.000 6      -965.468 6        37.977 6
G29  24279759.471 9 127590941.142 9     -3117.193 9        54.482 9  24279761.024 6         0.000 6     -2428.984 6        37.977 6
G27  22020744.099 9 115719764.194 9      2507.333 9        55.368 9  22020746.038 6         0.000 6      1953.767 6        37.977 6
G16  20500888.701 9 107732876.946 9       577.509 9        55.975 9  20500887.874 6         0.000 6       450.007 6        37.977 6
G26  20645159.797 9 108491024.766 9     -1463.963 9        55.877 9  20645162.610 6         0.000 6     -1140.751 6        37.977 6
G20  21960224.516 9 115401725.481 9      2580.319 9        55.309 9  21960224.847 6         0.000 6      2010.640 6        37.977 6
> 2019 07 03 12 00 27.0000000  0  8       0.000000000000
G07  25360678.478 9 133271218.694 9      2201.327 9        54.127 9  25360679.156 6         0.000 6      1715.320 6        37.977 6
G10  23831214.045 9 125233820.044 9      3533.769 9        54.661 9  23831217.793 6         0.000 6      2753.589 6        37.977 6
G21  21163137.756 9 111213018.883 9     -1239.380 9        55.712 9  21163137.040 6         0.000 6      -965.751 6        37.977 6
G29  24280352.661 9 127594058.368 9     -3117.279 9        54.482 9  24280354.215 6         0.000 6     -2429.051 6        37.977 6
G27  22020266.992 9 115717256.982 9      2507.097 9        55.368 9  22020268.931 6         0.000 6      1953.583 6        37.977 6
G16  20500778.863 9 107732299.745 9       576.894 9        55.975 9  20500778.037 6         0.000 6       449.528 6        37.977 6
G26  20645438.434 9 108492489.015 9     -1464.539 9        55.877 9  20645441.247 6         0.000 6     -1141.199 6        37.977 6
G20  21959733.540 9 115399145.386 9      2579.879 9        55.309 9  21959733.870 6         0.000 6      2010.297 6        37.977 6
> 2019 07 03 12 00 28.0000000  0  8       0.000000000000
G07  25360259.624 9 133269017.602 9      2200.870 9        54.127 9  25360260.301 6         0.000 6      1714.965 6        37.977 6
G10  23830541.603 9 125230286.348 9      3533.636 9        54.662 9  23830545.350 6         0.000 6      2753.485 6        37.977 6
G21  21163373.636 9 111214258.441 9     -1239.743 9        55.712 9  21163372.921 6         0.000 6      -966.033 6        37.977 6
G29  24280945.868 9 127597175.681 9     -3117.366 9        54.482 9  24280947.423 6         0.000 6     -2429.119 6        37.977 6
G27  22019789.929 9 115714750.003 9      2506.862 9        55.368 9  22019791.868 6         0.000 6      1953.399 6        37.977 6
G16  20500669.142 9 107731723.154 9       576.280 9        55.975 9  20500668.315 6         0.000 6       449.049 6        37.977 6
G26  20645717.181 9 108493953.835 9     -1465.115 9        55.877 9  20645719.994 6         0.000 6     -1141.648 6        37.977 6
G20  21959242.646 9 115396565.728 9      2579.439 9        55.310 9  21959242.976 6         0.000 6      2009.954 6        37.977 6
> 2019 07 03 12 00 29.0000000  0  8       0.000000000000
G07  25359840.856 9 133266816.964 9      2200.413 9        54.127 9  25359841.532 6         0.000 6      1714.609 6        37.977 6
G10  23829869.187 9 125226752.790 9      3533.502 9        54.662 9  23829872.934 6         0.000 6      2753.381 6        37.977 6
G21  21163609.586 9 111215498.365 9     -1240.105 9        55.712 9  21163608.870 6         0.000 6      -966.316 6        37.977 6
G29  24281539.091 9 127600293.079 9     -3117.452 9        54.481 9  24281540.647 6         0.000 6     -2429.186 6        37.977 6
G27  22019312.912 9 115712243.262 9      2506.626 9        55.368 9  22019314.850 6         0.000 6      1953.216 6        37.977 6
G16  20500559.538 9 107731147.182 9       575.665 9        55.975 9  20500558.711 6         0.000 6       448.570 6        37.977 6
G26  20645996.038 9 108495419.235 9     -1465.690 9        55.877 9  20645998.851 6         0.000 6     -1142.097 6        37.977 6
G20  21958751.837 9 115393986.513 9      2578.999 9        55.310 9  21958752.167 6         0.000 6      2009.611 6        37.977 6
> 2019 07 03 12 00 30.0000000  0  8       0.000000000000
G07  25359422.175 9 133264616.785 9      2199.956 9        54.127 9  25359422.851 6         0.000 6      1714.253 6        37.977 6
G10  23829196.796 9 125223219.361 9      3533.368 9        54.662 9  23829200.542 6         0.000 6      2753.276 6        37.977 6
G21  21163845.604 9 111216738.648 9     -1240.468 9        55.712 9  21163844.889 6         0.000 6      -966.599 6        37.977 6
G29  24282132.331 9 127603410.564 9     -3117.538 9        54.481 9  24282133.887 6         0.000 6     -2429.253 6        37.977 6
G27  22018835.939 9 115709736.755 9      2506.390 9        55.369 9  22018837.877 6         0.000 6      1953.032 6        37.977 6
G16  20500450.050 9 107730571.821 9       575.050 9        55.975 9  20500449.224 6         0.000 6       448.091 6        37.977 6
G26  20646275.003 9 108496885.207 9     -1466.266 9        55.877 9  20646277.816 6         0.000 6     -1142.546 6        37.977 6
G20  21958261.111 9 115391407.735 9      2578.559 9        55.310 9  21958261.441 6         0.000 6      2009.268 6        37.977 6
> 2019 07 03 12 00 31.0000000  0  8       0.000000000000
G07  25359003.581 9 133262417.063 9      2199.499 9        54.127 9  25359004.257 6         0.000 6      1713.897 6        37.977 6
G10  23828524.431 9 125219686.069 9      3533.234 9        54.662 9  23828528.176 6         0.000 6      2753.172 6        37.977 6
G21  21164081.692 9 111217979.294 9     -1240.830 9        55.712 9  21164080.976 6         0.000 6      -966.881 6        37.977 6
G29  24282725.586 9 127606528.130 9     -3117.624 9        54.481 9  24282727.142 6         0.000 6     -2429.320 6        37.977 6
G27  22018359.012 9 115707230.489 9      2506.155 9        55.369 9  22018360.950 6         0.000 6      1952.848 6        37.977 6
G16  20500340.681 9 107729997.080 9       574.435 9        55.975 9  20500339.854 6         0.000 6       447.612 6        37.977 6
G26  20646554.079 9 108498351.760 9     -1466.842 9        55.876 9  20646556.892 6         0.000 6     -1142.994 6        37.977 6
G20  21957770.469 9 115388829.398 9      2578.118 9        55.310 9  21957770.798 6         0.000 6      2008.924 6        37.977 6
> 2019 07 03 12 00 32.0000000  0  8       0.000000000000
G07  25358585.074 9 133260217.799 9      2199.043 9        54.128 9  25358585.750 6         0.000 6      1713.541 6        37.977 6
G10  23827852.091 9 125216152.909 9      3533.100 9        54.663 9  23827855.835 6         0.000 6      2753.067 6        37.977 6
G21  21164317.848 9 111219220.303 9     -1241.193 9        55.712 9  21164317.132 6         0.000 6      -967.163 6        37.977 6
G29  24283318.858 9 127609645.788 9     -3117.711 9        54.481 9  24283320.415 6         0.000 6     -2429.387 6        37.977 6
G27  22017882.129 9 115704724.453 9      2505.919 9        55.369 9  22017884.066 6         0.000 6      1952.665 6        37.977 6
G16  20500231.427 9 107729422.950 9       573.820 9        55.975 9  20500230.601 6         0.000 6       447.133 6        37.977 6
G26  20646833.264 9 108499818.883 9     -1467.418 9        55.876 9  20646836.077 6         0.000 6     -1143.443 6        37.977 6
G20  21957279.910 9 115386251.500 9      2577.678 9        55.310 9  21957280.240 6         0.000 6      2008.581 6        37.977 6
> 2019 07 03 12 00 33.0000000  0  8       0.000000000000
G07  25358166.654 9 133258018.988 9      2198.585 9        54.128 9  25358167.330 6         0.000 6      1713.184 6        37.977 6
G10  23827179.777 9 125212619.887 9      3532.965 9        54.663 9  23827183.521 6         0.000 6      2752.963 6        37.977 6
G21  21164554.073 9 111220461.676 9     -1241.555 9        55.712 9  21164553.358 6         0.000 6      -967.446 6        37.977 6
G29  24283912.147 9 127612763.531 9     -3117.797 9        54.481 9  24283913.705 6         0.000 6     -2429.455 6        37.977 6
G27  22017405.291 9 115702218.655 9      2505.683 9        55.369 9  22017407.228 6         0.000 6      1952.481 6        37.977 6
G16  20500122.292 9 107728849.437 9       573.205 9        55.975 9  20500121.465 6         0.000 6       446.653 6        37.977 6
G26  20647112.559 9 108501286.587 9     -1467.994 9        55.876 9  20647115.372 6         0.000 6     -1143.892 6        37.977 6
G20  21956789.437 9 115383674.048 9      2577.237 9        55.311 9  21956789.765 6         0.000 6      2008.238 6        37.977 6
> 2019 07 03 12 00 34.0000000  0  8       0.000000000000
G07  25357748.320 9 133255820.635 9      2198.128 9        54.128 9  25357748.996 6         0.000 6      1712.828 6        37.977 6
G10  23826507.489 9 125209086.999 9      3532.831 9        54.663 9  23826511.232 6         0.000 6      2752.858 6        37.977 6
G21  21164790.368 9 111221703.412 9     -1241.918 9        55.712 9  21164789.653 6         0.000 6      -967.728 6        37.977 6
G29  24284505.452 9 127615881.361 9     -3117.883 9        54.480 9  24284507.011 6         0.000 6     -2429.522 6        37.977 6
G27  22016928.497 9 115699713.092 9      2505.447 9        55.369 9  22016930.435 6         0.000 6      1952.297 6        37.977 6
G16  20500013.273 9 107728276.539 9       572.590 9        55.975 9  20500012.446 6         0.000 6       446.174 6        37.977 6
G26  20647391.963 9 108502754.867 9     -1468.569 9        55.876 9  20647394.777 6         0.000 6     -1144.340 6        37.977 6
G20  21956299.047 9 115381097.035 9      2576.796 9        55.311 9  21956299.375 6         0.000 6      2007.894 6        37.977 6
> 2019 07 03 12 00 35.0000000  0  8       0.000000000000
G07  25357330.075 9 133253622.742 9      2197.671 9        54.128 9  25357330.750 6         0.000 6      1712.472 6        37.977 6
G10  23825835.225 9 125205554.242 9      3532.696 9        54.663 9  23825838.968 6         0.000 6      2752.753 6        37.977 6
G21  21165026.731 9 111222945.507 9     -1242.280 9        55.712 9  21165026.016 6         0.000 6      -968.010 6        37.977 6
G29  24285098.774 9 127618999.277 9     -3117.969 9        54.480 9  24285100.333 6         0.000 6     -2429.589 6        37.977 6
G27  22016451.749 9 115697207.764 9      2505.211 9        55.370 9  22016453.686 6         0.000 6      1952.113 6        37.977 6
G16  20499904.370 9 107727704.254 9       571.975 9        55.975 9  20499903.544 6         0.000 6       445.695 6        37.977 6
G26  20647671.477 9 108504223.718 9     -1469.145 9        55.876 9  20647674.291 6         0.000 6     -1144.789 6        37.977 6
G20  21955808.740 9 115378520.460 9      2576.355 9        55.311 9  21955809.068 6         0.000 6      2007.551 6        37.977 6
> 2019 07 03 12 00 36.0000000  0  8       0.000000000000
G07  25356911.915 9 133251425.303 9      2197.214 9        54.128 9  25356912.591 6         0.000 6      1712.115 6        37.977 6
G10  23825162.988 9 125202021.624 9      3532.562 9        54.664 9  23825166.730 6         0.000 6      2752.648 6        37.977 6
G21  21165263.163 9 111224187.968 9     -1242.642 9        55.712 9  21165262.448 6         0.000 6      -968.293 6        37.977 6
G29  24285692.112 9 127622117.279 9     -3118.055 9        54.480 9  24285693.672 6         0.000 6     -2429.656 6        37.977 6
G27  22015975.045 9 115694702.673 9      2504.975 9        55.370 9  22015976.982 6         0.000 6      1951.930 6        37.977 6
G16  20499795.586 9 107727132.586 9       571.360 9        55.975 9  20499794.759 6         0.000 6       445.216 6        37.977 6
G26  20647951.101 9 108505693.149 9     -1469.721 9        55.876 9  20647953.914 6         0.000 6     -1145.237 6        37.977 6
G20  21955318.518 9 115375944.330 9      2575.914 9        55.311 9  21955318.846 6         0.000 6      2007.207 6        37.977 6
> 2019 07 03 12 00 37.0000000  0  8       0.000000000000
G07  25356493.843 9 133249228.325 9      2196.756 9        54.128 9  25356494.518 6         0.000 6      1711.759 6        37.977 6
G10  23824490.776 9 125198489.135 9      3532.427 9        54.664 9  23824494.518 6         0.000 6      2752.543 6        37.977 6
G21  21165499.664 9 111225430.788 9     -1243.004 9        55.711 9  21165498.949 6         0.000 6      -968.575 6        37.977 6
G29  24286285.466 9 127625235.367 9     -3118.141 9        54.480 9  24286287.027 6         0.000 6     -2429.723 6        37.977 6
G27  22015498.386 9 115692197.817 9      2504.739 9        55.370 9  22015500.323 6         0.000 6      1951.746 6        37.977 6
G16  20499686.917 9 107726561.531 9       570.745 9        55.976 9  20499686.091 6         0.000 6       444.736 6        37.977 6
G26  20648230.833 9 108507163.151 9     -1470.296 9        55.876 9  20648233.647 6         0.000 6     -1145.686 6        37.977 6
G20  21954828.379 9 115373368.636 9      2575.473 9        55.311 9  21954828.706 6         0.000 6      2006.864 6        37.977 6
> 2019 07 03 12 00 38.0000000  0  8       0.000000000000
G07  25356075.858 9 133247031.801 9      2196.299 9        54.128 9  25356076.533 6         0.000 6      1711.403 6        37.977 6
G10  23823818.590 9 125194956.787 9      3532.292 9        54.664 9  23823822.331 6         0.000 6      2752.438 6        37.977 6
G21  21165736.235 9 111226673.972 9     -1243.366 9        55.711 9  21165735.519 6         0.000 6      -968.857 6        37.977 6
G29  24286878.837 9 127628353.542 9     -3118.228 9        54.479 9  24286880.398 6         0.000 6     -2429.790 6        37.977 6
G27  22015021.773 9 115689693.198 9      2504.503 9        55.370 9  22015023.709 6         0.000 6      1951.562 6        37.977 6
G16  20499578.367 9 107725991.093 9       570.130 9        55.976 9  20499577.540 6         0.000 6       444.257 6        37.977 6
G26  20648510.676 9 108508633.733 9     -1470.872 9        55.876 9  20648513.490 6         0.000 6     -1146.134 6        37.977 6
G20  21954338.324 9 115370793.388 9      2575.032 9        55.312 9  21954338.652 6         0.000 6      2006.520 6        37.977 6
> 2019 07 03 12 00 39.0000000  0  8       0.000000000000
G07  25355657.961 9 133244835.740 9      2195.841 9        54.129 9  25355658.636 6         0.000 6      1711.046 6        37.977 6
G10  23823146.429 9 125191424.566 9      3532.157 9        54.664 9  23823150.169 6         0.000 6      2752.333 6        37.977 6
G21  21165972.873 9 111227917.514 9     -1243.728 9        55.711 9  21165972.158 6         0.000 6      -969.139 6        37.977 6
G29  24287472.223 9 127631471.797 9     -3118.314 9        54.479 9  24287473.785 6         0.000 6     -2429.857 6        37.977 6
G27  22014545.204 9 115687188.817 9      2504.267 9        55.370 9  22014547.141 6         0.000 6      1951.378 6        37.977 6
G16  20499469.933 9 107725421.270 9       569.514 9        55.976 9  20499469.106 6         0.000 6       443.777 6        37.977 6
G26  20648790.627 9 108510104.886 9     -1471.448 9        55.875 9  20648793.442 6         0.000 6     -1146.583 6        37.977 6
G20  21953848.353 9 115368218.573 9      2574.591 9        55.312 9  21953848.680 6         0.000 6      2006.176 6        37.977 6
> 2019 07 03 12 00 40.0000000  0  8       0.000000000000
G07  25355240.150 9 133242640.131 9      2195.384 9        54.129 9  25355240.824 6         0.000 6      1710.689 6        37.977 6
G10  23822474.295 9 125187892.487 9      3532.022 9        54.665 9  23822478.034 6         0.000 6      2752.228 6        37.977 6
G21  21166209.581 9 111229161.423 9     -1244.090 9        55.711 9  21166208.866 6         0.000 6      -969.421 6        37.977 6
G29  24288065.627 9 127634590.144 9     -3118.400 9        54.479 9  24288067.189 6         0.000 6     -2429.924 6        37.977 6
G27  22014068.681 9 115684684.670 9      2504.031 9        55.371 9  22014070.617 6         0.000 6      1951.194 6        37.977 6
G16  20499361.616 9 107724852.063 9       568.899 9        55.976 9  20499360.790 6         0.000 6       443.298 6        37.977 6
G26  20649070.689 9 108511576.620 9     -1472.023 9        55.875 9  20649073.504 6         0.000 6     -1147.031 6        37.977 6
G20  21953358.466 9 115365644.207 9      2574.150 9        55.312 9  21953358.793 6         0.000 6      2005.832 6        37.977 6
> 2019 07 03 12 00 41.0000000  0  8       0.000000000000
G07  25354822.426 9 133240444.983 9      2194.926 9        54.129 9  25354823.100 6         0.000 6      1710.333 6        37.977 6
G10  23821802.185 9 125184360.538 9      3531.887 9        54.665 9  23821805.924 6         0.000 6      2752.123 6        37.977 6
G21  21166446.358 9 111230405.691 9     -1244.452 9        55.711 9  21166445.642 6         0.000 6      -969.703 6        37.977 6
G29  24288659.047 9 127637708.576 9     -3118.486 9        54.479 9  24288660.609 6         0.000 6     -2429.991 6        37.977 6
G27  22013592.201 9 115682180.758 9      2503.795 9        55.371 9  22013594.137 6         0.000 6      1951.010 6        37.977 6
G16  20499253.417 9 107724283.468 9       568.284 9        55.976 9  20499252.590 6         0.000 6       442.819 6        37.977 6
G26  20649350.860 9 108513048.924 9     -1472.599 9        55.875 9  20649353.674 6         0.000 6     -1147.480 6        37.977 6
G20  21952868.663 9 115363070.278 9      2573.708 9        55.312 9  21952868.989 6         0.000 6      2005.488 6        37.977 6
> 2019 07 03 12 00 42.0000000  0  8       0.000000000000
G07  25354404.789 9 133238250.289 9      2194.468 9        54.129 9  25354405.463 6         0.000 6      1709.976 6        37.977 6
G10  23821130.102 9 125180828.729 9      3531.752 9        54.665 9  23821133.841 6         0.000 6      2752.017 6        37.977 6
G21  21166683.203 9 111231650.323 9     -1244.814 9        55.711 9  21166682.488 6         0.000 6      -969.985 6        37.977 6
G29  24289252.483 9 127640827.094 9     -3118.572 9        54.479 9  24289254.046 6         0.000 6     -2430.058 6        37.977 6
G27  22013115.767 9 115679677.083 9      2503.559 9        55.371 9  22013117.703 6         0.000 6      1950.826 6        37.977 6
G16  20499145.334 9 107723715.492 9       567.668 9        55.976 9  20499144.507 6         0.000 6       442.339 6        37.977 6
G26  20649631.141 9 108514521.809 9     -1473.174 9        55.875 9  20649633.955 6         0.000 6     -1147.928 6        37.977 6
G20  21952378.944 9 115360496.795 9      2573.267 9        55.312 9  21952379.271 6         0.000 6      2005.144 6        37.977 6
> 2019 07 03 12 00 43.0000000  0  8       0.000000000000
G07  25353987.239 9 133236056.054 9      2194.010 9        54.129 9  25353987.913 6         0.000 6      1709.619 6        37.977 6
G10  23820458.045 9 125177297.056 9      3531.617 9        54.665 9  23820461.783 6         0.000 6      2751.912 6        37.977 6
G21  21166920.118 9 111232895.317 9     -1245.176 9        55.711 9  21166919.403 6         0.000 6      -970.267 6        37.977 6
G29  24289845.936 9 127643945.699 9     -3118.658 9        54.478 9  24289847.500 6         0.000 6     -2430.125 6        37.977 6
G27  22012639.378 9 115677173.645 9      2503.323 9        55.371 9  22012641.314 6         0.000 6      1950.642 6        37.977 6
G16  20499037.369 9 107723148.131 9       567.053 9        55.976 9  20499036.542 6         0.000 6       441.860 6        37.977 6
G26  20649911.531 9 108515995.269 9     -1473.749 9        55.875 9  20649914.346 6         0.000 6     -1148.377 6        37.977 6
G20  21951889.310 9 115357923.754 9      2572.825 9        55.312 9  21951889.636 6         0.000 6      2004.800 6        37.977 6
> 2019 07 03 12 00 44.0000000  0  8       0.000000000000
G07  25353569.777 9 133233862.279 9      2193.552 9        54.129 9  25353570.451 6         0.000 6      1709.263 6        37.977 6
G10  23819786.013 9 125173765.513 9      3531.481 9        54.666 9  23819789.750 6         0.000 6      2751.806 6        37.977 6
G21  21167157.101 9 111234140.671 9     -1245.538 9        55.711 9  21167156.386 6         0.000 6      -970.549 6        37.977 6
G29  24290439.405 9 127647064.389 9     -3118.744 9        54.478 9  24290440.969 6         0.000 6     -2430.192 6        37.977 6
G27  22012163.034 9 115674670.441 9      2503.087 9        55.371 9  22012164.970 6         0.000 6      1950.458 6        37.977 6
G16  20498929.520 9 107722581.383 9       566.438 9        55.976 9  20498928.694 6         0.000 6       441.380 6        37.977 6
G26  20650192.030 9 108517469.299 9     -1474.325 9        55.875 9  20650194.845 6         0.000 6     -1148.825 6        37.977 6
G20  21951399.759 9 115355351.150 9      2572.384 9        55.313 9  21951400.085 6         0.000 6      2004.456 6        37.977 6
> 2019 07 03 12 00 45.0000000  0  8       0.000000000000
G07  25353152.402 9 133231668.959 9      2193.094 9        54.129 9  25353153.075 6         0.000 6      1708.906 6        37.977 6
G10  23819114.007 9 125170234.110 9      3531.346 9        54.666 9  23819117.744 6         0.000 6      2751.701 6        37.977 6
G21  21167394.153 9 111235386.389 9     -1245.899 9        55.711 9  21167393.438 6         0.000 6      -970.831 6        37.977 6
G29  24291032.890 9 127650183.166 9     -3118.830 9        54.478 9  24291034.455 6         0.000 6     -2430.259 6        37.977 6
G27  22011686.735 9 115672167.475 9      2502.851 9        55.371 9  22011688.670 6         0.000 6      1950.274 6        37.977 6
G16  20498821.789 9 107722015.253 9       565.822 9        55.976 9  20498820.963 6         0.000 6       440.900 6        37.977 6
G26  20650472.640 9 108518943.910 9     -1474.900 9        55.875 9  20650475.454 6         0.000 6     -1149.273 6        37.977 6
G20  21950910.293 9 115352778.991 9      2571.942 9        55.313 9  21950910.618 6         0.000 6      2004.112 6        37.977 6
> 2019 07 03 12 00 46.0000000  0  8       0.000000000000
G07  25352735.114 9 133229476.100 9      2192.636 9        54.130 9  25352735.787 6         0.000 6      1708.549 6        37.977 6
G10  23818442.027 9 125166702.839 9      3531.210 9        54.666 9  23818445.762 6         0.000 6      2751.595 6        37.977 6
G21  21167631.274 9 111236632.466 9     -1246.261 9        55.711 9  21167630.559 6         0.000 6      -971.113 6        37.977 6
G29  24291626.392 9 127653302.028 9     -3118.915 9        54.478 9  24291627.958 6         0.000 6     -2430.326 6        37.977 6
G27  22011210.480 9 115669664.743 9      2502.614 9        55.372 9  22011212.416 6         0.000 6      1950.090 6        37.977 6
G16  20498714.175 9 107721449.735 9       565.207 9        55.976 9  20498713.348 6         0.000 6       440.421 6        37.977 6
G26  20650753.358 9 108520419.091 9     -1475.475 9        55.875 9  20650756.173 6         0.000 6     -1149.722 6        37.977 6
G20  21950420.910 9 115350207.271 9      2571.500 9        55.313 9  21950421.235 6         0.000 6      2003.767 6        37.977 6
> 2019 07 03 12 00 47.0000000  0  8       0.000000000000
G07  25352317.913 9 133227283.699 9      2192.178 9        54.130 9  25352318.586 6         0.000 6      1708.192 6        37.977 6
G10  23817770.072 9 125163171.705 9      3531.074 9        54.666 9  23817773.807 6         0.000 6      2751.489 6        37.977 6
G21  21167868.464 9 111237878.905 9     -1246.623 9        55.710 9  21167867.749 6         0.000 6      -971.394 6        37.977 6
G29  24292219.909 9 127656420.971 9     -3119.001 9        54.478 9  24292221.475 6         0.000 6     -2430.393 6        37.977 6
G27  22010734.272 9 115667162.253 9      2502.378 9        55.372 9  22010736.207 6         0.000 6      1949.906 6        37.977 6
G16  20498606.679 9 107720884.838 9       564.591 9        55.976 9  20498605.852 6         0.000 6       439.941 6        37.977 6
G26  20651034.186 9 108521894.852 9     -1476.051 9        55.875 9  20651037.001 6         0.000 6     -1150.170 6        37.977 6
G20  21949931.611 9 115347635.993 9      2571.058 9        55.313 9  21949931.936 6         0.000 6      2003.423 6        37.977 6
> 2019 07 03 12 00 48.0000000  0  8       0.000000000000
G07  25351900.800 9 133225091.757 9      2191.720 9        54.130 9  25351901.472 6         0.000 6      1707.835 6        37.977 6
G10  23817098.143 9 125159640.705 9      3530.938 9        54.667 9  23817101.878 6         0.000 6      2751.383 6        37.977 6
G21  21168105.722 9 111239125.705 9     -1246.984 9        55.710 9  21168105.007 6         0.000 6      -971.676 6        37.977 6
G29  24292813.443 9 127659540.005 9     -3119.087 9        54.477 9  24292815.010 6         0.000 6     -2430.460 6        37.977 6
G27  22010258.107 9 115664659.994 9      2502.142 9        55.372 9  22010260.042 6         0.000 6      1949.721 6        37.977 6
G16  20498499.298 9 107720320.551 9       563.976 9        55.976 9  20498498.472 6         0.000 6       439.462 6        37.977 6
G26  20651315.123 9 108523371.184 9     -1476.626 9        55.874 9  20651317.938 6         0.000 6     -1150.618 6        37.977 6
G20  21949442.396 9 115345065.156 9      2570.616 9        55.313 9  21949442.721 6         0.000 6      2003.079 6        37.977 6
> 2019 07 03 12 00 49.0000000  0  8       0.000000000000
G07  25351483.773 9 133222900.270 9      2191.261 9        54.130 9  25351484.445 6         0.000 6      1707.477 6        37.977 6
G10  23816426.241 9 125156109.846 9      3530.802 9        54.667 9  23816429.975 6         0.000 6      2751.277 6        37.977 6
G21  21168343.050 9 111240372.869 9     -1247.346 9        55.710 9  21168342.335 6         0.000 6      -971.958 6        37.977 6
G29  24293406.994 9 127662659.125 9     -3119.173 9        54.477 9  24293408.562 6         0.000 6     -2430.527 6        37.977 6
G27  22009781.988 9 115662157.973 9      2501.905 9        55.372 9  22009783.923 6         0.000 6      1949.537 6        37.977 6
G16  20498392.036 9 107719756.883 9       563.360 9        55.976 9  20498391.209 6         0.000 6       438.982 6        37.977 6
G26  20651596.170 9 108524848.096 9     -1477.201 9        55.874 9  20651598.985 6         0.000 6     -1151.066 6        37.977 6
G20  21948953.266 9 115342494.766 9      2570.174 9        55.314 9  21948953.590 6         0.000 6      2002.734 6        37.977 6
> 2019 07 03 12 00 50.0000000  0  8       0.000000000000
G07  25351066.834 9 133220709.244 9      2190.803 9        54.130 9  25351067.506 6         0.000 6      1707.120 6        37.977 6
G10  23815754.364 9 125152579.118 9      3530.666 9        54.667 9  23815758.097 6         0.000 6      2751.171 6        37.977 6
G21  21168580.446 9 111241620.393 9     -1247.707 9        55.710 9  21168579.731 6         0.000 6      -972.239 6        37.977 6
G29  24294000.561 9 127665778.330 9     -3119.259 9        54.477 9  24294002.129 6         0.000 6     -2430.594 6        37.977 6
G27  22009305.914 9 115659656.187 9      2501.669 9        55.372 9  22009307.848 6         0.000 6      1949.353 6        37.977 6
G16  20498284.890 9 107719193.828 9       562.744 9        55.976 9  20498284.063 6         0.000 6       438.502 6        37.977 6
G26  20651877.326 9 108526325.578 9     -1477.776 9        55.874 9  20651880.141 6         0.000 6     -1151.515 6        37.977 6
G20  21948464.220 9 115339924.814 9      2569.732 9        55.314 9  21948464.544 6         0.000 6      2002.389 6        37.977 6
> 2019 07 03 12 00 51.0000000  0  8       0.000000000000
G07  25350649.981 9 133218518.673 9      2190.345 9        54.130 9  25350650.653 6         0.000 6      1706.763 6        37.977 6
G10  23815082.513 9 125149048.530 9      3530.530 9        54.667 9  23815086.246 6         0.000 6      2751.065 6        37.977 6
G21  21168817.911 9 111242868.280 9     -1248.068 9        55.710 9  21168817.196 6         0.000 6      -972.521 6        37.977 6
G29  24294594.144 9 127668897.622 9     -3119.345 9        54.477 9  24294595.713 6         0.000 6     -2430.661 6        37.977 6
G27  22008829.884 9 115657154.639 9      2501.432 9        55.373 9  22008831.819 6         0.000 6      1949.169 6        37.977 6
G16  20498177.862 9 107718631.392 9       562.129 9        55.976 9  20498177.035 6         0.000 6       438.022 6        37.977 6
G26  20652158.592 9 108527803.640 9     -1478.352 9        55.874 9  20652161.408 6         0.000 6     -1151.963 6        37.977 6
G20  21947975.258 9 115337355.308 9      2569.289 9        55.314 9  21947975.582 6         0.000 6      2002.045 6        37.977 6
> 2019 07 03 12 00 52.0000000  0  8       0.000000000000
G07  25350233.217 9 133216328.564 9      2189.886 9        54.130 9  25350233.889 6         0.000 6      1706.406 6        37.977 6
G10  23814410.688 9 125145518.075 9      3530.394 9        54.668 9  23814414.420 6         0.000 6      2750.959 6        37.977 6
G21  21169055.444 9 111244116.526 9     -1248.430 9        55.710 9  21169054.729 6         0.000 6      -972.803 6        37.977 6
G29  24295187.744 9 127672016.999 9     -3119.430 9        54.477 9  24295189.313 6         0.000 6     -2430.727 6        37.977 6
G27  22008353.900 9 115654653.326 9      2501.196 9        55.373 9  22008355.834 6         0.000 6      1948.984 6        37.977 6
G16  20498070.950 9 107718069.568 9       561.513 9        55.976 9  20498070.124 6         0.000 6       437.542 6        37.977 6
G26  20652439.967 9 108529282.273 9     -1478.927 9        55.874 9  20652442.783 6         0.000 6     -1152.411 6        37.977 6
G20  21947486.380 9 115334786.240 9      2568.847 9        55.314 9  21947486.703 6         0.000 6      2001.700 6        37.977 6
> 2019 07 03 12 00 53.0000000  0  8       0.000000000000
G07  25349816.539 9 133214138.911 9      2189.427 9        54.131 9  25349817.211 6         0.000 6      1706.048 6        37.977 6
G10  23813738.889 9 125141987.760 9      3530.257 9        54.668 9  23813742.620 6         0.000 6      2750.853 6        37.977 6
G21  21169293.047 9 111245365.135 9     -1248.791 9        55.710 9  21169292.332 6         0.000 6      -973.084 6        37.977 6
G29  24295781.360 9 127675136.462 9     -3119.516 9        54.476 9  24295782.930 6         0.000 6     -2430.794 6        37.977 6
G27  22007877.960 9 115652152.251 9      2500.959 9        55.373 9  22007879.894 6         0.000 6      1948.800 6        37.977 6
G16  20497964.157 9 107717508.363 9       560.897 9        55.976 9  20497963.330 6         0.000 6       437.063 6        37.977 6
G26  20652721.452 9 108530761.485 9     -1479.502 9        55.874 9  20652724.268 6         0.000 6     -1152.859 6        37.977 6
G20  21946997.587 9 115332217.619 9      2568.404 9        55.314 9  21946997.910 6         0.000 6      2001.355 6        37.977 6
> 2019 07 03 12 00 54.0000000  0  8       0.000000000000
G07  25349399.949 9 133211949.717 9      2188.969 9        54.131 9  25349400.620 6         0.000 6      1705.691 6        37.977 6
G10  23813067.117 9 125138457.581 9      3530.121 9        54.668 9  23813070.847 6         0.000 6      2750.746 6        37.977 6
G21  21169530.718 9 111246614.106 9     -1249.152 9        55.710 9  21169530.004 6         0.000 6      -973.366 6        37.977 6
G29  24296374.992 9 127678256.011 9     -3119.602 9        54.476 9  24296376.563 6         0.000 6     -2430.861 6        37.977 6
G27  22007402.066 9 115649651.413 9      2500.723 9        55.373 9  22007404.000 6         0.000 6      1948.616 6        37.977 6
G16  20497857.480 9 107716947.774 9       560.281 9        55.976 9  20497856.653 6         0.000 6       436.583 6        37.977 6
G26  20653003.047 9 108532241.273 9     -1480.077 9        55.874 9  20653005.862 6         0.000 6     -1153.307 6        37.977 6
G20  21946508.878 9 115329649.440 9      2567.962 9        55.315 9  21946509.201 6         0.000 6      2001.010 6        37.977 6
> 2019 07 03 12 00 55.0000000  0  8       0.000000000000
G07  25348983.446 9 133209760.987 9      2188.510 9        54.131 9  25348984.117 6         0.000 6      1705.333 6        37.977 6
G10  23812395.369 9 125134927.533 9      3529.984 9        54.668 9  23812399.098 6         0.000 6      2750.640 6        37.977 6
G21  21169768.457 9 111247863.434 9     -1249.513 9        55.710 9  21169767.743 6         0.000 6      -973.647 6        37.977 6
G29  24296968.640 9 127681375.640 9     -3119.687 9        54.476 9  24296970.211 6         0.000 6     -2430.928 6        37.977 6
G27  22006926.217 9 115647150.813 9      2500.486 9        55.373 9  22006928.151 6         0.000 6      1948.431 6        37.977 6
G16  20497750.920 9 107716387.798 9       559.665 9        55.976 9  20497750.094 6         0.000 6       436.103 6        37.977 6
G26  20653284.750 9 108533721.630 9     -1480.652 9        55.874 9  20653287.566 6         0.000 6     -1153.755 6        37.977 6
G20  21946020.252 9 115327081.697 9      2567.519 9        55.315 9  21946020.574 6         0.000 6      2000.665 6        37.977 6
> 2019 07 03 12 00 56.0000000  0  8       0.000000000000
G07  25348567.030 9 133207572.710 9      2188.051 9        54.131 9  25348567.701 6         0.000 6      1704.976 6        37.977 6
G10  23811723.648 9 125131397.628 9      3529.848 9        54.669 9  23811727.377 6         0.000 6      2750.533 6        37.977 6
G21  21170006.266 9 111249113.127 9     -1249.874 9        55.710 9  21170005.552 6         0.000 6      -973.928 6        37.977 6
G29  24297562.305 9 127684495.360 9     -3119.773 9        54.476 9  24297563.877 6         0.000 6     -2430.995 6        37.977 6
G27  22006450.413 9 115644650.448 9      2500.249 9        55.374 9  22006452.347 6         0.000 6      1948.247 6        37.977 6
G16  20497644.478 9 107715828.441 9       559.049 9        55.976 9  20497643.651 6         0.000 6       435.623 6        37.977 6
G26  20653566.563 9 108535202.568 9     -1481.227 9        55.873 9  20653569.379 6         0.000 6     -1154.203 6        37.977 6
G20  21945531.711 9 115324514.404 9      2567.076 9        55.315 9  21945532.033 6         0.000 6      2000.320 6        37.977 6
> 2019 07 03 12 00 57.0000000  0  8       0.000000000000
G07  25348150.702 9 133205384.895 9      2187.592 9        54.131 9  25348151.373 6         0.000 6      1704.618 6        37.977 6
G10  23811051.953 9 125127867.855 9      3529.711 9        54.669 9  23811055.681 6         0.000 6      2750.427 6        37.977 6
G21  21170244.143 9 111250363.179 9     -1250.235 9        55.709 9  21170243.429 6         0.000 6      -974.210 6        37.977 6
G29  24298155.986 9 127687615.166 9     -3119.859 9        54.475 9  24298157.559 6         0.000 6     -2431.061 6        37.977 6
G27  22005974.654 9 115642150.318 9      2500.013 9        55.374 9  22005976.587 6         0.000 6      1948.063 6        37.977 6
G16  20497538.153 9 107715269.696 9       558.434 9        55.976 9  20497537.326 6         0.000 6       435.143 6        37.977 6
G26  20653848.485 9 108536684.076 9     -1481.802 9        55.873 9  20653851.301 6         0.000 6     -1154.651 6        37.977 6
G20  21945043.254 9 115321947.550 9      2566.633 9        55.315 9  21945043.576 6         0.000 6      1999.975 6        37.977 6
> 2019 07 03 12 00 58.0000000  0  8       0.000000000000
G07  25347734.461 9 133203197.536 9      2187.133 9        54.131 9  25347735.131 6         0.000 6      1704.260 6        37.977 6
G10  23810380.284 9 125124338.223 9      3529.574 9        54.669 9  23810384.012 6         0.000 6      2750.320 6        37.977 6
G21  21170482.090 9 111251613.594 9     -1250.596 9        55.709 9  21170481.375 6         0.000 6      -974.491 6        37.977 6
G29  24298749.684 9 127690735.057 9     -3119.944 9        54.475 9  24298751.257 6         0.000 6     -2431.128 6        37.977 6
G27  22005498.940 9 115639650.426 9      2499.776 9        55.374 9  22005500.873 6         0.000 6      1947.878 6        37.977 6
G16  20497431.945 9 107714711.571 9       557.818 9        55.976 9  20497431.118 6         0.000 6       434.663 6        37.977 6
G26  20654130.517 9 108538166.163 9     -1482.377 9        55.873 9  20654133.333 6         0.000 6     -1155.099 6        37.977 6
G20  21944554.882 9 115319381.143 9      2566.190 9        55.315 9  21944555.204 6         0.000 6      1999.630 6        37.977 6
> 2019 07 03 12 00 59.0000000  0  8       0.000000000000
G07  25347318.308 9 133201010.639 9      2186.674 9        54.131 9  25347318.978 6         0.000 6      1703.903 6        37.977 6
G10  23809708.641 9 125120808.724 9      3529.437 9        54.669 9  23809712.368 6         0.000 6      2750.213 6        37.977 6
G21  21170720.104 9 111252864.368 9     -1250.957 9        55.709 9  21170719.390 6         0.000 6      -974.772 6        37.977 6
G29  24299343.397 9 127693855.034 9     -3120.030 9        54.475 9  24299344.971 6         0.000 6     -2431.195 6        37.977 6
G27  22005023.270 9 115637150.769 9      2499.539 9        55.374 9  22005025.203 6         0.000 6      1947.694 6        37.977 6
G16  20497325.854 9 107714154.058 9       557.202 9        55.977 9  20497325.027 6         0.000 6       434.183 6        37.977 6
G26  20654412.658 9 108539648.821 9     -1482.951 9        55.873 9  20654415.474 6         0.000 6     -1155.547 6        37.977 6
G20  21944066.594 9 115316815.174 9      2565.747 9        55.316 9  21944066.915 6         0.000 6      1999.285 6        37.977 6
> 2019 07 03 12 01  0.0000000  0  8       0.000000000000
G07  25346902.241 9 133198824.198 9      2186.215 9        54.132 9  25346902.911 6         0.000 6      1703.545 6        37.977 6
G10  23809037.024 9 125117279.367 9      3529.300 9        54.670 9  23809040.751 6         0.000 6      2750.106 6        37.977 6
G21  21170958.188 9 111254115.505 9     -1251.318 9        55.709 9  21170957.473 6         0.000 6      -975.053 6        37.977 6
G29  24299937.127 9 127696975.097 9     -3120.116 9        54.475 9  24299938.702 6         0.000 6     -2431.261 6        37.977 6
G27  22004547.646 9 115634651.351 9      2499.302 9        55.374 9  22004549.579 6         0.000 6      1947.509 6        37.977 6
G16  20497219.880 9 107713597.165 9       556.585 9        55.977 9  20497219.054 6         0.000 6       433.703 6        37.977 6
G26  20654694.909 9 108541132.058 9     -1483.526 9        55.873 9  20654697.725 6         0.000 6     -1155.995 6        37.977 6
G20  21943578.390 9 115314249.653 9      2565.304 9        55.316 9  21943578.712 6         0.000 6      1998.939 6        37.977 6
> 2019 07 03 12 01  1.0000000  0  8       0.000000000000
G07  25346486.263 9 133196638.219 9      2185.756 9        54.132 9  25346486.932 6         0.000 6      1703.187 6        37.977 6
G10  23808365.433 9 125113750.142 9      3529.162 9        54.670 9  23808369.159 6         0.000 6      2749.999 6        37.977 6
G21  21171196.339 9 111255367.000 9     -1251.679 9        55.709 9  21171195.625 6         0.000 6      -975.334 6        37.977 6
G29  24300530.874 9 127700095.245 9     -3120.201 9        54.475 9  24300532.449 6         0.000 6     -2431.328 6        37.977 6
G27  22004072.067 9 115632152.168 9      2499.066 9        55.374 9  22004074.000 6         0.000 6      1947.325 6        37.977 6
G16  20497114.024 9 107713040.884 9       555.969 9        55.977 9  20497113.197 6         0.000 6       433.223 6        37.977 6
G26  20654977.268 9 108542615.865 9     -1484.101 9        55.873 9  20654980.085 6         0.000 6     -1156.443 6        37.977 6
G20  21943090.271 9 115311684.572 9      2564.861 9        55.316 9  21943090.592 6         0.000 6      1998.594 6        37.977 6
> 2019 07 03 12 01  2.0000000  0  8       0.000000000000
G07  25346070.371 9 133194452.700 9      2185.296 9        54.132 9  25346071.041 6         0.000 6      1702.829 6        37.977 6
G10  23807693.868 9 125110221.056 9      3529.025 9        54.670 9  23807697.593 6         0.000 6      2749.892 6        37.977 6
G21  21171434.560 9 111256618.857 9     -1252.040 9        55.709 9  21171433.846 6         0.000 6      -975.616 6        37.977 6
G29  24301124.636 9 127703215.473 9     -3120.287 9        54.474 9  24301126.211 6         0.000 6     -2431.395 6        37.977 6
G27  22003596.534 9 115629653.227 9      2498.829 9        55.375 9  22003598.466 6         0.000 6      1947.140 6        37.977 6
G16  20497008.285 9 107712485.224 9       555.353 9        55.977 9  20497007.458 6         0.000 6       432.743 6        37.977 6
G26  20655259.738 9 108544100.251 9     -1484.676 9        55.873 9  20655262.555 6         0.000 6     -1156.891 6        37.977 6
G20  21942602.236 9 115309119.934 9      2564.417 9        55.316 9  21942602.556 6         0.000 6      1998.248 6        37.977 6
> 2019 07 03 12 01  3.0000000  0  8       0.000000000000
G07  25345654.567 9 133192267.637 9      2184.837 9        54.132 9  25345655.236 6         0.000 6      1702.471 6        37.977 6
G10  23807022.330 9 125106692.111 9      3528.888 9        54.670 9  23807026.055 6         0.000 6      2749.785 6        37.977 6
G21  21171672.850 9 111257871.076 9     -1252.400 9        55.709 9  21171672.135 6         0.000 6      -975.897 6        37.977 6
G29  24301718.414 9 127706335.792 9     -3120.372 9        54.474 9  24301719.991 6         0.000 6     -2431.461 6        37.977 6
G27  22003121.045 9 115627154.519 9      2498.592 9        55.375 9  22003122.977 6         0.000 6      1946.955 6        37.977 6
G16  20496902.664 9 107711930.179 9       554.737 9        55.977 9  20496901.837 6         0.000 6       432.263 6        37.977 6
G26  20655542.317 9 108545585.213 9     -1485.251 9        55.873 9  20655545.134 6         0.000 6     -1157.339 6        37.977 6
G20  21942114.285 9 115306555.743 9      2563.974 9        55.316 9  21942114.606 6         0.000 6      1997.903 6        37.977 6
> 2019 07 03 12 01  4.0000000  0  8       0.000000000000
G07  25345238.851 9 133190083.036 9      2184.377 9        54.132 9  25345239.520 6         0.000 6      1702.113 6        37.977 6
G10  23806350.818 9 125103163.298 9      3528.750 9        54.670 9  23806354.541 6         0.000 6      2749.678 6        37.977 6
G21  21171911.207 9 111259123.654 9     -1252.761 9        55.709 9  21171910.493 6         0.000 6      -976.178 6        37.977 6
G29  24302312.210 9 127709456.197 9     -3120.458 9        54.474 9  24302313.787 6         0.000 6     -2431.528 6        37.977 6
G27  22002645.601 9 115624656.047 9      2498.355 9        55.375 9  22002647.533 6         0.000 6      1946.771 6        37.977 6
G16  20496797.159 9 107711375.747 9       554.121 9        55.977 9  20496796.332 6         0.000 6       431.782 6        37.977 6
G26  20655825.005 9 108547070.744 9     -1485.825 9        55.873 9  20655827.821 6         0.000 6     -1157.786 6        37.977 6
G20  21941626.419 9 115303991.991 9      2563.530 9        55.316 9  21941626.739 6         0.000 6      1997.557 6        37.977 6
> 2019 07 03 12 01  5.0000000  0  8       0.000000000000
G07  25344823.221 9 133187898.892 9      2183.918 9        54.132 9  25344823.890 6         0.000 6      1701.755 6        37.977 6
G10  23805679.332 9 125099634.628 9      3528.612 9        54.671 9  23805683.055 6         0.000 6      2749.571 6        37.977 6
G21  21172149.634 9 111260376.595 9     -1253.122 9        55.709 9  21172148.920 6         0.000 6      -976.459 6        37.977 6
G29  24302906.021 9 127712576.687 9     -3120.543 9        54.474 9  24302907.599 6         0.000 6     -2431.595 6        37.977 6
G27  22002170.202 9 115622157.813 9      2498.118 9        55.375 9  22002172.134 6         0.000 6      1946.586 6        37.977 6
G16  20496691.772 9 107710821.934 9       553.505 9        55.977 9  20496690.945 6         0.000 6       431.302 6        37.977 6
G26  20656107.802 9 108548556.855 9     -1486.400 9        55.872 9  20656110.619 6         0.000 6     -1158.234 6        37.977 6
G20  21941138.637 9 115301428.687 9      2563.087 9        55.317 9  21941138.957 6         0.000 6      1997.211 6        37.977 6
> 2019 07 03 12 01  6.0000000  0  8       0.000000000000
G07  25344407.680 9 133185715.211 9      2183.458 9        54.132 9  25344408.348 6         0.000 6      1701.397 6        37.977 6
G10  23805007.872 9 125096106.090 9      3528.475 9        54.671 9  23805011.594 6         0.000 6      2749.463 6        37.977 6
G21  21172388.129 9 111261629.894 9     -1253.482 9        55.709 9  21172387.415 6         0.000 6      -976.740 6        37.977 6
G29  24303499.849 9 127715697.263 9     -3120.629 9        54.474 9  24303501.427 6         0.000 6     -2431.661 6        37.977 6
G27  22001694.849 9 115619659.815 9      2497.881 9        55.375 9  22001696.780 6         0.000 6      1946.401 6        37.977 6
G16  20496586.501 9 107710268.734 9       552.888 9        55.977 9  20496585.674 6         0.000 6       430.822 6        37.977 6
G26  20656390.709 9 108550043.536 9     -1486.975 9        55.872 9  20656393.526 6         0.000 6     -1158.682 6        37.977 6
G20  21940650.940 9 115298865.823 9      2562.643 9        55.317 9  21940651.259 6         0.000 6      1996.866 6        37.977 6
> 2019 07 03 12 01  7.0000000  0  8       0.000000000000
G07  25343992.225 9 133183531.986 9      2182.998 9        54.133 9  25343992.894 6         0.000 6      1701.039 6        37.977 6
G10  23804336.438 9 125092577.695 9      3528.337 9        54.671 9  23804340.160 6         0.000 6      2749.356 6        37.977 6
G21  21172626.693 9 111262883.555 9     -1253.843 9        55.709 9  21172625.979 6         0.000 6      -977.020 6        37.977 6
G29  24304093.693 9 127718817.924 9     -3120.714 9        54.473 9  24304095.272 6         0.000 6     -2431.728 6        37.977 6
G27  22001219.540 9 115617162.055 9      2497.644 9        55.376 9  22001221.472 6         0.000 6      1946.217 6        37.977 6
G16  20496481.349 9 107709716.154 9       552.272 9        55.977 9  20496480.522 6         0.000 6       430.342 6        37.977 6
G26  20656673.725 9 108551530.796 9     -1487.549 9        55.872 9  20656676.542 6         0.000 6     -1159.130 6        37.977 6
G20  21940163.327 9 115296303.407 9      2562.199 9        55.317 9  21940163.647 6         0.000 6      1996.520 6        37.977 6
> 2019 07 03 12 01  8.0000000  0  8       0.000000000000
G07  25343576.859 9 133181349.224 9      2182.539 9        54.133 9  25343577.527 6         0.000 6      1700.680 6        37.977 6
G10  23803665.030 9 125089049.434 9      3528.199 9        54.671 9  23803668.751 6         0.000 6      2749.249 6        37.977 6
G21  21172865.325 9 111264137.575 9     -1254.203 9        55.708 9  21172864.611 6         0.000 6      -977.301 6        37.977 6
G29  24304687.553 9 127721938.670 9     -3120.799 9        54.473 9  24304689.133 6         0.000 6     -2431.794 6        37.977 6
G27  22000744.277 9 115614664.530 9      2497.407 9        55.376 9  22000746.208 6         0.000 6      1946.032 6        37.977 6
G16  20496376.313 9 107709164.187 9       551.656 9        55.977 9  20496375.486 6         0.000 6       429.862 6        37.977 6
G26  20656956.850 9 108553018.626 9     -1488.124 9        55.872 9  20656959.668 6         0.000 6     -1159.577 6        37.977 6
G20  21939675.798 9 115293741.430 9      2561.755 9        55.317 9  21939676.117 6         0.000 6      1996.174 6        37.977 6
> 2019 07 03 12 01  9.0000000  0  8       0.000000000000
G07  25343161.579 9 133179166.919 9      2182.079 9        54.133 9  25343162.247 6         0.000 6      1700.322 6        37.977 6
G10  23802993.650 9 125085521.315 9      3528.061 9        54.672 9  23802997.370 6         0.000 6      2749.141 6        37.977 6
G21  21173104.027 9 111265391.958 9     -1254.563 9        55.708 9  21173103.313 6         0.000 6      -977.582 6        37.977 6
G29  24305281.430 9 127725059.502 9     -3120.885 9        54.473 9  24305283.010 6         0.000 6     -2431.861 6        37.977 6
G27  22000269.058 9 115612167.245 9      2497.170 9        55.376 9  22000270.990 6         0.000 6      1945.847 6        37.977 6
G16  20496271.395 9 107708612.840 9       551.039 9        55.977 9  20496270.568 6         0.000 6       429.381 6        37.977 6
G26  20657240.085 9 108554507.035 9     -1488.698 9        55.872 9  20657242.903 6         0.000 6     -1160.025 6        37.977 6
G20  21939188.355 9 115291179.902 9      2561.311 9        55.317 9  21939188.674 6         0.000 6      1995.828 6        37.977 6
> 2019 07 03 12 01 10.0000000  0  8       0.000000000000
G07  25342746.388 9 133176985.079 9      2181.619 9        54.133 9  25342747.056 6         0.000 6      1699.964 6        37.977 6
G10  23802322.294 9 125081993.327 9      3527.923 9        54.672 9  23802326.014 6         0.000 6      2749.033 6        37.977 6
G21  21173342.795 9 111266646.696 9     -1254.924 9        55.708 9  21173342.082 6         0.000 6      -977.863 6        37.977 6
G29  24305875.321 9 127728180.414 9     -3120.970 9        54.473 9  24305876.902 6         0.000 6     -2431.927 6        37.977 6
G27  21999793.886 9 115609670.199 9      2496.932 9        55.376 9  21999795.817 6         0.000 6      1945.662 6        37.977 6
G16  20496166.594 9 107708062.107 9       550.423 9        55.977 9  20496165.767 6         0.000 6       428.901 6        37.977 6
G26  20657523.429 9 108555996.014 9     -1489.273 9        55.872 9  20657526.247 6         0.000 6     -1160.473 6        37.977 6
G20  21938700.995 9 115288618.810 9      2560.867 9        55.318 9  21938701.313 6         0.000 6      1995.482 6        37.977 6
> 2019 07 03 12 01 11.0000000  0  8       0.000000000000
G07  25342331.284 9 133174803.694 9      2181.159 9        54.133 9  25342331.951 6         0.000 6      1699.605 6        37.977 6
G10  23801650.966 9 125078465.484 9      3527.784 9        54.672 9  23801654.685 6         0.000 6      2748.925 6        37.977 6
G21  21173581.634 9 111267901.799 9     -1255.284 9        55.708 9  21173580.920 6         0.000 6      -978.144 6        37.977 6
G29  24306469.230 9 127731301.417 9     -3121.055 9        54.473 9  24306470.812 6         0.000 6     -2431.994 6        37.977 6
G27  21999318.758 9 115607173.388 9      2496.695 9        55.376 9  21999320.689 6         0.000 6      1945.477 6        37.977 6
G16  20496061.911 9 107707511.993 9       549.806 9        55.977 9  20496061.084 6         0.000 6       428.420 6        37.977 6
G26  20657806.883 9 108557485.572 9     -1489.847 9        55.872 9  20657809.700 6         0.000 6     -1160.920 6        37.977 6
G20  21938213.720 9 115286058.170 9      2560.423 9        55.318 9  21938214.038 6         0.000 6      1995.136 6        37.977 6
> 2019 07 03 12 01 12.0000000  0  8       0.000000000000
G07  25341916.267 9 133172622.769 9      2180.699 9        54.133 9  25341916.934 6         0.000 6      1699.247 6        37.977 6
G10  23800979.664 9 125074937.780 9      3527.646 9        54.672 9  23800983.382 6         0.000 6      2748.818 6        37.977 6
G21  21173820.541 9 111269157.263 9     -1255.644 9        55.708 9  21173819.827 6         0.000 6      -978.424 6        37.977 6
G29  24307063.156 9 127734422.504 9     -3121.141 9        54.472 9  24307064.738 6         0.000 6     -2432.060 6        37.977 6
G27  21998843.675 9 115604676.814 9      2496.458 9        55.377 9  21998845.606 6         0.000 6      1945.293 6        37.977 6
G16  20495957.345 9 107706962.495 9       549.190 9        55.977 9  20495956.518 6         0.000 6       427.940 6        37.977 6
G26  20658090.446 9 108558975.705 9     -1490.422 9        55.872 9  20658093.264 6         0.000 6     -1161.368 6        37.977 6
G20  21937726.530 9 115283497.974 9      2559.978 9        55.318 9  21937726.848 6         0.000 6      1994.789 6        37.977 6
> 2019 07 03 12 01 13.0000000  0  8       0.000000000000
G07  25341501.338 9 133170442.307 9      2180.238 9        54.133 9  25341502.005 6         0.000 6      1698.888 6        37.977 6
G10  23800308.387 9 125071410.209 9      3527.507 9        54.673 9  23800312.105 6         0.000 6      2748.710 6        37.977 6
G21  21174059.516 9 111270413.084 9     -1256.004 9        55.708 9  21174058.802 6         0.000 6      -978.705 6        37.977 6
G29  24307657.097 9 127737543.678 9     -3121.226 9        54.472 9  24307658.680 6         0.000 6     -2432.127 6        37.977 6
G27  21998368.637 9 115602180.475 9      2496.221 9        55.377 9  21998370.568 6         0.000 6      1945.108 6        37.977 6
G16  20495852.895 9 107706413.610 9       548.573 9        55.977 9  20495852.069 6         0.000 6       427.460 6        37.977 6
G26  20658374.118 9 108560466.407 9     -1490.996 9        55.871 9  20658376.935 6         0.000 6     -1161.816 6        37.977 6
G20  21937239.424 9 115280938.219 9      2559.534 9        55.318 9  21937239.742 6         0.000 6      1994.443 6        37.977 6
> 2019 07 03 12 01 14.0000000  0  8       0.000000000000
G07  25341086.496 9 133168262.302 9      2179.778 9        54.134 9  25341087.163 6         0.000 6      1698.529 6        37.977 6
G10  23799637.138 9 125067882.782 9      3527.369 9        54.673 9  23799640.856 6         0.000 6      2748.602 6        37.977 6
G21  21174298.560 9 111271669.268 9     -1256.364 9        55.708 9  21174297.846 6         0.000 6      -978.985 6        37.977 6
G29  24308251.055 9 127740664.936 9     -3121.311 9        54.472 9  24308252.638 6         0.000 6     -2432.193 6        37.977 6
G27  21997893.645 9 115599684.376 9      2495.983 9        55.377 9  21997895.575 6         0.000 6      1944.923 6        37.977 6
G16  20495748.564 9 107705865.345 9       547.957 9        55.977 9  20495747.737 6         0.000 6       426.979 6        37.977 6
G26  20658657.899 9 108561957.689 9     -1491.570 9        55.871 9  20658660.717 6         0.000 6     -1162.263 6        37.977 6
G20  21936752.403 9 115278378.912 9      2559.089 9        55.318 9  21936752.721 6         0.000 6      1994.097 6        37.977 6
> 2019 07 03 12 01 15.0000000  0  8       0.000000000000
G07  25340671.743 9 133166082.761 9      2179.318 9        54.134 9  25340672.409 6         0.000 6      1698.171 6        37.977 6
G10  23798965.915 9 125064355.489 9      3527.230 9        54.673 9  23798969.631 6         0.000 6      2748.494 6        37.977 6
G21  21174537.672 9 111272925.809 9     -1256.724 9        55.708 9  21174536.958 6         0.000 6      -979.266 6        37.977 6
G29  24308845.029 9 127743786.279 9     -3121.396 9        54.472 9  24308846.613 6         0.000 6     -2432.260 6        37.977 6
G27  21997418.697 9 115597188.512 9      2495.746 9        55.377 9  21997420.628 6         0.000 6      1944.738 6        37.977 6
G16  20495644.349 9 107705317.694 9       547.340 9        55.977 9  20495643.523 6         0.000 6       426.499 6        37.977 6
G26  20658941.789 9 108563449.540 9     -1492.145 9        55.871 9  20658944.608 6         0.000 6     -1162.711 6        37.977 6
G20  21936265.466 9 115275820.045 9      2558.645 9        55.319 9  21936265.783 6         0.000 6      1993.750 6        37.977 6
> 2019 07 03 12 01 16.0000000  0  8       0.000000000000
G07  25340257.076 9 133163903.677 9      2178.857 9        54.134 9  25340257.742 6         0.000 6      1697.812 6        37.977 6
G10  23798294.718 9 125060828.339 9      3527.091 9        54.673 9  23798298.434 6         0.000 6      2748.385 6        37.977 6
G21  21174776.853 9 111274182.713 9     -1257.084 9        55.708 9  21174776.139 6         0.000 6      -979.547 6        37.977 6
G29  24309439.019 9 127746907.708 9     -3121.482 9        54.471 9  24309440.603 6         0.000 6     -2432.326 6        37.977 6
G27  21996943.795 9 115594692.888 9      2495.508 9        55.377 9  21996945.725 6         0.000 6      1944.553 6        37.977 6
G16  20495540.253 9 107704770.662 9       546.723 9        55.977 9  20495539.426 6         0.000 6       426.018 6        37.977 6
G26  20659225.790 9 108564941.970 9     -1492.719 9        55.871 9  20659228.608 6         0.000 6     -1163.158 6        37.977 6
G20  21935778.615 9 115273261.627 9      2558.200 9        55.319 9  21935778.931 6         0.000 6      1993.404 6        37.977 6
> 2019 07 03 12 01 17.0000000  0  8       0.000000000000
G07  25339842.498 9 133161725.056 9      2178.397 9        54.134 9  25339843.164 6         0.000 6      1697.453 6        37.977 6
G10  23797623.548 9 125057301.323 9      3526.952 9        54.674 9  23797627.263 6         0.000 6      2748.277 6        37.977 6
G21  21175016.102 9 111275439.974 9     -1257.444 9        55.708 9  21175015.388 6         0.000 6      -979.827 6        37.977 6
G29  24310033.025 9 127750029.222 9     -3121.567 9        54.471 9  24310034.610 6         0.000 6     -2432.392 6        37.977 6
G27  21996468.938 9 115592197.499 9      2495.271 9        55.377 9  21996470.868 6         0.000 6      1944.368 6        37.977 6
G16  20495436.273 9 107704224.244 9       546.106 9        55.977 9  20495435.446 6         0.000 6       425.538 6        37.977 6
G26  20659509.898 9 108566434.970 9     -1493.293 9        55.871 9  20659512.717 6         0.000 6     -1163.606 6        37.977 6
G20  21935291.847 9 115270703.650 9      2557.755 9        55.319 9  21935292.163 6         0.000 6      1993.057 6        37.977 6
> 2019 07 03 12 01 18.0000000  0  8       0.000000000000
G07  25339428.007 9 133159546.896 9      2177.936 9        54.134 9  25339428.673 6         0.000 6      1697.094 6        37.977 6
G10  23796952.404 9 125053774.449 9      3526.813 9        54.674 9  23796956.118 6         0.000 6      2748.169 6        37.977 6
G21  21175255.419 9 111276697.596 9     -1257.804 9        55.707 9  21175254.706 6         0.000 6      -980.107 6        37.977 6
G29  24310627.047 9 127753150.816 9     -3121.652 9        54.471 9  24310628.632 6         0.000 6     -2432.459 6        37.977 6
G27  21995994.127 9 115589702.353 9      2495.034 9        55.378 9  21995996.057 6         0.000 6      1944.183 6        37.977 6
G16  20495332.411 9 107703678.448 9       545.490 9        55.977 9  20495331.584 6         0.000 6       425.057 6        37.977 6
G26  20659794.117 9 108567928.548 9     -1493.868 9        55.871 9  20659796.936 6         0.000 6     -1164.053 6        37.977 6
G20  21934805.164 9 115268146.119 9      2557.310 9        55.319 9  21934805.480 6         0.000 6      1992.710 6        37.977 6
> 2019 07 03 12 01 19.0000000  0  8       0.000000000000
G07  25339013.604 9 133157369.196 9      2177.476 9        54.134 9  25339014.269 6         0.000 6      1696.735 6        37.977 6
G10  23796281.286 9 125050247.711 9      3526.674 9        54.674 9  23796285.000 6         0.000 6      2748.060 6        37.977 6
G21  21175494.805 9 111277955.577 9     -1258.164 9        55.707 9  21175494.092 6         0.000 6      -980.388 6        37.977 6
G29  24311221.085 9 127756272.501 9     -3121.737 9        54.471 9  24311222.672 6         0.000 6     -2432.525 6        37.977 6
G27  21995519.360 9 115587207.439 9      2494.796 9        55.378 9  21995521.290 6         0.000 6      1943.998 6        37.977 6
G16  20495228.666 9 107703133.263 9       544.873 9        55.977 9  20495227.839 6         0.000 6       424.576 6        37.977 6
G26  20660078.445 9 108569422.696 9     -1494.442 9        55.871 9  20660081.263 6         0.000 6     -1164.500 6        37.977 6
G20  21934318.566 9 115265589.031 9      2556.865 9        55.319 9  21934318.882 6         0.000 6      1992.364 6        37.977 6
> 2019 07 03 12 01 20.0000000  0  8       0.000000000000
G07  25338599.288 9 133155191.954 9      2177.015 9        54.134 9  25338599.953 6         0.000 6      1696.376 6        37.977 6
G10  23795610.195 9 125046721.117 9      3526.535 9        54.674 9  23795613.909 6         0.000 6      2747.952 6        37.977 6
G21  21175734.260 9 111279213.920 9     -1258.524 9        55.707 9  21175733.547 6         0.000 6      -980.668 6        37.977 6
G29  24311815.140 9 127759394.270 9     -3121.822 9        54.471 9  24311816.727 6         0.000 6     -2432.591 6        37.977 6
G27  21995044.639 9 115584712.764 9      2494.559 9        55.378 9  21995046.568 6         0.000 6      1943.813 6        37.977 6
G16  20495125.039 9 107702588.699 9       544.256 9        55.977 9  20495124.212 6         0.000 6       424.096 6        37.977 6
G26  20660362.882 9 108570917.423 9     -1495.016 9        55.871 9  20660365.701 6         0.000 6     -1164.948 6        37.977 6
G20  21933832.053 9 115263032.393 9      2556.420 9        55.320 9  21933832.368 6         0.000 6      1992.017 6        37.977 6
> 2019 07 03 12 01 21.0000000  0  8       0.000000000000
G07  25338185.060 9 133153015.176 9      2176.554 9        54.135 9  25338185.725 6         0.000 6      1696.017 6        37.977 6
G10  23794939.130 9 125043194.658 9      3526.396 9        54.675 9  23794942.843 6         0.000 6      2747.843 6        37.977 6
G21  21175973.783 9 111280472.620 9     -1258.883 9        55.707 9  21175973.069 6         0.000 6      -980.948 6        37.977 6
G29  24312409.211 9 127762516.125 9     -3121.907 9        54.470 9  24312410.799 6         0.000 6     -2432.658 6        37.977 6
G27  21994569.962 9 115582218.325 9      2494.321 9        55.378 9  21994571.892 6         0.000 6      1943.627 6        37.977 6
G16  20495021.528 9 107702044.748 9       543.639 9        55.978 9  20495020.702 6         0.000 6       423.615 6        37.977 6
G26  20660647.428 9 108572412.719 9     -1495.590 9        55.870 9  20660650.247 6         0.000 6     -1165.395 6        37.977 6
G20  21933345.624 9 115260476.196 9      2555.975 9        55.320 9  21933345.939 6         0.000 6      1991.670 6        37.977 6
> 2019 07 03 12 01 22.0000000  0  8       0.000000000000
G07  25337770.919 9 133150838.856 9      2176.093 9        54.135 9  25337771.584 6         0.000 6      1695.658 6        37.977 6
G10  23794268.093 9 125039668.343 9      3526.256 9        54.675 9  23794271.805 6         0.000 6      2747.735 6        37.977 6
G21  21176213.375 9 111281731.683 9     -1259.243 9        55.707 9  21176212.661 6         0.000 6      -981.229 6        37.977 6
G29  24313003.299 9 127765638.064 9     -3121.992 9        54.470 9  24313004.887 6         0.000 6     -2432.724 6        37.977 6
G27  21994095.331 9 115579724.126 9      2494.083 9        55.378 9  21994097.261 6         0.000 6      1943.442 6        37.977 6
G16  20494918.136 9 107701501.417 9       543.022 9        55.978 9  20494917.309 6         0.000 6       423.134 6        37.977 6
G26  20660932.084 9 108573908.595 9     -1496.164 9        55.870 9  20660934.903 6         0.000 6     -1165.843 6        37.977 6
G20  21932859.280 9 115257920.448 9      2555.530 9        55.320 9  21932859.595 6         0.000 6      1991.323 6        37.977 6
> 2019 07 03 12 01 23.0000000  0  8       0.000000000000
G07  25337356.866 9 133148662.997 9      2175.632 9        54.135 9  25337357.531 6         0.000 6      1695.299 6        37.977 6
G10  23793597.082 9 125036142.167 9      3526.117 9        54.675 9  23793600.793 6         0.000 6      2747.626 6        37.977 6
G21  21176453.035 9 111282991.105 9     -1259.603 9        55.707 9  21176452.322 6         0.000 6      -981.509 6        37.977 6
G29  24313597.402 9 127768760.089 9     -3122.078 9        54.470 9  24313598.991 6         0.000 6     -2432.790 6        37.977 6
G27  21993620.746 9 115577230.164 9      2493.846 9        55.379 9  21993622.675 6         0.000 6      1943.257 6        37.977 6
G16  20494814.861 9 107700958.703 9       542.405 9        55.978 9  20494814.034 6         0.000 6       422.653 6        37.977 6
G26  20661216.849 9 108575405.044 9     -1496.738 9        55.870 9  20661219.668 6         0.000 6     -1166.290 6        37.977 6
G20  21932373.021 9 115255365.146 9      2555.084 9        55.320 9  21932373.336 6         0.000 6      1990.976 6        37.977 6
> 2019 07 03 12 01 24.0000000  0  8       0.000000000000
G07  25336942.902 9 133146487.601 9      2175.171 9        54.135 9  25336943.566 6         0.000 6      1694.940 6        37.977 6
G10  23792926.097 9 125032616.127 9      3525.977 9        54.675 9  23792929.807 6         0.000 6      2747.517 6        37.977 6
G21  21176692.763 9 111284250.884 9     -1259.962 9        55.707 9  21176692.050 6         0.000 6      -981.789 6        37.977 6
G29  24314191.522 9 127771882.199 9     -3122.163 9        54.470 9  24314193.112 6         0.000 6     -2432.857 6        37.977 6
G27  21993146.205 9 115574736.438 9      2493.608 9        55.379 9  21993148.134 6         0.000 6      1943.072 6        37.977 6
G16  20494711.703 9 107700416.603 9       541.788 9        55.978 9  20494710.876 6         0.000 6       422.173 6        37.977 6
G26  20661501.722 9 108576902.062 9     -1497.312 9        55.870 9  20661504.541 6         0.000 6     -1166.737 6        37.977 6
G20  21931886.847 9 115252810.284 9      2554.639 9        55.320 9  21931887.161 6         0.000 6      1990.629 6        37.977 6
> 2019 07 03 12 01 25.0000000  0  8       0.000000000000
G07  25336529.024 9 133144312.664 9      2174.710 9        54.135 9  25336529.689 6         0.000 6      1694.580 6        37.977 6
G10  23792255.139 9 125029090.230 9      3525.837 9        54.676 9  23792258.849 6         0.000 6      2747.408 6        37.977 6
G21  21176932.560 9 111285511.026 9     -1260.322 9        55.707 9  21176931.847 6         0.000 6      -982.069 6        37.977 6
G29  24314785.658 9 127775004.394 9     -3122.248 9        54.470 9  24314787.248 6         0.000 6     -2432.923 6        37.977 6
G27  21992671.710 9 115572242.952 9      2493.370 9        55.379 9  21992673.639 6         0.000 6      1942.887 6        37.977 6
G16  20494608.663 9 107699875.124 9       541.171 9        55.978 9  20494607.836 6         0.000 6       421.692 6        37.977 6
G26  20661786.706 9 108578399.660 9     -1497.886 9        55.870 9  20661789.525 6         0.000 6     -1167.184 6        37.977 6
G20  21931400.757 9 115250255.873 9      2554.193 9        55.321 9  21931401.072 6         0.000 6      1990.282 6        37.977 6
> 2019 07 03 12 01 26.0000000  0  8       0.000000000000
G07  25336115.236 9 133142138.194 9      2174.249 9        54.135 9  25336115.900 6         0.000 6      1694.221 6        37.977 6
G10  23791584.207 9 125025564.467 9      3525.697 9        54.676 9  23791587.916 6         0.000 6      2747.299 6        37.977 6
G21  21177172.425 9 111286771.522 9     -1260.681 9        55.707 9  21177171.711 6         0.000 6      -982.349 6        37.977 6
G29  24315379.809 9 127778126.668 9     -3122.333 9        54.469 9  24315381.400 6         0.000 6     -2432.989 6        37.977 6
G27  21992197.260 9 115569749.705 9      2493.132 9        55.379 9  21992199.189 6         0.000 6      1942.701 6        37.977 6
G16  20494505.740 9 107699334.259 9       540.554 9        55.978 9  20494504.913 6         0.000 6       421.211 6        37.977 6
G26  20662071.798 9 108579897.826 9     -1498.460 9        55.870 9  20662074.617 6         0.000 6     -1167.632 6        37.977 6
G20  21930914.752 9 115247701.899 9      2553.748 9        55.321 9  21930915.066 6         0.000 6      1989.934 6        37.977 6
> 2019 07 03 12 01 27.0000000  0  8       0.000000000000
G07  25335701.534 9 133139964.179 9      2173.788 9        54.135 9  25335702.198 6         0.000 6      1693.861 6        37.977 6
G10  23790913.302 9 125022038.850 9      3525.557 9        54.676 9  23790917.011 6         0.000 6      2747.190 6        37.977 6
G21  21177412.358 9 111288032.382 9     -1261.040 9        55.707 9  21177411.645 6         0.000 6      -982.629 6        37.977 6
G29  24315973.977 9 127781249.033 9     -3122.418 9        54.469 9  24315975.569 6         0.000 6     -2433.055 6        37.977 6
G27  21991722.856 9 115567256.694 9      2492.895 9        55.379 9  21991724.784 6         0.000 6      1942.516 6        37.977 6
G16  20494402.934 9 107698794.013 9       539.937 9        55.978 9  20494402.107 6         0.000 6       420.730 6        37.977 6
G26  20662357.000 9 108581396.571 9     -1499.034 9        55.870 9  20662359.819 6         0.000 6     -1168.079 6        37.977 6
G20  21930428.832 9 115245148.379 9      2553.302 9        55.321 9  21930429.146 6         0.000 6      1989.587 6        37.977 6
> 2019 07 03 12 01 28.0000000  0  8       0.000000000000
G07  25335287.920 9 133137790.628 9      2173.326 9        54.136 9  25335288.584 6         0.000 6      1693.502 6        37.977 6
G10  23790242.423 9 125018513.369 9      3525.417 9        54.676 9  23790246.131 6         0.000 6      2747.081 6        37.977 6
G21  21177652.360 9 111289293.599 9     -1261.400 9        55.706 9  21177651.647 6         0.000 6      -982.909 6        37.977 6
G29  24316568.161 9 127784371.483 9     -3122.502 9        54.469 9  24316569.754 6         0.000 6     -2433.121 6        37.977 6
G27  21991248.496 9 115564763.919 9      2492.657 9        55.380 9  21991250.424 6         0.000 6      1942.331 6        37.977 6
G16  20494300.246 9 107698254.382 9       539.320 9        55.978 9  20494299.419 6         0.000 6       420.249 6        37.977 6
G26  20662642.310 9 108582895.885 9     -1499.608 9        55.870 9  20662645.130 6         0.000 6     -1168.526 6        37.977 6
G20  21929942.997 9 115242595.300 9      2552.856 9        55.321 9  21929943.310 6         0.000 6      1989.240 6        37.977 6
> 2019 07 03 12 01 29.0000000  0  8       0.000000000000
G07  25334874.394 9 133135617.536 9      2172.865 9        54.136 9  25334875.057 6         0.000 6      1693.142 6        37.977 6
G10  23789571.572 9 125014988.032 9      3525.277 9        54.677 9  23789575.279 6         0.000 6      2746.972 6        37.977 6
G21  21177892.431 9 111290555.177 9     -1261.759 9        55.706 9  21177891.718 6         0.000 6      -983.189 6        37.977 6
G29  24317162.362 9 127787494.017 9     -3122.587 9        54.469 9  24317163.955 6         0.000 6     -2433.188 6        37.977 6
G27  21990774.182 9 115562271.384 9      2492.419 9        55.380 9  21990776.110 6         0.000 6      1942.145 6        37.977 6
G16  20494197.675 9 107697715.370 9       538.703 9        55.978 9  20494196.849 6         0.000 6       419.768 6        37.977 6
G26  20662927.731 9 108584395.778 9     -1500.182 9        55.870 9  20662930.550 6         0.000 6     -1168.973 6        37.977 6
G20  21929457.247 9 115240042.672 9      2552.410 9        55.321 9  21929457.560 6         0.000 6      1988.892 6        37.977 6
> 2019 07 03 12 01 30.0000000  0  8       0.000000000000
G07  25334460.956 9 133133444.908 9      2172.403 9        54.136 9  25334461.619 6         0.000 6      1692.783 6        37.977 6
G10  23788900.747 9 125011462.832 9      3525.137 9        54.677 9  23788904.453 6         0.000 6      2746.863 6        37.977 6
G21  21178132.569 9 111291817.113 9     -1262.118 9        55.706 9  21178131.856 6         0.000 6      -983.469 6        37.977 6
G29  24317756.579 9 127790616.637 9     -3122.672 9        54.468 9  24317758.172 6         0.000 6     -2433.254 6        37.977 6
G27  21990299.912 9 115559779.085 9      2492.181 9        55.380 9  21990301.840 6         0.000 6      1941.960 6        37.977 6
G16  20494095.222 9 107697176.973 9       538.085 9        55.978 9  20494094.395 6         0.000 6       419.287 6        37.977 6
G26  20663213.259 9 108585896.240 9     -1500.755 9        55.869 9  20663216.079 6         0.000 6     -1169.420 6        37.977 6
G20  21928971.581 9 115237490.485 9      2551.964 9        55.321 9  21928971.894 6         0.000 6      1988.545 6        37.977 6
> 2019 07 03 12 01 31.0000000  0  8       0.000000000000
G07  25334047.605 9 133131272.739 9      2171.942 9        54.136 9  25334048.268 6         0.000 6      1692.423 6        37.977 6
G10  23788229.949 9 125007937.776 9      3524.996 9        54.677 9  23788233.655 6         0.000 6      2746.753 6        37.977 6
G21  21178372.776 9 111293079.410 9     -1262.477 9        55.706 9  21178372.064 6         0.000 6      -983.749 6        37.977 6
G29  24318350.811 9 127793739.341 9     -3122.757 9        54.468 9  24318352.406 6         0.000 6     -2433.320 6        37.977 6
G27  21989825.689 9 115557287.026 9      2491.943 9        55.380 9  21989827.616 6         0.000 6      1941.774 6        37.977 6
G16  20493992.886 9 107696639.196 9       537.468 9        55.978 9  20493992.059 6         0.000 6       418.806 6        37.977 6
G26  20663498.898 9 108587397.280 9     -1501.329 9        55.869 9  20663501.718 6         0.000 6     -1169.867 6        37.977 6
G20  21928486.001 9 115234938.749 9      2551.518 9        55.322 9  21928486.313 6         0.000 6      1988.197 6        37.977 6
> 2019 07 03 12 01 32.0000000  0  8       0.000000000000
G07  25333634.342 9 133129101.032 9      2171.480 9        54.136 9  25333635.005 6         0.000 6      1692.063 6        37.977 6
G10  23787559.177 9 125004412.860 9      3524.856 9        54.677 9  23787562.883 6         0.000 6      2746.644 6        37.977 6
G21  21178613.052 9 111294342.066 9     -1262.836 9        55.706 9  21178612.339 6         0.000 6      -984.029 6        37.977 6
G29  24318945.060 9 127796862.130 9     -3122.842 9        54.468 9  24318946.655 6         0.000 6     -2433.386 6        37.977 6
G27  21989351.510 9 115554795.205 9      2491.705 9        55.380 9  21989353.438 6         0.000 6      1941.589 6        37.977 6
G16  20493890.668 9 107696102.037 9       536.851 9        55.978 9  20493889.841 6         0.000 6       418.325 6        37.977 6
G26  20663784.646 9 108588898.894 9     -1501.903 9        55.869 9  20663787.466 6         0.000 6     -1170.314 6        37.977 6
G20  21928000.505 9 115232387.458 9      2551.072 9        55.322 9  21928000.818 6         0.000 6      1987.849 6        37.977 6
> 2019 07 03 12 01 33.0000000  0  8       0.000000000000
G07  25333221.168 9 133126929.791 9      2171.019 9        54.136 9  25333221.831 6         0.000 6      1691.704 6        37.977 6
G10  23786888.432 9 125000888.078 9      3524.715 9        54.678 9  23786892.137 6         0.000 6      2746.534 6        37.977 6
G21  21178853.395 9 111295605.077 9     -1263.195 9        55.706 9  21178852.682 6         0.000 6      -984.308 6        37.977 6
G29  24319539.325 9 127799984.999 9     -3122.927 9        54.468 9  24319540.920 6         0.000 6     -2433.452 6        37.977 6
G27  21988877.378 9 115552303.623 9      2491.467 9        55.380 9  21988879.305 6         0.000 6      1941.403 6        37.977 6
G16  20493788.567 9 107695565.493 9       536.234 9        55.978 9  20493787.740 6         0.000 6       417.844 6        37.977 6
G26  20664070.503 9 108590401.077 9     -1502.477 9        55.869 9  20664073.323 6         0.000 6     -1170.761 6        37.977 6
G20  21927515.094 9 115229836.607 9      2550.625 9        55.322 9  21927515.406 6         0.000 6      1987.501 6        37.977 6
> 2019 07 03 12 01 34.0000000  0  8       0.000000000000
G07  25332808.081 9 133124759.007 9      2170.557 9        54.136 9  25332808.743 6         0.000 6      1691.344 6        37.977 6
G10  23786217.714 9 124997363.444 9      3524.575 9        54.678 9  23786221.418 6         0.000 6      2746.424 6        37.977 6
G21  21179093.807 9 111296868.451 9     -1263.554 9        55.706 9  21179093.095 6         0.000 6      -984.588 6        37.977 6
G29  24320133.606 9 127803107.958 9     -3123.012 9        54.468 9  24320135.202 6         0.000 6     -2433.518 6        37.977 6
G27  21988403.290 9 115549812.278 9      2491.229 9        55.381 9  21988405.217 6         0.000 6      1941.218 6        37.977 6
G16  20493686.584 9 107695029.568 9       535.616 9        55.978 9  20493685.757 6         0.000 6       417.363 6        37.977 6
G26  20664356.469 9 108591903.839 9     -1503.050 9        55.869 9  20664359.289 6         0.000 6     -1171.208 6        37.977 6
G20  21927029.768 9 115227286.209 9      2550.179 9        55.322 9  21927030.080 6         0.000 6      1987.154 6        37.977 6
> 2019 07 03 12 01 35.0000000  0  8       0.000000000000
G07  25332395.082 9 133122588.688 9      2170.095 9        54.137 9  25332395.744 6         0.000 6      1690.984 6        37.977 6
G10  23785547.023 9 124993838.946 9      3524.434 9        54.678 9  23785550.726 6         0.000 6      2746.315 6        37.977 6
G21  21179334.287 9 111298132.181 9     -1263.913 9        55.706 9  21179333.575 6         0.000 6      -984.868 6        37.977 6
G29  24320727.903 9 127806231.002 9     -3123.096 9        54.467 9  24320729.500 6         0.000 6     -2433.584 6        37.977 6
G27  21987929.247 9 115547321.169 9      2490.991 9        55.381 9  21987931.174 6         0.000 6      1941.032 6        37.977 6
G16  20493584.718 9 107694494.257 9       534.999 9        55.978 9  20493583.891 6         0.000 6       416.882 6        37.977 6
G26  20664642.544 9 108593407.169 9     -1503.624 9        55.869 9  20664645.364 6         0.000 6     -1171.655 6        37.977 6
G20  21926544.527 9 115224736.253 9      2549.733 9        55.322 9  21926544.838 6         0.000 6      1986.806 6        37.977 6
> 2019 07 03 12 01 36.0000000  0  8       0.000000000000
G07  25331982.171 9 133120418.828 9      2169.633 9        54.137 9  25331982.833 6         0.000 6      1690.624 6        37.977 6
G10  23784876.358 9 124990314.593 9      3524.293 9        54.678 9  23784880.061 6         0.000 6      2746.205 6        37.977 6
G21  21179574.836 9 111299396.273 9     -1264.272 9        55.706 9  21179574.124 6         0.000 6      -985.147 6        37.977 6
G29  24321322.217 9 127809354.130 9     -3123.181 9        54.467 9  24321323.814 6         0.000 6     -2433.650 6        37.977 6
G27  21987455.250 9 115544830.300 9      2490.753 9        55.381 9  21987457.177 6         0.000 6      1940.847 6        37.977 6
G16  20493482.970 9 107693959.567 9       534.381 9        55.978 9  20493482.143 6         0.000 6       416.401 6        37.977 6
G26  20664928.728 9 108594911.078 9     -1504.197 9        55.869 9  20664931.549 6         0.000 6     -1172.102 6        37.977 6
G20  21926059.371 9 115222186.749 9      2549.286 9        55.323 9  21926059.683 6         0.000 6      1986.458 6        37.977 6
> 2019 07 03 12 01 37.0000000  0  8       0.000000000000
G07  25331569.348 9 133118249.432 9      2169.171 9        54.137 9  25331570.010 6         0.000 6      1690.264 6        37.977 6
G10  23784205.720 9 124986790.377 9      3524.152 9        54.679 9  23784209.423 6         0.000 6      2746.095 6        37.977 6
G21  21179815.453 9 111300660.722 9     -1264.631 9        55.706 9  21179814.740 6         0.000 6      -985.427 6        37.977 6
G29  24321916.546 9 127812477.343 9     -3123.266 9        54.467 9  24321918.144 6         0.000 6     -2433.716 6        37.977 6
G27  21986981.298 9 115542339.668 9      2490.514 9        55.381 9  21986983.225 6         0.000 6      1940.661 6        37.977 6
G16  20493381.339 9 107693425.492 9       533.764 9        55.978 9  20493380.512 6         0.000 6       415.920 6        37.977 6
G26  20665215.021 9 108596415.556 9     -1504.771 9        55.869 9  20665217.842 6         0.000 6     -1172.549 6        37.977 6
G20  21925574.300 9 115219637.686 9      2548.839 9        55.323 9  21925574.611 6         0.000 6      1986.110 6        37.977 6
> 2019 07 03 12 01 38.0000000  0  8       0.000000000000
G07  25331156.612 9 133116080.496 9      2168.709 9        54.137 9  25331157.274 6         0.000 6      1689.904 6        37.977 6
G10  23783535.110 9 124983266.306 9      3524.011 9        54.679 9  23783538.812 6         0.000 6      2745.985 6        37.977 6
G21  21180056.138 9 111301925.531 9     -1264.990 9        55.705 9  21180055.426 6         0.000 6      -985.706 6        37.977 6
G29  24322510.892 9 127815600.641 9     -3123.351 9        54.467 9  24322512.491 6         0.000 6     -2433.782 6        37.977 6
G27  21986507.391 9 115539849.275 9      2490.276 9        55.381 9  21986509.318 6         0.000 6      1940.476 6        37.977 6
G16  20493279.825 9 107692892.037 9       533.146 9        55.978 9  20493278.999 6         0.000 6       415.439 6        37.977 6
G26  20665501.424 9 108597920.611 9     -1505.344 9        55.868 9  20665504.245 6         0.000 6     -1172.996 6        37.977 6
G20  21925089.315 9 115217089.075 9      2548.392 9        55.323 9  21925089.625 6         0.000 6      1985.761 6        37.977 6
> 2019 07 03 12 01 39.0000000  0  8       0.000000000000
G07  25330743.965 9 133113912.025 9      2168.247 9        54.137 9  25330744.627 6         0.000 6      1689.544 6        37.977 6
G10  23782864.526 9 124979742.372 9      3523.869 9        54.679 9  23782868.227 6         0.000 6      2745.875 6        37.977 6
G21  21180296.892 9 111303190.697 9     -1265.348 9        55.705 9  21180296.179 6         0.000 6      -985.986 6        37.977 6
G29  24323105.254 9 127818724.024 9     -3123.435 9        54.467 9  24323106.853 6         0.000 6     -2433.848 6        37.977 6
G27  21986033.530 9 115537359.119 9      2490.038 9        55.382 9  21986035.456 6         0.000 6      1940.290 6        37.977 6
G16  20493178.429 9 107692359.196 9       532.529 9        55.978 9  20493177.602 6         0.000 6       414.957 6        37.977 6
G26  20665787.935 9 108599426.236 9     -1505.918 9        55.868 9  20665790.756 6         0.000 6     -1173.443 6        37.977 6
G20  21924604.413 9 115214540.906 9      2547.946 9        55.323 9  21924604.724 6         0.000 6      1985.413 6        37.977 6
> 2019 07 03 12 01 40.0000000  0  8       0.000000000000
G07  25330331.406 9 133111744.013 9      2167.784 9        54.137 9  25330332.067 6         0.000 6      1689.183 6        37.977 6
G10  23782193.969 9 124976218.584 9      3523.728 9        54.679 9  23782197.669 6         0.000 6      2745.765 6        37.977 6
G21  21180537.713 9 111304456.224 9     -1265.707 9        55.705 9  21180537.001 6         0.000 6      -986.265 6        37.977 6
G29  24323699.632 9 127821847.491 9     -3123.520 9        54.466 9  24323701.232 6         0.000 6     -2433.914 6        37.977 6
G27  21985559.714 9 115534869.203 9      2489.800 9        55.382 9  21985561.640 6         0.000 6      1940.104 6        37.977 6
G16  20493077.151 9 107691826.976 9       531.911 9        55.978 9  20493076.324 6         0.000 6       414.476 6        37.977 6
G26  20666074.556 9 108600932.439 9     -1506.491 9        55.868 9  20666077.377 6         0.000 6     -1173.890 6        37.977 6
G20  21924119.598 9 115211993.189 9      2547.499 9        55.323 9  21924119.908 6         0.000 6      1985.065 6        37.977 6
> 2019 07 03 12 01 41.0000000  0  8       0.000000000000
G07  25329918.935 9 133109576.466 9      2167.322 9        54.137 9  25329919.596 6         0.000 6      1688.823 6        37.977 6
G10  23781523.439 9 124972694.935 9      3523.587 9        54.680 9  23781527.139 6         0.000 6      2745.655 6        37.977 6
G21  21180778.603 9 111305722.107 9     -1266.065 9        55.705 9  21180777.891 6         0.000 6      -986.545 6        37.977 6
G29  24324294.025 9 127824971.038 9     -3123.605 9        54.466 9  24324295.626 6         0.000 6     -2433.980 6        37.977 6
G27  21985085.944 9 115532379.529 9      2489.561 9        55.382 9  21985087.871 6         0.000 6      1939.918 6        37.977 6
G16  20492975.991 9 107691295.375 9       531.293 9        55.978 9  20492975.164 6         0.000 6       413.995 6        37.977 6
G26  20666361.287 9 108602439.215 9     -1507.065 9        55.868 9  20666364.108 6         0.000 6     -1174.337 6        37.977 6
G20  21923634.867 9 115209445.915 9      2547.052 9        55.324 9  21923635.177 6         0.000 6      1984.717 6        37.977 6
> 2019 07 03 12 01 42.0000000  0  8       0.000000000000
G07  25329506.551 9 133107409.381 9      2166.859 9        54.138 9  25329507.212 6         0.000 6      1688.463 6        37.977 6
G10  23780852.935 9 124969171.425 9      3523.445 9        54.680 9  23780856.634 6         0.000 6      2745.544 6        37.977 6
G21  21181019.561 9 111306988.349 9     -1266.424 9        55.705 9  21181018.849 6         0.000 6      -986.824 6        37.977 6
G29  24324888.435 9 127828094.674 9     -3123.689 9        54.466 9  24324890.037 6         0.000 6     -2434.046 6        37.977 6
G27  21984612.219 9 115529890.088 9      2489.323 9        55.382 9  21984614.145 6         0.000 6      1939.733 6        37.977 6
G16  20492874.947 9 107690764.388 9       530.676 9        55.978 9  20492874.120 6         0.000 6       413.513 6        37.977 6
G26  20666648.125 9 108603946.560 9     -1507.638 9        55.868 9  20666650.946 6         0.000 6     -1174.783 6        37.977 6
G20  21923150.221 9 115206899.087 9      2546.604 9        55.324 9  21923150.531 6         0.000 6      1984.368 6        37.977 6
> 2019 07 03 12 01 43.0000000  0  8       0.000000000000
G07  25329094.256 9 133105242.757 9      2166.397 9        54.138 9  25329094.916 6         0.000 6      1688.102 6        37.977 6
G10  23780182.459 9 124965648.061 9      3523.303 9        54.680 9  23780186.158 6         0.000 6      2745.434 6        37.977 6
G21  21181260.588 9 111308254.951 9     -1266.782 9        55.705 9  21181259.875 6         0.000 6      -987.103 6        37.977 6
G29  24325482.862 9 127831218.395 9     -3123.774 9        54.466 9  24325484.463 6         0.000 6     -2434.112 6        37.977 6
G27  21984138.539 9 115527400.887 9      2489.084 9        55.382 9  21984140.465 6         0.000 6      1939.547 6        37.977 6
G16  20492774.022 9 107690234.021 9       530.058 9        55.978 9  20492773.195 6         0.000 6       413.032 6        37.977 6
G26  20666935.074 9 108605454.483 9     -1508.211 9        55.868 9  20666937.895 6         0.000 6     -1175.230 6        37.977 6
G20  21922665.661 9 115204352.711 9      2546.157 9        55.324 9  21922665.970 6         0.000 6      1984.020 6        37.977 6
> 2019 07 03 12 01 44.0000000  0  8       0.000000000000
G07  25328682.049 9 133103076.597 9      2165.934 9        54.138 9  25328682.709 6         0.000 6      1687.742 6        37.977 6
G10  23779512.010 9 124962124.835 9      3523.162 9        54.680 9  23779515.707 6         0.000 6      2745.324 6        37.977 6
G21  21181501.682 9 111309521.910 9     -1267.141 9        55.705 9  21181500.970 6         0.000 6      -987.383 6        37.977 6
G29  24326077.304 9 127834342.201 9     -3123.858 9        54.466 9  24326078.907 6         0.000 6     -2434.178 6        37.977 6
G27  21983664.905 9 115524911.922 9      2488.846 9        55.383 9  21983666.830 6         0.000 6      1939.361 6        37.977 6
G16  20492673.213 9 107689704.269 9       529.440 9        55.979 9  20492672.386 6         0.000 6       412.551 6        37.977 6
G26  20667222.131 9 108606962.974 9     -1508.785 9        55.868 9  20667224.952 6         0.000 6     -1175.677 6        37.977 6
G20  21922181.185 9 115201806.778 9      2545.710 9        55.324 9  21922181.494 6         0.000 6      1983.671 6        37.977 6
> 2019 07 03 12 01 45.0000000  0  8       0.000000000000
G07  25328269.929 9 133100910.898 9      2165.472 9        54.138 9  25328270.589 6         0.000 6      1687.381 6        37.977 6
G10  23778841.588 9 124958601.754 9      3523.020 9        54.681 9  23778845.285 6         0.000 6      2745.213 6        37.977 6
G21  21181742.845 9 111310789.229 9     -1267.499 9        55.705 9  21181742.133 6         0.000 6      -987.662 6        37.977 6
G29  24326671.763 9 127837466.091 9     -3123.943 9        54.465 9  24326673.366 6         0.000 6     -2434.244 6        37.977 6
G27  21983191.316 9 115522423.198 9      2488.607 9        55.383 9  21983193.241 6         0.000 6      1939.175 6        37.977 6
G16  20492572.523 9 107689175.137 9       528.822 9        55.979 9  20492571.696 6         0.000 6       412.069 6        37.977 6
G26  20667509.297 9 108608472.044 9     -1509.358 9        55.868 9  20667512.119 6         0.000 6     -1176.124 6        37.977 6
G20  21921696.795 9 115199261.296 9      2545.262 9        55.324 9  21921697.104 6         0.000 6      1983.322 6        37.977 6
> 2019 07 03 12 01 46.0000000  0  8       0.000000000000
G07  25327857.898 9 133098745.664 9      2165.009 9        54.138 9  25327858.558 6         0.000 6      1687.021 6        37.977 6
G10  23778171.192 9 124955078.812 9      3522.878 9        54.681 9  23778174.888 6         0.000 6      2745.102 6        37.977 6
G21  21181984.076 9 111312056.904 9     -1267.857 9        55.705 9  21181983.363 6         0.000 6      -987.941 6        37.977 6
G29  24327266.237 9 127840590.066 9     -3124.027 9        54.465 9  24327267.841 6         0.000 6     -2434.310 6        37.977 6
G27  21982717.772 9 115519934.711 9      2488.369 9        55.383 9  21982719.697 6         0.000 6      1938.989 6        37.977 6
G16  20492471.950 9 107688646.621 9       528.204 9        55.979 9  20492471.123 6         0.000 6       411.588 6        37.977 6
G26  20667796.572 9 108609981.682 9     -1509.931 9        55.867 9  20667799.394 6         0.000 6     -1176.570 6        37.977 6
G20  21921212.490 9 115196716.258 9      2544.815 9        55.325 9  21921212.798 6         0.000 6      1982.974 6        37.977 6
> 2019 07 03 12 01 47.0000000  0  8       0.000000000000
G07  25327445.955 9 133096580.889 9      2164.546 9        54.138 9  25327446.614 6         0.000 6      1686.660 6        37.977 6
G10  23777500.824 9 124951556.015 9      3522.736 9        54.681 9  23777504.520 6         0.000 6      2744.992 6        37.977 6
G21  21182225.375 9 111313324.940 9     -1268.216 9        55.705 9  21182224.663 6         0.000 6      -988.220 6        37.977 6
G29  24327860.728 9 127843714.125 9     -3124.112 9        54.465 9  24327862.332 6         0.000 6     -2434.375 6        37.977 6
G27  21982244.274 9 115517446.464 9      2488.130 9        55.383 9  21982246.199 6         0.000 6      1938.804 6        37.977 6
G16  20492371.494 9 107688118.725 9       527.587 9        55.979 9  20492370.668 6         0.000 6       411.106 6        37.977 6
G26  20668083.957 9 108611491.898 9     -1510.504 9        55.867 9  20668086.779 6         0.000 6     -1177.017 6        37.977 6
G20  21920728.270 9 115194171.671 9      2544.367 9        55.325 9  21920728.578 6         0.000 6      1982.625 6        37.977 6
> 2019 07 03 12 01 48.0000000  0  8       0.000000000000
G07  25327034.100 9 133094416.581 9      2164.083 9        54.138 9  25327034.759 6         0.000 6      1686.300 6        37.977 6
G10  23776830.483 9 124948033.357 9      3522.594 9        54.681 9  23776834.178 6         0.000 6      2744.881 6        37.977 6
G21  21182466.742 9 111314593.332 9     -1268.574 9        55.704 9  21182466.030 6         0.000 6      -988.499 6        37.977 6
G29  24328455.235 9 127846838.269 9     -3124.196 9        54.465 9  24328456.840 6         0.000 6     -2434.441 6        37.977 6
G27  21981770.821 9 115514958.454 9      2487.892 9        55.383 9  21981772.745 6         0.000 6      1938.618 6        37.977 6
G16  20492271.156 9 107687591.444 9       526.969 9        55.979 9  20492270.329 6         0.000 6       410.625 6        37.977 6
G26  20668371.450 9 108613002.683 9     -1511.078 9        55.867 9  20668374.272 6         0.000 6     -1177.464 6        37.977 6
G20  21920244.135 9 115191627.528 9      2543.919 9        55.325 9  21920244.443 6         0.000 6      1982.276 6        37.977 6
> 2019 07 03 12 01 49.0000000  0  8       0.000000000000
G07  25326622.333 9 133092252.735 9      2163.620 9        54.139 9  25326622.992 6         0.000 6      1685.939 6        37.977 6
G10  23776160.168 9 124944510.843 9      3522.451 9        54.682 9  23776163.863 6         0.000 6      2744.770 6        37.977 6
G21  21182708.177 9 111315862.082 9     -1268.932 9        55.704 9  21182707.465 6         0.000 6      -988.778 6        37.977 6
G29  24329049.757 9 127849962.492 9     -3124.281 9        54.464 9  24329051.362 6         0.000 6     -2434.507 6        37.977 6
G27  21981297.414 9 115512470.688 9      2487.653 9        55.383 9  21981299.339 6         0.000 6      1938.432 6        37.977 6
G16  20492170.937 9 107687064.786 9       526.351 9        55.979 9  20492170.110 6         0.000 6       410.143 6        37.977 6
G26  20668659.053 9 108614514.045 9     -1511.651 9        55.867 9  20668661.875 6         0.000 6     -1177.910 6        37.977 6
G20  21919760.085 9 115189083.834 9      2543.472 9        55.325 9  21919760.393 6         0.000 6      1981.927 6        37.977 6
> 2019 07 03 12 01 50.0000000  0  8       0.000000000000
G07  25326210.654 9 133090089.353 9      2163.157 9        54.139 9  25326211.313 6         0.000 6      1685.578 6        37.977 6
G10  23775489.881 9 124940988.468 9      3522.309 9        54.682 9  23775493.575 6         0.000 6      2744.659 6        37.977 6
G21  21182949.681 9 111317131.190 9     -1269.290 9        55.704 9  21182948.969 6         0.000 6      -989.057 6        37.977 6
G29  24329644.295 9 127853086.805 9     -3124.365 9        54.464 9  24329645.902 6         0.000 6     -2434.573 6        37.977 6
G27  21980824.052 9 115509983.155 9      2487.414 9        55.384 9  21980825.976 6         0.000 6      1938.246 6        37.977 6
G16  20492070.833 9 107686538.741 9       525.733 9        55.979 9  20492070.007 6         0.000 6       409.662 6        37.977 6
G26  20668946.764 9 108616025.975 9     -1512.224 9        55.867 9  20668949.586 6         0.000 6     -1178.357 6        37.977 6
G20  21919276.120 9 115186540.587 9      2543.024 9        55.325 9  21919276.428 6         0.000 6      1981.578 6        37.977 6
> 2019 07 03 12 01 51.0000000  0  8       0.000000000000
G07  25325799.063 9 133087926.430 9      2162.694 9        54.139 9  25325799.722 6         0.000 6      1685.217 6        37.977 6
G10  23774819.621 9 124937466.241 9      3522.166 9        54.682 9  23774823.314 6         0.000 6      2744.548 6        37.977 6
G21  21183191.253 9 111318400.658 9     -1269.648 9        55.704 9  21183190.541 6         0.000 6      -989.336 6        37.977 6
G29  24330238.850 9 127856211.202 9     -3124.450 9        54.464 9  24330240.457 6         0.000 6     -2434.639 6        37.977 6
G27  21980350.735 9 115507495.862 9      2487.176 9        55.384 9  21980352.659 6         0.000 6      1938.060 6        37.977 6
G16  20491970.849 9 107686013.318 9       525.115 9        55.979 9  20491970.022 6         0.000 6       409.180 6        37.977 6
G26  20669234.586 9 108617538.484 9     -1512.797 9        55.867 9  20669237.408 6         0.000 6     -1178.803 6        37.977 6
G20  21918792.242 9 115183997.791 9      2542.576 9        55.325 9  21918792.549 6         0.000 6      1981.229 6        37.977 6
> 2019 07 03 12 01 52.0000000  0  8       0.000000000000
G07  25325387.560 9 133085763.971 9      2162.231 9        54.139 9  25325388.219 6         0.000 6      1684.856 6        37.977 6
G10  23774149.389 9 124933944.157 9      3522.024 9        54.682 9  23774153.081 6         0.000 6      2744.437 6        37.977 6
G21  21183432.893 9 111319670.485 9     -1270.006 9        55.704 9  21183432.181 6         0.000 6      -989.615 6        37.977 6
G29  24330833.421 9 127859335.683 9     -3124.534 9        54.464 9  24330835.029 6         0.000 6     -2434.704 6        37.977 6
G27  21979877.464 9 115505008.809 9      2486.937 9        55.384 9  21979879.388 6         0.000 6      1937.874 6        37.977 6
G16  20491870.982 9 107685488.512 9       524.497 9        55.979 9  20491870.155 6         0.000 6       408.699 6        37.977 6
G26  20669522.516 9 108619051.566 9     -1513.370 9        55.867 9  20669525.338 6         0.000 6     -1179.250 6        37.977 6
G20  21918308.448 9 115181455.444 9      2542.128 9        55.326 9  21918308.755 6         0.000 6      1980.880 6        37.977 6
> 2019 07 03 12 01 53.0000000  0  8       0.000000000000
G07  25324976.146 9 133083601.978 9      2161.768 9        54.139 9  25324976.804 6         0.000 6      1684.495 6        37.977 6
G10  23773479.183 9 124930422.210 9      3521.881 9        54.682 9  23773482.875 6         0.000 6      2744.326 6        37.977 6
G21  21183674.600 9 111320940.666 9     -1270.364 9        55.704 9  21183673.888 6         0.000 6      -989.894 6        37.977 6
G29  24331428.008 9 127862460.249 9     -3124.618 9        54.464 9  24331429.617 6         0.000 6     -2434.770 6        37.977 6
G27  21979404.238 9 115502521.992 9      2486.698 9        55.384 9  21979406.162 6         0.000 6      1937.688 6        37.977 6
G16  20491771.231 9 107684964.321 9       523.878 9        55.979 9  20491770.404 6         0.000 6       408.217 6        37.977 6
G26  20669810.554 9 108620565.215 9     -1513.943 9        55.867 9  20669813.376 6         0.000 6     -1179.696 6        37.977 6
G20  21917824.739 9 115178913.541 9      2541.679 9        55.326 9  21917825.046 6         0.000 6      1980.531 6        37.977 6
> 2019 07 03 12 01 54.0000000  0  8       0.000000000000
G07  25324564.819 9 133081440.445 9      2161.304 9        54.139 9  25324565.477 6         0.000 6      1684.134 6        37.977 6
G10  23772809.005 9 124926900.411 9      3521.738 9        54.683 9  23772812.696 6         0.000 6      2744.214 6        37.977 6
G21  21183916.377 9 111322211.209 9     -1270.722 9        55.704 9  21183915.665 6         0.000 6      -990.173 6        37.977 6
G29  24332022.612 9 127865584.899 9     -3124.703 9        54.463 9  24332024.220 6         0.000 6     -2434.836 6        37.977 6
G27  21978931.058 9 115500035.416 9      2486.459 9        55.384 9  21978932.982 6         0.000 6      1937.501 6        37.977 6
G16  20491671.599 9 107684440.752 9       523.260 9        55.979 9  20491670.773 6         0.000 6       407.735 6        37.977 6
G26  20670098.702 9 108622079.443 9     -1514.516 9        55.867 9  20670101.525 6         0.000 6     -1180.143 6        37.977 6
G20  21917341.117 9 115176372.090 9      2541.231 9        55.326 9  21917341.423 6         0.000 6      1980.181 6        37.977 6
> 2019 07 03 12 01 55.0000000  0  8       0.000000000000
G07  25324153.581 9 133079279.379 9      2160.841 9        54.139 9  25324154.239 6         0.000 6      1683.773 6        37.977 6
G10  23772138.853 9 124923378.750 9      3521.595 9        54.683 9  23772142.543 6         0.000 6      2744.103 6        37.977 6
G21  21184158.220 9 111323482.106 9     -1271.080 9        55.704 9  21184157.509 6         0.000 6      -990.452 6        37.977 6
G29  24332617.231 9 127868709.634 9     -3124.787 9        54.463 9  24332618.840 6         0.000 6     -2434.902 6        37.977 6
G27  21978457.923 9 115497549.077 9      2486.220 9        55.385 9  21978459.846 6         0.000 6      1937.315 6        37.977 6
G16  20491572.084 9 107683917.798 9       522.642 9        55.979 9  20491571.258 6         0.000 6       407.254 6        37.977 6
G26  20670386.959 9 108623594.239 9     -1515.089 9        55.866 9  20670389.781 6         0.000 6     -1180.589 6        37.977 6
G20  21916857.578 9 115173831.083 9      2540.783 9        55.326 9  21916857.884 6         0.000 6      1979.832 6        37.977 6
> 2019 07 03 12 01 56.0000000  0  8       0.000000000000
G07  25323742.431 9 133077118.773 9      2160.378 9        54.139 9  25323743.089 6         0.000 6      1683.412 6        37.977 6
G10  23771468.729 9 124919857.237 9      3521.452 9        54.683 9  23771472.419 6         0.000 6      2743.992 6        37.977 6
G21  21184400.133 9 111324753.364 9     -1271.437 9        55.704 9  21184399.421 6         0.000 6      -990.731 6        37.977 6
G29  24333211.866 9 127871834.453 9     -3124.871 9        54.463 9  24333213.476 6         0.000 6     -2434.967 6        37.977 6
G27  21977984.833 9 115495062.979 9      2485.982 9        55.385 9  21977986.757 6         0.000 6      1937.129 6        37.977 6
G16  20491472.688 9 107683395.465 9       522.024 9        55.979 9  20491471.861 6         0.000 6       406.772 6        37.977 6
G26  20670675.325 9 108625109.612 9     -1515.662 9        55.866 9  20670678.148 6         0.000 6     -1181.036 6        37.977 6
G20  21916374.126 9 115171290.529 9      2540.334 9        55.326 9  21916374.432 6         0.000 6      1979.482 6        37.977 6
> 2019 07 03 12 01 57.0000000  0  8       0.000000000000
G07  25323331.370 9 133074958.636 9      2159.914 9        54.140 9  25323332.027 6         0.000 6      1683.051 6        37.977 6
G10  23770798.631 9 124916335.860 9      3521.309 9        54.683 9  23770802.321 6         0.000 6      2743.880 6        37.977 6
G21  21184642.113 9 111326024.975 9     -1271.795 9        55.704 9  21184641.401 6         0.000 6      -991.009 6        37.977 6
G29  24333806.516 9 127874959.351 9     -3124.956 9        54.463 9  24333808.127 6         0.000 6     -2435.033 6        37.977 6
G27  21977511.790 9 115492577.121 9      2485.743 9        55.385 9  21977513.713 6         0.000 6      1936.943 6        37.977 6
G16  20491373.408 9 107682873.748 9       521.406 9        55.979 9  20491372.582 6         0.000 6       406.290 6        37.977 6
G26  20670963.799 9 108626625.553 9     -1516.234 9        55.866 9  20670966.622 6         0.000 6     -1181.482 6        37.977 6
G20  21915890.758 9 115168750.416 9      2539.886 9        55.327 9  21915891.063 6         0.000 6      1979.133 6        37.977 6
> 2019 07 03 12 01 58.0000000  0  8       0.000000000000
G07  25322920.396 9 133072798.957 9      2159.450 9        54.140 9  25322921.053 6         0.000 6      1682.689 6        37.977 6
G10  23770128.562 9 124912814.632 9      3521.166 9        54.684 9  23770132.251 6         0.000 6      2743.768 6        37.977 6
G21  21184884.161 9 111327296.948 9     -1272.153 9        55.703 9  21184883.449 6         0.000 6      -991.288 6        37.977 6
G29  24334401.184 9 127878084.338 9     -3125.040 9        54.463 9  24334402.795 6         0.000 6     -2435.099 6        37.977 6
G27  21977038.792 9 115490091.501 9      2485.504 9        55.385 9  21977040.715 6         0.000 6      1936.757 6        37.977 6
G16  20491274.247 9 107682352.652 9       520.787 9        55.979 9  20491273.420 6         0.000 6       405.808 6        37.977 6
G26  20671252.384 9 108628142.072 9     -1516.807 9        55.866 9  20671255.207 6         0.000 6     -1181.928 6        37.977 6
G20  21915407.476 9 115166210.760 9      2539.437 9        55.327 9  21915407.781 6         0.000 6      1978.783 6        37.977 6
> 2019 07 03 12 01 59.0000000  0  8       0.000000000000
G07  25322509.511 9 133070639.745 9      2158.987 9        54.140 9  25322510.168 6         0.000 6      1682.328 6        37.977 6
G10  23769458.519 9 124909293.544 9      3521.023 9        54.684 9  23769462.207 6         0.000 6      2743.657 6        37.977 6
G21  21185126.277 9 111328569.276 9     -1272.510 9        55.703 9  21185125.566 6         0.000 6      -991.566 6        37.977 6
G29  24334995.867 9 127881209.409 9     -3125.124 9        54.462 9  24334997.479 6         0.000 6     -2435.164 6        37.977 6
G27  21976565.838 9 115487606.117 9      2485.265 9        55.385 9  21976567.761 6         0.000 6      1936.570 6        37.977 6
G16  20491175.203 9 107681832.170 9       520.169 9        55.979 9  20491174.376 6         0.000 6       405.326 6        37.977 6
G26  20671541.076 9 108629659.159 9     -1517.380 9        55.866 9  20671543.899 6         0.000 6     -1182.375 6        37.977 6
G20  21914924.279 9 115163671.547 9      2538.988 9        55.327 9  21914924.584 6         0.000 6      1978.434 6        37.977 6
> 2019 07 03 12 02  0.0000000  0  8       0.000000000000
G07  25322098.714 9 133068480.995 9      2158.523 9        54.140 9  25322099.371 6         0.000 6      1681.967 6        37.977 6
G10  23768788.504 9 124905772.602 9      3520.879 9        54.684 9  23768792.192 6         0.000 6      2743.545 6        37.977 6
G21  21185368.462 9 111329841.963 9     -1272.868 9        55.703 9  21185367.750 6         0.000 6      -991.845 6        37.977 6
G29  24335590.566 9 127884334.564 9     -3125.208 9        54.462 9  24335592.178 6         0.000 6     -2435.230 6        37.977 6
G27  21976092.931 9 115485120.976 9      2485.025 9        55.386 9  21976094.854 6         0.000 6      1936.384 6        37.977 6
G16  20491076.277 9 107681312.311 9       519.550 9        55.979 9  20491075.450 6         0.000 6       404.845 6        37.977 6
G26  20671829.878 9 108631176.823 9     -1517.953 9        55.866 9  20671832.701 6         0.000 6     -1182.821 6        37.977 6
G20  21914441.168 9 115161132.786 9      2538.539 9        55.327 9  21914441.473 6         0.000 6      1978.084 6        37.977 6
