     3.00           Observation Data    M (Mixed)           RINEX VERSION / TYPE
SimGEN V6.06.00     Spirent             03-Jul-19 12:00     PGM / RUN BY / DATE 
                                                            MARKER NAME         
1                                                           MARKER NUMBER       
GROUND_CRAFT                                                MARKER TYPE         
jin4hi              Spirent                                 OBSERVER / AGENCY   
rec_num             rec_type            rec_vers            REC # / TYPE / VERS 
1                   ant_type                                ANT # / TYPE        
  1000.000                                                  INTERVAL            
  2019     7     3    12     0    1.0000000     GPS         TIME OF FIRST OBS   
  4162645.5330   664398.0460  4770556.5840                  APPROX POSITION XYZ 
        0.0000        0.0000        0.0000                  ANTENNA: DELTA H/E/N
G    8 C1C L1C D1C S1C C2C L2C D2C S2C                      SYS / # / OBS TYPES 
        0.0000        0.0000        0.0000                  ANTENNA: DELTA X/Y/Z
DBHZ                                                        SIGNAL STRENGTH UNIT
                                                            END OF HEADER       
> 2019 07 03 12 00  1.0000000  0  8       0.000000000000
G07  25371564.247 9 133328423.697 9      2213.139 9        54.123 9  25371564.930 6         0.000 6      1724.524 6        37.977 6
G10  23848732.893 9 125325881.932 9      3537.187 9        54.655 9  23848736.658 6         0.000 6      2756.249 6        37.977 6
G21  21157047.275 9 111181013.209 9     -1229.951 9        55.715 9  21157046.559 6         0.000 6      -958.404 6        37.977 6
G29  24264993.524 9 127513345.819 9     -3115.012 9        54.487 9  24264995.062 6         0.000 6     -2427.282 6        37.977 6
G27  22032638.832 9 115782271.370 9      2513.180 9        55.363 9  22032640.775 6         0.000 6      1958.322 6        37.977 6
G16  20503650.353 9 107747389.526 9       592.840 9        55.974 9  20503649.527 6         0.000 6       461.953 6        37.977 6
G26  20638227.440 9 108454595.026 9     -1449.570 9        55.880 9  20638230.250 6         0.000 6     -1129.535 6        37.977 6
G20  21972560.734 9 115466552.626 9      2591.285 9        55.304 9  21972561.071 6         0.000 6      2019.183 6        37.977 6
> 2019 07 03 12 00  2.0000000  0  8       0.000000000000
G07  25371143.133 9 133326210.734 9      2212.740 9        54.123 9  25371143.816 6         0.000 6      1724.214 6        37.977 6
G10  23848059.797 9 125322344.802 9      3537.075 9        54.655 9  23848063.562 6         0.000 6      2756.165 6        37.977 6
G21  21157281.362 9 111182243.342 9     -1230.316 9        55.715 9  21157280.645 6         0.000 6      -958.688 6        37.977 6
G29  24265586.305 9 127516460.891 9     -3115.125 9        54.487 9  24265587.843 6         0.000 6     -2427.373 6        37.977 6
G27  22032160.612 9 115779758.305 9      2512.950 9        55.363 9  22032162.554 6         0.000 6      1958.144 6        37.977 6
G16  20503537.598 9 107746796.992 9       592.227 9        55.974 9  20503536.771 6         0.000 6       461.476 6        37.977 6
G26  20638503.339 9 108456044.885 9     -1450.148 9        55.880 9  20638506.149 6         0.000 6     -1129.986 6        37.977 6
G20  21972067.669 9 115463961.559 9      2590.853 9        55.305 9  21972068.007 6         0.000 6      2018.847 6        37.977 6
> 2019 07 03 12 00  3.0000000  0  8       0.000000000000
G07  25370722.106 9 133323998.228 9      2212.285 9        54.123 9  25370722.789 6         0.000 6      1723.860 6        37.977 6
G10  23847386.726 9 125318807.800 9      3536.944 9        54.656 9  23847390.490 6         0.000 6      2756.063 6        37.977 6
G21  21157515.518 9 111183473.838 9     -1230.680 9        55.715 9  21157514.801 6         0.000 6      -958.972 6        37.977 6
G29  24266179.101 9 127519576.050 9     -3115.212 9        54.487 9  24266180.640 6         0.000 6     -2427.441 6        37.977 6
G27  22031682.435 9 115777245.473 9      2512.715 9        55.364 9  22031684.377 6         0.000 6      1957.961 6        37.977 6
G16  20503424.959 9 107746205.069 9       591.613 9        55.974 9  20503424.132 6         0.000 6       460.997 6        37.977 6
G26  20638779.347 9 108457495.315 9     -1450.725 9        55.880 9  20638782.157 6         0.000 6     -1130.436 6        37.977 6
G20  21971574.687 9 115461370.926 9      2590.415 9        55.305 9  21971575.024 6         0.000 6      2018.506 6        37.977 6
> 2019 07 03 12 00  4.0000000  0  8       0.000000000000
G07  25370301.166 9 133321786.174 9      2211.830 9        54.124 9  25370301.848 6         0.000 6      1723.505 6        37.977 6
G10  23846713.681 9 125315270.932 9      3536.812 9        54.656 9  23846717.444 6         0.000 6      2755.960 6        37.977 6
G21  21157749.743 9 111184704.699 9     -1231.044 9        55.715 9  21157749.026 6         0.000 6      -959.256 6        37.977 6
G29  24266771.915 9 127522691.295 9     -3115.299 9        54.487 9  24266773.455 6         0.000 6     -2427.508 6        37.977 6
G27  22031204.303 9 115774732.878 9      2512.481 9        55.364 9  22031206.246 6         0.000 6      1957.778 6        37.977 6
G16  20503312.437 9 107745613.762 9       590.999 9        55.974 9  20503311.610 6         0.000 6       460.519 6        37.977 6
G26  20639055.466 9 108458946.327 9     -1451.302 9        55.880 9  20639058.276 6         0.000 6     -1130.885 6        37.977 6
G20  21971081.789 9 115458780.735 9      2589.977 9        55.305 9  21971082.126 6         0.000 6      2018.165 6        37.977 6
> 2019 07 03 12 00  5.0000000  0  8       0.000000000000
G07  25369880.313 9 133319574.580 9      2211.376 9        54.124 9  25369880.995 6         0.000 6      1723.151 6        37.977 6
G10  23846040.659 9 125311734.190 9      3536.681 9        54.656 9  23846044.422 6         0.000 6      2755.858 6        37.977 6
G21  21157984.037 9 111185935.921 9     -1231.408 9        55.715 9  21157983.320 6         0.000 6      -959.539 6        37.977 6
G29  24267364.744 9 127525806.623 9     -3115.386 9        54.486 9  24267366.284 6         0.000 6     -2427.576 6        37.977 6
G27  22030726.217 9 115772220.519 9      2512.246 9        55.364 9  22030728.159 6         0.000 6      1957.595 6        37.977 6
G16  20503200.031 9 107745023.068 9       590.386 9        55.974 9  20503199.205 6         0.000 6       460.041 6        37.977 6
G26  20639331.693 9 108460397.910 9     -1451.879 9        55.879 9  20639334.504 6         0.000 6     -1131.334 6        37.977 6
G20  21970588.973 9 115456190.974 9      2589.539 9        55.305 9  21970589.310 6         0.000 6      2017.824 6        37.977 6
> 2019 07 03 12 00  6.0000000  0  8       0.000000000000
G07  25369459.545 9 133317363.435 9      2210.920 9        54.124 9  25369460.227 6         0.000 6      1722.796 6        37.977 6
G10  23845367.663 9 125308197.586 9      3536.549 9        54.656 9  23845371.425 6         0.000 6      2755.756 6        37.977 6
G21  21158218.401 9 111187167.510 9     -1231.772 9        55.714 9  21158217.684 6         0.000 6      -959.823 6        37.977 6
G29  24267957.590 9 127528922.042 9     -3115.473 9        54.486 9  24267959.131 6         0.000 6     -2427.644 6        37.977 6
G27  22030248.175 9 115769708.394 9      2512.011 9        55.364 9  22030250.117 6         0.000 6      1957.412 6        37.977 6
G16  20503087.743 9 107744432.989 9       589.772 9        55.974 9  20503086.916 6         0.000 6       459.562 6        37.977 6
G26  20639608.031 9 108461850.075 9     -1452.455 9        55.879 9  20639610.842 6         0.000 6     -1131.784 6        37.977 6
G20  21970096.242 9 115453601.658 9      2589.101 9        55.305 9  21970096.578 6         0.000 6      2017.482 6        37.977 6
> 2019 07 03 12 00  7.0000000  0  8       0.000000000000
G07  25369038.865 9 133315152.749 9      2210.465 9        54.124 9  25369039.547 6         0.000 6      1722.442 6        37.977 6
G10  23844694.692 9 125304661.108 9      3536.418 9        54.657 9  23844698.453 6         0.000 6      2755.653 6        37.977 6
G21  21158452.833 9 111188399.461 9     -1232.136 9        55.714 9  21158452.117 6         0.000 6      -960.106 6        37.977 6
G29  24268550.453 9 127532037.548 9     -3115.559 9        54.486 9  24268551.995 6         0.000 6     -2427.711 6        37.977 6
G27  22029770.177 9 115767196.501 9      2511.776 9        55.364 9  22029772.119 6         0.000 6      1957.229 6        37.977 6
G16  20502975.571 9 107743843.522 9       589.158 9        55.974 9  20502974.744 6         0.000 6       459.084 6        37.977 6
G26  20639884.478 9 108463302.812 9     -1453.032 9        55.879 9  20639887.289 6         0.000 6     -1132.233 6        37.977 6
G20  21969603.593 9 115451012.777 9      2588.663 9        55.306 9  21969603.930 6         0.000 6      2017.141 6        37.977 6
> 2019 07 03 12 00  8.0000000  0  8       0.000000000000
G07  25368618.271 9 133312942.515 9      2210.010 9        54.124 9  25368618.952 6         0.000 6      1722.087 6        37.977 6
G10  23844021.747 9 125301124.767 9      3536.286 9        54.657 9  23844025.507 6         0.000 6      2755.550 6        37.977 6
G21  21158687.336 9 111189631.779 9     -1232.500 9        55.714 9  21158686.619 6         0.000 6      -960.390 6        37.977 6
G29  24269143.333 9 127535153.141 9     -3115.646 9        54.486 9  24269144.875 6         0.000 6     -2427.779 6        37.977 6
G27  22029292.224 9 115764684.845 9      2511.541 9        55.365 9  22029294.166 6         0.000 6      1957.046 6        37.977 6
G16  20502863.517 9 107743254.671 9       588.544 9        55.974 9  20502862.690 6         0.000 6       458.606 6        37.977 6
G26  20640161.036 9 108464756.131 9     -1453.608 9        55.879 9  20640163.847 6         0.000 6     -1132.682 6        37.977 6
G20  21969111.029 9 115448424.338 9      2588.224 9        55.306 9  21969111.365 6         0.000 6      2016.799 6        37.977 6
> 2019 07 03 12 00  9.0000000  0  8       0.000000000000
G07  25368197.763 9 133310732.736 9      2209.555 9        54.124 9  25368198.444 6         0.000 6      1721.732 6        37.977 6
G10  23843348.826 9 125297588.558 9      3536.154 9        54.657 9  23843352.586 6         0.000 6      2755.448 6        37.977 6
G21  21158921.907 9 111190864.460 9     -1232.864 9        55.714 9  21158921.191 6         0.000 6      -960.673 6        37.977 6
G29  24269736.229 9 127538268.820 9     -3115.733 9        54.486 9  24269737.772 6         0.000 6     -2427.846 6        37.977 6
G27  22028814.316 9 115762173.424 9      2511.306 9        55.365 9  22028816.258 6         0.000 6      1956.863 6        37.977 6
G16  20502751.579 9 107742666.434 9       587.930 9        55.974 9  20502750.752 6         0.000 6       458.127 6        37.977 6
G26  20640437.703 9 108466210.026 9     -1454.185 9        55.879 9  20640440.514 6         0.000 6     -1133.132 6        37.977 6
G20  21968618.548 9 115445836.337 9      2587.786 9        55.306 9  21968618.883 6         0.000 6      2016.458 6        37.977 6
> 2019 07 03 12 00 10.0000000  0  8       0.000000000000
G07  25367777.342 9 133308523.415 9      2209.100 9        54.124 9  25367778.024 6         0.000 6      1721.377 6        37.977 6
G10  23842675.930 9 125294052.475 9      3536.023 9        54.657 9  23842679.690 6         0.000 6      2755.345 6        37.977 6
G21  21159156.547 9 111192097.502 9     -1233.227 9        55.714 9  21159155.831 6         0.000 6      -960.956 6        37.977 6
G29  24270329.141 9 127541384.586 9     -3115.820 9        54.485 9  24270330.685 6         0.000 6     -2427.914 6        37.977 6
G27  22028336.452 9 115759662.235 9      2511.072 9        55.365 9  22028338.394 6         0.000 6      1956.680 6        37.977 6
G16  20502639.757 9 107742078.808 9       587.316 9        55.974 9  20502638.931 6         0.000 6       457.649 6        37.977 6
G26  20640714.479 9 108467664.492 9     -1454.762 9        55.879 9  20640717.290 6         0.000 6     -1133.581 6        37.977 6
G20  21968126.150 9 115443248.771 9      2587.348 9        55.306 9  21968126.485 6         0.000 6      2016.116 6        37.977 6
> 2019 07 03 12 00 11.0000000  0  8       0.000000000000
G07  25367357.008 9 133306314.546 9      2208.644 9        54.125 9  25367357.689 6         0.000 6      1721.022 6        37.977 6
G10  23842003.060 9 125290516.530 9      3535.891 9        54.657 9  23842006.819 6         0.000 6      2755.242 6        37.977 6
G21  21159391.257 9 111193330.911 9     -1233.591 9        55.714 9  21159390.541 6         0.000 6      -961.240 6        37.977 6
G29  24270922.070 9 127544500.439 9     -3115.906 9        54.485 9  24270923.614 6         0.000 6     -2427.982 6        37.977 6
G27  22027858.634 9 115757151.284 9      2510.837 9        55.365 9  22027860.575 6         0.000 6      1956.497 6        37.977 6
G16  20502528.053 9 107741491.799 9       586.702 9        55.974 9  20502527.227 6         0.000 6       457.170 6        37.977 6
G26  20640991.366 9 108469119.540 9     -1455.338 9        55.879 9  20640994.177 6         0.000 6     -1134.030 6        37.977 6
G20  21967633.835 9 115440661.647 9      2586.909 9        55.306 9  21967634.170 6         0.000 6      2015.775 6        37.977 6
> 2019 07 03 12 00 12.0000000  0  8       0.000000000000
G07  25366936.761 9 133304106.136 9      2208.189 9        54.125 9  25366937.442 6         0.000 6      1720.668 6        37.977 6
G10  23841330.214 9 125286980.711 9      3535.759 9        54.658 9  23841333.972 6         0.000 6      2755.139 6        37.977 6
G21  21159626.036 9 111194564.680 9     -1233.954 9        55.714 9  21159625.320 6         0.000 6      -961.523 6        37.977 6
G29  24271515.016 9 127547616.379 9     -3115.993 9        54.485 9  24271516.561 6         0.000 6     -2428.049 6        37.977 6
G27  22027380.859 9 115754640.566 9      2510.602 9        55.365 9  22027382.800 6         0.000 6      1956.314 6        37.977 6
G16  20502416.466 9 107740905.402 9       586.088 9        55.974 9  20502415.639 6         0.000 6       456.692 6        37.977 6
G26  20641268.362 9 108470575.160 9     -1455.914 9        55.879 9  20641271.173 6         0.000 6     -1134.479 6        37.977 6
G20  21967141.604 9 115438074.958 9      2586.471 9        55.306 9  21967141.939 6         0.000 6      2015.433 6        37.977 6
> 2019 07 03 12 00 13.0000000  0  8       0.000000000000
G07  25366516.600 9 133301898.181 9      2207.733 9        54.125 9  25366517.281 6         0.000 6      1720.313 6        37.977 6
G10  23840657.394 9 125283445.028 9      3535.626 9        54.658 9  23840661.151 6         0.000 6      2755.036 6        37.977 6
G21  21159860.884 9 111195798.813 9     -1234.318 9        55.714 9  21159860.168 6         0.000 6      -961.806 6        37.977 6
G29  24272107.977 9 127550732.400 9     -3116.080 9        54.485 9  24272109.522 6         0.000 6     -2428.117 6        37.977 6
G27  22026903.131 9 115752130.088 9      2510.366 9        55.365 9  22026905.072 6         0.000 6      1956.130 6        37.977 6
G16  20502304.995 9 107740319.623 9       585.473 9        55.974 9  20502304.169 6         0.000 6       456.213 6        37.977 6
G26  20641545.468 9 108472031.361 9     -1456.491 9        55.878 9  20641548.279 6         0.000 6     -1134.928 6        37.977 6
G20  21966649.456 9 115435488.708 9      2586.032 9        55.307 9  21966649.790 6         0.000 6      2015.091 6        37.977 6
> 2019 07 03 12 00 14.0000000  0  8       0.000000000000
G07  25366096.527 9 133299690.682 9      2207.278 9        54.125 9  25366097.207 6         0.000 6      1719.958 6        37.977 6
G10  23839984.598 9 125279909.474 9      3535.494 9        54.658 9  23839988.355 6         0.000 6      2754.933 6        37.977 6
G21  21160095.801 9 111197033.310 9     -1234.681 9        55.714 9  21160095.085 6         0.000 6      -962.090 6        37.977 6
G29  24272700.955 9 127553848.513 9     -3116.166 9        54.485 9  24272702.501 6         0.000 6     -2428.184 6        37.977 6
G27  22026425.446 9 115749619.840 9      2510.131 9        55.366 9  22026427.387 6         0.000 6      1955.947 6        37.977 6
G16  20502193.641 9 107739734.453 9       584.859 9        55.974 9  20502192.815 6         0.000 6       455.734 6        37.977 6
G26  20641822.683 9 108473488.134 9     -1457.067 9        55.878 9  20641825.494 6         0.000 6     -1135.378 6        37.977 6
G20  21966157.392 9 115432902.896 9      2585.593 9        55.307 9  21966157.726 6         0.000 6      2014.749 6        37.977 6
> 2019 07 03 12 00 15.0000000  0  8       0.000000000000
G07  25365676.539 9 133297483.636 9      2206.822 9        54.125 9  25365677.219 6         0.000 6      1719.603 6        37.977 6
G10  23839311.829 9 125276374.057 9      3535.362 9        54.658 9  23839315.585 6         0.000 6      2754.830 6        37.977 6
G21  21160330.788 9 111198268.172 9     -1235.045 9        55.714 9  21160330.071 6         0.000 6      -962.373 6        37.977 6
G29  24273293.950 9 127556964.713 9     -3116.253 9        54.484 9  24273295.497 6         0.000 6     -2428.252 6        37.977 6
G27  22025947.806 9 115747109.829 9      2509.896 9        55.366 9  22025949.747 6         0.000 6      1955.764 6        37.977 6
G16  20502082.405 9 107739149.902 9       584.245 9        55.975 9  20502081.578 6         0.000 6       455.256 6        37.977 6
G26  20642100.008 9 108474945.487 9     -1457.644 9        55.878 9  20642102.820 6         0.000 6     -1135.827 6        37.977 6
G20  21965665.411 9 115430317.527 9      2585.154 9        55.307 9  21965665.745 6         0.000 6      2014.407 6        37.977 6
> 2019 07 03 12 00 16.0000000  0  8       0.000000000000
G07  25365256.638 9 133295277.048 9      2206.366 9        54.125 9  25365257.318 6         0.000 6      1719.247 6        37.977 6
G10  23838639.084 9 125272838.768 9      3535.229 9        54.659 9  23838642.839 6         0.000 6      2754.727 6        37.977 6
G21  21160565.843 9 111199503.396 9     -1235.408 9        55.713 9  21160565.127 6         0.000 6      -962.656 6        37.977 6
G29  24273886.962 9 127560080.999 9     -3116.340 9        54.484 9  24273888.509 6         0.000 6     -2428.319 6        37.977 6
G27  22025470.211 9 115744600.051 9      2509.661 9        55.366 9  22025472.151 6         0.000 6      1955.581 6        37.977 6
G16  20501971.285 9 107738565.961 9       583.631 9        55.975 9  20501970.458 6         0.000 6       454.777 6        37.977 6
G26  20642377.442 9 108476403.413 9     -1458.220 9        55.878 9  20642380.254 6         0.000 6     -1136.276 6        37.977 6
G20  21965173.514 9 115427732.593 9      2584.715 9        55.307 9  21965173.847 6         0.000 6      2014.065 6        37.977 6
> 2019 07 03 12 00 17.0000000  0  8       0.000000000000
G07  25364836.824 9 133293070.913 9      2205.910 9        54.125 9  25364837.504 6         0.000 6      1718.892 6        37.977 6
G10  23837966.365 9 125269303.616 9      3535.096 9        54.659 9  23837970.119 6         0.000 6      2754.623 6        37.977 6
G21  21160800.968 9 111200738.985 9     -1235.771 9        55.713 9  21160800.252 6         0.000 6      -962.939 6        37.977 6
G29  24274479.990 9 127563197.372 9     -3116.426 9        54.484 9  24274481.538 6         0.000 6     -2428.387 6        37.977 6
G27  22024992.661 9 115742090.511 9      2509.426 9        55.366 9  22024994.601 6         0.000 6      1955.397 6        37.977 6
G16  20501860.282 9 107737982.637 9       583.016 9        55.975 9  20501859.455 6         0.000 6       454.298 6        37.977 6
G26  20642654.987 9 108477861.919 9     -1458.796 9        55.878 9  20642657.799 6         0.000 6     -1136.725 6        37.977 6
G20  21964681.701 9 115425148.102 9      2584.276 9        55.307 9  21964682.034 6         0.000 6      2013.723 6        37.977 6
> 2019 07 03 12 00 18.0000000  0  8       0.000000000000
G07  25364417.097 9 133290865.234 9      2205.455 9        54.126 9  25364417.776 6         0.000 6      1718.537 6        37.977 6
G10  23837293.671 9 125265768.596 9      3534.964 9        54.659 9  23837297.425 6         0.000 6      2754.520 6        37.977 6
G21  21161036.162 9 111201974.937 9     -1236.135 9        55.713 9  21161035.446 6         0.000 6      -963.222 6        37.977 6
G29  24275073.034 9 127566313.831 9     -3116.513 9        54.484 9  24275074.583 6         0.000 6     -2428.454 6        37.977 6
G27  22024515.155 9 115739581.205 9      2509.191 9        55.366 9  22024517.095 6         0.000 6      1955.214 6        37.977 6
G16  20501749.396 9 107737399.928 9       582.402 9        55.975 9  20501748.569 6         0.000 6       453.820 6        37.977 6
G26  20642932.642 9 108479321.002 9     -1459.373 9        55.878 9  20642935.454 6         0.000 6     -1137.174 6        37.977 6
G20  21964189.971 9 115422564.050 9      2583.837 9        55.308 9  21964190.304 6         0.000 6      2013.380 6        37.977 6
> 2019 07 03 12 00 19.0000000  0  8       0.000000000000
G07  25363997.457 9 133288660.014 9      2204.999 9        54.126 9  25363998.136 6         0.000 6      1718.182 6        37.977 6
G10  23836621.001 9 125262233.705 9      3534.831 9        54.659 9  23836624.755 6         0.000 6      2754.416 6        37.977 6
G21  21161271.425 9 111203211.250 9     -1236.498 9        55.713 9  21161270.709 6         0.000 6      -963.505 6        37.977 6
G29  24275666.095 9 127569430.377 9     -3116.599 9        54.483 9  24275667.644 6         0.000 6     -2428.521 6        37.977 6
G27  22024037.694 9 115737072.133 9      2508.955 9        55.367 9  22024039.634 6         0.000 6      1955.031 6        37.977 6
G16  20501638.627 9 107736817.831 9       581.787 9        55.975 9  20501637.800 6         0.000 6       453.341 6        37.977 6
G26  20643210.405 9 108480780.656 9     -1459.949 9        55.878 9  20643213.217 6         0.000 6     -1137.623 6        37.977 6
G20  21963698.324 9 115419980.434 9      2583.397 9        55.308 9  21963698.657 6         0.000 6      2013.038 6        37.977 6
> 2019 07 03 12 00 20.0000000  0  8       0.000000000000
G07  25363577.903 9 133286455.247 9      2204.542 9        54.126 9  25363578.582 6         0.000 6      1717.826 6        37.977 6
G10  23835948.358 9 125258698.952 9      3534.698 9        54.660 9  23835952.111 6         0.000 6      2754.313 6        37.977 6
G21  21161506.757 9 111204447.929 9     -1236.861 9        55.713 9  21161506.041 6         0.000 6      -963.788 6        37.977 6
G29  24276259.172 9 127572547.009 9     -3116.686 9        54.483 9  24276260.722 6         0.000 6     -2428.589 6        37.977 6
G27  22023560.278 9 115734563.298 9      2508.720 9        55.367 9  22023562.218 6         0.000 6      1954.848 6        37.977 6
G16  20501527.975 9 107736236.350 9       581.173 9        55.975 9  20501527.148 6         0.000 6       452.862 6        37.977 6
G26  20643488.279 9 108482240.891 9     -1460.525 9        55.878 9  20643491.091 6         0.000 6     -1138.072 6        37.977 6
G20  21963206.762 9 115417397.261 9      2582.958 9        55.308 9  21963207.094 6         0.000 6      2012.696 6        37.977 6
> 2019 07 03 12 00 21.0000000  0  8       0.000000000000
G07  25363158.437 9 133284250.942 9      2204.086 9        54.126 9  25363159.115 6         0.000 6      1717.471 6        37.977 6
G10  23835275.739 9 125255164.324 9      3534.565 9        54.660 9  23835279.491 6         0.000 6      2754.209 6        37.977 6
G21  21161742.157 9 111205684.966 9     -1237.224 9        55.713 9  21161741.441 6         0.000 6      -964.071 6        37.977 6
G29  24276852.265 9 127575663.723 9     -3116.772 9        54.483 9  24276853.816 6         0.000 6     -2428.656 6        37.977 6
G27  22023082.907 9 115732054.700 9      2508.485 9        55.367 9  22023084.847 6         0.000 6      1954.664 6        37.977 6
G16  20501417.439 9 107735655.483 9       580.558 9        55.975 9  20501416.612 6         0.000 6       452.383 6        37.977 6
G26  20643766.262 9 108483701.697 9     -1461.101 9        55.878 9  20643769.074 6         0.000 6     -1138.521 6        37.977 6
G20  21962715.282 9 115414814.520 9      2582.518 9        55.308 9  21962715.614 6         0.000 6      2012.353 6        37.977 6
> 2019 07 03 12 00 22.0000000  0  8       0.000000000000
G07  25362739.057 9 133282047.087 9      2203.630 9        54.126 9  25362739.735 6         0.000 6      1717.115 6        37.977 6
G10  23834603.146 9 125251629.837 9      3534.432 9        54.660 9  23834606.897 6         0.000 6      2754.105 6        37.977 6
G21  21161977.628 9 111206922.371 9     -1237.587 9        55.713 9  21161976.912 6         0.000 6      -964.354 6        37.977 6
G29  24277445.376 9 127578780.528 9     -3116.859 9        54.483 9  24277446.926 6         0.000 6     -2428.724 6        37.977 6
G27  22022605.581 9 115729546.336 9      2508.249 9        55.367 9  22022607.520 6         0.000 6      1954.481 6        37.977 6
G16  20501307.021 9 107735075.232 9       579.944 9        55.975 9  20501306.194 6         0.000 6       451.904 6        37.977 6
G26  20644044.355 9 108485163.085 9     -1461.677 9        55.877 9  20644047.167 6         0.000 6     -1138.970 6        37.977 6
G20  21962223.887 9 115412232.225 9      2582.079 9        55.308 9  21962224.219 6         0.000 6      2012.011 6        37.977 6
> 2019 07 03 12 00 23.0000000  0  8       0.000000000000
G07  25362319.764 9 133279843.691 9      2203.174 9        54.126 9  25362320.442 6         0.000 6      1716.760 6        37.977 6
G10  23833930.578 9 125248095.478 9      3534.299 9        54.660 9  23833934.328 6         0.000 6      2754.002 6        37.977 6
G21  21162213.167 9 111208160.136 9     -1237.950 9        55.713 9  21162212.451 6         0.000 6      -964.636 6        37.977 6
G29  24278038.502 9 127581897.420 9     -3116.945 9        54.483 9  24278040.054 6         0.000 6     -2428.791 6        37.977 6
G27  22022128.299 9 115727038.205 9      2508.014 9        55.367 9  22022130.238 6         0.000 6      1954.297 6        37.977 6
G16  20501196.719 9 107734495.592 9       579.329 9        55.975 9  20501195.892 6         0.000 6       451.425 6        37.977 6
G26  20644322.556 9 108486625.044 9     -1462.253 9        55.877 9  20644325.369 6         0.000 6     -1139.419 6        37.977 6
G20  21961732.575 9 115409650.367 9      2581.639 9        55.309 9  21961732.906 6         0.000 6      2011.668 6        37.977 6
> 2019 07 03 12 00 24.0000000  0  8       0.000000000000
G07  25361900.557 9 133277640.749 9      2202.717 9        54.126 9  25361901.235 6         0.000 6      1716.404 6        37.977 6
G10  23833258.036 9 125244561.256 9      3534.165 9        54.661 9  23833261.786 6         0.000 6      2753.898 6        37.977 6
G21  21162448.775 9 111209398.267 9     -1238.313 9        55.713 9  21162448.059 6         0.000 6      -964.919 6        37.977 6
G29  24278631.645 9 127585014.398 9     -3117.031 9        54.482 9  24278633.197 6         0.000 6     -2428.858 6        37.977 6
G27  22021651.062 9 115724530.311 9      2507.778 9        55.368 9  22021653.001 6         0.000 6      1954.114 6        37.977 6
G16  20501086.535 9 107733916.570 9       578.715 9        55.975 9  20501085.708 6         0.000 6       450.947 6        37.977 6
G26  20644600.869 9 108488087.583 9     -1462.829 9        55.877 9  20644603.681 6         0.000 6     -1139.868 6        37.977 6
G20  21961241.347 9 115407068.952 9      2581.199 9        55.309 9  21961241.678 6         0.000 6      2011.325 6        37.977 6
> 2019 07 03 12 00 25.0000000  0  8       0.000000000000
G07  25361481.438 9 133275438.267 9      2202.261 9        54.127 9  25361482.115 6         0.000 6      1716.048 6        37.977 6
G10  23832585.518 9 125241027.164 9      3534.032 9        54.661 9  23832589.268 6         0.000 6      2753.794 6        37.977 6
G21  21162684.452 9 111210636.758 9     -1238.676 9        55.713 9  21162683.737 6         0.000 6      -965.202 6        37.977 6
G29  24279224.805 9 127588131.463 9     -3117.118 9        54.482 9  24279226.358 6         0.000 6     -2428.926 6        37.977 6
G27  22021173.870 9 115722022.652 9      2507.543 9        55.368 9  22021175.809 6         0.000 6      1953.930 6        37.977 6
G16  20500976.467 9 107733338.160 9       578.100 9        55.975 9  20500975.640 6         0.000 6       450.468 6        37.977 6
G26  20644879.290 9 108489550.694 9     -1463.405 9        55.877 9  20644882.103 6         0.000 6     -1140.316 6        37.977 6
G20  21960750.202 9 115404487.973 9      2580.760 9        55.309 9  21960750.533 6         0.000 6      2010.983 6        37.977 6
> 2019 07 03 12 00 26.0000000  0  8       0.000000000000
G07  25361062.405 9 133273236.238 9      2201.804 9        54.127 9  25361063.082 6         0.000 6      1715.693 6        37.977 6
G10  23831913.027 9 125237493.210 9      3533.898 9        54.661 9  23831916.776 6         0.000 6      2753.690 6        37.977 6
G21  21162920.199 9 111211875.614 9     -1239.038 9        55.713 9  21162919.483 6         0.000 6      -965.485 6        37.977 6
G29  24279817.981 9 127591248.613 9     -3117.204 9        54.482 9  24279819.534 6         0.000 6     -2428.993 6        37.977 6
G27  22020696.723 9 115719515.229 9      2507.307 9        55.368 9  22020698.661 6         0.000 6      1953.747 6        37.977 6
G16  20500866.517 9 107732760.367 9       577.485 9        55.975 9  20500865.690 6         0.000 6       449.989 6        37.977 6
G26  20645157.822 9 108491014.386 9     -1463.981 9        55.877 9  20645160.634 6         0.000 6     -1140.765 6        37.977 6
G20  21960259.142 9 115401907.438 9      2580.320 9        55.309 9  21960259.472 6         0.000 6      2010.640 6        37.977 6
> 2019 07 03 12 00 27.0000000  0  8       0.000000000000
G07  25360643.459 9 133271034.665 9      2201.348 9        54.127 9  25360644.136 6         0.000 6      1715.337 6        37.977 6
G10  23831240.561 9 125233959.389 9      3533.765 9        54.661 9  23831244.310 6         0.000 6      2753.585 6        37.977 6
G21  21163156.015 9 111213114.833 9     -1239.401 9        55.712 9  21163155.299 6         0.000 6      -965.767 6        37.977 6
G29  24280411.173 9 127594365.851 9     -3117.291 9        54.482 9  24280412.727 6         0.000 6     -2429.060 6        37.977 6
G27  22020219.620 9 115717008.042 9      2507.072 9        55.368 9  22020221.559 6         0.000 6      1953.563 6        37.977 6
G16  20500756.683 9 107732183.189 9       576.871 9        55.975 9  20500755.857 6         0.000 6       449.510 6        37.977 6
G26  20645436.463 9 108492478.654 9     -1464.557 9        55.877 9  20645439.276 6         0.000 6     -1141.214 6        37.977 6
G20  21959768.165 9 115399327.343 9      2579.880 9        55.309 9  21959768.495 6         0.000 6      2010.297 6        37.977 6
> 2019 07 03 12 00 28.0000000  0  8       0.000000000000
G07  25360224.600 9 133268833.552 9      2200.891 9        54.127 9  25360225.277 6         0.000 6      1714.981 6        37.977 6
G10  23830568.120 9 125230425.698 9      3533.631 9        54.662 9  23830571.868 6         0.000 6      2753.481 6        37.977 6
G21  21163391.899 9 111214354.412 9     -1239.764 9        55.712 9  21163391.183 6         0.000 6      -966.050 6        37.977 6
G29  24281004.382 9 127597483.174 9     -3117.377 9        54.482 9  24281005.937 6         0.000 6     -2429.127 6        37.977 6
G27  22019742.563 9 115714501.089 9      2506.836 9        55.368 9  22019744.501 6         0.000 6      1953.380 6        37.977 6
G16  20500646.967 9 107731606.623 9       576.256 9        55.975 9  20500646.140 6         0.000 6       449.031 6        37.977 6
G26  20645715.213 9 108493943.492 9     -1465.133 9        55.877 9  20645718.026 6         0.000 6     -1141.663 6        37.977 6
G20  21959277.271 9 115396747.684 9      2579.439 9        55.310 9  21959277.601 6         0.000 6      2009.954 6        37.977 6
> 2019 07 03 12 00 29.0000000  0  8       0.000000000000
G07  25359805.829 9 133266632.896 9      2200.434 9        54.127 9  25359806.505 6         0.000 6      1714.625 6        37.977 6
G10  23829895.705 9 125226892.142 9      3533.497 9        54.662 9  23829899.452 6         0.000 6      2753.377 6        37.977 6
G21  21163627.852 9 111215594.354 9     -1240.126 9        55.712 9  21163627.137 6         0.000 6      -966.332 6        37.977 6
G29  24281597.607 9 127600600.579 9     -3117.463 9        54.481 9  24281599.162 6         0.000 6     -2429.195 6        37.977 6
G27  22019265.551 9 115711994.377 9      2506.601 9        55.368 9  22019267.489 6         0.000 6      1953.196 6        37.977 6
G16  20500537.367 9 107731030.676 9       575.641 9        55.975 9  20500536.541 6         0.000 6       448.551 6        37.977 6
G26  20645994.073 9 108495408.912 9     -1465.709 9        55.877 9  20645996.886 6         0.000 6     -1142.112 6        37.977 6
G20  21958786.462 9 115394168.466 9      2578.999 9        55.310 9  21958786.791 6         0.000 6      2009.611 6        37.977 6
> 2019 07 03 12 00 30.0000000  0  8       0.000000000000
G07  25359387.144 9 133264432.696 9      2199.978 9        54.127 9  25359387.820 6         0.000 6      1714.269 6        37.977 6
G10  23829223.315 9 125223358.719 9      3533.363 9        54.662 9  23829227.061 6         0.000 6      2753.273 6        37.977 6
G21  21163863.875 9 111216834.659 9     -1240.489 9        55.712 9  21163863.159 6         0.000 6      -966.615 6        37.977 6
G29  24282190.848 9 127603718.075 9     -3117.549 9        54.481 9  24282192.404 6         0.000 6     -2429.262 6        37.977 6
G27  22018788.582 9 115709487.895 9      2506.365 9        55.369 9  22018790.520 6         0.000 6      1953.012 6        37.977 6
G16  20500427.885 9 107730455.339 9       575.026 9        55.975 9  20500427.058 6         0.000 6       448.072 6        37.977 6
G26  20646273.042 9 108496874.902 9     -1466.285 9        55.877 9  20646275.855 6         0.000 6     -1142.560 6        37.977 6
G20  21958295.735 9 115391589.688 9      2578.559 9        55.310 9  21958296.065 6         0.000 6      2009.268 6        37.977 6
> 2019 07 03 12 00 31.0000000  0  8       0.000000000000
G07  25358968.545 9 133262232.951 9      2199.521 9        54.127 9  25358969.222 6         0.000 6      1713.913 6        37.977 6
G10  23828550.951 9 125219825.434 9      3533.229 9        54.662 9  23828554.696 6         0.000 6      2753.168 6        37.977 6
G21  21164099.966 9 111218075.328 9     -1240.851 9        55.712 9  21164099.251 6         0.000 6      -966.897 6        37.977 6
G29  24282784.106 9 127606835.657 9     -3117.636 9        54.481 9  24282785.663 6         0.000 6     -2429.329 6        37.977 6
G27  22018311.660 9 115706981.651 9      2506.129 9        55.369 9  22018313.597 6         0.000 6      1952.829 6        37.977 6
G16  20500318.519 9 107729880.620 9       574.411 9        55.975 9  20500317.692 6         0.000 6       447.593 6        37.977 6
G26  20646552.122 9 108498341.473 9     -1466.861 9        55.876 9  20646554.935 6         0.000 6     -1143.009 6        37.977 6
G20  21957805.094 9 115389011.354 9      2578.118 9        55.310 9  21957805.423 6         0.000 6      2008.924 6        37.977 6
> 2019 07 03 12 00 32.0000000  0  8       0.000000000000
G07  25358550.035 9 133260033.665 9      2199.064 9        54.128 9  25358550.711 6         0.000 6      1713.557 6        37.977 6
G10  23827878.612 9 125216292.278 9      3533.095 9        54.663 9  23827882.357 6         0.000 6      2753.064 6        37.977 6
G21  21164336.126 9 111219316.358 9     -1241.214 9        55.712 9  21164335.411 6         0.000 6      -967.180 6        37.977 6
G29  24283377.381 9 127609953.326 9     -3117.722 9        54.481 9  24283378.938 6         0.000 6     -2429.396 6        37.977 6
G27  22017834.781 9 115704475.640 9      2505.893 9        55.369 9  22017836.719 6         0.000 6      1952.645 6        37.977 6
G16  20500209.270 9 107729306.513 9       573.796 9        55.975 9  20500208.444 6         0.000 6       447.114 6        37.977 6
G26  20646831.310 9 108499808.616 9     -1467.437 9        55.876 9  20646834.123 6         0.000 6     -1143.458 6        37.977 6
G20  21957314.536 9 115386433.456 9      2577.678 9        55.310 9  21957314.865 6         0.000 6      2008.581 6        37.977 6
> 2019 07 03 12 00 33.0000000  0  8       0.000000000000
G07  25358131.610 9 133257834.833 9      2198.606 9        54.128 9  25358132.286 6         0.000 6      1713.201 6        37.977 6
G10  23827206.299 9 125212759.261 9      3532.960 9        54.663 9  23827210.043 6         0.000 6      2752.959 6        37.977 6
G21  21164572.356 9 111220557.752 9     -1241.576 9        55.712 9  21164571.641 6         0.000 6      -967.462 6        37.977 6
G29  24283970.672 9 127613071.081 9     -3117.808 9        54.481 9  24283972.230 6         0.000 6     -2429.463 6        37.977 6
G27  22017357.948 9 115701969.867 9      2505.658 9        55.369 9  22017359.885 6         0.000 6      1952.461 6        37.977 6
G16  20500100.139 9 107728733.025 9       573.181 9        55.975 9  20500099.312 6         0.000 6       446.635 6        37.977 6
G26  20647110.609 9 108501276.339 9     -1468.012 9        55.876 9  20647113.422 6         0.000 6     -1143.906 6        37.977 6
G20  21956824.062 9 115383856.003 9      2577.237 9        55.311 9  21956824.390 6         0.000 6      2008.238 6        37.977 6
> 2019 07 03 12 00 34.0000000  0  8       0.000000000000
G07  25357713.273 9 133255636.462 9      2198.149 9        54.128 9  25357713.949 6         0.000 6      1712.845 6        37.977 6
G10  23826534.011 9 125209226.374 9      3532.826 9        54.663 9  23826537.754 6         0.000 6      2752.854 6        37.977 6
G21  21164808.654 9 111221799.506 9     -1241.938 9        55.712 9  21164807.939 6         0.000 6      -967.744 6        37.977 6
G29  24284563.979 9 127616188.922 9     -3117.894 9        54.480 9  24284565.538 6         0.000 6     -2429.530 6        37.977 6
G27  22016881.159 9 115699464.329 9      2505.422 9        55.369 9  22016883.096 6         0.000 6      1952.277 6        37.977 6
G16  20499991.124 9 107728160.148 9       572.566 9        55.975 9  20499990.297 6         0.000 6       446.156 6        37.977 6
G26  20647390.016 9 108502744.632 9     -1468.588 9        55.876 9  20647392.830 6         0.000 6     -1144.355 6        37.977 6
G20  21956333.671 9 115381278.987 9      2576.796 9        55.311 9  21956333.999 6         0.000 6      2007.894 6        37.977 6
> 2019 07 03 12 00 35.0000000  0  8       0.000000000000
G07  25357295.023 9 133253438.545 9      2197.692 9        54.128 9  25357295.698 6         0.000 6      1712.488 6        37.977 6
G10  23825861.749 9 125205693.626 9      3532.691 9        54.663 9  23825865.492 6         0.000 6      2752.749 6        37.977 6
G21  21165045.022 9 111223041.625 9     -1242.301 9        55.712 9  21165044.306 6         0.000 6      -968.027 6        37.977 6
G29  24285157.303 9 127619306.849 9     -3117.980 9        54.480 9  24285158.862 6         0.000 6     -2429.598 6        37.977 6
G27  22016404.416 9 115696959.027 9      2505.186 9        55.370 9  22016406.353 6         0.000 6      1952.094 6        37.977 6
G16  20499882.227 9 107727587.889 9       571.951 9        55.975 9  20499881.400 6         0.000 6       445.676 6        37.977 6
G26  20647669.534 9 108504213.507 9     -1469.164 9        55.876 9  20647672.347 6         0.000 6     -1144.803 6        37.977 6
G20  21955843.365 9 115378702.415 9      2576.356 9        55.311 9  21955843.693 6         0.000 6      2007.551 6        37.977 6
> 2019 07 03 12 00 36.0000000  0  8       0.000000000000
G07  25356876.861 9 133251241.090 9      2197.235 9        54.128 9  25356877.536 6         0.000 6      1712.132 6        37.977 6
G10  23825189.512 9 125202161.006 9      3532.557 9        54.664 9  23825193.254 6         0.000 6      2752.644 6        37.977 6
G21  21165281.457 9 111224284.102 9     -1242.663 9        55.712 9  21165280.742 6         0.000 6      -968.309 6        37.977 6
G29  24285750.642 9 127622424.857 9     -3118.066 9        54.480 9  24285752.202 6         0.000 6     -2429.665 6        37.977 6
G27  22015927.717 9 115694453.964 9      2504.950 9        55.370 9  22015929.654 6         0.000 6      1951.910 6        37.977 6
G16  20499773.446 9 107727016.243 9       571.336 9        55.975 9  20499772.620 6         0.000 6       445.197 6        37.977 6
G26  20647949.160 9 108505682.951 9     -1469.739 9        55.876 9  20647951.974 6         0.000 6     -1145.252 6        37.977 6
G20  21955353.141 9 115376126.277 9      2575.915 9        55.311 9  21955353.469 6         0.000 6      2007.207 6        37.977 6
> 2019 07 03 12 00 37.0000000  0  8       0.000000000000
G07  25356458.784 9 133249044.088 9      2196.777 9        54.128 9  25356459.459 6         0.000 6      1711.775 6        37.977 6
G10  23824517.302 9 125198628.527 9      3532.422 9        54.664 9  23824521.043 6         0.000 6      2752.539 6        37.977 6
G21  21165517.963 9 111225526.945 9     -1243.025 9        55.711 9  21165517.247 6         0.000 6      -968.591 6        37.977 6
G29  24286343.999 9 127625542.956 9     -3118.153 9        54.480 9  24286345.559 6         0.000 6     -2429.732 6        37.977 6
G27  22015451.064 9 115691949.135 9      2504.714 9        55.370 9  22015453.000 6         0.000 6      1951.726 6        37.977 6
G16  20499664.783 9 107726445.215 9       570.721 9        55.976 9  20499663.956 6         0.000 6       444.718 6        37.977 6
G26  20648228.897 9 108507152.977 9     -1470.315 9        55.876 9  20648231.711 6         0.000 6     -1145.701 6        37.977 6
G20  21954863.003 9 115373550.588 9      2575.474 9        55.311 9  21954863.330 6         0.000 6      2006.864 6        37.977 6
> 2019 07 03 12 00 38.0000000  0  8       0.000000000000
G07  25356040.795 9 133246847.543 9      2196.320 9        54.128 9  25356041.470 6         0.000 6      1711.419 6        37.977 6
G10  23823845.117 9 125195096.183 9      3532.287 9        54.664 9  23823848.858 6         0.000 6      2752.434 6        37.977 6
G21  21165754.537 9 111226770.151 9     -1243.387 9        55.711 9  21165753.822 6         0.000 6      -968.873 6        37.977 6
G29  24286937.371 9 127628661.142 9     -3118.239 9        54.479 9  24286938.932 6         0.000 6     -2429.799 6        37.977 6
G27  22014974.455 9 115689444.541 9      2504.478 9        55.370 9  22014976.392 6         0.000 6      1951.542 6        37.977 6
G16  20499556.237 9 107725874.802 9       570.106 9        55.976 9  20499555.410 6         0.000 6       444.238 6        37.977 6
G26  20648508.743 9 108508623.578 9     -1470.891 9        55.876 9  20648511.557 6         0.000 6     -1146.149 6        37.977 6
G20  21954372.948 9 115370975.339 9      2575.033 9        55.311 9  21954373.276 6         0.000 6      2006.520 6        37.977 6
> 2019 07 03 12 00 39.0000000  0  8       0.000000000000
G07  25355622.893 9 133244651.458 9      2195.862 9        54.129 9  25355623.568 6         0.000 6      1711.063 6        37.977 6
G10  23823172.957 9 125191563.970 9      3532.152 9        54.664 9  23823176.697 6         0.000 6      2752.329 6        37.977 6
G21  21165991.179 9 111228013.716 9     -1243.749 9        55.711 9  21165990.464 6         0.000 6      -969.155 6        37.977 6
G29  24287530.761 9 127631779.413 9     -3118.325 9        54.479 9  24287532.322 6         0.000 6     -2429.866 6        37.977 6
G27  22014497.891 9 115686940.182 9      2504.242 9        55.370 9  22014499.827 6         0.000 6      1951.358 6        37.977 6
G16  20499447.808 9 107725305.000 9       569.491 9        55.976 9  20499446.981 6         0.000 6       443.759 6        37.977 6
G26  20648788.698 9 108510094.750 9     -1471.466 9        55.875 9  20648791.513 6         0.000 6     -1146.598 6        37.977 6
G20  21953882.977 9 115368400.528 9      2574.591 9        55.312 9  21953883.304 6         0.000 6      2006.176 6        37.977 6
> 2019 07 03 12 00 40.0000000  0  8       0.000000000000
G07  25355205.078 9 133242455.828 9      2195.405 9        54.129 9  25355205.752 6         0.000 6      1710.706 6        37.977 6
G10  23822500.823 9 125188031.896 9      3532.017 9        54.665 9  23822504.563 6         0.000 6      2752.224 6        37.977 6
G21  21166227.892 9 111229257.645 9     -1244.111 9        55.711 9  21166227.176 6         0.000 6      -969.438 6        37.977 6
G29  24288124.166 9 127634897.771 9     -3118.411 9        54.479 9  24288125.728 6         0.000 6     -2429.933 6        37.977 6
G27  22014021.372 9 115684436.061 9      2504.006 9        55.371 9  22014023.308 6         0.000 6      1951.174 6        37.977 6
G16  20499339.496 9 107724735.817 9       568.875 9        55.976 9  20499338.669 6         0.000 6       443.279 6        37.977 6
G26  20649068.764 9 108511566.502 9     -1472.042 9        55.875 9  20649071.578 6         0.000 6     -1147.046 6        37.977 6
G20  21953393.091 9 115365826.161 9      2574.150 9        55.312 9  21953393.418 6         0.000 6      2005.832 6        37.977 6
> 2019 07 03 12 00 41.0000000  0  8       0.000000000000
G07  25354787.350 9 133240260.659 9      2194.947 9        54.129 9  25354788.025 6         0.000 6      1710.349 6        37.977 6
G10  23821828.715 9 125184499.952 9      3531.882 9        54.665 9  23821832.454 6         0.000 6      2752.119 6        37.977 6
G21  21166464.672 9 111230501.934 9     -1244.473 9        55.711 9  21166463.957 6         0.000 6      -969.720 6        37.977 6
G29  24288717.588 9 127638016.214 9     -3118.497 9        54.479 9  24288719.151 6         0.000 6     -2430.000 6        37.977 6
G27  22013544.897 9 115681932.174 9      2503.770 9        55.371 9  22013546.833 6         0.000 6      1950.990 6        37.977 6
G16  20499231.300 9 107724167.247 9       568.260 9        55.976 9  20499230.473 6         0.000 6       442.800 6        37.977 6
G26  20649348.938 9 108513038.825 9     -1472.617 9        55.875 9  20649351.752 6         0.000 6     -1147.494 6        37.977 6
G20  21952903.288 9 115363252.232 9      2573.709 9        55.312 9  21952903.614 6         0.000 6      2005.488 6        37.977 6
> 2019 07 03 12 00 42.0000000  0  8       0.000000000000
G07  25354369.709 9 133238065.944 9      2194.489 9        54.129 9  25354370.383 6         0.000 6      1709.992 6        37.977 6
G10  23821156.633 9 125180968.148 9      3531.747 9        54.665 9  23821160.371 6         0.000 6      2752.013 6        37.977 6
G21  21166701.522 9 111231746.588 9     -1244.835 9        55.711 9  21166700.807 6         0.000 6      -970.002 6        37.977 6
G29  24289311.027 9 127641134.744 9     -3118.583 9        54.479 9  24289312.590 6         0.000 6     -2430.067 6        37.977 6
G27  22013068.468 9 115679428.525 9      2503.534 9        55.371 9  22013070.404 6         0.000 6      1950.806 6        37.977 6
G16  20499123.222 9 107723599.294 9       567.645 9        55.976 9  20499122.396 6         0.000 6       442.321 6        37.977 6
G26  20649629.222 9 108514511.729 9     -1473.193 9        55.875 9  20649632.037 6         0.000 6     -1147.943 6        37.977 6
G20  21952413.569 9 115360678.749 9      2573.267 9        55.312 9  21952413.895 6         0.000 6      2005.144 6        37.977 6
> 2019 07 03 12 00 43.0000000  0  8       0.000000000000
G07  25353952.156 9 133235871.690 9      2194.031 9        54.129 9  25353952.830 6         0.000 6      1709.636 6        37.977 6
G10  23820484.576 9 125177436.475 9      3531.612 9        54.665 9  23820488.313 6         0.000 6      2751.908 6        37.977 6
G21  21166938.440 9 111232991.601 9     -1245.197 9        55.711 9  21166937.725 6         0.000 6      -970.283 6        37.977 6
G29  24289904.482 9 127644253.359 9     -3118.669 9        54.478 9  24289906.045 6         0.000 6     -2430.134 6        37.977 6
G27  22012592.084 9 115676925.110 9      2503.298 9        55.371 9  22012594.019 6         0.000 6      1950.622 6        37.977 6
G16  20499015.261 9 107723031.954 9       567.029 9        55.976 9  20499014.434 6         0.000 6       441.841 6        37.977 6
G26  20649909.616 9 108515985.203 9     -1473.768 9        55.875 9  20649912.430 6         0.000 6     -1148.391 6        37.977 6
G20  21951923.934 9 115358105.703 9      2572.826 9        55.312 9  21951924.260 6         0.000 6      2004.800 6        37.977 6
> 2019 07 03 12 00 44.0000000  0  8       0.000000000000
G07  25353534.690 9 133233677.894 9      2193.573 9        54.129 9  25353535.363 6         0.000 6      1709.279 6        37.977 6
G10  23819812.545 9 125173904.939 9      3531.476 9        54.666 9  23819816.282 6         0.000 6      2751.802 6        37.977 6
G21  21167175.427 9 111234236.976 9     -1245.559 9        55.711 9  21167174.712 6         0.000 6      -970.565 6        37.977 6
G29  24290497.952 9 127647372.055 9     -3118.755 9        54.478 9  24290499.516 6         0.000 6     -2430.201 6        37.977 6
G27  22012115.745 9 115674421.937 9      2503.061 9        55.371 9  22012117.681 6         0.000 6      1950.438 6        37.977 6
G16  20498907.418 9 107722465.234 9       566.414 9        55.976 9  20498906.591 6         0.000 6       441.361 6        37.977 6
G26  20650190.119 9 108517459.256 9     -1474.344 9        55.875 9  20650192.934 6         0.000 6     -1148.840 6        37.977 6
G20  21951434.383 9 115355533.100 9      2572.384 9        55.313 9  21951434.709 6         0.000 6      2004.456 6        37.977 6
> 2019 07 03 12 00 45.0000000  0  8       0.000000000000
G07  25353117.311 9 133231484.556 9      2193.115 9        54.129 9  25353117.984 6         0.000 6      1708.922 6        37.977 6
G10  23819140.539 9 125170373.537 9      3531.341 9        54.666 9  23819144.276 6         0.000 6      2751.697 6        37.977 6
G21  21167412.483 9 111235482.712 9     -1245.920 9        55.711 9  21167411.768 6         0.000 6      -970.847 6        37.977 6
G29  24291091.439 9 127650490.843 9     -3118.841 9        54.478 9  24291093.004 6         0.000 6     -2430.268 6        37.977 6
G27  22011639.451 9 115671918.994 9      2502.825 9        55.371 9  22011641.386 6         0.000 6      1950.254 6        37.977 6
G16  20498799.691 9 107721899.125 9       565.798 9        55.976 9  20498798.864 6         0.000 6       440.882 6        37.977 6
G26  20650470.731 9 108518933.881 9     -1474.919 9        55.875 9  20650473.546 6         0.000 6     -1149.288 6        37.977 6
G20  21950944.916 9 115352960.937 9      2571.942 9        55.313 9  21950945.241 6         0.000 6      2004.112 6        37.977 6
> 2019 07 03 12 00 46.0000000  0  8       0.000000000000
G07  25352700.019 9 133229291.673 9      2192.657 9        54.130 9  25352700.692 6         0.000 6      1708.565 6        37.977 6
G10  23818468.561 9 125166842.275 9      3531.205 9        54.666 9  23818472.296 6         0.000 6      2751.591 6        37.977 6
G21  21167649.608 9 111236728.813 9     -1246.282 9        55.711 9  21167648.893 6         0.000 6      -971.129 6        37.977 6
G29  24291684.943 9 127653609.716 9     -3118.926 9        54.478 9  24291686.509 6         0.000 6     -2430.335 6        37.977 6
G27  22011163.201 9 115669416.290 9      2502.589 9        55.372 9  22011165.137 6         0.000 6      1950.070 6        37.977 6
G16  20498692.082 9 107721333.634 9       565.183 9        55.976 9  20498691.255 6         0.000 6       440.402 6        37.977 6
G26  20650751.454 9 108520409.086 9     -1475.494 9        55.875 9  20650754.269 6         0.000 6     -1149.736 6        37.977 6
G20  21950455.533 9 115350389.220 9      2571.500 9        55.313 9  21950455.859 6         0.000 6      2003.768 6        37.977 6
> 2019 07 03 12 00 47.0000000  0  8       0.000000000000
G07  25352282.813 9 133227099.249 9      2192.199 9        54.130 9  25352283.486 6         0.000 6      1708.208 6        37.977 6
G10  23817796.607 9 125163311.148 9      3531.069 9        54.666 9  23817800.342 6         0.000 6      2751.485 6        37.977 6
G21  21167886.802 9 111237975.275 9     -1246.644 9        55.710 9  21167886.087 6         0.000 6      -971.411 6        37.977 6
G29  24292278.463 9 127656728.675 9     -3119.012 9        54.478 9  24292280.029 6         0.000 6     -2430.402 6        37.977 6
G27  22010686.997 9 115666913.822 9      2502.353 9        55.372 9  22010688.932 6         0.000 6      1949.886 6        37.977 6
G16  20498584.590 9 107720768.759 9       564.567 9        55.976 9  20498583.763 6         0.000 6       439.923 6        37.977 6
G26  20651032.286 9 108521884.866 9     -1476.069 9        55.875 9  20651035.101 6         0.000 6     -1150.184 6        37.977 6
G20  21949966.235 9 115347817.946 9      2571.058 9        55.313 9  21949966.560 6         0.000 6      2003.423 6        37.977 6
> 2019 07 03 12 00 48.0000000  0  8       0.000000000000
G07  25351865.696 9 133224907.285 9      2191.741 9        54.130 9  25351866.368 6         0.000 6      1707.851 6        37.977 6
G10  23817124.679 9 125159780.153 9      3530.933 9        54.667 9  23817128.414 6         0.000 6      2751.379 6        37.977 6
G21  21168124.065 9 111239222.096 9     -1247.005 9        55.710 9  21168123.350 6         0.000 6      -971.692 6        37.977 6
G29  24292871.999 9 127659847.720 9     -3119.098 9        54.477 9  24292873.567 6         0.000 6     -2430.469 6        37.977 6
G27  22010210.837 9 115664411.589 9      2502.116 9        55.372 9  22010212.772 6         0.000 6      1949.702 6        37.977 6
G16  20498477.214 9 107720204.496 9       563.952 9        55.976 9  20498476.387 6         0.000 6       439.443 6        37.977 6
G26  20651313.226 9 108523361.216 9     -1476.645 9        55.874 9  20651316.041 6         0.000 6     -1150.633 6        37.977 6
G20  21949477.020 9 115345247.109 9      2570.616 9        55.313 9  21949477.345 6         0.000 6      2003.079 6        37.977 6
> 2019 07 03 12 00 49.0000000  0  8       0.000000000000
G07  25351448.665 9 133222715.777 9      2191.283 9        54.130 9  25351449.337 6         0.000 6      1707.494 6        37.977 6
G10  23816452.778 9 125156249.299 9      3530.797 9        54.667 9  23816456.512 6         0.000 6      2751.273 6        37.977 6
G21  21168361.396 9 111240469.281 9     -1247.367 9        55.710 9  21168360.681 6         0.000 6      -971.974 6        37.977 6
G29  24293465.552 9 127662966.851 9     -3119.184 9        54.477 9  24293467.120 6         0.000 6     -2430.536 6        37.977 6
G27  22009734.723 9 115661909.593 9      2501.880 9        55.372 9  22009736.658 6         0.000 6      1949.517 6        37.977 6
G16  20498369.956 9 107719640.852 9       563.336 9        55.976 9  20498369.129 6         0.000 6       438.963 6        37.977 6
G26  20651594.277 9 108524838.147 9     -1477.220 9        55.874 9  20651597.092 6         0.000 6     -1151.081 6        37.977 6
G20  21948987.890 9 115342676.718 9      2570.174 9        55.314 9  21948988.215 6         0.000 6      2002.734 6        37.977 6
> 2019 07 03 12 00 50.0000000  0  8       0.000000000000
G07  25351031.722 9 133220524.730 9      2190.824 9        54.130 9  25351032.394 6         0.000 6      1707.137 6        37.977 6
G10  23815780.902 9 125152718.576 9      3530.661 9        54.667 9  23815784.635 6         0.000 6      2751.167 6        37.977 6
G21  21168598.796 9 111241716.825 9     -1247.728 9        55.710 9  21168598.081 6         0.000 6      -972.256 6        37.977 6
G29  24294059.121 9 127666086.068 9     -3119.270 9        54.477 9  24294060.690 6         0.000 6     -2430.602 6        37.977 6
G27  22009258.653 9 115659407.833 9      2501.643 9        55.372 9  22009260.588 6         0.000 6      1949.333 6        37.977 6
G16  20498262.815 9 107719077.821 9       562.720 9        55.976 9  20498261.988 6         0.000 6       438.484 6        37.977 6
G26  20651875.436 9 108526315.648 9     -1477.795 9        55.874 9  20651878.252 6         0.000 6     -1151.529 6        37.977 6
G20  21948498.844 9 115340106.766 9      2569.732 9        55.314 9  21948499.168 6         0.000 6      2002.390 6        37.977 6
> 2019 07 03 12 00 51.0000000  0  8       0.000000000000
G07  25350614.866 9 133218334.139 9      2190.366 9        54.130 9  25350615.538 6         0.000 6      1706.779 6        37.977 6
G10  23815109.052 9 125149187.993 9      3530.525 9        54.667 9  23815112.784 6         0.000 6      2751.061 6        37.977 6
G21  21168836.265 9 111242964.733 9     -1248.089 9        55.710 9  21168835.550 6         0.000 6      -972.537 6        37.977 6
G29  24294652.707 9 127669205.371 9     -3119.356 9        54.477 9  24294654.276 6         0.000 6     -2430.669 6        37.977 6
G27  22008782.629 9 115656906.310 9      2501.407 9        55.373 9  22008784.563 6         0.000 6      1949.149 6        37.977 6
G16  20498155.791 9 107718515.408 9       562.105 9        55.976 9  20498154.964 6         0.000 6       438.004 6        37.977 6
G26  20652156.706 9 108527793.729 9     -1478.370 9        55.874 9  20652159.522 6         0.000 6     -1151.977 6        37.977 6
G20  21948009.882 9 115337537.260 9      2569.289 9        55.314 9  21948010.206 6         0.000 6      2002.045 6        37.977 6
> 2019 07 03 12 00 52.0000000  0  8       0.000000000000
G07  25350198.098 9 133216144.011 9      2189.907 9        54.130 9  25350198.769 6         0.000 6      1706.422 6        37.977 6
G10  23814437.227 9 125145657.540 9      3530.389 9        54.668 9  23814440.959 6         0.000 6      2750.955 6        37.977 6
G21  21169073.802 9 111244212.998 9     -1248.451 9        55.710 9  21169073.088 6         0.000 6      -972.819 6        37.977 6
G29  24295246.308 9 127672324.754 9     -3119.441 9        54.477 9  24295247.877 6         0.000 6     -2430.736 6        37.977 6
G27  22008306.650 9 115654405.026 9      2501.170 9        55.373 9  22008308.584 6         0.000 6      1948.965 6        37.977 6
G16  20498048.884 9 107717953.610 9       561.489 9        55.976 9  20498048.058 6         0.000 6       437.524 6        37.977 6
G26  20652438.084 9 108529272.380 9     -1478.945 9        55.874 9  20652440.900 6         0.000 6     -1152.425 6        37.977 6
G20  21947521.003 9 115334968.188 9      2568.847 9        55.314 9  21947521.327 6         0.000 6      2001.700 6        37.977 6
> 2019 07 03 12 00 53.0000000  0  8       0.000000000000
G07  25349781.416 9 133213954.337 9      2189.448 9        54.131 9  25349782.087 6         0.000 6      1706.065 6        37.977 6
G10  23813765.430 9 125142127.230 9      3530.252 9        54.668 9  23813769.161 6         0.000 6      2750.849 6        37.977 6
G21  21169311.409 9 111245461.629 9     -1248.812 9        55.710 9  21169310.694 6         0.000 6      -973.100 6        37.977 6
G29  24295839.926 9 127675444.228 9     -3119.527 9        54.476 9  24295841.496 6         0.000 6     -2430.803 6        37.977 6
G27  22007830.715 9 115651903.977 9      2500.934 9        55.373 9  22007832.649 6         0.000 6      1948.780 6        37.977 6
G16  20497942.095 9 107717392.428 9       560.873 9        55.976 9  20497941.268 6         0.000 6       437.044 6        37.977 6
G26  20652719.573 9 108530751.611 9     -1479.520 9        55.874 9  20652722.389 6         0.000 6     -1152.874 6        37.977 6
G20  21947032.210 9 115332399.567 9      2568.404 9        55.314 9  21947032.533 6         0.000 6      2001.355 6        37.977 6
> 2019 07 03 12 00 54.0000000  0  8       0.000000000000
G07  25349364.822 9 133211765.124 9      2188.990 9        54.131 9  25349365.493 6         0.000 6      1705.707 6        37.977 6
G10  23813093.657 9 125138597.052 9      3530.116 9        54.668 9  23813097.387 6         0.000 6      2750.742 6        37.977 6
G21  21169549.084 9 111246710.618 9     -1249.173 9        55.710 9  21169548.369 6         0.000 6      -973.382 6        37.977 6
G29  24296433.560 9 127678563.787 9     -3119.613 9        54.476 9  24296435.131 6         0.000 6     -2430.870 6        37.977 6
G27  22007354.826 9 115649403.162 9      2500.697 9        55.373 9  22007356.759 6         0.000 6      1948.596 6        37.977 6
G16  20497835.422 9 107716831.860 9       560.257 9        55.976 9  20497834.596 6         0.000 6       436.564 6        37.977 6
G26  20653001.170 9 108532231.412 9     -1480.095 9        55.874 9  20653003.986 6         0.000 6     -1153.322 6        37.977 6
G20  21946543.500 9 115329831.384 9      2567.962 9        55.315 9  21946543.823 6         0.000 6      2001.010 6        37.977 6
> 2019 07 03 12 00 55.0000000  0  8       0.000000000000
G07  25348948.314 9 133209576.368 9      2188.531 9        54.131 9  25348948.985 6         0.000 6      1705.350 6        37.977 6
G10  23812421.911 9 125135067.015 9      3529.979 9        54.668 9  23812425.641 6         0.000 6      2750.636 6        37.977 6
G21  21169786.828 9 111247959.971 9     -1249.534 9        55.710 9  21169786.113 6         0.000 6      -973.663 6        37.977 6
G29  24297027.211 9 127681683.433 9     -3119.698 9        54.476 9  24297028.782 6         0.000 6     -2430.936 6        37.977 6
G27  22006878.981 9 115646902.586 9      2500.461 9        55.373 9  22006880.915 6         0.000 6      1948.412 6        37.977 6
G16  20497728.868 9 107716271.910 9       559.642 9        55.976 9  20497728.041 6         0.000 6       436.084 6        37.977 6
G26  20653282.878 9 108533711.794 9     -1480.670 9        55.874 9  20653285.694 6         0.000 6     -1153.770 6        37.977 6
G20  21946054.876 9 115327263.648 9      2567.519 9        55.315 9  21946055.198 6         0.000 6      2000.665 6        37.977 6
> 2019 07 03 12 00 56.0000000  0  8       0.000000000000
G07  25348531.895 9 133207388.072 9      2188.072 9        54.131 9  25348532.566 6         0.000 6      1704.992 6        37.977 6
G10  23811750.191 9 125131537.110 9      3529.843 9        54.669 9  23811753.920 6         0.000 6      2750.529 6        37.977 6
G21  21170024.640 9 111249209.683 9     -1249.895 9        55.710 9  21170023.926 6         0.000 6      -973.945 6        37.977 6
G29  24297620.878 9 127684803.164 9     -3119.784 9        54.476 9  24297622.450 6         0.000 6     -2431.003 6        37.977 6
G27  22006403.182 9 115644402.244 9      2500.224 9        55.374 9  22006405.115 6         0.000 6      1948.227 6        37.977 6
G16  20497622.429 9 107715712.574 9       559.026 9        55.976 9  20497621.603 6         0.000 6       435.604 6        37.977 6
G26  20653564.694 9 108535192.745 9     -1481.245 9        55.873 9  20653567.510 6         0.000 6     -1154.218 6        37.977 6
G20  21945566.334 9 115324696.351 9      2567.076 9        55.315 9  21945566.657 6         0.000 6      2000.320 6        37.977 6
> 2019 07 03 12 00 57.0000000  0  8       0.000000000000
G07  25348115.562 9 133205200.233 9      2187.613 9        54.131 9  25348116.233 6         0.000 6      1704.635 6        37.977 6
G10  23811078.497 9 125128007.347 9      3529.706 9        54.669 9  23811082.225 6         0.000 6      2750.423 6        37.977 6
G21  21170262.522 9 111250459.759 9     -1250.256 9        55.709 9  21170261.807 6         0.000 6      -974.226 6        37.977 6
G29  24298214.561 9 127687922.981 9     -3119.870 9        54.475 9  24298216.134 6         0.000 6     -2431.070 6        37.977 6
G27  22005927.427 9 115641902.142 9      2499.987 9        55.374 9  22005929.361 6         0.000 6      1948.043 6        37.977 6
G16  20497516.109 9 107715153.856 9       558.410 9        55.976 9  20497515.282 6         0.000 6       435.124 6        37.977 6
G26  20653846.620 9 108536674.276 9     -1481.820 9        55.873 9  20653849.436 6         0.000 6     -1154.666 6        37.977 6
G20  21945077.878 9 115322129.501 9      2566.633 9        55.315 9  21945078.200 6         0.000 6      1999.975 6        37.977 6
> 2019 07 03 12 00 58.0000000  0  8       0.000000000000
G07  25347699.317 9 133203012.853 9      2187.154 9        54.131 9  25347699.988 6         0.000 6      1704.277 6        37.977 6
G10  23810406.829 9 125124477.720 9      3529.569 9        54.669 9  23810410.557 6         0.000 6      2750.316 6        37.977 6
G21  21170500.472 9 111251710.195 9     -1250.617 9        55.709 9  21170499.758 6         0.000 6      -974.507 6        37.977 6
G29  24298808.261 9 127691042.883 9     -3119.955 9        54.475 9  24298809.834 6         0.000 6     -2431.137 6        37.977 6
G27  22005451.718 9 115639402.275 9      2499.750 9        55.374 9  22005453.651 6         0.000 6      1947.858 6        37.977 6
G16  20497409.906 9 107714595.754 9       557.794 9        55.976 9  20497409.079 6         0.000 6       434.644 6        37.977 6
G26  20654128.656 9 108538156.382 9     -1482.395 9        55.873 9  20654131.472 6         0.000 6     -1155.114 6        37.977 6
G20  21944589.506 9 115319563.093 9      2566.190 9        55.315 9  21944589.828 6         0.000 6      1999.630 6        37.977 6
> 2019 07 03 12 00 59.0000000  0  8       0.000000000000
G07  25347283.160 9 133200825.935 9      2186.695 9        54.131 9  25347283.830 6         0.000 6      1703.919 6        37.977 6
G10  23809735.187 9 125120948.226 9      3529.432 9        54.669 9  23809738.914 6         0.000 6      2750.209 6        37.977 6
G21  21170738.491 9 111252960.990 9     -1250.978 9        55.709 9  21170737.776 6         0.000 6      -974.789 6        37.977 6
G29  24299401.977 9 127694162.871 9     -3120.041 9        54.475 9  24299403.551 6         0.000 6     -2431.203 6        37.977 6
G27  22004976.053 9 115636902.644 9      2499.514 9        55.374 9  22004977.987 6         0.000 6      1947.674 6        37.977 6
G16  20497303.819 9 107714038.265 9       557.178 9        55.977 9  20497302.992 6         0.000 6       434.164 6        37.977 6
G26  20654410.800 9 108539639.058 9     -1482.970 9        55.873 9  20654413.616 6         0.000 6     -1155.562 6        37.977 6
G20  21944101.218 9 115316997.125 9      2565.747 9        55.316 9  21944101.539 6         0.000 6      1999.285 6        37.977 6
> 2019 07 03 12 01  0.0000000  0  8       0.000000000000
G07  25346867.090 9 133198639.476 9      2186.236 9        54.132 9  25346867.760 6         0.000 6      1703.561 6        37.977 6
G10  23809063.571 9 125117418.871 9      3529.295 9        54.669 9  23809067.297 6         0.000 6      2750.103 6        37.977 6
G21  21170976.578 9 111254212.146 9     -1251.339 9        55.709 9  21170975.863 6         0.000 6      -975.070 6        37.977 6
G29  24299995.708 9 127697282.939 9     -3120.127 9        54.475 9  24299997.283 6         0.000 6     -2431.270 6        37.977 6
G27  22004500.435 9 115634403.255 9      2499.277 9        55.374 9  22004502.368 6         0.000 6      1947.489 6        37.977 6
G16  20497197.851 9 107713481.397 9       556.562 9        55.977 9  20497197.024 6         0.000 6       433.684 6        37.977 6
G26  20654693.055 9 108541122.314 9     -1483.545 9        55.873 9  20654695.871 6         0.000 6     -1156.010 6        37.977 6
G20  21943613.014 9 115314431.600 9      2565.304 9        55.316 9  21943613.335 6         0.000 6      1998.939 6        37.977 6
> 2019 07 03 12 01  1.0000000  0  8       0.000000000000
G07  25346451.107 9 133196453.476 9      2185.777 9        54.132 9  25346451.777 6         0.000 6      1703.204 6        37.977 6
G10  23808391.981 9 125113889.651 9      3529.158 9        54.670 9  23808395.706 6         0.000 6      2749.996 6        37.977 6
G21  21171214.734 9 111255463.662 9     -1251.700 9        55.709 9  21171214.019 6         0.000 6      -975.351 6        37.977 6
G29  24300589.457 9 127700403.098 9     -3120.212 9        54.475 9  24300591.032 6         0.000 6     -2431.337 6        37.977 6
G27  22004024.861 9 115631904.098 9      2499.040 9        55.374 9  22004026.793 6         0.000 6      1947.305 6        37.977 6
G16  20497091.998 9 107712925.140 9       555.946 9        55.977 9  20497091.172 6         0.000 6       433.204 6        37.977 6
G26  20654975.418 9 108542606.140 9     -1484.120 9        55.873 9  20654978.234 6         0.000 6     -1156.457 6        37.977 6
G20  21943124.894 9 115311866.518 9      2564.861 9        55.316 9  21943125.215 6         0.000 6      1998.594 6        37.977 6
> 2019 07 03 12 01  2.0000000  0  8       0.000000000000
G07  25346035.211 9 133194267.933 9      2185.317 9        54.132 9  25346035.881 6         0.000 6      1702.846 6        37.977 6
G10  23807720.417 9 125110360.572 9      3529.020 9        54.670 9  23807724.142 6         0.000 6      2749.889 6        37.977 6
G21  21171452.958 9 111256715.542 9     -1252.061 9        55.709 9  21171452.244 6         0.000 6      -975.632 6        37.977 6
G29  24301183.221 9 127703523.343 9     -3120.298 9        54.474 9  24301184.797 6         0.000 6     -2431.403 6        37.977 6
G27  22003549.332 9 115629405.179 9      2498.803 9        55.375 9  22003551.264 6         0.000 6      1947.120 6        37.977 6
G16  20496986.264 9 107712369.503 9       555.329 9        55.977 9  20496985.437 6         0.000 6       432.724 6        37.977 6
G26  20655257.891 9 108544090.545 9     -1484.695 9        55.873 9  20655260.707 6         0.000 6     -1156.905 6        37.977 6
G20  21942636.859 9 115309301.883 9      2564.417 9        55.316 9  21942637.180 6         0.000 6      1998.249 6        37.977 6
> 2019 07 03 12 01  3.0000000  0  8       0.000000000000
G07  25345619.403 9 133192082.851 9      2184.858 9        54.132 9  25345620.073 6         0.000 6      1702.488 6        37.977 6
G10  23807048.879 9 125106831.627 9      3528.883 9        54.670 9  23807052.604 6         0.000 6      2749.781 6        37.977 6
G21  21171691.252 9 111257967.780 9     -1252.422 9        55.709 9  21171690.537 6         0.000 6      -975.913 6        37.977 6
G29  24301777.002 9 127706643.673 9     -3120.383 9        54.474 9  24301778.579 6         0.000 6     -2431.470 6        37.977 6
G27  22003073.847 9 115626906.495 9      2498.566 9        55.375 9  22003075.780 6         0.000 6      1946.935 6        37.977 6
G16  20496880.646 9 107711814.478 9       554.713 9        55.977 9  20496879.820 6         0.000 6       432.244 6        37.977 6
G26  20655540.473 9 108545575.521 9     -1485.269 9        55.873 9  20655543.289 6         0.000 6     -1157.353 6        37.977 6
G20  21942148.908 9 115306737.688 9      2563.974 9        55.316 9  21942149.229 6         0.000 6      1997.903 6        37.977 6
> 2019 07 03 12 01  4.0000000  0  8       0.000000000000
G07  25345203.683 9 133189898.227 9      2184.398 9        54.132 9  25345204.352 6         0.000 6      1702.129 6        37.977 6
G10  23806377.368 9 125103302.824 9      3528.745 9        54.670 9  23806381.092 6         0.000 6      2749.674 6        37.977 6
G21  21171929.614 9 111259220.381 9     -1252.782 9        55.709 9  21171928.900 6         0.000 6      -976.194 6        37.977 6
G29  24302370.800 9 127709764.089 9     -3120.469 9        54.474 9  24302372.377 6         0.000 6     -2431.537 6        37.977 6
G27  22002598.409 9 115624408.050 9      2498.329 9        55.375 9  22002600.341 6         0.000 6      1946.751 6        37.977 6
G16  20496775.147 9 107711260.073 9       554.097 9        55.977 9  20496774.320 6         0.000 6       431.764 6        37.977 6
G26  20655823.165 9 108547061.075 9     -1485.844 9        55.873 9  20655825.981 6         0.000 6     -1157.801 6        37.977 6
G20  21941661.043 9 115304173.940 9      2563.530 9        55.316 9  21941661.363 6         0.000 6      1997.557 6        37.977 6
> 2019 07 03 12 01  5.0000000  0  8       0.000000000000
G07  25344788.050 9 133187714.065 9      2183.939 9        54.132 9  25344788.718 6         0.000 6      1701.771 6        37.977 6
G10  23805705.883 9 125099774.154 9      3528.608 9        54.671 9  23805709.606 6         0.000 6      2749.567 6        37.977 6
G21  21172168.044 9 111260473.341 9     -1253.143 9        55.709 9  21172167.330 6         0.000 6      -976.475 6        37.977 6
G29  24302964.613 9 127712884.590 9     -3120.554 9        54.474 9  24302966.191 6         0.000 6     -2431.603 6        37.977 6
G27  22002123.015 9 115621909.840 9      2498.092 9        55.375 9  22002124.947 6         0.000 6      1946.566 6        37.977 6
G16  20496669.763 9 107710706.281 9       553.481 9        55.977 9  20496668.937 6         0.000 6       431.284 6        37.977 6
G26  20656105.965 9 108548547.200 9     -1486.419 9        55.872 9  20656108.782 6         0.000 6     -1158.249 6        37.977 6
G20  21941173.260 9 115301610.632 9      2563.087 9        55.317 9  21941173.580 6         0.000 6      1997.212 6        37.977 6
> 2019 07 03 12 01  6.0000000  0  8       0.000000000000
G07  25344372.504 9 133185530.359 9      2183.479 9        54.132 9  25344373.172 6         0.000 6      1701.413 6        37.977 6
G10  23805034.424 9 125096245.626 9      3528.470 9        54.671 9  23805038.147 6         0.000 6      2749.460 6        37.977 6
G21  21172406.544 9 111261726.663 9     -1253.503 9        55.709 9  21172405.830 6         0.000 6      -976.756 6        37.977 6
G29  24303558.443 9 127716005.176 9     -3120.640 9        54.474 9  24303560.021 6         0.000 6     -2431.670 6        37.977 6
G27  22001647.666 9 115619411.869 9      2497.855 9        55.375 9  22001649.598 6         0.000 6      1946.381 6        37.977 6
G16  20496564.498 9 107710153.108 9       552.865 9        55.977 9  20496563.671 6         0.000 6       430.804 6        37.977 6
G26  20656388.876 9 108550033.904 9     -1486.993 9        55.872 9  20656391.693 6         0.000 6     -1158.697 6        37.977 6
G20  21940685.563 9 115299047.772 9      2562.643 9        55.317 9  21940685.883 6         0.000 6      1996.866 6        37.977 6
> 2019 07 03 12 01  7.0000000  0  8       0.000000000000
G07  25343957.046 9 133183347.116 9      2183.019 9        54.133 9  25343957.714 6         0.000 6      1701.055 6        37.977 6
G10  23804362.991 9 125092717.233 9      3528.332 9        54.671 9  23804366.713 6         0.000 6      2749.352 6        37.977 6
G21  21172645.111 9 111262980.344 9     -1253.864 9        55.709 9  21172644.397 6         0.000 6      -977.037 6        37.977 6
G29  24304152.288 9 127719125.843 9     -3120.725 9        54.473 9  24304153.867 6         0.000 6     -2431.736 6        37.977 6
G27  22001172.363 9 115616914.138 9      2497.618 9        55.376 9  22001174.295 6         0.000 6      1946.197 6        37.977 6
G16  20496459.350 9 107709600.553 9       552.248 9        55.977 9  20496458.524 6         0.000 6       430.323 6        37.977 6
G26  20656671.896 9 108551521.183 9     -1487.568 9        55.872 9  20656674.713 6         0.000 6     -1159.144 6        37.977 6
G20  21940197.950 9 115296485.352 9      2562.199 9        55.317 9  21940198.270 6         0.000 6      1996.520 6        37.977 6
> 2019 07 03 12 01  8.0000000  0  8       0.000000000000
G07  25343541.675 9 133181164.333 9      2182.560 9        54.133 9  25343542.343 6         0.000 6      1700.697 6        37.977 6
G10  23803691.584 9 125089188.976 9      3528.194 9        54.671 9  23803695.306 6         0.000 6      2749.245 6        37.977 6
G21  21172883.747 9 111264234.384 9     -1254.224 9        55.708 9  21172883.034 6         0.000 6      -977.318 6        37.977 6
G29  24304746.150 9 127722246.601 9     -3120.810 9        54.473 9  24304747.730 6         0.000 6     -2431.803 6        37.977 6
G27  22000697.104 9 115614416.639 9      2497.381 9        55.376 9  22000699.036 6         0.000 6      1946.012 6        37.977 6
G16  20496354.319 9 107709048.610 9       551.632 9        55.977 9  20496353.492 6         0.000 6       429.843 6        37.977 6
G26  20656955.024 9 108553009.031 9     -1488.142 9        55.872 9  20656957.842 6         0.000 6     -1159.592 6        37.977 6
G20  21939710.421 9 115293923.375 9      2561.755 9        55.317 9  21939710.740 6         0.000 6      1996.174 6        37.977 6
> 2019 07 03 12 01  9.0000000  0  8       0.000000000000
G07  25343126.392 9 133178982.007 9      2182.100 9        54.133 9  25343127.060 6         0.000 6      1700.338 6        37.977 6
G10  23803020.205 9 125085660.862 9      3528.056 9        54.672 9  23803023.925 6         0.000 6      2749.137 6        37.977 6
G21  21173122.453 9 111265488.788 9     -1254.585 9        55.708 9  21173121.739 6         0.000 6      -977.599 6        37.977 6
G29  24305340.029 9 127725367.443 9     -3120.896 9        54.473 9  24305341.609 6         0.000 6     -2431.869 6        37.977 6
G27  22000221.891 9 115611919.380 9      2497.144 9        55.376 9  22000223.822 6         0.000 6      1945.827 6        37.977 6
G16  20496249.406 9 107708497.286 9       551.015 9        55.977 9  20496248.579 6         0.000 6       429.363 6        37.977 6
G26  20657238.263 9 108554497.459 9     -1488.717 9        55.872 9  20657241.081 6         0.000 6     -1160.040 6        37.977 6
G20  21939222.978 9 115291361.847 9      2561.311 9        55.317 9  21939223.297 6         0.000 6      1995.828 6        37.977 6
> 2019 07 03 12 01 10.0000000  0  8       0.000000000000
G07  25342711.196 9 133176800.143 9      2181.640 9        54.133 9  25342711.864 6         0.000 6      1699.980 6        37.977 6
G10  23802348.850 9 125082132.881 9      3527.918 9        54.672 9  23802352.570 6         0.000 6      2749.029 6        37.977 6
G21  21173361.226 9 111266743.550 9     -1254.945 9        55.708 9  21173360.512 6         0.000 6      -977.879 6        37.977 6
G29  24305933.924 9 127728488.372 9     -3120.981 9        54.473 9  24305935.505 6         0.000 6     -2431.936 6        37.977 6
G27  21999746.723 9 115609422.355 9      2496.907 9        55.376 9  21999748.654 6         0.000 6      1945.642 6        37.977 6
G16  20496144.609 9 107707946.576 9       550.399 9        55.977 9  20496143.782 6         0.000 6       428.882 6        37.977 6
G26  20657521.610 9 108555986.457 9     -1489.291 9        55.872 9  20657524.428 6         0.000 6     -1160.487 6        37.977 6
G20  21938735.618 9 115288800.758 9      2560.867 9        55.318 9  21938735.937 6         0.000 6      1995.482 6        37.977 6
> 2019 07 03 12 01 11.0000000  0  8       0.000000000000
G07  25342296.088 9 133174618.737 9      2181.180 9        54.133 9  25342296.755 6         0.000 6      1699.621 6        37.977 6
G10  23801677.523 9 125078605.044 9      3527.779 9        54.672 9  23801681.242 6         0.000 6      2748.922 6        37.977 6
G21  21173600.068 9 111267998.674 9     -1255.305 9        55.708 9  21173599.355 6         0.000 6      -978.160 6        37.977 6
G29  24306527.835 9 127731609.385 9     -3121.066 9        54.472 9  24306529.416 6         0.000 6     -2432.002 6        37.977 6
G27  21999271.600 9 115606925.570 9      2496.670 9        55.376 9  21999273.531 6         0.000 6      1945.457 6        37.977 6
G16  20496039.930 9 107707396.485 9       549.782 9        55.977 9  20496039.103 6         0.000 6       428.402 6        37.977 6
G26  20657805.068 9 108557476.034 9     -1489.866 9        55.872 9  20657807.885 6         0.000 6     -1160.935 6        37.977 6
G20  21938248.344 9 115286240.118 9      2560.423 9        55.318 9  21938248.662 6         0.000 6      1995.136 6        37.977 6
> 2019 07 03 12 01 12.0000000  0  8       0.000000000000
G07  25341881.067 9 133172437.794 9      2180.720 9        54.133 9  25341881.734 6         0.000 6      1699.263 6        37.977 6
G10  23801006.221 9 125075077.340 9      3527.641 9        54.672 9  23801009.940 6         0.000 6      2748.814 6        37.977 6
G21  21173838.979 9 111269254.156 9     -1255.665 9        55.708 9  21173838.265 6         0.000 6      -978.441 6        37.977 6
G29  24307121.762 9 127734730.484 9     -3121.152 9        54.472 9  24307123.344 6         0.000 6     -2432.069 6        37.977 6
G27  21998796.521 9 115604429.019 9      2496.432 9        55.377 9  21998798.452 6         0.000 6      1945.273 6        37.977 6
G16  20495935.368 9 107706847.008 9       549.166 9        55.977 9  20495934.541 6         0.000 6       427.922 6        37.977 6
G26  20658088.633 9 108558966.180 9     -1490.440 9        55.872 9  20658091.451 6         0.000 6     -1161.383 6        37.977 6
G20  21937761.153 9 115283679.917 9      2559.978 9        55.318 9  21937761.471 6         0.000 6      1994.790 6        37.977 6
> 2019 07 03 12 01 13.0000000  0  8       0.000000000000
G07  25341466.134 9 133170257.308 9      2180.259 9        54.133 9  25341466.801 6         0.000 6      1698.904 6        37.977 6
G10  23800334.947 9 125071549.778 9      3527.503 9        54.673 9  23800338.664 6         0.000 6      2748.706 6        37.977 6
G21  21174077.958 9 111270510.001 9     -1256.025 9        55.708 9  21174077.244 6         0.000 6      -978.721 6        37.977 6
G29  24307715.706 9 127737851.668 9     -3121.237 9        54.472 9  24307717.288 6         0.000 6     -2432.135 6        37.977 6
G27  21998321.489 9 115601932.708 9      2496.195 9        55.377 9  21998323.419 6         0.000 6      1945.088 6        37.977 6
G16  20495830.924 9 107706298.150 9       548.549 9        55.977 9  20495830.097 6         0.000 6       427.441 6        37.977 6
G26  20658372.309 9 108560456.906 9     -1491.015 9        55.871 9  20658375.127 6         0.000 6     -1161.830 6        37.977 6
G20  21937274.047 9 115281120.166 9      2559.534 9        55.318 9  21937274.365 6         0.000 6      1994.443 6        37.977 6
> 2019 07 03 12 01 14.0000000  0  8       0.000000000000
G07  25341051.288 9 133168077.285 9      2179.799 9        54.134 9  25341051.955 6         0.000 6      1698.546 6        37.977 6
G10  23799663.698 9 125068022.351 9      3527.364 9        54.673 9  23799667.415 6         0.000 6      2748.598 6        37.977 6
G21  21174317.006 9 111271766.203 9     -1256.386 9        55.708 9  21174316.292 6         0.000 6      -979.002 6        37.977 6
G29  24308309.665 9 127740972.937 9     -3121.322 9        54.472 9  24308311.249 6         0.000 6     -2432.202 6        37.977 6
G27  21997846.501 9 115599436.633 9      2495.958 9        55.377 9  21997848.431 6         0.000 6      1944.903 6        37.977 6
G16  20495726.597 9 107705749.906 9       547.933 9        55.977 9  20495725.770 6         0.000 6       426.961 6        37.977 6
G26  20658656.094 9 108561948.201 9     -1491.589 9        55.871 9  20658658.912 6         0.000 6     -1162.278 6        37.977 6
G20  21936787.026 9 115278560.854 9      2559.089 9        55.318 9  21936787.343 6         0.000 6      1994.097 6        37.977 6
> 2019 07 03 12 01 15.0000000  0  8       0.000000000000
G07  25340636.531 9 133165897.722 9      2179.339 9        54.134 9  25340637.197 6         0.000 6      1698.187 6        37.977 6
G10  23798992.475 9 125064495.065 9      3527.225 9        54.673 9  23798996.192 6         0.000 6      2748.490 6        37.977 6
G21  21174556.122 9 111273022.766 9     -1256.746 9        55.708 9  21174555.408 6         0.000 6      -979.282 6        37.977 6
G29  24308903.640 9 127744094.286 9     -3121.407 9        54.472 9  24308905.224 6         0.000 6     -2432.268 6        37.977 6
G27  21997371.559 9 115596940.800 9      2495.720 9        55.377 9  21997373.490 6         0.000 6      1944.718 6        37.977 6
G16  20495622.387 9 107705202.283 9       547.316 9        55.977 9  20495621.561 6         0.000 6       426.480 6        37.977 6
G26  20658939.988 9 108563440.076 9     -1492.163 9        55.871 9  20658942.806 6         0.000 6     -1162.725 6        37.977 6
G20  21936300.089 9 115276001.988 9      2558.645 9        55.319 9  21936300.406 6         0.000 6      1993.750 6        37.977 6
> 2019 07 03 12 01 16.0000000  0  8       0.000000000000
G07  25340221.860 9 133163718.617 9      2178.878 9        54.134 9  25340222.527 6         0.000 6      1697.828 6        37.977 6
G10  23798321.280 9 125060967.920 9      3527.086 9        54.673 9  23798324.996 6         0.000 6      2748.382 6        37.977 6
G21  21174795.307 9 111274279.691 9     -1257.106 9        55.708 9  21174794.593 6         0.000 6      -979.563 6        37.977 6
G29  24309497.633 9 127747215.726 9     -3121.493 9        54.471 9  24309499.217 6         0.000 6     -2432.334 6        37.977 6
G27  21996896.662 9 115594445.201 9      2495.483 9        55.377 9  21996898.592 6         0.000 6      1944.533 6        37.977 6
G16  20495518.295 9 107704655.275 9       546.699 9        55.977 9  20495517.468 6         0.000 6       426.000 6        37.977 6
G26  20659223.992 9 108564932.524 9     -1492.738 9        55.871 9  20659226.810 6         0.000 6     -1163.173 6        37.977 6
G20  21935813.237 9 115273443.570 9      2558.200 9        55.319 9  21935813.554 6         0.000 6      1993.404 6        37.977 6
> 2019 07 03 12 01 17.0000000  0  8       0.000000000000
G07  25339807.278 9 133161539.975 9      2178.418 9        54.134 9  25339807.944 6         0.000 6      1697.470 6        37.977 6
G10  23797650.110 9 125057440.909 9      3526.948 9        54.674 9  23797653.825 6         0.000 6      2748.273 6        37.977 6
G21  21175034.560 9 111275536.973 9     -1257.465 9        55.708 9  21175033.846 6         0.000 6      -979.843 6        37.977 6
G29  24310091.641 9 127750337.251 9     -3121.578 9        54.471 9  24310093.226 6         0.000 6     -2432.401 6        37.977 6
G27  21996421.810 9 115591949.838 9      2495.245 9        55.378 9  21996423.740 6         0.000 6      1944.348 6        37.977 6
G16  20495414.320 9 107704108.881 9       546.083 9        55.977 9  20495413.493 6         0.000 6       425.519 6        37.977 6
G26  20659508.105 9 108566425.543 9     -1493.312 9        55.871 9  20659510.923 6         0.000 6     -1163.620 6        37.977 6
G20  21935326.470 9 115270885.593 9      2557.755 9        55.319 9  21935326.786 6         0.000 6      1993.057 6        37.977 6
> 2019 07 03 12 01 18.0000000  0  8       0.000000000000
G07  25339392.782 9 133159361.791 9      2177.957 9        54.134 9  25339393.448 6         0.000 6      1697.111 6        37.977 6
G10  23796978.967 9 125053914.042 9      3526.808 9        54.674 9  23796982.682 6         0.000 6      2748.165 6        37.977 6
G21  21175273.882 9 111276794.618 9     -1257.825 9        55.707 9  21175273.168 6         0.000 6      -980.124 6        37.977 6
G29  24310685.666 9 127753458.861 9     -3121.663 9        54.471 9  24310687.251 6         0.000 6     -2432.467 6        37.977 6
G27  21995947.003 9 115589454.714 9      2495.008 9        55.378 9  21995948.933 6         0.000 6      1944.163 6        37.977 6
G16  20495310.463 9 107703563.107 9       545.466 9        55.977 9  20495309.636 6         0.000 6       425.038 6        37.977 6
G26  20659792.327 9 108567919.140 9     -1493.886 9        55.871 9  20659795.145 6         0.000 6     -1164.068 6        37.977 6
G20  21934839.787 9 115268328.064 9      2557.310 9        55.319 9  21934840.103 6         0.000 6      1992.711 6        37.977 6
> 2019 07 03 12 01 19.0000000  0  8       0.000000000000
G07  25338978.375 9 133157184.070 9      2177.497 9        54.134 9  25338979.041 6         0.000 6      1696.752 6        37.977 6
G10  23796307.850 9 125050387.309 9      3526.669 9        54.674 9  23796311.564 6         0.000 6      2748.057 6        37.977 6
G21  21175513.272 9 111278052.620 9     -1258.185 9        55.707 9  21175512.558 6         0.000 6      -980.404 6        37.977 6
G29  24311279.706 9 127756580.556 9     -3121.748 9        54.471 9  24311281.293 6         0.000 6     -2432.534 6        37.977 6
G27  21995472.241 9 115586959.826 9      2494.770 9        55.378 9  21995474.171 6         0.000 6      1943.978 6        37.977 6
G16  20495206.722 9 107703017.946 9       544.849 9        55.977 9  20495205.895 6         0.000 6       424.558 6        37.977 6
G26  20660076.658 9 108569413.306 9     -1494.460 9        55.871 9  20660079.476 6         0.000 6     -1164.515 6        37.977 6
G20  21934353.189 9 115265770.977 9      2556.865 9        55.319 9  21934353.505 6         0.000 6      1992.364 6        37.977 6
> 2019 07 03 12 01 20.0000000  0  8       0.000000000000
G07  25338564.055 9 133155006.807 9      2177.036 9        54.134 9  25338564.721 6         0.000 6      1696.393 6        37.977 6
G10  23795636.761 9 125046860.720 9      3526.530 9        54.674 9  23795640.474 6         0.000 6      2747.948 6        37.977 6
G21  21175752.731 9 111279310.984 9     -1258.545 9        55.707 9  21175752.017 6         0.000 6      -980.684 6        37.977 6
G29  24311873.763 9 127759702.337 9     -3121.833 9        54.471 9  24311875.351 6         0.000 6     -2432.600 6        37.977 6
G27  21994997.524 9 115584465.177 9      2494.533 9        55.378 9  21994999.454 6         0.000 6      1943.793 6        37.977 6
G16  20495103.099 9 107702473.405 9       544.232 9        55.977 9  20495102.272 6         0.000 6       424.077 6        37.977 6
G26  20660361.099 9 108570908.052 9     -1495.034 9        55.871 9  20660363.917 6         0.000 6     -1164.962 6        37.977 6
G20  21933866.676 9 115263214.338 9      2556.420 9        55.320 9  21933866.991 6         0.000 6      1992.017 6        37.977 6
> 2019 07 03 12 01 21.0000000  0  8       0.000000000000
G07  25338149.823 9 133152830.008 9      2176.575 9        54.135 9  25338150.489 6         0.000 6      1696.034 6        37.977 6
G10  23794965.697 9 125043334.266 9      3526.391 9        54.675 9  23794969.410 6         0.000 6      2747.840 6        37.977 6
G21  21175992.258 9 111280569.706 9     -1258.905 9        55.707 9  21175991.544 6         0.000 6      -980.965 6        37.977 6
G29  24312467.837 9 127762824.202 9     -3121.918 9        54.470 9  24312469.424 6         0.000 6     -2432.666 6        37.977 6
G27  21994522.853 9 115581970.764 9      2494.295 9        55.378 9  21994524.782 6         0.000 6      1943.607 6        37.977 6
G16  20494999.593 9 107701929.478 9       543.615 9        55.978 9  20494998.767 6         0.000 6       423.596 6        37.977 6
G26  20660645.648 9 108572403.367 9     -1495.609 9        55.870 9  20660648.467 6         0.000 6     -1165.410 6        37.977 6
G20  21933380.247 9 115260658.141 9      2555.975 9        55.320 9  21933380.562 6         0.000 6      1991.670 6        37.977 6
> 2019 07 03 12 01 22.0000000  0  8       0.000000000000
G07  25337735.679 9 133150653.666 9      2176.114 9        54.135 9  25337736.344 6         0.000 6      1695.674 6        37.977 6
G10  23794294.660 9 125039807.955 9      3526.251 9        54.675 9  23794298.372 6         0.000 6      2747.731 6        37.977 6
G21  21176231.853 9 111281828.789 9     -1259.264 9        55.707 9  21176231.140 6         0.000 6      -981.245 6        37.977 6
G29  24313061.926 9 127765946.153 9     -3122.003 9        54.470 9  24313063.514 6         0.000 6     -2432.732 6        37.977 6
G27  21994048.227 9 115579476.590 9      2494.058 9        55.378 9  21994050.156 6         0.000 6      1943.422 6        37.977 6
G16  20494896.205 9 107701386.171 9       542.998 9        55.978 9  20494895.379 6         0.000 6       423.116 6        37.977 6
G26  20660930.307 9 108573899.261 9     -1496.183 9        55.870 9  20660933.126 6         0.000 6     -1165.857 6        37.977 6
G20  21932893.903 9 115258102.393 9      2555.530 9        55.320 9  21932894.218 6         0.000 6      1991.323 6        37.977 6
> 2019 07 03 12 01 23.0000000  0  8       0.000000000000
G07  25337321.623 9 133148477.792 9      2175.653 9        54.135 9  25337322.288 6         0.000 6      1695.315 6        37.977 6
G10  23793623.649 9 125036281.777 9      3526.112 9        54.675 9  23793627.360 6         0.000 6      2747.622 6        37.977 6
G21  21176471.517 9 111283088.228 9     -1259.624 9        55.707 9  21176470.803 6         0.000 6      -981.525 6        37.977 6
G29  24313656.031 9 127769068.183 9     -3122.088 9        54.470 9  24313657.620 6         0.000 6     -2432.799 6        37.977 6
G27  21993573.646 9 115576982.655 9      2493.820 9        55.379 9  21993575.575 6         0.000 6      1943.237 6        37.977 6
G16  20494792.935 9 107700843.479 9       542.382 9        55.978 9  20494792.108 6         0.000 6       422.635 6        37.977 6
G26  20661215.075 9 108575395.723 9     -1496.757 9        55.870 9  20661217.894 6         0.000 6     -1166.304 6        37.977 6
G20  21932407.643 9 115255547.083 9      2555.085 9        55.320 9  21932407.958 6         0.000 6      1990.976 6        37.977 6
> 2019 07 03 12 01 24.0000000  0  8       0.000000000000
G07  25336907.654 9 133146302.372 9      2175.192 9        54.135 9  25336908.318 6         0.000 6      1694.956 6        37.977 6
G10  23792952.666 9 125032755.746 9      3525.972 9        54.675 9  23792956.376 6         0.000 6      2747.513 6        37.977 6
G21  21176711.249 9 111284348.031 9     -1259.983 9        55.707 9  21176710.536 6         0.000 6      -981.805 6        37.977 6
G29  24314250.152 9 127772190.304 9     -3122.173 9        54.470 9  24314251.742 6         0.000 6     -2432.865 6        37.977 6
G27  21993099.111 9 115574488.957 9      2493.582 9        55.379 9  21993101.040 6         0.000 6      1943.052 6        37.977 6
G16  20494689.782 9 107700301.406 9       541.765 9        55.978 9  20494688.955 6         0.000 6       422.154 6        37.977 6
G26  20661499.953 9 108576892.765 9     -1497.331 9        55.870 9  20661502.772 6         0.000 6     -1166.752 6        37.977 6
G20  21931921.469 9 115252992.225 9      2554.639 9        55.320 9  21931921.784 6         0.000 6      1990.629 6        37.977 6
> 2019 07 03 12 01 25.0000000  0  8       0.000000000000
G07  25336493.773 9 133144127.417 9      2174.731 9        54.135 9  25336494.437 6         0.000 6      1694.597 6        37.977 6
G10  23792281.708 9 125029229.850 9      3525.832 9        54.676 9  23792285.418 6         0.000 6      2747.405 6        37.977 6
G21  21176951.050 9 111285608.191 9     -1260.343 9        55.707 9  21176950.337 6         0.000 6      -982.085 6        37.977 6
G29  24314844.290 9 127775312.509 9     -3122.258 9        54.470 9  24314845.881 6         0.000 6     -2432.931 6        37.977 6
G27  21992624.620 9 115571995.495 9      2493.345 9        55.379 9  21992626.549 6         0.000 6      1942.867 6        37.977 6
G16  20494586.745 9 107699759.947 9       541.147 9        55.978 9  20494585.918 6         0.000 6       421.673 6        37.977 6
G26  20661784.939 9 108578390.376 9     -1497.905 9        55.870 9  20661787.759 6         0.000 6     -1167.199 6        37.977 6
G20  21931435.379 9 115250437.809 9      2554.194 9        55.321 9  21931435.693 6         0.000 6      1990.282 6        37.977 6
> 2019 07 03 12 01 26.0000000  0  8       0.000000000000
G07  25336079.979 9 133141952.920 9      2174.270 9        54.135 9  25336080.643 6         0.000 6      1694.237 6        37.977 6
G10  23791610.778 9 125025704.098 9      3525.693 9        54.676 9  23791614.487 6         0.000 6      2747.296 6        37.977 6
G21  21177190.919 9 111286868.713 9     -1260.702 9        55.707 9  21177190.206 6         0.000 6      -982.366 6        37.977 6
G29  24315438.444 9 127778434.800 9     -3122.343 9        54.469 9  24315440.035 6         0.000 6     -2432.997 6        37.977 6
G27  21992150.175 9 115569502.272 9      2493.107 9        55.379 9  21992152.104 6         0.000 6      1942.681 6        37.977 6
G16  20494483.827 9 107699219.108 9       540.530 9        55.978 9  20494483.000 6         0.000 6       421.193 6        37.977 6
G26  20662070.036 9 108579888.566 9     -1498.479 9        55.870 9  20662072.855 6         0.000 6     -1167.646 6        37.977 6
G20  21930949.374 9 115247883.843 9      2553.748 9        55.321 9  21930949.688 6         0.000 6      1989.935 6        37.977 6
> 2019 07 03 12 01 27.0000000  0  8       0.000000000000
G07  25335666.273 9 133139778.884 9      2173.809 9        54.135 9  25335666.937 6         0.000 6      1693.878 6        37.977 6
G10  23790939.874 9 125022178.486 9      3525.553 9        54.676 9  23790943.583 6         0.000 6      2747.186 6        37.977 6
G21  21177430.857 9 111288129.594 9     -1261.062 9        55.707 9  21177430.144 6         0.000 6      -982.646 6        37.977 6
G29  24316032.615 9 127781557.176 9     -3122.428 9        54.469 9  24316034.206 6         0.000 6     -2433.064 6        37.977 6
G27  21991675.775 9 115567009.286 9      2492.869 9        55.379 9  21991677.704 6         0.000 6      1942.496 6        37.977 6
G16  20494381.026 9 107698678.886 9       539.913 9        55.978 9  20494380.199 6         0.000 6       420.712 6        37.977 6
G26  20662355.241 9 108581387.330 9     -1499.052 9        55.870 9  20662358.061 6         0.000 6     -1168.093 6        37.977 6
G20  21930463.455 9 115245330.322 9      2553.302 9        55.321 9  21930463.768 6         0.000 6      1989.587 6        37.977 6
> 2019 07 03 12 01 28.0000000  0  8       0.000000000000
G07  25335252.655 9 133137605.312 9      2173.348 9        54.136 9  25335253.319 6         0.000 6      1693.518 6        37.977 6
G10  23790268.996 9 125018653.010 9      3525.412 9        54.676 9  23790272.704 6         0.000 6      2747.077 6        37.977 6
G21  21177670.863 9 111289390.832 9     -1261.421 9        55.706 9  21177670.150 6         0.000 6      -982.925 6        37.977 6
G29  24316626.801 9 127784679.636 9     -3122.513 9        54.469 9  24316628.393 6         0.000 6     -2433.130 6        37.977 6
G27  21991201.420 9 115564516.537 9      2492.631 9        55.380 9  21991203.349 6         0.000 6      1942.311 6        37.977 6
G16  20494278.342 9 107698139.278 9       539.296 9        55.978 9  20494277.515 6         0.000 6       420.231 6        37.977 6
G26  20662640.555 9 108582886.663 9     -1499.626 9        55.870 9  20662643.375 6         0.000 6     -1168.540 6        37.977 6
G20  21929977.619 9 115242777.244 9      2552.856 9        55.321 9  21929977.933 6         0.000 6      1989.240 6        37.977 6
> 2019 07 03 12 01 29.0000000  0  8       0.000000000000
G07  25334839.125 9 133135432.199 9      2172.886 9        54.136 9  25334839.789 6         0.000 6      1693.159 6        37.977 6
G10  23789598.146 9 125015127.678 9      3525.272 9        54.677 9  23789601.853 6         0.000 6      2746.968 6        37.977 6
G21  21177910.938 9 111290652.432 9     -1261.780 9        55.706 9  21177910.224 6         0.000 6      -983.205 6        37.977 6
G29  24317221.004 9 127787802.182 9     -3122.598 9        54.469 9  24317222.596 6         0.000 6     -2433.196 6        37.977 6
G27  21990727.111 9 115562024.028 9      2492.393 9        55.380 9  21990729.039 6         0.000 6      1942.125 6        37.977 6
G16  20494175.776 9 107697600.291 9       538.679 9        55.978 9  20494174.950 6         0.000 6       419.750 6        37.977 6
G26  20662925.979 9 108584386.574 9     -1500.200 9        55.870 9  20662928.799 6         0.000 6     -1168.988 6        37.977 6
G20  21929491.869 9 115240224.615 9      2552.410 9        55.321 9  21929492.182 6         0.000 6      1988.892 6        37.977 6
> 2019 07 03 12 01 30.0000000  0  8       0.000000000000
G07  25334425.683 9 133133259.550 9      2172.425 9        54.136 9  25334426.346 6         0.000 6      1692.799 6        37.977 6
G10  23788927.321 9 125011602.482 9      3525.132 9        54.677 9  23788931.028 6         0.000 6      2746.859 6        37.977 6
G21  21178151.080 9 111291914.388 9     -1262.139 9        55.706 9  21178150.367 6         0.000 6      -983.485 6        37.977 6
G29  24317815.222 9 127790924.812 9     -3122.683 9        54.468 9  24317816.816 6         0.000 6     -2433.262 6        37.977 6
G27  21990252.847 9 115559531.755 9      2492.155 9        55.380 9  21990254.775 6         0.000 6      1941.940 6        37.977 6
G16  20494073.327 9 107697061.917 9       538.062 9        55.978 9  20494072.500 6         0.000 6       419.269 6        37.977 6
G26  20663211.512 9 108585887.054 9     -1500.774 9        55.869 9  20663214.331 6         0.000 6     -1169.435 6        37.977 6
G20  21929006.203 9 115237672.428 9      2551.964 9        55.321 9  21929006.516 6         0.000 6      1988.545 6        37.977 6
> 2019 07 03 12 01 31.0000000  0  8       0.000000000000
G07  25334012.329 9 133131087.362 9      2171.963 9        54.136 9  25334012.992 6         0.000 6      1692.440 6        37.977 6
G10  23788256.524 9 125008077.429 9      3524.992 9        54.677 9  23788260.230 6         0.000 6      2746.749 6        37.977 6
G21  21178391.291 9 111293176.704 9     -1262.498 9        55.706 9  21178390.578 6         0.000 6      -983.765 6        37.977 6
G29  24318409.456 9 127794047.522 9     -3122.768 9        54.468 9  24318411.050 6         0.000 6     -2433.328 6        37.977 6
G27  21989778.629 9 115557039.725 9      2491.917 9        55.380 9  21989780.556 6         0.000 6      1941.754 6        37.977 6
G16  20493970.997 9 107696524.166 9       537.444 9        55.978 9  20493970.170 6         0.000 6       418.788 6        37.977 6
G26  20663497.154 9 108587388.113 9     -1501.348 9        55.869 9  20663499.974 6         0.000 6     -1169.882 6        37.977 6
G20  21928520.622 9 115235120.688 9      2551.518 9        55.322 9  21928520.935 6         0.000 6      1988.197 6        37.977 6
> 2019 07 03 12 01 32.0000000  0  8       0.000000000000
G07  25333599.062 9 133128915.636 9      2171.501 9        54.136 9  25333599.725 6         0.000 6      1692.080 6        37.977 6
G10  23787585.753 9 125004552.513 9      3524.851 9        54.677 9  23787589.458 6         0.000 6      2746.640 6        37.977 6
G21  21178631.570 9 111294439.379 9     -1262.857 9        55.706 9  21178630.857 6         0.000 6      -984.045 6        37.977 6
G29  24319003.707 9 127797170.322 9     -3122.853 9        54.468 9  24319005.302 6         0.000 6     -2433.394 6        37.977 6
G27  21989304.455 9 115554547.927 9      2491.679 9        55.380 9  21989306.382 6         0.000 6      1941.569 6        37.977 6
G16  20493868.782 9 107695987.027 9       536.827 9        55.978 9  20493867.956 6         0.000 6       418.307 6        37.977 6
G26  20663782.904 9 108588889.741 9     -1501.921 9        55.869 9  20663785.724 6         0.000 6     -1170.329 6        37.977 6
G20  21928035.126 9 115232569.393 9      2551.072 9        55.322 9  21928035.439 6         0.000 6      1987.849 6        37.977 6
> 2019 07 03 12 01 33.0000000  0  8       0.000000000000
G07  25333185.883 9 133126744.369 9      2171.040 9        54.136 9  25333186.546 6         0.000 6      1691.720 6        37.977 6
G10  23786915.009 9 125001027.743 9      3524.711 9        54.678 9  23786918.714 6         0.000 6      2746.530 6        37.977 6
G21  21178871.918 9 111295702.415 9     -1263.216 9        55.706 9  21178871.205 6         0.000 6      -984.325 6        37.977 6
G29  24319597.974 9 127800293.207 9     -3122.938 9        54.468 9  24319599.570 6         0.000 6     -2433.460 6        37.977 6
G27  21988830.327 9 115552056.370 9      2491.441 9        55.381 9  21988832.254 6         0.000 6      1941.383 6        37.977 6
G16  20493766.686 9 107695450.508 9       536.210 9        55.978 9  20493765.859 6         0.000 6       417.826 6        37.977 6
G26  20664068.765 9 108590391.948 9     -1502.495 9        55.869 9  20664071.585 6         0.000 6     -1170.776 6        37.977 6
G20  21927549.716 9 115230018.548 9      2550.626 9        55.322 9  21927550.028 6         0.000 6      1987.502 6        37.977 6
> 2019 07 03 12 01 34.0000000  0  8       0.000000000000
G07  25332772.793 9 133124573.567 9      2170.578 9        54.136 9  25332773.455 6         0.000 6      1691.360 6        37.977 6
G10  23786244.292 9 124997503.109 9      3524.570 9        54.678 9  23786247.996 6         0.000 6      2746.421 6        37.977 6
G21  21179112.334 9 111296965.808 9     -1263.575 9        55.706 9  21179111.621 6         0.000 6      -984.604 6        37.977 6
G29  24320192.258 9 127803416.177 9     -3123.022 9        54.468 9  24320193.854 6         0.000 6     -2433.526 6        37.977 6
G27  21988356.244 9 115549565.048 9      2491.203 9        55.381 9  21988358.171 6         0.000 6      1941.198 6        37.977 6
G16  20493664.707 9 107694914.604 9       535.592 9        55.978 9  20493663.880 6         0.000 6       417.345 6        37.977 6
G26  20664354.734 9 108591894.723 9     -1503.069 9        55.869 9  20664357.554 6         0.000 6     -1171.223 6        37.977 6
G20  21927064.390 9 115227468.146 9      2550.179 9        55.322 9  21927064.701 6         0.000 6      1987.154 6        37.977 6
> 2019 07 03 12 01 35.0000000  0  8       0.000000000000
G07  25332359.789 9 133122403.223 9      2170.116 9        54.137 9  25332360.452 6         0.000 6      1691.000 6        37.977 6
G10  23785573.602 9 124993978.620 9      3524.429 9        54.678 9  23785577.305 6         0.000 6      2746.311 6        37.977 6
G21  21179352.818 9 111298229.562 9     -1263.934 9        55.706 9  21179352.106 6         0.000 6      -984.884 6        37.977 6
G29  24320786.557 9 127806539.231 9     -3123.107 9        54.467 9  24320788.154 6         0.000 6     -2433.593 6        37.977 6
G27  21987882.206 9 115547073.967 9      2490.965 9        55.381 9  21987884.133 6         0.000 6      1941.012 6        37.977 6
G16  20493562.846 9 107694379.320 9       534.975 9        55.978 9  20493562.019 6         0.000 6       416.864 6        37.977 6
G26  20664640.813 9 108593398.077 9     -1503.642 9        55.869 9  20664643.634 6         0.000 6     -1171.670 6        37.977 6
G20  21926579.149 9 115224918.195 9      2549.733 9        55.322 9  21926579.461 6         0.000 6      1986.806 6        37.977 6
> 2019 07 03 12 01 36.0000000  0  8       0.000000000000
G07  25331946.874 9 133120233.342 9      2169.654 9        54.137 9  25331947.536 6         0.000 6      1690.640 6        37.977 6
G10  23784902.939 9 124990454.272 9      3524.288 9        54.678 9  23784906.641 6         0.000 6      2746.201 6        37.977 6
G21  21179593.371 9 111299493.675 9     -1264.293 9        55.706 9  21179592.658 6         0.000 6      -985.164 6        37.977 6
G29  24321380.873 9 127809662.370 9     -3123.192 9        54.467 9  24321382.470 6         0.000 6     -2433.659 6        37.977 6
G27  21987408.214 9 115544583.124 9      2490.727 9        55.381 9  21987410.141 6         0.000 6      1940.827 6        37.977 6
G16  20493461.102 9 107693844.654 9       534.358 9        55.978 9  20493460.276 6         0.000 6       416.382 6        37.977 6
G26  20664927.001 9 108594902.004 9     -1504.216 9        55.869 9  20664929.822 6         0.000 6     -1172.117 6        37.977 6
G20  21926093.994 9 115222368.690 9      2549.286 9        55.323 9  21926094.305 6         0.000 6      1986.458 6        37.977 6
> 2019 07 03 12 01 37.0000000  0  8       0.000000000000
G07  25331534.047 9 133118063.925 9      2169.192 9        54.137 9  25331534.709 6         0.000 6      1690.280 6        37.977 6
G10  23784232.301 9 124986930.061 9      3524.147 9        54.679 9  23784236.004 6         0.000 6      2746.091 6        37.977 6
G21  21179833.992 9 111300758.145 9     -1264.652 9        55.706 9  21179833.279 6         0.000 6      -985.443 6        37.977 6
G29  24321975.205 9 127812785.594 9     -3123.277 9        54.467 9  24321976.803 6         0.000 6     -2433.725 6        37.977 6
G27  21986934.267 9 115542092.517 9      2490.489 9        55.381 9  21986936.193 6         0.000 6      1940.641 6        37.977 6
G16  20493359.476 9 107693310.602 9       533.740 9        55.978 9  20493358.649 6         0.000 6       415.901 6        37.977 6
G26  20665213.298 9 108596406.500 9     -1504.789 9        55.869 9  20665216.118 6         0.000 6     -1172.564 6        37.977 6
G20  21925608.922 9 115219819.627 9      2548.840 9        55.323 9  21925609.233 6         0.000 6      1986.110 6        37.977 6
> 2019 07 03 12 01 38.0000000  0  8       0.000000000000
G07  25331121.308 9 133115894.971 9      2168.730 9        54.137 9  25331121.970 6         0.000 6      1689.920 6        37.977 6
G10  23783561.691 9 124983405.992 9      3524.006 9        54.679 9  23783565.393 6         0.000 6      2745.981 6        37.977 6
G21  21180074.681 9 111302022.973 9     -1265.011 9        55.705 9  21180073.968 6         0.000 6      -985.723 6        37.977 6
G29  24322569.551 9 127815908.898 9     -3123.361 9        54.467 9  24322571.150 6         0.000 6     -2433.791 6        37.977 6
G27  21986460.366 9 115539602.154 9      2490.250 9        55.381 9  21986462.292 6         0.000 6      1940.456 6        37.977 6
G16  20493257.967 9 107692777.172 9       533.122 9        55.978 9  20493257.140 6         0.000 6       415.420 6        37.977 6
G26  20665499.704 9 108597911.574 9     -1505.363 9        55.868 9  20665502.525 6         0.000 6     -1173.011 6        37.977 6
G20  21925123.936 9 115217271.012 9      2548.393 9        55.323 9  21925124.247 6         0.000 6      1985.762 6        37.977 6
> 2019 07 03 12 01 39.0000000  0  8       0.000000000000
G07  25330708.657 9 133113726.478 9      2168.268 9        54.137 9  25330709.318 6         0.000 6      1689.560 6        37.977 6
G10  23782891.108 9 124979882.063 9      3523.865 9        54.679 9  23782894.809 6         0.000 6      2745.871 6        37.977 6
G21  21180315.438 9 111303288.160 9     -1265.369 9        55.705 9  21180314.726 6         0.000 6      -986.002 6        37.977 6
G29  24323163.915 9 127819032.291 9     -3123.446 9        54.467 9  24323165.515 6         0.000 6     -2433.857 6        37.977 6
G27  21985986.509 9 115537112.023 9      2490.012 9        55.382 9  21985988.436 6         0.000 6      1940.270 6        37.977 6
G16  20493156.576 9 107692244.355 9       532.505 9        55.978 9  20493155.749 6         0.000 6       414.939 6        37.977 6
G26  20665786.219 9 108599417.217 9     -1505.936 9        55.868 9  20665789.040 6         0.000 6     -1173.457 6        37.977 6
G20  21924639.035 9 115214722.843 9      2547.946 9        55.323 9  21924639.345 6         0.000 6      1985.413 6        37.977 6
> 2019 07 03 12 01 40.0000000  0  8       0.000000000000
G07  25330296.093 9 133111558.445 9      2167.805 9        54.137 9  25330296.754 6         0.000 6      1689.200 6        37.977 6
G10  23782220.552 9 124976358.280 9      3523.723 9        54.679 9  23782224.253 6         0.000 6      2745.761 6        37.977 6
G21  21180556.264 9 111304553.708 9     -1265.728 9        55.705 9  21180555.551 6         0.000 6      -986.282 6        37.977 6
G29  24323758.295 9 127822155.769 9     -3123.531 9        54.466 9  24323759.895 6         0.000 6     -2433.923 6        37.977 6
G27  21985512.698 9 115534622.133 9      2489.774 9        55.382 9  21985514.624 6         0.000 6      1940.084 6        37.977 6
G16  20493055.302 9 107691712.159 9       531.887 9        55.978 9  20493054.475 6         0.000 6       414.458 6        37.977 6
G26  20666072.844 9 108600923.439 9     -1506.510 9        55.868 9  20666075.665 6         0.000 6     -1173.904 6        37.977 6
G20  21924154.219 9 115212175.125 9      2547.499 9        55.323 9  21924154.530 6         0.000 6      1985.065 6        37.977 6
> 2019 07 03 12 01 41.0000000  0  8       0.000000000000
G07  25329883.618 9 133109390.877 9      2167.343 9        54.137 9  25329884.279 6         0.000 6      1688.840 6        37.977 6
G10  23781550.023 9 124972834.633 9      3523.582 9        54.680 9  23781553.722 6         0.000 6      2745.651 6        37.977 6
G21  21180797.158 9 111305819.612 9     -1266.087 9        55.705 9  21180796.445 6         0.000 6      -986.561 6        37.977 6
G29  24324352.692 9 127825279.332 9     -3123.615 9        54.466 9  24324354.292 6         0.000 6     -2433.989 6        37.977 6
G27  21985038.932 9 115532132.479 9      2489.535 9        55.382 9  21985040.858 6         0.000 6      1939.898 6        37.977 6
G16  20492954.145 9 107691180.577 9       531.270 9        55.978 9  20492953.319 6         0.000 6       413.976 6        37.977 6
G26  20666359.577 9 108602430.229 9     -1507.083 9        55.868 9  20666362.398 6         0.000 6     -1174.351 6        37.977 6
G20  21923669.488 9 115209627.850 9      2547.052 9        55.324 9  21923669.798 6         0.000 6      1984.717 6        37.977 6
> 2019 07 03 12 01 42.0000000  0  8       0.000000000000
G07  25329471.230 9 133107223.769 9      2166.881 9        54.138 9  25329471.891 6         0.000 6      1688.479 6        37.977 6
G10  23780879.521 9 124969311.133 9      3523.440 9        54.680 9  23780883.220 6         0.000 6      2745.541 6        37.977 6
G21  21181038.120 9 111307085.878 9     -1266.445 9        55.705 9  21181037.408 6         0.000 6      -986.841 6        37.977 6
G29  24324947.104 9 127828402.979 9     -3123.700 9        54.466 9  24324948.705 6         0.000 6     -2434.054 6        37.977 6
G27  21984565.212 9 115529643.066 9      2489.297 9        55.382 9  21984567.138 6         0.000 6      1939.713 6        37.977 6
G16  20492853.107 9 107690649.617 9       530.652 9        55.978 9  20492852.280 6         0.000 6       413.495 6        37.977 6
G26  20666646.420 9 108603937.597 9     -1507.657 9        55.868 9  20666649.241 6         0.000 6     -1174.798 6        37.977 6
G20  21923184.843 9 115207081.026 9      2546.605 9        55.324 9  21923185.153 6         0.000 6      1984.368 6        37.977 6
> 2019 07 03 12 01 43.0000000  0  8       0.000000000000
G07  25329058.931 9 133105057.126 9      2166.418 9        54.138 9  25329059.592 6         0.000 6      1688.119 6        37.977 6
G10  23780209.045 9 124965787.769 9      3523.299 9        54.680 9  23780212.743 6         0.000 6      2745.430 6        37.977 6
G21  21181279.150 9 111308352.499 9     -1266.804 9        55.705 9  21181278.438 6         0.000 6      -987.120 6        37.977 6
G29  24325541.532 9 127831526.711 9     -3123.784 9        54.466 9  24325543.134 6         0.000 6     -2434.120 6        37.977 6
G27  21984091.537 9 115527153.889 9      2489.059 9        55.382 9  21984093.463 6         0.000 6      1939.527 6        37.977 6
G16  20492752.185 9 107690119.270 9       530.034 9        55.978 9  20492751.359 6         0.000 6       413.014 6        37.977 6
G26  20666933.371 9 108605445.534 9     -1508.230 9        55.868 9  20666936.192 6         0.000 6     -1175.245 6        37.977 6
G20  21922700.282 9 115204534.646 9      2546.157 9        55.324 9  21922700.591 6         0.000 6      1984.020 6        37.977 6
> 2019 07 03 12 01 44.0000000  0  8       0.000000000000
G07  25328646.720 9 133102890.942 9      2165.956 9        54.138 9  25328647.380 6         0.000 6      1687.758 6        37.977 6
G10  23779538.597 9 124962264.552 9      3523.157 9        54.680 9  23779542.295 6         0.000 6      2745.320 6        37.977 6
G21  21181520.249 9 111309619.481 9     -1267.162 9        55.705 9  21181519.537 6         0.000 6      -987.399 6        37.977 6
G29  24326135.977 9 127834650.527 9     -3123.869 9        54.465 9  24326137.579 6         0.000 6     -2434.186 6        37.977 6
G27  21983617.908 9 115524664.952 9      2488.820 9        55.383 9  21983619.833 6         0.000 6      1939.341 6        37.977 6
G16  20492651.382 9 107689589.545 9       529.416 9        55.979 9  20492650.555 6         0.000 6       412.532 6        37.977 6
G26  20667220.432 9 108606954.049 9     -1508.803 9        55.868 9  20667223.253 6         0.000 6     -1175.691 6        37.977 6
G20  21922215.807 9 115201988.716 9      2545.710 9        55.324 9  21922216.116 6         0.000 6      1983.671 6        37.977 6
> 2019 07 03 12 01 45.0000000  0  8       0.000000000000
G07  25328234.597 9 133100725.224 9      2165.493 9        54.138 9  25328235.257 6         0.000 6      1687.398 6        37.977 6
G10  23778868.175 9 124958741.472 9      3523.015 9        54.681 9  23778871.872 6         0.000 6      2745.209 6        37.977 6
G21  21181761.416 9 111310886.819 9     -1267.520 9        55.705 9  21181760.703 6         0.000 6      -987.678 6        37.977 6
G29  24326730.437 9 127837774.428 9     -3123.954 9        54.465 9  24326732.040 6         0.000 6     -2434.252 6        37.977 6
G27  21983144.323 9 115522176.252 9      2488.582 9        55.383 9  21983146.249 6         0.000 6      1939.155 6        37.977 6
G16  20492550.696 9 107689060.434 9       528.799 9        55.979 9  20492549.869 6         0.000 6       412.051 6        37.977 6
G26  20667507.601 9 108608463.132 9     -1509.377 9        55.868 9  20667510.423 6         0.000 6     -1176.138 6        37.977 6
G20  21921731.416 9 115199443.230 9      2545.263 9        55.324 9  21921731.725 6         0.000 6      1983.323 6        37.977 6
> 2019 07 03 12 01 46.0000000  0  8       0.000000000000
G07  25327822.561 9 133098559.966 9      2165.030 9        54.138 9  25327823.221 6         0.000 6      1687.037 6        37.977 6
G10  23778197.781 9 124955218.538 9      3522.873 9        54.681 9  23778201.478 6         0.000 6      2745.099 6        37.977 6
G21  21182002.651 9 111312154.518 9     -1267.879 9        55.705 9  21182001.939 6         0.000 6      -987.958 6        37.977 6
G29  24327324.914 9 127840898.414 9     -3124.038 9        54.465 9  24327326.518 6         0.000 6     -2434.318 6        37.977 6
G27  21982670.785 9 115519687.792 9      2488.343 9        55.383 9  21982672.710 6         0.000 6      1938.969 6        37.977 6
G16  20492450.127 9 107688531.945 9       528.181 9        55.979 9  20492449.301 6         0.000 6       411.569 6        37.977 6
G26  20667794.881 9 108609972.793 9     -1509.950 9        55.867 9  20667797.702 6         0.000 6     -1176.585 6        37.977 6
G20  21921247.111 9 115196898.196 9      2544.815 9        55.325 9  21921247.420 6         0.000 6      1982.974 6        37.977 6
> 2019 07 03 12 01 47.0000000  0  8       0.000000000000
G07  25327410.614 9 133096395.174 9      2164.567 9        54.138 9  25327411.274 6         0.000 6      1686.677 6        37.977 6
G10  23777527.414 9 124951695.744 9      3522.731 9        54.681 9  23777531.110 6         0.000 6      2744.988 6        37.977 6
G21  21182243.954 9 111313422.573 9     -1268.237 9        55.705 9  21182243.242 6         0.000 6      -988.237 6        37.977 6
G29  24327919.406 9 127844022.479 9     -3124.123 9        54.465 9  24327921.010 6         0.000 6     -2434.384 6        37.977 6
G27  21982197.292 9 115517199.575 9      2488.105 9        55.383 9  21982199.217 6         0.000 6      1938.783 6        37.977 6
G16  20492349.677 9 107688004.074 9       527.563 9        55.979 9  20492348.850 6         0.000 6       411.088 6        37.977 6
G26  20668082.269 9 108611483.028 9     -1510.523 9        55.867 9  20668085.091 6         0.000 6     -1177.031 6        37.977 6
G20  21920762.891 9 115194353.606 9      2544.367 9        55.325 9  21920763.199 6         0.000 6      1982.625 6        37.977 6
> 2019 07 03 12 01 48.0000000  0  8       0.000000000000
G07  25326998.755 9 133094230.844 9      2164.105 9        54.138 9  25326999.414 6         0.000 6      1686.316 6        37.977 6
G10  23776857.073 9 124948173.090 9      3522.589 9        54.681 9  23776860.768 6         0.000 6      2744.877 6        37.977 6
G21  21182485.325 9 111314690.985 9     -1268.595 9        55.704 9  21182484.613 6         0.000 6      -988.516 6        37.977 6
G29  24328513.914 9 127847146.633 9     -3124.207 9        54.465 9  24328515.519 6         0.000 6     -2434.450 6        37.977 6
G27  21981723.844 9 115514711.590 9      2487.866 9        55.383 9  21981725.769 6         0.000 6      1938.598 6        37.977 6
G16  20492249.343 9 107687476.817 9       526.945 9        55.979 9  20492248.516 6         0.000 6       410.606 6        37.977 6
G26  20668369.766 9 108612993.831 9     -1511.096 9        55.867 9  20668372.587 6         0.000 6     -1177.478 6        37.977 6
G20  21920278.756 9 115191809.462 9      2543.920 9        55.325 9  21920279.064 6         0.000 6      1982.276 6        37.977 6
> 2019 07 03 12 01 49.0000000  0  8       0.000000000000
G07  25326586.984 9 133092066.974 9      2163.642 9        54.139 9  25326587.643 6         0.000 6      1685.955 6        37.977 6
G10  23776186.760 9 124944650.583 9      3522.447 9        54.681 9  23776190.455 6         0.000 6      2744.766 6        37.977 6
G21  21182726.765 9 111315959.759 9     -1268.953 9        55.704 9  21182726.052 6         0.000 6      -988.795 6        37.977 6
G29  24329108.439 9 127850270.872 9     -3124.292 9        54.464 9  24329110.045 6         0.000 6     -2434.515 6        37.977 6
G27  21981250.441 9 115512223.846 9      2487.627 9        55.384 9  21981252.366 6         0.000 6      1938.412 6        37.977 6
G16  20492149.128 9 107686950.181 9       526.327 9        55.979 9  20492148.301 6         0.000 6       410.125 6        37.977 6
G26  20668657.372 9 108614505.212 9     -1511.669 9        55.867 9  20668660.194 6         0.000 6     -1177.925 6        37.977 6
G20  21919794.707 9 115189265.771 9      2543.472 9        55.325 9  21919795.014 6         0.000 6      1981.927 6        37.977 6
> 2019 07 03 12 01 50.0000000  0  8       0.000000000000
G07  25326175.301 9 133089903.570 9      2163.179 9        54.139 9  25326175.960 6         0.000 6      1685.595 6        37.977 6
G10  23775516.474 9 124941128.214 9      3522.304 9        54.682 9  23775520.167 6         0.000 6      2744.655 6        37.977 6
G21  21182968.272 9 111317228.888 9     -1269.311 9        55.704 9  21182967.560 6         0.000 6      -989.074 6        37.977 6
G29  24329702.980 9 127853395.195 9     -3124.376 9        54.464 9  24329704.586 6         0.000 6     -2434.581 6        37.977 6
G27  21980777.084 9 115509736.339 9      2487.389 9        55.384 9  21980779.009 6         0.000 6      1938.226 6        37.977 6
G16  20492049.029 9 107686424.160 9       525.709 9        55.979 9  20492048.202 6         0.000 6       409.643 6        37.977 6
G26  20668945.087 9 108616017.161 9     -1512.242 9        55.867 9  20668947.909 6         0.000 6     -1178.371 6        37.977 6
G20  21919310.742 9 115186722.523 9      2543.024 9        55.325 9  21919311.049 6         0.000 6      1981.578 6        37.977 6
> 2019 07 03 12 01 51.0000000  0  8       0.000000000000
G07  25325763.706 9 133087740.627 9      2162.715 9        54.139 9  25325764.365 6         0.000 6      1685.234 6        37.977 6
G10  23774846.215 9 124937605.991 9      3522.162 9        54.682 9  23774849.908 6         0.000 6      2744.544 6        37.977 6
G21  21183209.848 9 111318498.377 9     -1269.669 9        55.704 9  21183209.136 6         0.000 6      -989.353 6        37.977 6
G29  24330297.537 9 127856519.603 9     -3124.460 9        54.464 9  24330299.144 6         0.000 6     -2434.647 6        37.977 6
G27  21980303.772 9 115507249.073 9      2487.150 9        55.384 9  21980305.697 6         0.000 6      1938.040 6        37.977 6
G16  20491949.049 9 107685898.760 9       525.091 9        55.979 9  20491948.222 6         0.000 6       409.162 6        37.977 6
G26  20669232.912 9 108617529.688 9     -1512.815 9        55.867 9  20669235.734 6         0.000 6     -1178.818 6        37.977 6
G20  21918826.863 9 115184179.728 9      2542.576 9        55.325 9  21918827.170 6         0.000 6      1981.229 6        37.977 6
> 2019 07 03 12 01 52.0000000  0  8       0.000000000000
G07  25325352.199 9 133085578.149 9      2162.252 9        54.139 9  25325352.858 6         0.000 6      1684.873 6        37.977 6
G10  23774175.983 9 124934083.907 9      3522.019 9        54.682 9  23774179.675 6         0.000 6      2744.433 6        37.977 6
G21  21183451.491 9 111319768.223 9     -1270.027 9        55.704 9  21183450.779 6         0.000 6      -989.632 6        37.977 6
G29  24330892.110 9 127859644.095 9     -3124.545 9        54.464 9  24330893.718 6         0.000 6     -2434.713 6        37.977 6
G27  21979830.506 9 115504762.043 9      2486.911 9        55.384 9  21979832.430 6         0.000 6      1937.853 6        37.977 6
G16  20491849.186 9 107685373.975 9       524.473 9        55.979 9  20491848.359 6         0.000 6       408.680 6        37.977 6
G26  20669520.844 9 108619042.783 9     -1513.388 9        55.867 9  20669523.667 6         0.000 6     -1179.264 6        37.977 6
G20  21918343.069 9 115181637.376 9      2542.128 9        55.326 9  21918343.376 6         0.000 6      1980.880 6        37.977 6
> 2019 07 03 12 01 53.0000000  0  8       0.000000000000
G07  25324940.780 9 133083416.132 9      2161.789 9        54.139 9  25324941.439 6         0.000 6      1684.512 6        37.977 6
G10  23773505.778 9 124930561.970 9      3521.876 9        54.682 9  23773509.470 6         0.000 6      2744.322 6        37.977 6
G21  21183693.204 9 111321038.428 9     -1270.385 9        55.704 9  21183692.492 6         0.000 6      -989.911 6        37.977 6
G29  24331486.699 9 127862768.672 9     -3124.629 9        54.464 9  24331488.308 6         0.000 6     -2434.779 6        37.977 6
G27  21979357.285 9 115502275.254 9      2486.672 9        55.384 9  21979359.209 6         0.000 6      1937.667 6        37.977 6
G16  20491749.441 9 107684849.811 9       523.855 9        55.979 9  20491748.614 6         0.000 6       408.198 6        37.977 6
G26  20669808.887 9 108620556.456 9     -1513.961 9        55.867 9  20669811.709 6         0.000 6     -1179.711 6        37.977 6
G20  21917859.361 9 115179095.477 9      2541.680 9        55.326 9  21917859.667 6         0.000 6      1980.531 6        37.977 6
> 2019 07 03 12 01 54.0000000  0  8       0.000000000000
G07  25324529.451 9 133081254.584 9      2161.326 9        54.139 9  25324530.109 6         0.000 6      1684.151 6        37.977 6
G10  23772835.600 9 124927040.168 9      3521.734 9        54.683 9  23772839.291 6         0.000 6      2744.211 6        37.977 6
G21  21183934.983 9 111322308.987 9     -1270.743 9        55.704 9  21183934.271 6         0.000 6      -990.189 6        37.977 6
G29  24332081.304 9 127865893.328 9     -3124.713 9        54.463 9  24332082.912 6         0.000 6     -2434.844 6        37.977 6
G27  21978884.110 9 115499788.706 9      2486.433 9        55.384 9  21978886.034 6         0.000 6      1937.481 6        37.977 6
G16  20491649.813 9 107684326.264 9       523.237 9        55.979 9  20491648.986 6         0.000 6       407.717 6        37.977 6
G26  20670097.038 9 108622070.697 9     -1514.534 9        55.867 9  20670099.860 6         0.000 6     -1180.157 6        37.977 6
G20  21917375.736 9 115176554.018 9      2541.231 9        55.326 9  21917376.043 6         0.000 6      1980.181 6        37.977 6
> 2019 07 03 12 01 55.0000000  0  8       0.000000000000
G07  25324118.208 9 133079093.493 9      2160.862 9        54.139 9  25324118.866 6         0.000 6      1683.790 6        37.977 6
G10  23772165.450 9 124923518.517 9      3521.591 9        54.683 9  23772169.140 6         0.000 6      2744.099 6        37.977 6
G21  21184176.831 9 111323579.908 9     -1271.101 9        55.704 9  21184176.120 6         0.000 6      -990.468 6        37.977 6
G29  24332675.925 9 127869018.073 9     -3124.798 9        54.463 9  24332677.534 6         0.000 6     -2434.910 6        37.977 6
G27  21978410.980 9 115497302.394 9      2486.195 9        55.385 9  21978412.904 6         0.000 6      1937.295 6        37.977 6
G16  20491550.303 9 107683803.336 9       522.618 9        55.979 9  20491549.476 6         0.000 6       407.235 6        37.977 6
G26  20670385.299 9 108623585.516 9     -1515.107 9        55.866 9  20670388.121 6         0.000 6     -1180.604 6        37.977 6
G20  21916892.199 9 115174013.015 9      2540.783 9        55.326 9  21916892.505 6         0.000 6      1979.832 6        37.977 6
> 2019 07 03 12 01 56.0000000  0  8       0.000000000000
G07  25323707.054 9 133076932.866 9      2160.399 9        54.140 9  25323707.712 6         0.000 6      1683.429 6        37.977 6
G10  23771495.327 9 124919997.008 9      3521.448 9        54.683 9  23771499.017 6         0.000 6      2743.988 6        37.977 6
G21  21184418.748 9 111324851.187 9     -1271.458 9        55.704 9  21184418.036 6         0.000 6      -990.747 6        37.977 6
G29  24333270.562 9 127872142.902 9     -3124.882 9        54.463 9  24333272.172 6         0.000 6     -2434.976 6        37.977 6
G27  21977937.896 9 115494816.322 9      2485.956 9        55.385 9  21977939.820 6         0.000 6      1937.109 6        37.977 6
G16  20491450.911 9 107683281.027 9       522.000 9        55.979 9  20491450.084 6         0.000 6       406.753 6        37.977 6
G26  20670673.669 9 108625100.908 9     -1515.680 9        55.866 9  20670676.491 6         0.000 6     -1181.050 6        37.977 6
G20  21916408.746 9 115171472.461 9      2540.335 9        55.326 9  21916409.052 6         0.000 6      1979.483 6        37.977 6
> 2019 07 03 12 01 57.0000000  0  8       0.000000000000
G07  25323295.988 9 133074772.706 9      2159.935 9        54.140 9  25323296.646 6         0.000 6      1683.067 6        37.977 6
G10  23770825.230 9 124916475.638 9      3521.305 9        54.683 9  23770828.920 6         0.000 6      2743.876 6        37.977 6
G21  21184660.732 9 111326122.821 9     -1271.816 9        55.704 9  21184660.020 6         0.000 6      -991.026 6        37.977 6
G29  24333865.215 9 127875267.816 9     -3124.966 9        54.463 9  24333866.826 6         0.000 6     -2435.041 6        37.977 6
G27  21977464.857 9 115492330.486 9      2485.717 9        55.385 9  21977466.780 6         0.000 6      1936.923 6        37.977 6
G16  20491351.636 9 107682759.333 9       521.382 9        55.979 9  20491350.809 6         0.000 6       406.272 6        37.977 6
G26  20670962.147 9 108626616.868 9     -1516.253 9        55.866 9  20670964.969 6         0.000 6     -1181.496 6        37.977 6
G20  21915925.379 9 115168932.351 9      2539.886 9        55.327 9  21915925.684 6         0.000 6      1979.133 6        37.977 6
> 2019 07 03 12 01 58.0000000  0  8       0.000000000000
G07  25322885.010 9 133072613.006 9      2159.472 9        54.140 9  25322885.668 6         0.000 6      1682.706 6        37.977 6
G10  23770155.162 9 124912954.415 9      3521.161 9        54.684 9  23770158.851 6         0.000 6      2743.765 6        37.977 6
G21  21184902.785 9 111327394.815 9     -1272.174 9        55.703 9  21184902.073 6         0.000 6      -991.304 6        37.977 6
G29  24334459.885 9 127878392.814 9     -3125.051 9        54.463 9  24334461.496 6         0.000 6     -2435.107 6        37.977 6
G27  21976991.863 9 115489844.892 9      2485.478 9        55.385 9  21976993.787 6         0.000 6      1936.737 6        37.977 6
G16  20491252.479 9 107682238.260 9       520.764 9        55.979 9  20491251.652 6         0.000 6       405.790 6        37.977 6
G26  20671250.734 9 108628133.406 9     -1516.826 9        55.866 9  20671253.557 6         0.000 6     -1181.943 6        37.977 6
G20  21915442.097 9 115166392.694 9      2539.437 9        55.327 9  21915442.402 6         0.000 6      1978.783 6        37.977 6
> 2019 07 03 12 01 59.0000000  0  8       0.000000000000
G07  25322474.121 9 133070453.772 9      2159.008 9        54.140 9  25322474.778 6         0.000 6      1682.345 6        37.977 6
G10  23769485.120 9 124909433.332 9      3521.018 9        54.684 9  23769488.808 6         0.000 6      2743.653 6        37.977 6
G21  21185144.905 9 111328667.164 9     -1272.531 9        55.703 9  21185144.193 6         0.000 6      -991.583 6        37.977 6
G29  24335054.570 9 127881517.897 9     -3125.135 9        54.462 9  24335056.182 6         0.000 6     -2435.173 6        37.977 6
G27  21976518.915 9 115487359.534 9      2485.239 9        55.385 9  21976520.838 6         0.000 6      1936.550 6        37.977 6
G16  20491153.439 9 107681717.802 9       520.145 9        55.979 9  20491152.612 6         0.000 6       405.308 6        37.977 6
G26  20671539.430 9 108629650.511 9     -1517.399 9        55.866 9  20671542.253 6         0.000 6     -1182.389 6        37.977 6
G20  21914958.900 9 115163853.481 9      2538.989 9        55.327 9  21914959.205 6         0.000 6      1978.434 6        37.977 6
> 2019 07 03 12 02  0.0000000  0  8       0.000000000000
G07  25322063.320 9 133068295.001 9      2158.544 9        54.140 9  25322063.977 6         0.000 6      1681.983 6        37.977 6
G10  23768815.106 9 124905912.394 9      3520.875 9        54.684 9  23768818.793 6         0.000 6      2743.541 6        37.977 6
G21  21185387.093 9 111329939.873 9     -1272.889 9        55.703 9  21185386.382 6         0.000 6      -991.862 6        37.977 6
G29  24335649.271 9 127884643.061 9     -3125.219 9        54.462 9  24335650.884 6         0.000 6     -2435.238 6        37.977 6
G27  21976046.013 9 115484874.419 9      2485.000 9        55.386 9  21976047.936 6         0.000 6      1936.364 6        37.977 6
G16  20491054.518 9 107681197.966 9       519.527 9        55.979 9  20491053.691 6         0.000 6       404.826 6        37.977 6
G26  20671828.236 9 108631168.193 9     -1517.971 9        55.866 9  20671831.059 6         0.000 6     -1182.835 6        37.977 6
G20  21914475.789 9 115161314.720 9      2538.540 9        55.327 9  21914476.094 6         0.000 6      1978.084 6        37.977 6
