     3.00           Observation Data    M (Mixed)           RINEX VERSION / TYPE
SimGEN V6.06.00     Spirent             03-Jul-19 12:00     PGM / RUN BY / DATE 
                                                            MARKER NAME         
1                                                           MARKER NUMBER       
GROUND_CRAFT                                                MARKER TYPE         
jin4hi              Spirent                                 OBSERVER / AGENCY   
rec_num             rec_type            rec_vers            REC # / TYPE / VERS 
1                   ant_type                                ANT # / TYPE        
  1000.000                                                  INTERVAL            
  2019     7     3    12     0    1.0000000     GPS         TIME OF FIRST OBS   
  4162646.6510   664438.7310  4770549.9870                  APPROX POSITION XYZ 
        0.0000        0.0000        0.0000                  ANTENNA: DELTA H/E/N
G    8 C1C L1C D1C S1C C2C L2C D2C S2C                      SYS / # / OBS TYPES 
        0.0000        0.0000        0.0000                  ANTENNA: DELTA X/Y/Z
DBHZ                                                        SIGNAL STRENGTH UNIT
                                                            END OF HEADER       
> 2019 07 03 12 00  1.0000000  0  8       0.000000000000
G07  25371590.506 9 133328561.693 9      2213.126 9        54.123 9  25371591.190 6         0.000 6      1724.514 6        37.977 6
G10  23848712.241 9 125325773.406 9      3537.189 9        54.655 9  23848716.006 6         0.000 6      2756.251 6        37.977 6
G21  21157035.604 9 111180951.875 9     -1229.939 9        55.715 9  21157034.887 6         0.000 6      -958.394 6        37.977 6
G29  24264954.504 9 127513140.769 9     -3115.003 9        54.487 9  24264956.042 6         0.000 6     -2427.275 6        37.977 6
G27  22032671.224 9 115782441.586 9      2513.196 9        55.363 9  22032673.166 6         0.000 6      1958.335 6        37.977 6
G16  20503665.463 9 107747468.926 9       592.858 9        55.974 9  20503664.636 6         0.000 6       461.968 6        37.977 6
G26  20638227.454 9 108454595.104 9     -1449.555 9        55.880 9  20638230.265 6         0.000 6     -1129.523 6        37.977 6
G20  21972535.604 9 115466420.567 9      2591.283 9        55.304 9  21972535.941 6         0.000 6      2019.182 6        37.977 6
> 2019 07 03 12 00  2.0000000  0  8       0.000000000000
G07  25371169.395 9 133326348.743 9      2212.727 9        54.123 9  25371170.078 6         0.000 6      1724.203 6        37.977 6
G10  23848039.145 9 125322236.274 9      3537.077 9        54.655 9  23848042.910 6         0.000 6      2756.167 6        37.977 6
G21  21157269.688 9 111182181.996 9     -1230.304 9        55.715 9  21157268.972 6         0.000 6      -958.679 6        37.977 6
G29  24265547.283 9 127516255.832 9     -3115.116 9        54.487 9  24265548.821 6         0.000 6     -2427.366 6        37.977 6
G27  22032193.000 9 115779928.506 9      2512.966 9        55.363 9  22032194.942 6         0.000 6      1958.156 6        37.977 6
G16  20503552.704 9 107746876.374 9       592.245 9        55.974 9  20503551.877 6         0.000 6       461.490 6        37.977 6
G26  20638503.351 9 108456044.947 9     -1450.134 9        55.880 9  20638506.161 6         0.000 6     -1129.975 6        37.977 6
G20  21972042.540 9 115463829.502 9      2590.851 9        55.305 9  21972042.877 6         0.000 6      2018.846 6        37.977 6
> 2019 07 03 12 00  3.0000000  0  8       0.000000000000
G07  25370748.371 9 133324136.247 9      2212.272 9        54.123 9  25370749.053 6         0.000 6      1723.849 6        37.977 6
G10  23847366.074 9 125318699.274 9      3536.946 9        54.656 9  23847369.838 6         0.000 6      2756.064 6        37.977 6
G21  21157503.842 9 111183412.482 9     -1230.668 9        55.715 9  21157503.125 6         0.000 6      -958.962 6        37.977 6
G29  24266140.078 9 127519370.982 9     -3115.203 9        54.487 9  24266141.617 6         0.000 6     -2427.434 6        37.977 6
G27  22031714.820 9 115777415.660 9      2512.731 9        55.364 9  22031716.763 6         0.000 6      1957.973 6        37.977 6
G16  20503440.062 9 107746284.436 9       591.631 9        55.974 9  20503439.235 6         0.000 6       461.011 6        37.977 6
G26  20638779.357 9 108457495.368 9     -1450.710 9        55.880 9  20638782.167 6         0.000 6     -1130.424 6        37.977 6
G20  21971549.559 9 115461238.875 9      2590.413 9        55.305 9  21971549.896 6         0.000 6      2018.505 6        37.977 6
> 2019 07 03 12 00  4.0000000  0  8       0.000000000000
G07  25370327.433 9 133321924.209 9      2211.817 9        54.124 9  25370328.116 6         0.000 6      1723.495 6        37.977 6
G10  23846693.028 9 125315162.400 9      3536.815 9        54.656 9  23846696.791 6         0.000 6      2755.962 6        37.977 6
G21  21157738.065 9 111184643.328 9     -1231.032 9        55.715 9  21157737.348 6         0.000 6      -959.246 6        37.977 6
G29  24266732.890 9 127522486.218 9     -3115.290 9        54.487 9  24266734.430 6         0.000 6     -2427.501 6        37.977 6
G27  22031236.686 9 115774903.046 9      2512.497 9        55.364 9  22031238.628 6         0.000 6      1957.790 6        37.977 6
G16  20503327.536 9 107745693.109 9       591.018 9        55.974 9  20503326.709 6         0.000 6       460.533 6        37.977 6
G26  20639055.472 9 108458946.360 9     -1451.287 9        55.880 9  20639058.282 6         0.000 6     -1130.873 6        37.977 6
G20  21971056.660 9 115458648.682 9      2589.975 9        55.305 9  21971056.997 6         0.000 6      2018.164 6        37.977 6
> 2019 07 03 12 00  5.0000000  0  8       0.000000000000
G07  25369906.582 9 133319712.623 9      2211.362 9        54.124 9  25369907.264 6         0.000 6      1723.140 6        37.977 6
G10  23846020.007 9 125311625.662 9      3536.683 9        54.656 9  23846023.769 6         0.000 6      2755.860 6        37.977 6
G21  21157972.357 9 111185874.542 9     -1231.396 9        55.715 9  21157971.640 6         0.000 6      -959.530 6        37.977 6
G29  24267325.718 9 127525601.542 9     -3115.377 9        54.486 9  24267327.259 6         0.000 6     -2427.569 6        37.977 6
G27  22030758.596 9 115772390.670 9      2512.262 9        55.364 9  22030760.538 6         0.000 6      1957.607 6        37.977 6
G16  20503215.127 9 107745102.398 9       590.404 9        55.974 9  20503214.301 6         0.000 6       460.055 6        37.977 6
G26  20639331.697 9 108460397.933 9     -1451.864 9        55.879 9  20639334.508 6         0.000 6     -1131.323 6        37.977 6
G20  21970563.846 9 115456058.930 9      2589.537 9        55.305 9  21970564.183 6         0.000 6      2017.822 6        37.977 6
> 2019 07 03 12 00  6.0000000  0  8       0.000000000000
G07  25369485.817 9 133317501.495 9      2210.907 9        54.124 9  25369486.499 6         0.000 6      1722.786 6        37.977 6
G10  23845347.010 9 125308089.050 9      3536.552 9        54.656 9  23845350.772 6         0.000 6      2755.757 6        37.977 6
G21  21158206.718 9 111187106.117 9     -1231.760 9        55.714 9  21158206.001 6         0.000 6      -959.813 6        37.977 6
G29  24267918.563 9 127528716.952 9     -3115.464 9        54.486 9  24267920.104 6         0.000 6     -2427.637 6        37.977 6
G27  22030280.550 9 115769878.526 9      2512.027 9        55.364 9  22030282.492 6         0.000 6      1957.424 6        37.977 6
G16  20503102.835 9 107744512.298 9       589.790 9        55.974 9  20503102.008 6         0.000 6       459.577 6        37.977 6
G26  20639608.032 9 108461850.079 9     -1452.440 9        55.879 9  20639610.843 6         0.000 6     -1131.772 6        37.977 6
G20  21970071.115 9 115453469.612 9      2589.099 9        55.305 9  21970071.451 6         0.000 6      2017.481 6        37.977 6
> 2019 07 03 12 00  7.0000000  0  8       0.000000000000
G07  25369065.139 9 133315290.819 9      2210.452 9        54.124 9  25369065.821 6         0.000 6      1722.431 6        37.977 6
G10  23844674.039 9 125304552.575 9      3536.420 9        54.657 9  23844677.800 6         0.000 6      2755.655 6        37.977 6
G21  21158441.149 9 111188338.058 9     -1232.124 9        55.714 9  21158440.432 6         0.000 6      -960.097 6        37.977 6
G29  24268511.424 9 127531832.449 9     -3115.551 9        54.486 9  24268512.966 6         0.000 6     -2427.704 6        37.977 6
G27  22029802.550 9 115767366.619 9      2511.792 9        55.364 9  22029804.491 6         0.000 6      1957.241 6        37.977 6
G16  20502990.660 9 107743922.815 9       589.176 9        55.974 9  20502989.834 6         0.000 6       459.098 6        37.977 6
G26  20639884.477 9 108463302.806 9     -1453.017 9        55.879 9  20639887.288 6         0.000 6     -1132.221 6        37.977 6
G20  21969578.467 9 115450880.737 9      2588.661 9        55.306 9  21969578.803 6         0.000 6      2017.139 6        37.977 6
> 2019 07 03 12 00  8.0000000  0  8       0.000000000000
G07  25368644.548 9 133313080.604 9      2209.997 9        54.124 9  25368645.230 6         0.000 6      1722.077 6        37.977 6
G10  23844001.092 9 125301016.225 9      3536.289 9        54.657 9  23844004.852 6         0.000 6      2755.552 6        37.977 6
G21  21158675.648 9 111189570.358 9     -1232.487 9        55.714 9  21158674.931 6         0.000 6      -960.380 6        37.977 6
G29  24269104.301 9 127534948.028 9     -3115.637 9        54.486 9  24269105.843 6         0.000 6     -2427.772 6        37.977 6
G27  22029324.594 9 115764854.949 9      2511.558 9        55.364 9  22029326.536 6         0.000 6      1957.058 6        37.977 6
G16  20502878.602 9 107743333.944 9       588.562 9        55.974 9  20502877.775 6         0.000 6       458.620 6        37.977 6
G26  20640161.031 9 108464756.105 9     -1453.594 9        55.879 9  20640163.842 6         0.000 6     -1132.671 6        37.977 6
G20  21969085.902 9 115448292.293 9      2588.223 9        55.306 9  21969086.237 6         0.000 6      2016.798 6        37.977 6
> 2019 07 03 12 00  9.0000000  0  8       0.000000000000
G07  25368224.043 9 133310870.838 9      2209.542 9        54.124 9  25368224.724 6         0.000 6      1721.722 6        37.977 6
G10  23843328.171 9 125297480.013 9      3536.157 9        54.657 9  23843331.931 6         0.000 6      2755.450 6        37.977 6
G21  21158910.217 9 111190803.027 9     -1232.851 9        55.714 9  21158909.500 6         0.000 6      -960.663 6        37.977 6
G29  24269697.196 9 127538063.699 9     -3115.724 9        54.486 9  24269698.738 6         0.000 6     -2427.840 6        37.977 6
G27  22028846.683 9 115762343.511 9      2511.323 9        55.365 9  22028848.624 6         0.000 6      1956.875 6        37.977 6
G16  20502766.661 9 107742745.690 9       587.948 9        55.974 9  20502765.834 6         0.000 6       458.141 6        37.977 6
G26  20640437.695 9 108466209.985 9     -1454.170 9        55.879 9  20640440.506 6         0.000 6     -1133.120 6        37.977 6
G20  21968593.421 9 115445704.294 9      2587.784 9        55.306 9  21968593.756 6         0.000 6      2016.456 6        37.977 6
> 2019 07 03 12 00 10.0000000  0  8       0.000000000000
G07  25367803.625 9 133308661.530 9      2209.087 9        54.124 9  25367804.306 6         0.000 6      1721.367 6        37.977 6
G10  23842655.274 9 125293943.928 9      3536.025 9        54.657 9  23842659.034 6         0.000 6      2755.347 6        37.977 6
G21  21159144.855 9 111192036.057 9     -1233.215 9        55.714 9  21159144.138 6         0.000 6      -960.947 6        37.977 6
G29  24270290.106 9 127541179.456 9     -3115.811 9        54.485 9  24270291.650 6         0.000 6     -2427.907 6        37.977 6
G27  22028368.816 9 115759832.307 9      2511.088 9        55.365 9  22028370.757 6         0.000 6      1956.692 6        37.977 6
G16  20502654.836 9 107742158.046 9       587.334 9        55.974 9  20502654.009 6         0.000 6       457.663 6        37.977 6
G26  20640714.469 9 108467664.437 9     -1454.747 9        55.879 9  20640717.280 6         0.000 6     -1133.569 6        37.977 6
G20  21968101.023 9 115443116.729 9      2587.346 9        55.306 9  21968101.358 6         0.000 6      2016.115 6        37.977 6
> 2019 07 03 12 00 11.0000000  0  8       0.000000000000
G07  25367383.293 9 133306452.675 9      2208.631 9        54.125 9  25367383.974 6         0.000 6      1721.012 6        37.977 6
G10  23841982.404 9 125290407.980 9      3535.893 9        54.657 9  23841986.162 6         0.000 6      2755.244 6        37.977 6
G21  21159379.562 9 111193269.453 9     -1233.578 9        55.714 9  21159378.846 6         0.000 6      -961.230 6        37.977 6
G29  24270883.034 9 127544295.300 9     -3115.898 9        54.485 9  24270884.578 6         0.000 6     -2427.975 6        37.977 6
G27  22027890.994 9 115757321.340 9      2510.853 9        55.365 9  22027892.935 6         0.000 6      1956.509 6        37.977 6
G16  20502543.128 9 107741571.019 9       586.720 9        55.974 9  20502542.302 6         0.000 6       457.184 6        37.977 6
G26  20640991.353 9 108469119.470 9     -1455.323 9        55.879 9  20640994.164 6         0.000 6     -1134.019 6        37.977 6
G20  21967608.709 9 115440529.607 9      2586.907 9        55.306 9  21967609.044 6         0.000 6      2015.773 6        37.977 6
> 2019 07 03 12 00 12.0000000  0  8       0.000000000000
G07  25366963.048 9 133304244.278 9      2208.176 9        54.125 9  25366963.729 6         0.000 6      1720.657 6        37.977 6
G10  23841309.557 9 125286872.159 9      3535.761 9        54.658 9  23841313.315 6         0.000 6      2755.141 6        37.977 6
G21  21159614.339 9 111194503.210 9     -1233.942 9        55.714 9  21159613.622 6         0.000 6      -961.513 6        37.977 6
G29  24271475.978 9 127547411.231 9     -3115.984 9        54.485 9  24271477.522 6         0.000 6     -2428.042 6        37.977 6
G27  22027413.217 9 115754810.605 9      2510.618 9        55.365 9  22027415.158 6         0.000 6      1956.326 6        37.977 6
G16  20502431.537 9 107740984.603 9       586.106 9        55.974 9  20502430.710 6         0.000 6       456.706 6        37.977 6
G26  20641268.345 9 108470575.075 9     -1455.900 9        55.879 9  20641271.157 6         0.000 6     -1134.468 6        37.977 6
G20  21967116.478 9 115437942.920 9      2586.469 9        55.306 9  21967116.813 6         0.000 6      2015.431 6        37.977 6
> 2019 07 03 12 00 13.0000000  0  8       0.000000000000
G07  25366542.890 9 133302036.334 9      2207.720 9        54.125 9  25366543.570 6         0.000 6      1720.302 6        37.977 6
G10  23840636.737 9 125283336.475 9      3535.629 9        54.658 9  23840640.494 6         0.000 6      2755.038 6        37.977 6
G21  21159849.185 9 111195737.333 9     -1234.306 9        55.714 9  21159848.468 6         0.000 6      -961.797 6        37.977 6
G29  24272068.938 9 127550527.249 9     -3116.071 9        54.485 9  24272070.483 6         0.000 6     -2428.110 6        37.977 6
G27  22026935.485 9 115752300.108 9      2510.383 9        55.365 9  22026937.425 6         0.000 6      1956.143 6        37.977 6
G16  20502320.063 9 107740398.804 9       585.491 9        55.974 9  20502319.237 6         0.000 6       456.227 6        37.977 6
G26  20641545.449 9 108472031.261 9     -1456.476 9        55.878 9  20641548.260 6         0.000 6     -1134.917 6        37.977 6
G20  21966624.331 9 115435356.675 9      2586.030 9        55.307 9  21966624.666 6         0.000 6      2015.089 6        37.977 6
> 2019 07 03 12 00 14.0000000  0  8       0.000000000000
G07  25366122.818 9 133299828.845 9      2207.264 9        54.125 9  25366123.498 6         0.000 6      1719.947 6        37.977 6
G10  23839963.942 9 125279800.924 9      3535.496 9        54.658 9  23839967.699 6         0.000 6      2754.935 6        37.977 6
G21  21160084.100 9 111196971.819 9     -1234.669 9        55.714 9  21160083.384 6         0.000 6      -962.080 6        37.977 6
G29  24272661.915 9 127553643.353 9     -3116.158 9        54.485 9  24272663.461 6         0.000 6     -2428.177 6        37.977 6
G27  22026457.797 9 115749789.846 9      2510.148 9        55.366 9  22026459.738 6         0.000 6      1955.960 6        37.977 6
G16  20502208.706 9 107739813.620 9       584.877 9        55.974 9  20502207.880 6         0.000 6       455.748 6        37.977 6
G26  20641822.662 9 108473488.024 9     -1457.053 9        55.878 9  20641825.473 6         0.000 6     -1135.366 6        37.977 6
G20  21966132.268 9 115432770.869 9      2585.591 9        55.307 9  21966132.602 6         0.000 6      2014.747 6        37.977 6
> 2019 07 03 12 00 15.0000000  0  8       0.000000000000
G07  25365702.834 9 133297621.815 9      2206.809 9        54.125 9  25365703.514 6         0.000 6      1719.592 6        37.977 6
G10  23839291.171 9 125276265.500 9      3535.364 9        54.658 9  23839294.927 6         0.000 6      2754.832 6        37.977 6
G21  21160319.084 9 111198206.667 9     -1235.032 9        55.714 9  21160318.367 6         0.000 6      -962.363 6        37.977 6
G29  24273254.908 9 127556759.544 9     -3116.244 9        54.484 9  24273256.454 6         0.000 6     -2428.245 6        37.977 6
G27  22025980.154 9 115747279.816 9      2509.912 9        55.366 9  22025982.094 6         0.000 6      1955.777 6        37.977 6
G16  20502097.466 9 107739229.047 9       584.263 9        55.975 9  20502096.639 6         0.000 6       455.270 6        37.977 6
G26  20642099.984 9 108474945.358 9     -1457.629 9        55.878 9  20642102.795 6         0.000 6     -1135.815 6        37.977 6
G20  21965640.287 9 115430185.498 9      2585.152 9        55.307 9  21965640.621 6         0.000 6      2014.405 6        37.977 6
> 2019 07 03 12 00 16.0000000  0  8       0.000000000000
G07  25365282.936 9 133295415.240 9      2206.353 9        54.125 9  25365283.615 6         0.000 6      1719.237 6        37.977 6
G10  23838618.426 9 125272730.211 9      3535.231 9        54.659 9  23838622.181 6         0.000 6      2754.729 6        37.977 6
G21  21160554.137 9 111199441.878 9     -1235.396 9        55.713 9  21160553.420 6         0.000 6      -962.646 6        37.977 6
G29  24273847.917 9 127559875.816 9     -3116.331 9        54.484 9  24273849.464 6         0.000 6     -2428.312 6        37.977 6
G27  22025502.557 9 115744770.028 9      2509.677 9        55.366 9  22025504.497 6         0.000 6      1955.593 6        37.977 6
G16  20501986.343 9 107738645.093 9       583.649 9        55.975 9  20501985.516 6         0.000 6       454.791 6        37.977 6
G26  20642377.416 9 108476403.273 9     -1458.205 9        55.878 9  20642380.228 6         0.000 6     -1136.264 6        37.977 6
G20  21965148.390 9 115427600.567 9      2584.713 9        55.307 9  21965148.724 6         0.000 6      2014.063 6        37.977 6
> 2019 07 03 12 00 17.0000000  0  8       0.000000000000
G07  25364863.125 9 133293209.121 9      2205.897 9        54.125 9  25364863.804 6         0.000 6      1718.882 6        37.977 6
G10  23837945.705 9 125269195.052 9      3535.099 9        54.659 9  23837949.460 6         0.000 6      2754.625 6        37.977 6
G21  21160789.259 9 111200677.452 9     -1235.759 9        55.713 9  21160788.543 6         0.000 6      -962.929 6        37.977 6
G29  24274440.943 9 127562992.180 9     -3116.417 9        54.484 9  24274442.491 6         0.000 6     -2428.380 6        37.977 6
G27  22025025.003 9 115742260.469 9      2509.442 9        55.366 9  22025026.943 6         0.000 6      1955.410 6        37.977 6
G16  20501875.336 9 107738061.748 9       583.034 9        55.975 9  20501874.509 6         0.000 6       454.312 6        37.977 6
G26  20642654.957 9 108477861.760 9     -1458.781 9        55.878 9  20642657.769 6         0.000 6     -1136.713 6        37.977 6
G20  21964656.577 9 115425016.074 9      2584.274 9        55.307 9  21964656.910 6         0.000 6      2013.721 6        37.977 6
> 2019 07 03 12 00 18.0000000  0  8       0.000000000000
G07  25364443.400 9 133291003.456 9      2205.441 9        54.126 9  25364444.079 6         0.000 6      1718.527 6        37.977 6
G10  23837273.011 9 125265660.030 9      3534.966 9        54.659 9  23837276.765 6         0.000 6      2754.522 6        37.977 6
G21  21161024.450 9 111201913.392 9     -1236.122 9        55.713 9  21161023.734 6         0.000 6      -963.212 6        37.977 6
G29  24275033.986 9 127566108.630 9     -3116.504 9        54.484 9  24275035.534 6         0.000 6     -2428.447 6        37.977 6
G27  22024547.494 9 115739751.147 9      2509.207 9        55.366 9  22024549.434 6         0.000 6      1955.227 6        37.977 6
G16  20501764.447 9 107737479.021 9       582.420 9        55.975 9  20501763.620 6         0.000 6       453.834 6        37.977 6
G26  20642932.609 9 108479320.828 9     -1459.358 9        55.878 9  20642935.421 6         0.000 6     -1137.162 6        37.977 6
G20  21964164.847 9 115422432.024 9      2583.835 9        55.308 9  21964165.180 6         0.000 6      2013.379 6        37.977 6
> 2019 07 03 12 00 19.0000000  0  8       0.000000000000
G07  25364023.762 9 133288798.249 9      2204.985 9        54.126 9  25364024.441 6         0.000 6      1718.171 6        37.977 6
G10  23836600.341 9 125262125.137 9      3534.833 9        54.659 9  23836604.095 6         0.000 6      2754.418 6        37.977 6
G21  21161259.711 9 111203149.693 9     -1236.485 9        55.713 9  21161258.995 6         0.000 6      -963.495 6        37.977 6
G29  24275627.045 9 127569225.167 9     -3116.590 9        54.484 9  24275628.594 6         0.000 6     -2428.515 6        37.977 6
G27  22024070.030 9 115737242.059 9      2508.972 9        55.367 9  22024071.970 6         0.000 6      1955.043 6        37.977 6
G16  20501653.674 9 107736896.905 9       581.806 9        55.975 9  20501652.847 6         0.000 6       453.355 6        37.977 6
G26  20643210.369 9 108480780.467 9     -1459.934 9        55.878 9  20643213.181 6         0.000 6     -1137.611 6        37.977 6
G20  21963673.201 9 115419848.410 9      2583.395 9        55.308 9  21963673.534 6         0.000 6      2013.037 6        37.977 6
> 2019 07 03 12 00 20.0000000  0  8       0.000000000000
G07  25363604.211 9 133286593.495 9      2204.529 9        54.126 9  25363604.890 6         0.000 6      1717.816 6        37.977 6
G10  23835927.697 9 125258590.380 9      3534.700 9        54.660 9  23835931.450 6         0.000 6      2754.315 6        37.977 6
G21  21161495.041 9 111204386.359 9     -1236.848 9        55.713 9  21161494.325 6         0.000 6      -963.778 6        37.977 6
G29  24276220.121 9 127572341.791 9     -3116.677 9        54.483 9  24276221.670 6         0.000 6     -2428.582 6        37.977 6
G27  22023592.611 9 115734733.208 9      2508.736 9        55.367 9  22023594.551 6         0.000 6      1954.860 6        37.977 6
G16  20501543.018 9 107736315.407 9       581.191 9        55.975 9  20501542.192 6         0.000 6       452.876 6        37.977 6
G26  20643488.240 9 108482240.687 9     -1460.510 9        55.878 9  20643491.052 6         0.000 6     -1138.060 6        37.977 6
G20  21963181.639 9 115417265.238 9      2582.956 9        55.308 9  21963181.971 6         0.000 6      2012.694 6        37.977 6
> 2019 07 03 12 00 21.0000000  0  8       0.000000000000
G07  25363184.747 9 133284389.200 9      2204.073 9        54.126 9  25363185.425 6         0.000 6      1717.461 6        37.977 6
G10  23835255.078 9 125255055.753 9      3534.567 9        54.660 9  23835258.830 6         0.000 6      2754.211 6        37.977 6
G21  21161730.439 9 111205623.386 9     -1237.211 9        55.713 9  21161729.723 6         0.000 6      -964.061 6        37.977 6
G29  24276813.213 9 127575458.501 9     -3116.763 9        54.483 9  24276814.763 6         0.000 6     -2428.649 6        37.977 6
G27  22023115.236 9 115732224.590 9      2508.501 9        55.367 9  22023117.176 6         0.000 6      1954.677 6        37.977 6
G16  20501432.479 9 107735734.520 9       580.577 9        55.975 9  20501431.653 6         0.000 6       452.397 6        37.977 6
G26  20643766.220 9 108483701.479 9     -1461.086 9        55.878 9  20643769.032 6         0.000 6     -1138.509 6        37.977 6
G20  21962690.160 9 115414682.503 9      2582.517 9        55.308 9  21962690.492 6         0.000 6      2012.352 6        37.977 6
> 2019 07 03 12 00 22.0000000  0  8       0.000000000000
G07  25362765.369 9 133282185.359 9      2203.617 9        54.126 9  25362766.047 6         0.000 6      1717.105 6        37.977 6
G10  23834582.485 9 125251521.263 9      3534.434 9        54.660 9  23834586.236 6         0.000 6      2754.107 6        37.977 6
G21  21161965.907 9 111206860.778 9     -1237.574 9        55.713 9  21161965.191 6         0.000 6      -964.344 6        37.977 6
G29  24277406.321 9 127578575.297 9     -3116.850 9        54.483 9  24277407.872 6         0.000 6     -2428.717 6        37.977 6
G27  22022637.907 9 115729716.210 9      2508.266 9        55.367 9  22022639.846 6         0.000 6      1954.493 6        37.977 6
G16  20501322.058 9 107735154.250 9       579.962 9        55.975 9  20501321.231 6         0.000 6       451.918 6        37.977 6
G26  20644044.310 9 108485162.852 9     -1461.662 9        55.877 9  20644047.123 6         0.000 6     -1138.958 6        37.977 6
G20  21962198.765 9 115412100.210 9      2582.077 9        55.308 9  21962199.097 6         0.000 6      2012.009 6        37.977 6
> 2019 07 03 12 00 23.0000000  0  8       0.000000000000
G07  25362346.078 9 133279981.974 9      2203.161 9        54.126 9  25362346.756 6         0.000 6      1716.749 6        37.977 6
G10  23833909.917 9 125247986.906 9      3534.301 9        54.660 9  23833913.668 6         0.000 6      2754.003 6        37.977 6
G21  21162201.444 9 111208098.533 9     -1237.937 9        55.713 9  21162200.728 6         0.000 6      -964.627 6        37.977 6
G29  24277999.446 9 127581692.180 9     -3116.936 9        54.483 9  24278000.998 6         0.000 6     -2428.784 6        37.977 6
G27  22022160.622 9 115727208.065 9      2508.030 9        55.367 9  22022162.561 6         0.000 6      1954.310 6        37.977 6
G16  20501211.753 9 107734574.596 9       579.347 9        55.975 9  20501210.926 6         0.000 6       451.440 6        37.977 6
G26  20644322.510 9 108486624.801 9     -1462.239 9        55.877 9  20644325.323 6         0.000 6     -1139.407 6        37.977 6
G20  21961707.454 9 115409518.358 9      2581.637 9        55.309 9  21961707.786 6         0.000 6      2011.667 6        37.977 6
> 2019 07 03 12 00 24.0000000  0  8       0.000000000000
G07  25361926.875 9 133277779.051 9      2202.704 9        54.126 9  25361927.553 6         0.000 6      1716.394 6        37.977 6
G10  23833237.374 9 125244452.676 9      3534.168 9        54.661 9  23833241.124 6         0.000 6      2753.900 6        37.977 6
G21  21162437.050 9 111209336.647 9     -1238.300 9        55.713 9  21162436.334 6         0.000 6      -964.909 6        37.977 6
G29  24278592.587 9 127584809.144 9     -3117.023 9        54.482 9  24278594.139 6         0.000 6     -2428.851 6        37.977 6
G27  22021683.383 9 115724700.157 9      2507.795 9        55.368 9  22021685.322 6         0.000 6      1954.126 6        37.977 6
G16  20501101.565 9 107733995.554 9       578.733 9        55.975 9  20501100.738 6         0.000 6       450.961 6        37.977 6
G26  20644600.819 9 108488087.321 9     -1462.815 9        55.877 9  20644603.631 6         0.000 6     -1139.856 6        37.977 6
G20  21961216.225 9 115406936.938 9      2581.197 9        55.309 9  21961216.557 6         0.000 6      2011.324 6        37.977 6
> 2019 07 03 12 00 25.0000000  0  8       0.000000000000
G07  25361507.758 9 133275576.578 9      2202.248 9        54.127 9  25361508.435 6         0.000 6      1716.038 6        37.977 6
G10  23832564.857 9 125240918.585 9      3534.034 9        54.661 9  23832568.606 6         0.000 6      2753.796 6        37.977 6
G21  21162672.725 9 111210575.128 9     -1238.663 9        55.713 9  21162672.009 6         0.000 6      -965.192 6        37.977 6
G29  24279185.745 9 127587926.200 9     -3117.109 9        54.482 9  24279187.297 6         0.000 6     -2428.919 6        37.977 6
G27  22021206.188 9 115722192.483 9      2507.559 9        55.368 9  22021208.127 6         0.000 6      1953.943 6        37.977 6
G16  20500991.494 9 107733417.128 9       578.118 9        55.975 9  20500990.668 6         0.000 6       450.482 6        37.977 6
G26  20644879.238 9 108489550.421 9     -1463.391 9        55.877 9  20644882.051 6         0.000 6     -1140.305 6        37.977 6
G20  21960725.082 9 115404355.965 9      2580.758 9        55.309 9  21960725.413 6         0.000 6      2010.981 6        37.977 6
> 2019 07 03 12 00 26.0000000  0  8       0.000000000000
G07  25361088.728 9 133273374.565 9      2201.791 9        54.127 9  25361089.405 6         0.000 6      1715.682 6        37.977 6
G10  23831892.364 9 125237384.624 9      3533.901 9        54.661 9  23831896.113 6         0.000 6      2753.692 6        37.977 6
G21  21162908.469 9 111211813.969 9     -1239.026 9        55.713 9  21162907.753 6         0.000 6      -965.475 6        37.977 6
G29  24279778.919 9 127591043.342 9     -3117.195 9        54.482 9  24279780.472 6         0.000 6     -2428.986 6        37.977 6
G27  22020729.037 9 115719685.042 9      2507.324 9        55.368 9  22020730.976 6         0.000 6      1953.759 6        37.977 6
G16  20500881.540 9 107732839.314 9       577.503 9        55.975 9  20500880.713 6         0.000 6       450.003 6        37.977 6
G26  20645157.766 9 108491014.094 9     -1463.967 9        55.877 9  20645160.579 6         0.000 6     -1140.754 6        37.977 6
G20  21960234.021 9 115401775.427 9      2580.318 9        55.309 9  21960234.352 6         0.000 6      2010.638 6        37.977 6
> 2019 07 03 12 00 27.0000000  0  8       0.000000000000
G07  25360669.784 9 133271173.006 9      2201.335 9        54.127 9  25360670.462 6         0.000 6      1715.327 6        37.977 6
G10  23831219.898 9 125233850.801 9      3533.767 9        54.661 9  23831223.646 6         0.000 6      2753.587 6        37.977 6
G21  21163144.282 9 111213053.176 9     -1239.389 9        55.712 9  21163143.566 6         0.000 6      -965.758 6        37.977 6
G29  24280372.110 9 127594160.570 9     -3117.282 9        54.482 9  24280373.664 6         0.000 6     -2429.053 6        37.977 6
G27  22020251.932 9 115717177.839 9      2507.088 9        55.368 9  22020253.870 6         0.000 6      1953.576 6        37.977 6
G16  20500771.703 9 107732262.118 9       576.889 9        55.975 9  20500770.877 6         0.000 6       449.524 6        37.977 6
G26  20645436.404 9 108492478.347 9     -1464.543 9        55.877 9  20645439.217 6         0.000 6     -1141.202 6        37.977 6
G20  21959743.045 9 115399195.334 9      2579.878 9        55.309 9  21959743.375 6         0.000 6      2010.295 6        37.977 6
> 2019 07 03 12 00 28.0000000  0  8       0.000000000000
G07  25360250.928 9 133268971.906 9      2200.878 9        54.127 9  25360251.605 6         0.000 6      1714.971 6        37.977 6
G10  23830547.456 9 125230317.108 9      3533.633 9        54.662 9  23830551.204 6         0.000 6      2753.483 6        37.977 6
G21  21163380.164 9 111214292.743 9     -1239.751 9        55.712 9  21163379.448 6         0.000 6      -966.040 6        37.977 6
G29  24280965.317 9 127597277.885 9     -3117.368 9        54.482 9  24280966.872 6         0.000 6     -2429.120 6        37.977 6
G27  22019774.871 9 115714670.870 9      2506.852 9        55.368 9  22019776.809 6         0.000 6      1953.392 6        37.977 6
G16  20500661.983 9 107731685.534 9       576.274 9        55.975 9  20500661.156 6         0.000 6       449.045 6        37.977 6
G26  20645715.151 9 108493943.171 9     -1465.119 9        55.877 9  20645717.964 6         0.000 6     -1141.651 6        37.977 6
G20  21959252.151 9 115396615.677 9      2579.437 9        55.310 9  21959252.481 6         0.000 6      2009.952 6        37.977 6
> 2019 07 03 12 00 29.0000000  0  8       0.000000000000
G07  25359832.159 9 133266771.260 9      2200.421 9        54.127 9  25359832.835 6         0.000 6      1714.615 6        37.977 6
G10  23829875.041 9 125226783.552 9      3533.499 9        54.662 9  23829878.788 6         0.000 6      2753.379 6        37.977 6
G21  21163616.115 9 111215532.675 9     -1240.114 9        55.712 9  21163615.399 6         0.000 6      -966.323 6        37.977 6
G29  24281558.541 9 127600395.286 9     -3117.454 9        54.481 9  24281560.096 6         0.000 6     -2429.188 6        37.977 6
G27  22019297.855 9 115712164.138 9      2506.617 9        55.368 9  22019299.793 6         0.000 6      1953.209 6        37.977 6
G16  20500552.380 9 107731109.567 9       575.659 9        55.975 9  20500551.553 6         0.000 6       448.566 6        37.977 6
G26  20645994.009 9 108495408.575 9     -1465.694 9        55.877 9  20645996.822 6         0.000 6     -1142.100 6        37.977 6
G20  21958761.343 9 115394036.465 9      2578.997 9        55.310 9  21958761.672 6         0.000 6      2009.609 6        37.977 6
> 2019 07 03 12 00 30.0000000  0  8       0.000000000000
G07  25359413.476 9 133264571.074 9      2199.964 9        54.127 9  25359414.153 6         0.000 6      1714.259 6        37.977 6
G10  23829202.650 9 125223250.126 9      3533.365 9        54.662 9  23829206.396 6         0.000 6      2753.274 6        37.977 6
G21  21163852.135 9 111216772.967 9     -1240.476 9        55.712 9  21163851.419 6         0.000 6      -966.605 6        37.977 6
G29  24282151.781 9 127603512.773 9     -3117.541 9        54.481 9  24282153.337 6         0.000 6     -2429.255 6        37.977 6
G27  22018820.884 9 115709657.640 9      2506.381 9        55.369 9  22018822.822 6         0.000 6      1953.025 6        37.977 6
G16  20500442.894 9 107730534.213 9       575.044 9        55.975 9  20500442.067 6         0.000 6       448.086 6        37.977 6
G26  20646272.975 9 108496874.551 9     -1466.270 9        55.877 9  20646275.789 6         0.000 6     -1142.549 6        37.977 6
G20  21958270.617 9 115391457.688 9      2578.557 9        55.310 9  21958270.946 6         0.000 6      2009.266 6        37.977 6
> 2019 07 03 12 00 31.0000000  0  8       0.000000000000
G07  25358994.881 9 133262371.342 9      2199.507 9        54.127 9  25358995.557 6         0.000 6      1713.903 6        37.977 6
G10  23828530.286 9 125219716.838 9      3533.231 9        54.662 9  23828534.031 6         0.000 6      2753.170 6        37.977 6
G21  21164088.224 9 111218013.624 9     -1240.839 9        55.712 9  21164087.509 6         0.000 6      -966.888 6        37.977 6
G29  24282745.037 9 127606630.347 9     -3117.627 9        54.481 9  24282746.594 6         0.000 6     -2429.322 6        37.977 6
G27  22018343.958 9 115707151.379 9      2506.145 9        55.369 9  22018345.896 6         0.000 6      1952.841 6        37.977 6
G16  20500333.525 9 107729959.476 9       574.429 9        55.975 9  20500332.698 6         0.000 6       447.607 6        37.977 6
G26  20646552.052 9 108498341.108 9     -1466.846 9        55.876 9  20646554.865 6         0.000 6     -1142.997 6        37.977 6
G20  21957779.976 9 115388879.356 9      2578.116 9        55.310 9  21957780.305 6         0.000 6      2008.923 6        37.977 6
> 2019 07 03 12 00 32.0000000  0  8       0.000000000000
G07  25358576.373 9 133260172.072 9      2199.050 9        54.128 9  25358577.049 6         0.000 6      1713.547 6        37.977 6
G10  23827857.946 9 125216183.678 9      3533.097 9        54.663 9  23827861.691 6         0.000 6      2753.065 6        37.977 6
G21  21164324.382 9 111219254.639 9     -1241.201 9        55.712 9  21164323.666 6         0.000 6      -967.170 6        37.977 6
G29  24283338.309 9 127609748.001 9     -3117.713 9        54.481 9  24283339.866 6         0.000 6     -2429.389 6        37.977 6
G27  22017867.077 9 115704645.356 9      2505.910 9        55.369 9  22017869.015 6         0.000 6      1952.658 6        37.977 6
G16  20500224.273 9 107729385.352 9       573.814 9        55.975 9  20500223.446 6         0.000 6       447.128 6        37.977 6
G26  20646831.237 9 108499808.235 9     -1467.422 9        55.876 9  20646834.051 6         0.000 6     -1143.446 6        37.977 6
G20  21957289.417 9 115386301.457 9      2577.676 9        55.310 9  21957289.746 6         0.000 6      2008.580 6        37.977 6
> 2019 07 03 12 00 33.0000000  0  8       0.000000000000
G07  25358157.951 9 133257973.254 9      2198.593 9        54.128 9  25358158.627 6         0.000 6      1713.190 6        37.977 6
G10  23827185.633 9 125212650.659 9      3532.963 9        54.663 9  23827189.377 6         0.000 6      2752.961 6        37.977 6
G21  21164560.609 9 111220496.020 9     -1241.564 9        55.712 9  21164559.893 6         0.000 6      -967.452 6        37.977 6
G29  24283931.598 9 127612865.747 9     -3117.799 9        54.481 9  24283933.156 6         0.000 6     -2429.457 6        37.977 6
G27  22017390.241 9 115702139.567 9      2505.674 9        55.369 9  22017392.178 6         0.000 6      1952.474 6        37.977 6
G16  20500115.138 9 107728811.845 9       573.199 9        55.975 9  20500114.311 6         0.000 6       446.649 6        37.977 6
G26  20647110.533 9 108501275.943 9     -1467.998 9        55.876 9  20647113.347 6         0.000 6     -1143.895 6        37.977 6
G20  21956798.943 9 115383724.006 9      2577.235 9        55.311 9  21956799.272 6         0.000 6      2008.236 6        37.977 6
> 2019 07 03 12 00 34.0000000  0  8       0.000000000000
G07  25357739.616 9 133255774.893 9      2198.136 9        54.128 9  25357740.292 6         0.000 6      1712.834 6        37.977 6
G10  23826513.345 9 125209117.774 9      3532.828 9        54.663 9  23826517.088 6         0.000 6      2752.856 6        37.977 6
G21  21164796.905 9 111221737.765 9     -1241.926 9        55.712 9  21164796.190 6         0.000 6      -967.735 6        37.977 6
G29  24284524.904 9 127615983.580 9     -3117.885 9        54.480 9  24284526.462 6         0.000 6     -2429.524 6        37.977 6
G27  22016913.449 9 115699634.014 9      2505.438 9        55.369 9  22016915.386 6         0.000 6      1952.290 6        37.977 6
G16  20500006.120 9 107728238.953 9       572.584 9        55.975 9  20500005.294 6         0.000 6       446.170 6        37.977 6
G26  20647389.939 9 108502744.227 9     -1468.573 9        55.876 9  20647392.752 6         0.000 6     -1144.343 6        37.977 6
G20  21956308.554 9 115381146.996 9      2576.794 9        55.311 9  21956308.882 6         0.000 6      2007.893 6        37.977 6
> 2019 07 03 12 00 35.0000000  0  8       0.000000000000
G07  25357321.369 9 133253576.992 9      2197.679 9        54.128 9  25357322.044 6         0.000 6      1712.478 6        37.977 6
G10  23825841.082 9 125205585.019 9      3532.694 9        54.663 9  23825844.825 6         0.000 6      2752.751 6        37.977 6
G21  21165033.270 9 111222979.869 9     -1242.288 9        55.712 9  21165032.554 6         0.000 6      -968.017 6        37.977 6
G29  24285118.226 9 127619101.498 9     -3117.972 9        54.480 9  24285119.785 6         0.000 6     -2429.591 6        37.977 6
G27  22016436.702 9 115697128.695 9      2505.202 9        55.370 9  22016438.639 6         0.000 6      1952.106 6        37.977 6
G16  20499897.219 9 107727666.673 9       571.969 9        55.975 9  20499896.392 6         0.000 6       445.690 6        37.977 6
G26  20647669.453 9 108504213.082 9     -1469.149 9        55.876 9  20647672.267 6         0.000 6     -1144.792 6        37.977 6
G20  21955818.247 9 115378570.422 9      2576.354 9        55.311 9  21955818.576 6         0.000 6      2007.549 6        37.977 6
> 2019 07 03 12 00 36.0000000  0  8       0.000000000000
G07  25356903.208 9 133251379.546 9      2197.221 9        54.128 9  25356903.883 6         0.000 6      1712.122 6        37.977 6
G10  23825168.846 9 125202052.404 9      3532.559 9        54.664 9  23825172.588 6         0.000 6      2752.646 6        37.977 6
G21  21165269.704 9 111224222.337 9     -1242.650 9        55.712 9  21165268.988 6         0.000 6      -968.299 6        37.977 6
G29  24285711.564 9 127622219.502 9     -3118.058 9        54.480 9  24285713.124 6         0.000 6     -2429.658 6        37.977 6
G27  22015960.001 9 115694623.613 9      2504.966 9        55.370 9  22015961.938 6         0.000 6      1951.922 6        37.977 6
G16  20499788.435 9 107727095.012 9       571.354 9        55.975 9  20499787.609 6         0.000 6       445.211 6        37.977 6
G26  20647949.077 9 108505682.517 9     -1469.725 9        55.876 9  20647951.891 6         0.000 6     -1145.241 6        37.977 6
G20  21955328.025 9 115375994.294 9      2575.913 9        55.311 9  21955328.353 6         0.000 6      2007.206 6        37.977 6
> 2019 07 03 12 00 37.0000000  0  8       0.000000000000
G07  25356485.134 9 133249182.559 9      2196.764 9        54.128 9  25356485.810 6         0.000 6      1711.765 6        37.977 6
G10  23824496.634 9 125198519.918 9      3532.425 9        54.664 9  23824500.375 6         0.000 6      2752.541 6        37.977 6
G21  21165506.206 9 111225465.166 9     -1243.013 9        55.711 9  21165505.491 6         0.000 6      -968.581 6        37.977 6
G29  24286304.919 9 127625337.593 9     -3118.144 9        54.480 9  24286306.479 6         0.000 6     -2429.725 6        37.977 6
G27  22015483.343 9 115692118.766 9      2504.730 9        55.370 9  22015485.280 6         0.000 6      1951.739 6        37.977 6
G16  20499679.768 9 107726523.962 9       570.739 9        55.976 9  20499678.942 6         0.000 6       444.732 6        37.977 6
G26  20648228.811 9 108507152.523 9     -1470.300 9        55.876 9  20648231.625 6         0.000 6     -1145.689 6        37.977 6
G20  21954837.887 9 115373418.602 9      2575.472 9        55.311 9  21954838.214 6         0.000 6      2006.862 6        37.977 6
> 2019 07 03 12 00 38.0000000  0  8       0.000000000000
G07  25356067.148 9 133246986.027 9      2196.307 9        54.128 9  25356067.823 6         0.000 6      1711.409 6        37.977 6
G10  23823824.449 9 125194987.572 9      3532.290 9        54.664 9  23823828.189 6         0.000 6      2752.436 6        37.977 6
G21  21165742.778 9 111226708.359 9     -1243.375 9        55.711 9  21165742.063 6         0.000 6      -968.864 6        37.977 6
G29  24286898.291 9 127628455.770 9     -3118.230 9        54.479 9  24286899.851 6         0.000 6     -2429.792 6        37.977 6
G27  22015006.732 9 115689614.156 9      2504.494 9        55.370 9  22015008.668 6         0.000 6      1951.555 6        37.977 6
G16  20499571.219 9 107725953.530 9       570.124 9        55.976 9  20499570.392 6         0.000 6       444.252 6        37.977 6
G26  20648508.654 9 108508623.109 9     -1470.876 9        55.876 9  20648511.468 6         0.000 6     -1146.138 6        37.977 6
G20  21954347.833 9 115370843.355 9      2575.031 9        55.312 9  21954348.160 6         0.000 6      2006.518 6        37.977 6
> 2019 07 03 12 00 39.0000000  0  8       0.000000000000
G07  25355649.248 9 133244789.956 9      2195.849 9        54.129 9  25355649.923 6         0.000 6      1711.052 6        37.977 6
G10  23823152.288 9 125191455.356 9      3532.155 9        54.664 9  23823156.028 6         0.000 6      2752.331 6        37.977 6
G21  21165979.419 9 111227951.911 9     -1243.737 9        55.711 9  21165978.703 6         0.000 6      -969.146 6        37.977 6
G29  24287491.678 9 127631574.032 9     -3118.316 9        54.479 9  24287493.240 6         0.000 6     -2429.859 6        37.977 6
G27  22014530.164 9 115687109.781 9      2504.258 9        55.370 9  22014532.101 6         0.000 6      1951.371 6        37.977 6
G16  20499462.786 9 107725383.711 9       569.509 9        55.976 9  20499461.959 6         0.000 6       443.773 6        37.977 6
G26  20648788.606 9 108510094.266 9     -1471.452 9        55.875 9  20648791.421 6         0.000 6     -1146.586 6        37.977 6
G20  21953857.862 9 115368268.546 9      2574.589 9        55.312 9  21953858.189 6         0.000 6      2006.175 6        37.977 6
> 2019 07 03 12 00 40.0000000  0  8       0.000000000000
G07  25355231.436 9 133242594.342 9      2195.391 9        54.129 9  25355232.111 6         0.000 6      1710.696 6        37.977 6
G10  23822480.154 9 125187923.277 9      3532.020 9        54.665 9  23822483.893 6         0.000 6      2752.226 6        37.977 6
G21  21166216.128 9 111229195.826 9     -1244.099 9        55.711 9  21166215.413 6         0.000 6      -969.428 6        37.977 6
G29  24288085.081 9 127634692.376 9     -3118.402 9        54.479 9  24288086.643 6         0.000 6     -2429.926 6        37.977 6
G27  22014053.643 9 115684605.647 9      2504.022 9        55.371 9  22014055.579 6         0.000 6      1951.187 6        37.977 6
G16  20499354.471 9 107724814.511 9       568.893 9        55.976 9  20499353.644 6         0.000 6       443.294 6        37.977 6
G26  20649068.669 9 108511566.004 9     -1472.027 9        55.875 9  20649071.483 6         0.000 6     -1147.035 6        37.977 6
G20  21953367.975 9 115365694.178 9      2574.148 9        55.312 9  21953368.302 6         0.000 6      2005.831 6        37.977 6
> 2019 07 03 12 00 41.0000000  0  8       0.000000000000
G07  25354813.711 9 133240399.186 9      2194.934 9        54.129 9  25354814.386 6         0.000 6      1710.339 6        37.977 6
G10  23821808.045 9 125184391.331 9      3531.885 9        54.665 9  23821811.784 6         0.000 6      2752.121 6        37.977 6
G21  21166452.906 9 111230440.103 9     -1244.461 9        55.711 9  21166452.191 6         0.000 6      -969.710 6        37.977 6
G29  24288678.501 9 127637810.811 9     -3118.488 9        54.479 9  24288680.064 6         0.000 6     -2429.993 6        37.977 6
G27  22013577.165 9 115682101.743 9      2503.786 9        55.371 9  22013579.102 6         0.000 6      1951.003 6        37.977 6
G16  20499246.272 9 107724245.922 9       568.278 9        55.976 9  20499245.445 6         0.000 6       442.814 6        37.977 6
G26  20649348.840 9 108513038.312 9     -1472.603 9        55.875 9  20649351.655 6         0.000 6     -1147.483 6        37.977 6
G20  21952878.172 9 115363120.251 9      2573.707 9        55.312 9  21952878.499 6         0.000 6      2005.487 6        37.977 6
> 2019 07 03 12 00 42.0000000  0  8       0.000000000000
G07  25354396.073 9 133238204.485 9      2194.476 9        54.129 9  25354396.747 6         0.000 6      1709.982 6        37.977 6
G10  23821135.963 9 125180859.524 9      3531.749 9        54.665 9  23821139.701 6         0.000 6      2752.015 6        37.977 6
G21  21166689.753 9 111231684.744 9     -1244.823 9        55.711 9  21166689.038 6         0.000 6      -969.992 6        37.977 6
G29  24289271.938 9 127640929.332 9     -3118.574 9        54.479 9  24289273.501 6         0.000 6     -2430.060 6        37.977 6
G27  22013100.733 9 115679598.078 9      2503.550 9        55.371 9  22013102.669 6         0.000 6      1950.819 6        37.977 6
G16  20499138.191 9 107723677.952 9       567.663 9        55.976 9  20499137.364 6         0.000 6       442.335 6        37.977 6
G26  20649629.122 9 108514511.201 9     -1473.178 9        55.875 9  20649631.937 6         0.000 6     -1147.931 6        37.977 6
G20  21952388.454 9 115360546.770 9      2573.265 9        55.312 9  21952388.781 6         0.000 6      2005.143 6        37.977 6
> 2019 07 03 12 00 43.0000000  0  8       0.000000000000
G07  25353978.522 9 133236010.241 9      2194.018 9        54.129 9  25353979.195 6         0.000 6      1709.625 6        37.977 6
G10  23820463.906 9 125177327.853 9      3531.614 9        54.665 9  23820467.643 6         0.000 6      2751.910 6        37.977 6
G21  21166926.670 9 111232929.747 9     -1245.184 9        55.711 9  21166925.955 6         0.000 6      -970.274 6        37.977 6
G29  24289865.391 9 127644047.938 9     -3118.660 9        54.478 9  24289866.955 6         0.000 6     -2430.127 6        37.977 6
G27  22012624.346 9 115677094.649 9      2503.314 9        55.371 9  22012626.282 6         0.000 6      1950.635 6        37.977 6
G16  20499030.227 9 107723110.597 9       567.047 9        55.976 9  20499029.400 6         0.000 6       441.855 6        37.977 6
G26  20649909.513 9 108515984.664 9     -1473.753 9        55.875 9  20649912.328 6         0.000 6     -1148.380 6        37.977 6
G20  21951898.820 9 115357973.730 9      2572.824 9        55.312 9  21951899.146 6         0.000 6      2004.799 6        37.977 6
> 2019 07 03 12 00 44.0000000  0  8       0.000000000000
G07  25353561.058 9 133233816.458 9      2193.560 9        54.129 9  25353561.731 6         0.000 6      1709.269 6        37.977 6
G10  23819791.874 9 125173796.313 9      3531.479 9        54.666 9  23819795.611 6         0.000 6      2751.804 6        37.977 6
G21  21167163.654 9 111234175.109 9     -1245.546 9        55.711 9  21167162.939 6         0.000 6      -970.556 6        37.977 6
G29  24290458.861 9 127647166.631 9     -3118.746 9        54.478 9  24290460.425 6         0.000 6     -2430.194 6        37.977 6
G27  22012148.003 9 115674591.454 9      2503.078 9        55.371 9  22012149.939 6         0.000 6      1950.451 6        37.977 6
G16  20498922.379 9 107722543.854 9       566.432 9        55.976 9  20498921.552 6         0.000 6       441.376 6        37.977 6
G26  20650190.013 9 108517458.699 9     -1474.329 9        55.875 9  20650192.828 6         0.000 6     -1148.828 6        37.977 6
G20  21951409.269 9 115355401.128 9      2572.382 9        55.313 9  21951409.595 6         0.000 6      2004.455 6        37.977 6
> 2019 07 03 12 00 45.0000000  0  8       0.000000000000
G07  25353143.681 9 133231623.131 9      2193.102 9        54.129 9  25353144.354 6         0.000 6      1708.912 6        37.977 6
G10  23819119.869 9 125170264.913 9      3531.343 9        54.666 9  23819123.605 6         0.000 6      2751.699 6        37.977 6
G21  21167400.708 9 111235420.835 9     -1245.908 9        55.711 9  21167399.993 6         0.000 6      -970.837 6        37.977 6
G29  24291052.346 9 127650285.410 9     -3118.832 9        54.478 9  24291053.912 6         0.000 6     -2430.261 6        37.977 6
G27  22011671.706 9 115672088.497 9      2502.841 9        55.371 9  22011673.641 6         0.000 6      1950.267 6        37.977 6
G16  20498814.649 9 107721977.730 9       565.816 9        55.976 9  20498813.822 6         0.000 6       440.896 6        37.977 6
G26  20650470.623 9 108518933.314 9     -1474.904 9        55.875 9  20650473.438 6         0.000 6     -1149.276 6        37.977 6
G20  21950919.803 9 115352828.971 9      2571.940 9        55.313 9  21950920.129 6         0.000 6      2004.110 6        37.977 6
> 2019 07 03 12 00 46.0000000  0  8       0.000000000000
G07  25352726.392 9 133229430.264 9      2192.644 9        54.130 9  25352727.065 6         0.000 6      1708.555 6        37.977 6
G10  23818447.889 9 125166733.644 9      3531.207 9        54.666 9  23818451.624 6         0.000 6      2751.593 6        37.977 6
G21  21167637.831 9 111236666.921 9     -1246.270 9        55.711 9  21167637.116 6         0.000 6      -971.119 6        37.977 6
G29  24291645.849 9 127653404.274 9     -3118.918 9        54.478 9  24291647.414 6         0.000 6     -2430.328 6        37.977 6
G27  22011195.453 9 115669585.775 9      2502.605 9        55.372 9  22011197.388 6         0.000 6      1950.083 6        37.977 6
G16  20498707.036 9 107721412.218 9       565.201 9        55.976 9  20498706.209 6         0.000 6       440.416 6        37.977 6
G26  20650751.342 9 108520408.499 9     -1475.479 9        55.875 9  20650754.157 6         0.000 6     -1149.725 6        37.977 6
G20  21950430.421 9 115350257.252 9      2571.498 9        55.313 9  21950430.746 6         0.000 6      2003.766 6        37.977 6
> 2019 07 03 12 00 47.0000000  0  8       0.000000000000
G07  25352309.189 9 133227237.856 9      2192.186 9        54.130 9  25352309.862 6         0.000 6      1708.198 6        37.977 6
G10  23817775.935 9 125163202.513 9      3531.072 9        54.666 9  23817779.670 6         0.000 6      2751.487 6        37.977 6
G21  21167875.022 9 111237913.368 9     -1246.631 9        55.710 9  21167874.307 6         0.000 6      -971.401 6        37.977 6
G29  24292239.366 9 127656523.220 9     -3119.004 9        54.478 9  24292240.933 6         0.000 6     -2430.395 6        37.977 6
G27  22010719.246 9 115667083.294 9      2502.369 9        55.372 9  22010721.182 6         0.000 6      1949.898 6        37.977 6
G16  20498599.540 9 107720847.326 9       564.585 9        55.976 9  20498598.714 6         0.000 6       439.937 6        37.977 6
G26  20651032.171 9 108521884.264 9     -1476.055 9        55.875 9  20651034.986 6         0.000 6     -1150.173 6        37.977 6
G20  21949941.122 9 115347685.976 9      2571.056 9        55.313 9  21949941.447 6         0.000 6      2003.422 6        37.977 6
> 2019 07 03 12 00 48.0000000  0  8       0.000000000000
G07  25351892.074 9 133225045.905 9      2191.728 9        54.130 9  25351892.747 6         0.000 6      1707.841 6        37.977 6
G10  23817104.006 9 125159671.516 9      3530.936 9        54.667 9  23817107.741 6         0.000 6      2751.381 6        37.977 6
G21  21168112.282 9 111239160.177 9     -1246.993 9        55.710 9  21168111.567 6         0.000 6      -971.683 6        37.977 6
G29  24292832.901 9 127659642.256 9     -3119.089 9        54.477 9  24292834.468 6         0.000 6     -2430.462 6        37.977 6
G27  22010243.084 9 115664581.044 9      2502.132 9        55.372 9  22010245.019 6         0.000 6      1949.714 6        37.977 6
G16  20498492.161 9 107720283.045 9       563.970 9        55.976 9  20498491.335 6         0.000 6       439.457 6        37.977 6
G26  20651313.109 9 108523360.600 9     -1476.630 9        55.874 9  20651315.924 6         0.000 6     -1150.621 6        37.977 6
G20  21949451.908 9 115345115.141 9      2570.614 9        55.313 9  21949452.232 6         0.000 6      2003.077 6        37.977 6
> 2019 07 03 12 00 49.0000000  0  8       0.000000000000
G07  25351475.046 9 133222854.410 9      2191.269 9        54.130 9  25351475.719 6         0.000 6      1707.483 6        37.977 6
G10  23816432.105 9 125156140.659 9      3530.800 9        54.667 9  23816435.838 6         0.000 6      2751.275 6        37.977 6
G21  21168349.611 9 111240407.350 9     -1247.354 9        55.710 9  21168348.896 6         0.000 6      -971.964 6        37.977 6
G29  24293426.452 9 127662761.378 9     -3119.175 9        54.477 9  24293428.020 6         0.000 6     -2430.529 6        37.977 6
G27  22009766.966 9 115662079.033 9      2501.896 9        55.372 9  22009768.901 6         0.000 6      1949.530 6        37.977 6
G16  20498384.900 9 107719719.383 9       563.354 9        55.976 9  20498384.073 6         0.000 6       438.977 6        37.977 6
G26  20651594.157 9 108524837.516 9     -1477.205 9        55.874 9  20651596.972 6         0.000 6     -1151.069 6        37.977 6
G20  21948962.778 9 115342544.753 9      2570.172 9        55.314 9  21948963.103 6         0.000 6      2002.733 6        37.977 6
> 2019 07 03 12 00 50.0000000  0  8       0.000000000000
G07  25351058.106 9 133220663.377 9      2190.811 9        54.130 9  25351058.778 6         0.000 6      1707.126 6        37.977 6
G10  23815760.228 9 125152609.933 9      3530.664 9        54.667 9  23815763.961 6         0.000 6      2751.169 6        37.977 6
G21  21168587.009 9 111241654.882 9     -1247.716 9        55.710 9  21168586.294 6         0.000 6      -972.246 6        37.977 6
G29  24294020.020 9 127665880.586 9     -3119.261 9        54.477 9  24294021.588 6         0.000 6     -2430.596 6        37.977 6
G27  22009290.893 9 115659577.256 9      2501.660 9        55.372 9  22009292.828 6         0.000 6      1949.346 6        37.977 6
G16  20498277.755 9 107719156.334 9       562.739 9        55.976 9  20498276.928 6         0.000 6       438.498 6        37.977 6
G26  20651875.313 9 108526315.002 9     -1477.780 9        55.874 9  20651878.129 6         0.000 6     -1151.518 6        37.977 6
G20  21948473.732 9 115339974.802 9      2569.730 9        55.314 9  21948474.056 6         0.000 6      2002.388 6        37.977 6
> 2019 07 03 12 00 51.0000000  0  8       0.000000000000
G07  25350641.252 9 133218472.799 9      2190.352 9        54.130 9  25350641.924 6         0.000 6      1706.769 6        37.977 6
G10  23815088.378 9 125149079.348 9      3530.527 9        54.667 9  23815092.110 6         0.000 6      2751.063 6        37.977 6
G21  21168824.475 9 111242902.777 9     -1248.077 9        55.710 9  21168823.761 6         0.000 6      -972.528 6        37.977 6
G29  24294613.603 9 127668999.880 9     -3119.347 9        54.477 9  24294615.172 6         0.000 6     -2430.662 6        37.977 6
G27  22008814.866 9 115657075.717 9      2501.423 9        55.373 9  22008816.800 6         0.000 6      1949.162 6        37.977 6
G16  20498170.728 9 107718593.903 9       562.123 9        55.976 9  20498169.901 6         0.000 6       438.018 6        37.977 6
G26  20652156.580 9 108527793.068 9     -1478.356 9        55.874 9  20652159.396 6         0.000 6     -1151.966 6        37.977 6
G20  21947984.771 9 115337405.298 9      2569.287 9        55.314 9  21947985.095 6         0.000 6      2002.043 6        37.977 6
> 2019 07 03 12 00 52.0000000  0  8       0.000000000000
G07  25350224.485 9 133216282.679 9      2189.894 9        54.130 9  25350225.157 6         0.000 6      1706.412 6        37.977 6
G10  23814416.554 9 125145548.900 9      3530.391 9        54.668 9  23814420.285 6         0.000 6      2750.957 6        37.977 6
G21  21169062.011 9 111244151.034 9     -1248.438 9        55.710 9  21169061.296 6         0.000 6      -972.809 6        37.977 6
G29  24295207.203 9 127672119.259 9     -3119.433 9        54.477 9  24295208.773 6         0.000 6     -2430.729 6        37.977 6
G27  22008338.883 9 115654574.415 9      2501.187 9        55.373 9  22008340.818 6         0.000 6      1948.977 6        37.977 6
G16  20498063.818 9 107718032.088 9       561.507 9        55.976 9  20498062.992 6         0.000 6       437.538 6        37.977 6
G26  20652437.957 9 108529271.710 9     -1478.931 9        55.874 9  20652440.772 6         0.000 6     -1152.414 6        37.977 6
G20  21947495.894 9 115334836.236 9      2568.845 9        55.314 9  21947496.217 6         0.000 6      2001.699 6        37.977 6
> 2019 07 03 12 00 53.0000000  0  8       0.000000000000
G07  25349807.806 9 133214093.021 9      2189.435 9        54.131 9  25349808.478 6         0.000 6      1706.054 6        37.977 6
G10  23813744.755 9 125142018.583 9      3530.255 9        54.668 9  23813748.486 6         0.000 6      2750.851 6        37.977 6
G21  21169299.615 9 111245399.650 9     -1248.799 9        55.710 9  21169298.900 6         0.000 6      -973.091 6        37.977 6
G29  24295800.820 9 127675238.725 9     -3119.518 9        54.476 9  24295802.390 6         0.000 6     -2430.796 6        37.977 6
G27  22007862.945 9 115652073.347 9      2500.950 9        55.373 9  22007864.880 6         0.000 6      1948.793 6        37.977 6
G16  20497957.025 9 107717470.886 9       560.891 9        55.976 9  20497956.198 6         0.000 6       437.058 6        37.977 6
G26  20652719.442 9 108530750.921 9     -1479.506 9        55.874 9  20652722.257 6         0.000 6     -1152.862 6        37.977 6
G20  21947007.100 9 115332267.613 9      2568.403 9        55.314 9  21947007.423 6         0.000 6      2001.354 6        37.977 6
> 2019 07 03 12 00 54.0000000  0  8       0.000000000000
G07  25349391.214 9 133211903.819 9      2188.976 9        54.131 9  25349391.886 6         0.000 6      1705.697 6        37.977 6
G10  23813072.983 9 125138488.407 9      3530.118 9        54.668 9  23813076.713 6         0.000 6      2750.744 6        37.977 6
G21  21169537.288 9 111246648.629 9     -1249.161 9        55.710 9  21169536.573 6         0.000 6      -973.372 6        37.977 6
G29  24296394.453 9 127678358.276 9     -3119.604 9        54.476 9  24296396.023 6         0.000 6     -2430.863 6        37.977 6
G27  22007387.053 9 115649572.518 9      2500.714 9        55.373 9  22007388.987 6         0.000 6      1948.609 6        37.977 6
G16  20497850.350 9 107716910.302 9       560.276 9        55.976 9  20497849.523 6         0.000 6       436.578 6        37.977 6
G26  20653001.037 9 108532230.713 9     -1480.081 9        55.874 9  20653003.853 6         0.000 6     -1153.310 6        37.977 6
G20  21946518.392 9 115329699.436 9      2567.960 9        55.315 9  21946518.714 6         0.000 6      2001.009 6        37.977 6
> 2019 07 03 12 00 55.0000000  0  8       0.000000000000
G07  25348974.711 9 133209715.081 9      2188.518 9        54.131 9  25348975.382 6         0.000 6      1705.339 6        37.977 6
G10  23812401.235 9 125134958.361 9      3529.982 9        54.668 9  23812404.965 6         0.000 6      2750.638 6        37.977 6
G21  21169775.029 9 111247897.965 9     -1249.522 9        55.710 9  21169774.314 6         0.000 6      -973.654 6        37.977 6
G29  24296988.101 9 127681477.907 9     -3119.690 9        54.476 9  24296989.672 6         0.000 6     -2430.930 6        37.977 6
G27  22006911.206 9 115647071.928 9      2500.477 9        55.373 9  22006913.140 6         0.000 6      1948.424 6        37.977 6
G16  20497743.791 9 107716350.333 9       559.660 9        55.976 9  20497742.964 6         0.000 6       436.098 6        37.977 6
G26  20653282.741 9 108533711.074 9     -1480.656 9        55.874 9  20653285.557 6         0.000 6     -1153.758 6        37.977 6
G20  21946029.766 9 115327131.695 9      2567.517 9        55.315 9  21946030.088 6         0.000 6      2000.664 6        37.977 6
> 2019 07 03 12 00 56.0000000  0  8       0.000000000000
G07  25348558.293 9 133207526.796 9      2188.059 9        54.131 9  25348558.964 6         0.000 6      1704.982 6        37.977 6
G10  23811729.515 9 125131428.458 9      3529.845 9        54.669 9  23811733.244 6         0.000 6      2750.531 6        37.977 6
G21  21170012.839 9 111249147.667 9     -1249.883 9        55.710 9  21170012.125 6         0.000 6      -973.935 6        37.977 6
G29  24297581.766 9 127684597.630 9     -3119.775 9        54.476 9  24297583.338 6         0.000 6     -2430.996 6        37.977 6
G27  22006435.403 9 115644571.572 9      2500.240 9        55.374 9  22006437.337 6         0.000 6      1948.240 6        37.977 6
G16  20497637.350 9 107715790.981 9       559.044 9        55.976 9  20497636.523 6         0.000 6       435.619 6        37.977 6
G26  20653564.555 9 108535192.016 9     -1481.231 9        55.873 9  20653567.371 6         0.000 6     -1154.206 6        37.977 6
G20  21945541.226 9 115324564.404 9      2567.074 9        55.315 9  21945541.548 6         0.000 6      2000.319 6        37.977 6
> 2019 07 03 12 00 57.0000000  0  8       0.000000000000
G07  25348141.964 9 133205338.973 9      2187.600 9        54.131 9  25348142.634 6         0.000 6      1704.624 6        37.977 6
G10  23811057.820 9 125127898.688 9      3529.708 9        54.669 9  23811061.548 6         0.000 6      2750.425 6        37.977 6
G21  21170250.718 9 111250397.727 9     -1250.244 9        55.709 9  21170250.003 6         0.000 6      -974.216 6        37.977 6
G29  24298175.448 9 127687717.438 9     -3119.861 9        54.475 9  24298177.020 6         0.000 6     -2431.063 6        37.977 6
G27  22005959.646 9 115642071.451 9      2500.004 9        55.374 9  22005961.579 6         0.000 6      1948.055 6        37.977 6
G16  20497531.025 9 107715232.242 9       558.428 9        55.976 9  20497530.199 6         0.000 6       435.139 6        37.977 6
G26  20653846.478 9 108536673.527 9     -1481.806 9        55.873 9  20653849.294 6         0.000 6     -1154.654 6        37.977 6
G20  21945052.769 9 115321997.551 9      2566.631 9        55.315 9  21945053.091 6         0.000 6      1999.974 6        37.977 6
> 2019 07 03 12 00 58.0000000  0  8       0.000000000000
G07  25347725.721 9 133203151.606 9      2187.141 9        54.131 9  25347726.391 6         0.000 6      1704.266 6        37.977 6
G10  23810386.152 9 125124369.059 9      3529.571 9        54.669 9  23810389.880 6         0.000 6      2750.318 6        37.977 6
G21  21170488.666 9 111251648.151 9     -1250.605 9        55.709 9  21170487.951 6         0.000 6      -974.498 6        37.977 6
G29  24298769.146 9 127690837.331 9     -3119.947 9        54.475 9  24298770.719 6         0.000 6     -2431.130 6        37.977 6
G27  22005483.933 9 115639571.568 9      2499.767 9        55.374 9  22005485.867 6         0.000 6      1947.871 6        37.977 6
G16  20497424.819 9 107714674.122 9       557.812 9        55.976 9  20497423.992 6         0.000 6       434.659 6        37.977 6
G26  20654128.511 9 108538155.619 9     -1482.381 9        55.873 9  20654131.327 6         0.000 6     -1155.102 6        37.977 6
G20  21944564.397 9 115319431.146 9      2566.188 9        55.315 9  21944564.719 6         0.000 6      1999.628 6        37.977 6
> 2019 07 03 12 00 59.0000000  0  8       0.000000000000
G07  25347309.566 9 133200964.701 9      2186.682 9        54.131 9  25347310.236 6         0.000 6      1703.909 6        37.977 6
G10  23809714.509 9 125120839.562 9      3529.434 9        54.669 9  23809718.236 6         0.000 6      2750.211 6        37.977 6
G21  21170726.682 9 111252898.933 9     -1250.966 9        55.709 9  21170725.967 6         0.000 6      -974.779 6        37.977 6
G29  24299362.860 9 127693957.311 9     -3120.032 9        54.475 9  24299364.434 6         0.000 6     -2431.197 6        37.977 6
G27  22005008.266 9 115637071.921 9      2499.530 9        55.374 9  22005010.199 6         0.000 6      1947.686 6        37.977 6
G16  20497318.729 9 107714116.615 9       557.196 9        55.977 9  20497317.902 6         0.000 6       434.179 6        37.977 6
G26  20654410.652 9 108539638.280 9     -1482.955 9        55.873 9  20654413.468 6         0.000 6     -1155.550 6        37.977 6
G20  21944076.109 9 115316865.179 9      2565.745 9        55.316 9  21944076.431 6         0.000 6      1999.283 6        37.977 6
> 2019 07 03 12 01  0.0000000  0  8       0.000000000000
G07  25346893.498 9 133198778.253 9      2186.223 9        54.132 9  25346894.168 6         0.000 6      1703.551 6        37.977 6
G10  23809042.893 9 125117310.207 9      3529.297 9        54.669 9  23809046.619 6         0.000 6      2750.104 6        37.977 6
G21  21170964.767 9 111254150.079 9     -1251.327 9        55.709 9  21170964.053 6         0.000 6      -975.060 6        37.977 6
G29  24299956.591 9 127697077.375 9     -3120.118 9        54.475 9  24299958.165 6         0.000 6     -2431.263 6        37.977 6
G27  22004532.644 9 115634572.512 9      2499.293 9        55.374 9  22004534.576 6         0.000 6      1947.502 6        37.977 6
G16  20497212.756 9 107713559.728 9       556.580 9        55.977 9  20497211.930 6         0.000 6       433.699 6        37.977 6
G26  20654692.904 9 108541121.521 9     -1483.530 9        55.873 9  20654695.720 6         0.000 6     -1155.998 6        37.977 6
G20  21943587.906 9 115314299.660 9      2565.302 9        55.316 9  21943588.228 6         0.000 6      1998.938 6        37.977 6
> 2019 07 03 12 01  1.0000000  0  8       0.000000000000
G07  25346477.518 9 133196592.266 9      2185.763 9        54.132 9  25346478.188 6         0.000 6      1703.193 6        37.977 6
G10  23808371.302 9 125113780.985 9      3529.160 9        54.670 9  23808375.028 6         0.000 6      2749.997 6        37.977 6
G21  21171202.920 9 111255401.583 9     -1251.688 9        55.709 9  21171202.206 6         0.000 6      -975.341 6        37.977 6
G29  24300550.337 9 127700197.526 9     -3120.203 9        54.475 9  24300551.913 6         0.000 6     -2431.330 6        37.977 6
G27  22004057.066 9 115632073.338 9      2499.056 9        55.374 9  22004058.999 6         0.000 6      1947.317 6        37.977 6
G16  20497106.901 9 107713003.453 9       555.964 9        55.977 9  20497106.074 6         0.000 6       433.218 6        37.977 6
G26  20654975.264 9 108542605.332 9     -1484.105 9        55.873 9  20654978.080 6         0.000 6     -1156.446 6        37.977 6
G20  21943099.787 9 115311734.580 9      2564.859 9        55.316 9  21943100.108 6         0.000 6      1998.592 6        37.977 6
> 2019 07 03 12 01  2.0000000  0  8       0.000000000000
G07  25346061.625 9 133194406.736 9      2185.304 9        54.132 9  25346062.294 6         0.000 6      1702.835 6        37.977 6
G10  23807699.739 9 125110251.905 9      3529.023 9        54.670 9  23807703.464 6         0.000 6      2749.890 6        37.977 6
G21  21171441.143 9 111256653.450 9     -1252.048 9        55.709 9  21171440.429 6         0.000 6      -975.622 6        37.977 6
G29  24301144.100 9 127703317.762 9     -3120.289 9        54.474 9  24301145.676 6         0.000 6     -2431.397 6        37.977 6
G27  22003581.534 9 115629574.402 9      2498.820 9        55.375 9  22003583.466 6         0.000 6      1947.133 6        37.977 6
G16  20497001.163 9 107712447.797 9       555.348 9        55.977 9  20497000.336 6         0.000 6       432.738 6        37.977 6
G26  20655257.734 9 108544089.723 9     -1484.680 9        55.873 9  20655260.551 6         0.000 6     -1156.894 6        37.977 6
G20  21942611.753 9 115309169.947 9      2564.415 9        55.316 9  21942612.073 6         0.000 6      1998.247 6        37.977 6
> 2019 07 03 12 01  3.0000000  0  8       0.000000000000
G07  25345645.819 9 133192221.668 9      2184.845 9        54.132 9  25345646.489 6         0.000 6      1702.477 6        37.977 6
G10  23807028.201 9 125106722.959 9      3528.885 9        54.670 9  23807031.925 6         0.000 6      2749.783 6        37.977 6
G21  21171679.434 9 111257905.676 9     -1252.409 9        55.709 9  21171678.719 6         0.000 6      -975.903 6        37.977 6
G29  24301737.879 9 127706438.078 9     -3120.374 9        54.474 9  24301739.455 6         0.000 6     -2431.463 6        37.977 6
G27  22003106.048 9 115627075.708 9      2498.583 9        55.375 9  22003107.980 6         0.000 6      1946.948 6        37.977 6
G16  20496895.543 9 107711892.759 9       554.731 9        55.977 9  20496894.716 6         0.000 6       432.258 6        37.977 6
G26  20655540.314 9 108545574.688 9     -1485.255 9        55.873 9  20655543.131 6         0.000 6     -1157.342 6        37.977 6
G20  21942123.802 9 115306605.755 9      2563.972 9        55.316 9  21942124.123 6         0.000 6      1997.901 6        37.977 6
> 2019 07 03 12 01  4.0000000  0  8       0.000000000000
G07  25345230.102 9 133190037.060 9      2184.385 9        54.132 9  25345230.771 6         0.000 6      1702.119 6        37.977 6
G10  23806356.688 9 125103194.149 9      3528.748 9        54.670 9  23806360.412 6         0.000 6      2749.676 6        37.977 6
G21  21171917.793 9 111259158.262 9     -1252.770 9        55.709 9  21171917.079 6         0.000 6      -976.184 6        37.977 6
G29  24302331.674 9 127709558.485 9     -3120.460 9        54.474 9  24302333.252 6         0.000 6     -2431.530 6        37.977 6
G27  22002630.605 9 115624577.244 9      2498.346 9        55.375 9  22002632.538 6         0.000 6      1946.764 6        37.977 6
G16  20496790.039 9 107711338.333 9       554.115 9        55.977 9  20496789.212 6         0.000 6       431.778 6        37.977 6
G26  20655823.003 9 108547060.224 9     -1485.829 9        55.873 9  20655825.819 6         0.000 6     -1157.790 6        37.977 6
G20  21941635.936 9 115304042.005 9      2563.528 9        55.316 9  21941636.256 6         0.000 6      1997.556 6        37.977 6
> 2019 07 03 12 01  5.0000000  0  8       0.000000000000
G07  25344814.471 9 133187852.908 9      2183.925 9        54.132 9  25344815.140 6         0.000 6      1701.761 6        37.977 6
G10  23805685.203 9 125099665.481 9      3528.610 9        54.671 9  23805688.926 6         0.000 6      2749.569 6        37.977 6
G21  21172156.221 9 111260411.211 9     -1253.130 9        55.709 9  21172155.507 6         0.000 6      -976.465 6        37.977 6
G29  24302925.486 9 127712678.978 9     -3120.545 9        54.474 9  24302927.064 6         0.000 6     -2431.596 6        37.977 6
G27  22002155.209 9 115622079.020 9      2498.109 9        55.375 9  22002157.141 6         0.000 6      1946.579 6        37.977 6
G16  20496684.653 9 107710784.526 9       553.499 9        55.977 9  20496683.826 6         0.000 6       431.298 6        37.977 6
G26  20656105.801 9 108548546.339 9     -1486.404 9        55.872 9  20656108.618 6         0.000 6     -1158.237 6        37.977 6
G20  21941148.155 9 115301478.703 9      2563.085 9        55.317 9  21941148.475 6         0.000 6      1997.210 6        37.977 6
> 2019 07 03 12 01  6.0000000  0  8       0.000000000000
G07  25344398.928 9 133185669.219 9      2183.466 9        54.132 9  25344399.596 6         0.000 6      1701.403 6        37.977 6
G10  23805013.743 9 125096136.946 9      3528.472 9        54.671 9  23805017.466 6         0.000 6      2749.461 6        37.977 6
G21  21172394.718 9 111261664.519 9     -1253.491 9        55.709 9  21172394.004 6         0.000 6      -976.746 6        37.977 6
G29  24303519.315 9 127715799.555 9     -3120.631 9        54.474 9  24303520.893 6         0.000 6     -2431.663 6        37.977 6
G27  22001679.856 9 115619581.031 9      2497.872 9        55.375 9  22001681.788 6         0.000 6      1946.394 6        37.977 6
G16  20496579.384 9 107710231.332 9       552.883 9        55.977 9  20496578.557 6         0.000 6       430.818 6        37.977 6
G26  20656388.708 9 108550033.023 9     -1486.979 9        55.872 9  20656391.525 6         0.000 6     -1158.685 6        37.977 6
G20  21940660.458 9 115298915.840 9      2562.641 9        55.317 9  21940660.777 6         0.000 6      1996.864 6        37.977 6
> 2019 07 03 12 01  7.0000000  0  8       0.000000000000
G07  25343983.472 9 133183485.986 9      2183.006 9        54.133 9  25343984.140 6         0.000 6      1701.045 6        37.977 6
G10  23804342.310 9 125092608.554 9      3528.334 9        54.671 9  23804346.032 6         0.000 6      2749.354 6        37.977 6
G21  21172633.284 9 111262918.189 9     -1253.851 9        55.709 9  21172632.570 6         0.000 6      -977.027 6        37.977 6
G29  24304113.159 9 127718920.219 9     -3120.716 9        54.473 9  24304114.738 6         0.000 6     -2431.730 6        37.977 6
G27  22001204.550 9 115617083.280 9      2497.635 9        55.376 9  22001206.482 6         0.000 6      1946.209 6        37.977 6
G16  20496474.232 9 107709678.757 9       552.266 9        55.977 9  20496473.405 6         0.000 6       430.337 6        37.977 6
G26  20656671.725 9 108551520.287 9     -1487.553 9        55.872 9  20656674.543 6         0.000 6     -1159.133 6        37.977 6
G20  21940172.846 9 115296353.426 9      2562.197 9        55.317 9  21940173.165 6         0.000 6      1996.518 6        37.977 6
> 2019 07 03 12 01  8.0000000  0  8       0.000000000000
G07  25343568.104 9 133181303.216 9      2182.546 9        54.133 9  25343568.772 6         0.000 6      1700.686 6        37.977 6
G10  23803670.903 9 125089080.295 9      3528.196 9        54.671 9  23803674.624 6         0.000 6      2749.247 6        37.977 6
G21  21172871.918 9 111264172.218 9     -1254.212 9        55.708 9  21172871.204 6         0.000 6      -977.308 6        37.977 6
G29  24304707.020 9 127722040.967 9     -3120.802 9        54.473 9  24304708.599 6         0.000 6     -2431.796 6        37.977 6
G27  22000729.288 9 115614585.765 9      2497.397 9        55.376 9  22000731.220 6         0.000 6      1946.025 6        37.977 6
G16  20496369.198 9 107709126.796 9       551.650 9        55.977 9  20496368.371 6         0.000 6       429.857 6        37.977 6
G26  20656954.851 9 108553008.121 9     -1488.128 9        55.872 9  20656957.669 6         0.000 6     -1159.581 6        37.977 6
G20  21939685.317 9 115293791.451 9      2561.753 9        55.317 9  21939685.636 6         0.000 6      1996.172 6        37.977 6
> 2019 07 03 12 01  9.0000000  0  8       0.000000000000
G07  25343152.823 9 133179120.904 9      2182.086 9        54.133 9  25343153.491 6         0.000 6      1700.328 6        37.977 6
G10  23802999.523 9 125085552.178 9      3528.058 9        54.672 9  23803003.243 6         0.000 6      2749.139 6        37.977 6
G21  21173110.620 9 111265426.609 9     -1254.572 9        55.708 9  21173109.906 6         0.000 6      -977.589 6        37.977 6
G29  24305300.897 9 127725161.802 9     -3120.887 9        54.473 9  24305302.477 6         0.000 6     -2431.863 6        37.977 6
G27  22000254.072 9 115612088.489 9      2497.160 9        55.376 9  22000256.003 6         0.000 6      1945.840 6        37.977 6
G16  20496264.281 9 107708575.454 9       551.033 9        55.977 9  20496263.454 6         0.000 6       429.377 6        37.977 6
G26  20657238.087 9 108554496.535 9     -1488.702 9        55.872 9  20657240.905 6         0.000 6     -1160.028 6        37.977 6
G20  21939197.874 9 115291229.924 9      2561.309 9        55.317 9  21939198.193 6         0.000 6      1995.826 6        37.977 6
> 2019 07 03 12 01 10.0000000  0  8       0.000000000000
G07  25342737.630 9 133176939.053 9      2181.627 9        54.133 9  25342738.298 6         0.000 6      1699.970 6        37.977 6
G10  23802328.168 9 125082024.195 9      3527.920 9        54.672 9  23802331.888 6         0.000 6      2749.031 6        37.977 6
G21  21173349.391 9 111266681.358 9     -1254.932 9        55.708 9  21173348.677 6         0.000 6      -977.870 6        37.977 6
G29  24305894.790 9 127728282.721 9     -3120.972 9        54.473 9  24305896.371 6         0.000 6     -2431.929 6        37.977 6
G27  21999778.900 9 115609591.448 9      2496.923 9        55.376 9  21999780.831 6         0.000 6      1945.655 6        37.977 6
G16  20496159.481 9 107708024.726 9       550.417 9        55.977 9  20496158.654 6         0.000 6       428.896 6        37.977 6
G26  20657521.432 9 108555985.518 9     -1489.277 9        55.872 9  20657524.249 6         0.000 6     -1160.476 6        37.977 6
G20  21938710.514 9 115288668.837 9      2560.865 9        55.318 9  21938710.833 6         0.000 6      1995.480 6        37.977 6
> 2019 07 03 12 01 11.0000000  0  8       0.000000000000
G07  25342322.524 9 133174757.663 9      2181.166 9        54.133 9  25342323.192 6         0.000 6      1699.611 6        37.977 6
G10  23801656.840 9 125078496.353 9      3527.782 9        54.672 9  23801660.559 6         0.000 6      2748.923 6        37.977 6
G21  21173588.231 9 111267936.467 9     -1255.293 9        55.708 9  21173587.517 6         0.000 6      -978.150 6        37.977 6
G29  24306488.698 9 127731403.721 9     -3121.058 9        54.472 9  24306490.280 6         0.000 6     -2431.996 6        37.977 6
G27  21999303.775 9 115607094.650 9      2496.686 9        55.376 9  21999305.706 6         0.000 6      1945.470 6        37.977 6
G16  20496054.799 9 107707474.618 9       549.801 9        55.977 9  20496053.972 6         0.000 6       428.416 6        37.977 6
G26  20657804.886 9 108557475.080 9     -1489.851 9        55.872 9  20657807.704 6         0.000 6     -1160.923 6        37.977 6
G20  21938223.240 9 115286108.196 9      2560.421 9        55.318 9  21938223.558 6         0.000 6      1995.134 6        37.977 6
> 2019 07 03 12 01 12.0000000  0  8       0.000000000000
G07  25341907.506 9 133172576.730 9      2180.706 9        54.133 9  25341908.173 6         0.000 6      1699.253 6        37.977 6
G10  23800985.538 9 125074968.651 9      3527.643 9        54.672 9  23800989.257 6         0.000 6      2748.816 6        37.977 6
G21  21173827.139 9 111269191.939 9     -1255.653 9        55.708 9  21173826.426 6         0.000 6      -978.431 6        37.977 6
G29  24307082.624 9 127734524.811 9     -3121.143 9        54.472 9  24307084.206 6         0.000 6     -2432.062 6        37.977 6
G27  21998828.694 9 115604598.085 9      2496.449 9        55.377 9  21998830.625 6         0.000 6      1945.285 6        37.977 6
G16  20495950.234 9 107706925.126 9       549.184 9        55.977 9  20495949.407 6         0.000 6       427.936 6        37.977 6
G26  20658088.450 9 108558965.216 9     -1490.426 9        55.872 9  20658091.268 6         0.000 6     -1161.371 6        37.977 6
G20  21937736.050 9 115283548.002 9      2559.976 9        55.318 9  21937736.368 6         0.000 6      1994.788 6        37.977 6
> 2019 07 03 12 01 13.0000000  0  8       0.000000000000
G07  25341492.576 9 133170396.260 9      2180.246 9        54.133 9  25341493.243 6         0.000 6      1698.894 6        37.977 6
G10  23800314.263 9 125071441.083 9      3527.505 9        54.673 9  23800317.980 6         0.000 6      2748.708 6        37.977 6
G21  21174066.116 9 111270447.769 9     -1256.013 9        55.708 9  21174065.402 6         0.000 6      -978.712 6        37.977 6
G29  24307676.566 9 127737645.986 9     -3121.228 9        54.472 9  24307678.149 6         0.000 6     -2432.128 6        37.977 6
G27  21998353.657 9 115602101.756 9      2496.211 9        55.377 9  21998355.588 6         0.000 6      1945.100 6        37.977 6
G16  20495845.785 9 107706376.247 9       548.567 9        55.977 9  20495844.959 6         0.000 6       427.455 6        37.977 6
G26  20658372.122 9 108560455.923 9     -1491.000 9        55.871 9  20658374.940 6         0.000 6     -1161.819 6        37.977 6
G20  21937248.944 9 115280988.248 9      2559.532 9        55.318 9  21937249.262 6         0.000 6      1994.442 6        37.977 6
> 2019 07 03 12 01 14.0000000  0  8       0.000000000000
G07  25341077.732 9 133168216.248 9      2179.786 9        54.134 9  25341078.399 6         0.000 6      1698.535 6        37.977 6
G10  23799643.014 9 125067913.658 9      3527.366 9        54.673 9  23799646.731 6         0.000 6      2748.600 6        37.977 6
G21  21174305.161 9 111271703.961 9     -1256.373 9        55.708 9  21174304.448 6         0.000 6      -978.992 6        37.977 6
G29  24308270.524 9 127740767.247 9     -3121.314 9        54.472 9  24308272.107 6         0.000 6     -2432.195 6        37.977 6
G27  21997878.667 9 115599605.666 9      2495.974 9        55.377 9  21997880.597 6         0.000 6      1944.916 6        37.977 6
G16  20495741.455 9 107705827.988 9       547.951 9        55.977 9  20495740.628 6         0.000 6       426.975 6        37.977 6
G26  20658655.905 9 108561947.208 9     -1491.574 9        55.871 9  20658658.723 6         0.000 6     -1162.266 6        37.977 6
G20  21936761.924 9 115278428.943 9      2559.087 9        55.318 9  21936762.241 6         0.000 6      1994.095 6        37.977 6
> 2019 07 03 12 01 15.0000000  0  8       0.000000000000
G07  25340662.977 9 133166036.698 9      2179.326 9        54.134 9  25340663.644 6         0.000 6      1698.177 6        37.977 6
G10  23798971.791 9 125064386.367 9      3527.228 9        54.673 9  23798975.507 6         0.000 6      2748.492 6        37.977 6
G21  21174544.275 9 111272960.511 9     -1256.733 9        55.708 9  21174543.561 6         0.000 6      -979.273 6        37.977 6
G29  24308864.498 9 127743888.593 9     -3121.399 9        54.472 9  24308866.082 6         0.000 6     -2432.261 6        37.977 6
G27  21997403.721 9 115597109.811 9      2495.737 9        55.377 9  21997405.651 6         0.000 6      1944.731 6        37.977 6
G16  20495637.242 9 107705280.342 9       547.334 9        55.977 9  20495636.415 6         0.000 6       426.494 6        37.977 6
G26  20658939.796 9 108563439.063 9     -1492.149 9        55.871 9  20658942.614 6         0.000 6     -1162.714 6        37.977 6
G20  21936274.987 9 115275870.078 9      2558.643 9        55.319 9  21936275.304 6         0.000 6      1993.749 6        37.977 6
> 2019 07 03 12 01 16.0000000  0  8       0.000000000000
G07  25340248.309 9 133163857.607 9      2178.865 9        54.134 9  25340248.976 6         0.000 6      1697.818 6        37.977 6
G10  23798300.595 9 125060859.220 9      3527.089 9        54.673 9  23798304.311 6         0.000 6      2748.383 6        37.977 6
G21  21174783.458 9 111274217.423 9     -1257.093 9        55.708 9  21174782.744 6         0.000 6      -979.553 6        37.977 6
G29  24309458.489 9 127747010.024 9     -3121.484 9        54.471 9  24309460.073 6         0.000 6     -2432.328 6        37.977 6
G27  21996928.821 9 115594614.196 9      2495.499 9        55.377 9  21996930.751 6         0.000 6      1944.546 6        37.977 6
G16  20495533.146 9 107704733.317 9       546.717 9        55.977 9  20495532.319 6         0.000 6       426.014 6        37.977 6
G26  20659223.797 9 108564931.497 9     -1492.723 9        55.871 9  20659226.615 6         0.000 6     -1163.161 6        37.977 6
G20  21935788.136 9 115273311.662 9      2558.198 9        55.319 9  21935788.453 6         0.000 6      1993.402 6        37.977 6
> 2019 07 03 12 01 17.0000000  0  8       0.000000000000
G07  25339833.729 9 133161678.978 9      2178.405 9        54.134 9  25339834.395 6         0.000 6      1697.459 6        37.977 6
G10  23797629.425 9 125057332.207 9      3526.950 9        54.674 9  23797633.140 6         0.000 6      2748.275 6        37.977 6
G21  21175022.708 9 111275474.693 9     -1257.453 9        55.708 9  21175021.995 6         0.000 6      -979.834 6        37.977 6
G29  24310052.495 9 127750131.540 9     -3121.569 9        54.471 9  24310054.081 6         0.000 6     -2432.394 6        37.977 6
G27  21996453.965 9 115592118.816 9      2495.262 9        55.377 9  21996455.895 6         0.000 6      1944.361 6        37.977 6
G16  20495429.167 9 107704186.904 9       546.101 9        55.977 9  20495428.341 6         0.000 6       425.533 6        37.977 6
G26  20659507.906 9 108566424.501 9     -1493.297 9        55.871 9  20659510.725 6         0.000 6     -1163.609 6        37.977 6
G20  21935301.369 9 115270753.686 9      2557.753 9        55.319 9  21935301.685 6         0.000 6      1993.056 6        37.977 6
> 2019 07 03 12 01 18.0000000  0  8       0.000000000000
G07  25339419.236 9 133159500.807 9      2177.944 9        54.134 9  25339419.902 6         0.000 6      1697.100 6        37.977 6
G10  23796958.282 9 125053805.337 9      3526.811 9        54.674 9  23796961.996 6         0.000 6      2748.167 6        37.977 6
G21  21175262.028 9 111276732.325 9     -1257.813 9        55.707 9  21175261.314 6         0.000 6      -980.114 6        37.977 6
G29  24310646.518 9 127753253.142 9     -3121.654 9        54.471 9  24310648.104 6         0.000 6     -2432.461 6        37.977 6
G27  21995979.155 9 115589623.676 9      2495.024 9        55.378 9  21995981.085 6         0.000 6      1944.175 6        37.977 6
G16  20495325.306 9 107703641.112 9       545.484 9        55.977 9  20495324.480 6         0.000 6       425.052 6        37.977 6
G26  20659792.126 9 108567918.083 9     -1493.871 9        55.871 9  20659794.944 6         0.000 6     -1164.056 6        37.977 6
G20  21934814.687 9 115268196.160 9      2557.308 9        55.319 9  21934815.003 6         0.000 6      1992.709 6        37.977 6
> 2019 07 03 12 01 19.0000000  0  8       0.000000000000
G07  25339004.832 9 133157323.102 9      2177.484 9        54.134 9  25339005.498 6         0.000 6      1696.741 6        37.977 6
G10  23796287.164 9 125050278.600 9      3526.672 9        54.674 9  23796290.878 6         0.000 6      2748.059 6        37.977 6
G21  21175501.415 9 111277990.313 9     -1258.173 9        55.707 9  21175500.702 6         0.000 6      -980.394 6        37.977 6
G29  24311240.557 9 127756374.823 9     -3121.739 9        54.471 9  24311242.143 6         0.000 6     -2432.527 6        37.977 6
G27  21995504.391 9 115587128.775 9      2494.787 9        55.378 9  21995506.321 6         0.000 6      1943.990 6        37.977 6
G16  20495221.563 9 107703095.934 9       544.867 9        55.977 9  20495220.736 6         0.000 6       424.572 6        37.977 6
G26  20660076.454 9 108569412.235 9     -1494.446 9        55.871 9  20660079.272 6         0.000 6     -1164.504 6        37.977 6
G20  21934328.088 9 115265639.071 9      2556.863 9        55.319 9  21934328.404 6         0.000 6      1992.362 6        37.977 6
> 2019 07 03 12 01 20.0000000  0  8       0.000000000000
G07  25338590.515 9 133155145.853 9      2177.023 9        54.134 9  25338591.180 6         0.000 6      1696.382 6        37.977 6
G10  23795616.074 9 125046752.008 9      3526.532 9        54.674 9  23795619.787 6         0.000 6      2747.950 6        37.977 6
G21  21175740.872 9 111279248.665 9     -1258.532 9        55.707 9  21175740.158 6         0.000 6      -980.675 6        37.977 6
G29  24311834.612 9 127759496.595 9     -3121.825 9        54.471 9  24311836.199 6         0.000 6     -2432.593 6        37.977 6
G27  21995029.671 9 115584634.110 9      2494.549 9        55.378 9  21995031.601 6         0.000 6      1943.805 6        37.977 6
G16  20495117.937 9 107702551.376 9       544.250 9        55.977 9  20495117.110 6         0.000 6       424.091 6        37.977 6
G26  20660360.892 9 108570906.966 9     -1495.020 9        55.871 9  20660363.711 6         0.000 6     -1164.951 6        37.977 6
G20  21933841.575 9 115263082.435 9      2556.418 9        55.320 9  21933841.891 6         0.000 6      1992.015 6        37.977 6
> 2019 07 03 12 01 21.0000000  0  8       0.000000000000
G07  25338176.286 9 133152969.067 9      2176.562 9        54.135 9  25338176.951 6         0.000 6      1696.023 6        37.977 6
G10  23794945.009 9 125043225.552 9      3526.393 9        54.675 9  23794948.722 6         0.000 6      2747.841 6        37.977 6
G21  21175980.396 9 111280507.374 9     -1258.892 9        55.707 9  21175979.683 6         0.000 6      -980.955 6        37.977 6
G29  24312428.683 9 127762618.451 9     -3121.910 9        54.470 9  24312430.271 6         0.000 6     -2432.659 6        37.977 6
G27  21994554.997 9 115582139.680 9      2494.312 9        55.378 9  21994556.926 6         0.000 6      1943.620 6        37.977 6
G16  20495014.427 9 107702007.431 9       543.633 9        55.978 9  20495013.600 6         0.000 6       423.611 6        37.977 6
G26  20660645.439 9 108572402.266 9     -1495.594 9        55.870 9  20660648.257 6         0.000 6     -1165.398 6        37.977 6
G20  21933355.147 9 115260526.239 9      2555.973 9        55.320 9  21933355.462 6         0.000 6      1991.669 6        37.977 6
> 2019 07 03 12 01 22.0000000  0  8       0.000000000000
G07  25337762.143 9 133150792.739 9      2176.101 9        54.135 9  25337762.809 6         0.000 6      1695.664 6        37.977 6
G10  23794273.972 9 125039699.239 9      3526.254 9        54.675 9  23794277.684 6         0.000 6      2747.733 6        37.977 6
G21  21176219.990 9 111281766.445 9     -1259.252 9        55.707 9  21176219.276 6         0.000 6      -981.235 6        37.977 6
G29  24313022.771 9 127765740.393 9     -3121.995 9        54.470 9  24313024.360 6         0.000 6     -2432.726 6        37.977 6
G27  21994080.367 9 115579645.490 9      2494.074 9        55.378 9  21994082.297 6         0.000 6      1943.435 6        37.977 6
G16  20494911.036 9 107701464.106 9       543.017 9        55.978 9  20494910.209 6         0.000 6       423.130 6        37.977 6
G26  20660930.095 9 108573898.145 9     -1496.168 9        55.870 9  20660932.914 6         0.000 6     -1165.846 6        37.977 6
G20  21932868.804 9 115257970.493 9      2555.528 9        55.320 9  21932869.119 6         0.000 6      1991.322 6        37.977 6
> 2019 07 03 12 01 23.0000000  0  8       0.000000000000
G07  25337348.089 9 133148616.872 9      2175.640 9        54.135 9  25337348.754 6         0.000 6      1695.305 6        37.977 6
G10  23793602.962 9 125036173.066 9      3526.114 9        54.675 9  23793606.673 6         0.000 6      2747.624 6        37.977 6
G21  21176459.651 9 111283025.875 9     -1259.611 9        55.707 9  21176458.938 6         0.000 6      -981.515 6        37.977 6
G29  24313616.875 9 127768862.420 9     -3122.080 9        54.470 9  24313618.464 6         0.000 6     -2432.792 6        37.977 6
G27  21993605.784 9 115577151.537 9      2493.836 9        55.379 9  21993607.713 6         0.000 6      1943.250 6        37.977 6
G16  20494807.762 9 107700921.398 9       542.400 9        55.978 9  20494806.935 6         0.000 6       422.649 6        37.977 6
G26  20661214.861 9 108575394.598 9     -1496.742 9        55.870 9  20661217.680 6         0.000 6     -1166.293 6        37.977 6
G20  21932382.545 9 115255415.192 9      2555.083 9        55.320 9  21932382.860 6         0.000 6      1990.975 6        37.977 6
> 2019 07 03 12 01 24.0000000  0  8       0.000000000000
G07  25336934.123 9 133146441.469 9      2175.179 9        54.135 9  25336934.788 6         0.000 6      1694.946 6        37.977 6
G10  23792931.977 9 125032647.028 9      3525.974 9        54.675 9  23792935.688 6         0.000 6      2747.515 6        37.977 6
G21  21176699.381 9 111284285.663 9     -1259.971 9        55.707 9  21176698.668 6         0.000 6      -981.796 6        37.977 6
G29  24314210.995 9 127771984.532 9     -3122.165 9        54.470 9  24314212.585 6         0.000 6     -2432.858 6        37.977 6
G27  21993131.245 9 115574657.820 9      2493.599 9        55.379 9  21993133.173 6         0.000 6      1943.065 6        37.977 6
G16  20494704.605 9 107700379.303 9       541.783 9        55.978 9  20494703.778 6         0.000 6       422.168 6        37.977 6
G26  20661499.735 9 108576891.621 9     -1497.316 9        55.870 9  20661502.554 6         0.000 6     -1166.740 6        37.977 6
G20  21931896.371 9 115252860.333 9      2554.637 9        55.320 9  21931896.685 6         0.000 6      1990.627 6        37.977 6
> 2019 07 03 12 01 25.0000000  0  8       0.000000000000
G07  25336520.244 9 133144266.524 9      2174.718 9        54.135 9  25336520.908 6         0.000 6      1694.586 6        37.977 6
G10  23792261.020 9 125029121.134 9      3525.835 9        54.676 9  23792264.730 6         0.000 6      2747.406 6        37.977 6
G21  21176939.180 9 111285545.813 9     -1260.330 9        55.707 9  21176938.467 6         0.000 6      -982.076 6        37.977 6
G29  24314805.132 9 127775106.730 9     -3122.250 9        54.470 9  24314806.722 6         0.000 6     -2432.925 6        37.977 6
G27  21992656.751 9 115572164.343 9      2493.361 9        55.379 9  21992658.680 6         0.000 6      1942.879 6        37.977 6
G16  20494601.566 9 107699837.829 9       541.166 9        55.978 9  20494600.739 6         0.000 6       421.687 6        37.977 6
G26  20661784.720 9 108578389.222 9     -1497.890 9        55.870 9  20661787.539 6         0.000 6     -1167.187 6        37.977 6
G20  21931410.282 9 115250305.923 9      2554.192 9        55.321 9  21931410.596 6         0.000 6      1990.280 6        37.977 6
> 2019 07 03 12 01 26.0000000  0  8       0.000000000000
G07  25336106.454 9 133142092.045 9      2174.257 9        54.135 9  25336107.118 6         0.000 6      1694.227 6        37.977 6
G10  23791590.088 9 125025595.373 9      3525.695 9        54.676 9  23791593.797 6         0.000 6      2747.297 6        37.977 6
G21  21177179.046 9 111286806.318 9     -1260.690 9        55.707 9  21177178.333 6         0.000 6      -982.356 6        37.977 6
G29  24315399.283 9 127778229.006 9     -3122.335 9        54.469 9  24315400.874 6         0.000 6     -2432.991 6        37.977 6
G27  21992182.303 9 115569671.106 9      2493.123 9        55.379 9  21992184.232 6         0.000 6      1942.694 6        37.977 6
G16  20494498.644 9 107699296.970 9       540.548 9        55.978 9  20494497.817 6         0.000 6       421.207 6        37.977 6
G26  20662069.812 9 108579887.392 9     -1498.464 9        55.870 9  20662072.632 6         0.000 6     -1167.635 6        37.977 6
G20  21930924.276 9 115247751.952 9      2553.746 9        55.321 9  21930924.590 6         0.000 6      1989.933 6        37.977 6
> 2019 07 03 12 01 27.0000000  0  8       0.000000000000
G07  25335692.750 9 133139918.023 9      2173.795 9        54.135 9  25335693.414 6         0.000 6      1693.868 6        37.977 6
G10  23790919.184 9 125022069.759 9      3525.555 9        54.676 9  23790922.892 6         0.000 6      2747.188 6        37.977 6
G21  21177418.981 9 111288067.186 9     -1261.049 9        55.707 9  21177418.268 6         0.000 6      -982.636 6        37.977 6
G29  24315993.452 9 127781351.373 9     -3122.420 9        54.469 9  24315995.043 6         0.000 6     -2433.057 6        37.977 6
G27  21991707.900 9 115567178.104 9      2492.885 9        55.379 9  21991709.829 6         0.000 6      1942.509 6        37.977 6
G16  20494395.840 9 107698756.730 9       539.931 9        55.978 9  20494395.013 6         0.000 6       420.726 6        37.977 6
G26  20662355.015 9 108581386.141 9     -1499.038 9        55.870 9  20662357.835 6         0.000 6     -1168.082 6        37.977 6
G20  21930438.357 9 115245198.433 9      2553.300 9        55.321 9  21930438.671 6         0.000 6      1989.586 6        37.977 6
> 2019 07 03 12 01 28.0000000  0  8       0.000000000000
G07  25335279.135 9 133137744.464 9      2173.334 9        54.136 9  25335279.799 6         0.000 6      1693.508 6        37.977 6
G10  23790248.305 9 125018544.280 9      3525.415 9        54.676 9  23790252.013 6         0.000 6      2747.079 6        37.977 6
G21  21177658.985 9 111289328.412 9     -1261.408 9        55.706 9  21177658.272 6         0.000 6      -982.916 6        37.977 6
G29  24316587.636 9 127784473.825 9     -3122.505 9        54.469 9  24316589.229 6         0.000 6     -2433.123 6        37.977 6
G27  21991233.542 9 115564685.339 9      2492.647 9        55.380 9  21991235.471 6         0.000 6      1942.323 6        37.977 6
G16  20494293.152 9 107698217.104 9       539.314 9        55.978 9  20494292.325 6         0.000 6       420.245 6        37.977 6
G26  20662640.326 9 108582885.459 9     -1499.612 9        55.870 9  20662643.146 6         0.000 6     -1168.529 6        37.977 6
G20  21929952.522 9 115242645.356 9      2552.854 9        55.321 9  21929952.835 6         0.000 6      1989.238 6        37.977 6
> 2019 07 03 12 01 29.0000000  0  8       0.000000000000
G07  25334865.607 9 133135571.364 9      2172.873 9        54.136 9  25334866.271 6         0.000 6      1693.148 6        37.977 6
G10  23789577.455 9 125015018.946 9      3525.275 9        54.677 9  23789581.162 6         0.000 6      2746.970 6        37.977 6
G21  21177899.057 9 111290589.999 9     -1261.767 9        55.706 9  21177898.344 6         0.000 6      -983.196 6        37.977 6
G29  24317181.837 9 127787596.362 9     -3122.590 9        54.469 9  24317183.430 6         0.000 6     -2433.189 6        37.977 6
G27  21990759.230 9 115562192.813 9      2492.410 9        55.380 9  21990761.158 6         0.000 6      1942.138 6        37.977 6
G16  20494190.583 9 107697678.099 9       538.697 9        55.978 9  20494189.756 6         0.000 6       419.764 6        37.977 6
G26  20662925.748 9 108584385.356 9     -1500.186 9        55.870 9  20662928.567 6         0.000 6     -1168.976 6        37.977 6
G20  21929466.772 9 115240092.729 9      2552.408 9        55.321 9  21929467.085 6         0.000 6      1988.891 6        37.977 6
> 2019 07 03 12 01 30.0000000  0  8       0.000000000000
G07  25334452.168 9 133133398.728 9      2172.411 9        54.136 9  25334452.831 6         0.000 6      1692.789 6        37.977 6
G10  23788906.630 9 125011493.748 9      3525.134 9        54.677 9  23788910.336 6         0.000 6      2746.861 6        37.977 6
G21  21178139.197 9 111291851.943 9     -1262.127 9        55.706 9  21178138.484 6         0.000 6      -983.476 6        37.977 6
G29  24317776.055 9 127790718.984 9     -3122.674 9        54.468 9  24317777.648 6         0.000 6     -2433.255 6        37.977 6
G27  21990284.962 9 115559700.523 9      2492.172 9        55.380 9  21990286.890 6         0.000 6      1941.953 6        37.977 6
G16  20494088.130 9 107697139.707 9       538.080 9        55.978 9  20494087.303 6         0.000 6       419.283 6        37.977 6
G26  20663211.277 9 108585885.822 9     -1500.759 9        55.869 9  20663214.097 6         0.000 6     -1169.423 6        37.977 6
G20  21928981.107 9 115237540.544 9      2551.962 9        55.321 9  21928981.420 6         0.000 6      1988.543 6        37.977 6
> 2019 07 03 12 01 31.0000000  0  8       0.000000000000
G07  25334038.816 9 133131226.552 9      2171.950 9        54.136 9  25334039.479 6         0.000 6      1692.429 6        37.977 6
G10  23788235.832 9 125007968.694 9      3524.994 9        54.677 9  23788239.538 6         0.000 6      2746.751 6        37.977 6
G21  21178379.406 9 111293114.248 9     -1262.486 9        55.706 9  21178378.693 6         0.000 6      -983.755 6        37.977 6
G29  24318370.288 9 127793841.690 9     -3122.759 9        54.468 9  24318371.882 6         0.000 6     -2433.322 6        37.977 6
G27  21989810.741 9 115557208.473 9      2491.934 9        55.380 9  21989812.668 6         0.000 6      1941.767 6        37.977 6
G16  20493985.796 9 107696601.936 9       537.462 9        55.978 9  20493984.969 6         0.000 6       418.802 6        37.977 6
G26  20663496.917 9 108587386.866 9     -1501.333 9        55.869 9  20663499.736 6         0.000 6     -1169.870 6        37.977 6
G20  21928495.527 9 115234988.809 9      2551.516 9        55.322 9  21928495.839 6         0.000 6      1988.196 6        37.977 6
> 2019 07 03 12 01 32.0000000  0  8       0.000000000000
G07  25333625.551 9 133129054.836 9      2171.488 9        54.136 9  25333626.214 6         0.000 6      1692.069 6        37.977 6
G10  23787565.062 9 125004443.781 9      3524.853 9        54.677 9  23787568.767 6         0.000 6      2746.642 6        37.977 6
G21  21178619.683 9 111294376.913 9     -1262.845 9        55.706 9  21178618.970 6         0.000 6      -984.035 6        37.977 6
G29  24318964.537 9 127796964.482 9     -3122.844 9        54.468 9  24318966.132 6         0.000 6     -2433.388 6        37.977 6
G27  21989336.564 9 115554716.661 9      2491.696 9        55.380 9  21989338.492 6         0.000 6      1941.582 6        37.977 6
G16  20493883.579 9 107696064.782 9       536.845 9        55.978 9  20493882.752 6         0.000 6       418.321 6        37.977 6
G26  20663782.665 9 108588888.485 9     -1501.907 9        55.869 9  20663785.485 6         0.000 6     -1170.317 6        37.977 6
G20  21928010.032 9 115232437.521 9      2551.070 9        55.322 9  21928010.344 6         0.000 6      1987.848 6        37.977 6
> 2019 07 03 12 01 33.0000000  0  8       0.000000000000
G07  25333212.375 9 133126883.585 9      2171.026 9        54.136 9  25333213.038 6         0.000 6      1691.710 6        37.977 6
G10  23786894.317 9 125000919.004 9      3524.713 9        54.678 9  23786898.022 6         0.000 6      2746.532 6        37.977 6
G21  21178860.028 9 111295639.934 9     -1263.204 9        55.706 9  21178859.315 6         0.000 6      -984.315 6        37.977 6
G29  24319558.803 9 127800087.358 9     -3122.929 9        54.468 9  24319560.398 6         0.000 6     -2433.454 6        37.977 6
G27  21988862.432 9 115552225.085 9      2491.458 9        55.380 9  21988864.360 6         0.000 6      1941.396 6        37.977 6
G16  20493781.479 9 107695528.243 9       536.228 9        55.978 9  20493780.652 6         0.000 6       417.840 6        37.977 6
G26  20664068.522 9 108590390.672 9     -1502.480 9        55.869 9  20664071.342 6         0.000 6     -1170.764 6        37.977 6
G20  21927524.621 9 115229886.674 9      2550.624 9        55.322 9  21927524.933 6         0.000 6      1987.500 6        37.977 6
> 2019 07 03 12 01 34.0000000  0  8       0.000000000000
G07  25332799.287 9 133124712.796 9      2170.564 9        54.136 9  25332799.950 6         0.000 6      1691.350 6        37.977 6
G10  23786223.599 9 124997394.370 9      3524.572 9        54.678 9  23786227.303 6         0.000 6      2746.422 6        37.977 6
G21  21179100.442 9 111296903.315 9     -1263.563 9        55.706 9  21179099.729 6         0.000 6      -984.595 6        37.977 6
G29  24320153.084 9 127803210.314 9     -3123.014 9        54.468 9  24320154.680 6         0.000 6     -2433.520 6        37.977 6
G27  21988388.347 9 115549733.753 9      2491.220 9        55.381 9  21988390.274 6         0.000 6      1941.211 6        37.977 6
G16  20493679.497 9 107694992.325 9       535.610 9        55.978 9  20493678.670 6         0.000 6       417.359 6        37.977 6
G26  20664354.489 9 108591893.437 9     -1503.054 9        55.869 9  20664357.310 6         0.000 6     -1171.211 6        37.977 6
G20  21927039.295 9 115227336.275 9      2550.177 9        55.322 9  21927039.607 6         0.000 6      1987.152 6        37.977 6
> 2019 07 03 12 01 35.0000000  0  8       0.000000000000
G07  25332386.287 9 133122542.469 9      2170.103 9        54.137 9  25332386.949 6         0.000 6      1690.990 6        37.977 6
G10  23785552.908 9 124993869.875 9      3524.431 9        54.678 9  23785556.612 6         0.000 6      2746.313 6        37.977 6
G21  21179340.923 9 111298167.054 9     -1263.922 9        55.706 9  21179340.211 6         0.000 6      -984.874 6        37.977 6
G29  24320747.381 9 127806333.360 9     -3123.099 9        54.467 9  24320748.978 6         0.000 6     -2433.586 6        37.977 6
G27  21987914.306 9 115547242.653 9      2490.981 9        55.381 9  21987916.233 6         0.000 6      1941.025 6        37.977 6
G16  20493577.632 9 107694457.020 9       534.993 9        55.978 9  20493576.805 6         0.000 6       416.878 6        37.977 6
G26  20664640.565 9 108593396.771 9     -1503.628 9        55.869 9  20664643.385 6         0.000 6     -1171.658 6        37.977 6
G20  21926554.055 9 115224786.321 9      2549.731 9        55.322 9  21926554.366 6         0.000 6      1986.804 6        37.977 6
> 2019 07 03 12 01 36.0000000  0  8       0.000000000000
G07  25331973.374 9 133120372.601 9      2169.641 9        54.137 9  25331974.036 6         0.000 6      1690.630 6        37.977 6
G10  23784882.245 9 124990345.525 9      3524.290 9        54.678 9  23784885.947 6         0.000 6      2746.203 6        37.977 6
G21  21179581.474 9 111299431.155 9     -1264.281 9        55.706 9  21179580.761 6         0.000 6      -985.154 6        37.977 6
G29  24321341.695 9 127809456.491 9     -3123.183 9        54.467 9  24321343.293 6         0.000 6     -2433.652 6        37.977 6
G27  21987440.311 9 115544751.794 9      2490.743 9        55.381 9  21987442.238 6         0.000 6      1940.840 6        37.977 6
G16  20493475.885 9 107693922.336 9       534.376 9        55.978 9  20493475.058 6         0.000 6       416.397 6        37.977 6
G26  20664926.750 9 108594900.684 9     -1504.201 9        55.869 9  20664929.571 6         0.000 6     -1172.105 6        37.977 6
G20  21926068.899 9 115222236.818 9      2549.284 9        55.323 9  21926069.211 6         0.000 6      1986.456 6        37.977 6
> 2019 07 03 12 01 37.0000000  0  8       0.000000000000
G07  25331560.550 9 133118203.197 9      2169.179 9        54.137 9  25331561.212 6         0.000 6      1690.270 6        37.977 6
G10  23784211.607 9 124986821.311 9      3524.149 9        54.679 9  23784215.309 6         0.000 6      2746.093 6        37.977 6
G21  21179822.092 9 111300695.611 9     -1264.639 9        55.706 9  21179821.380 6         0.000 6      -985.433 6        37.977 6
G29  24321936.025 9 127812579.706 9     -3123.268 9        54.467 9  24321937.623 6         0.000 6     -2433.718 6        37.977 6
G27  21986966.360 9 115542261.170 9      2490.505 9        55.381 9  21986968.287 6         0.000 6      1940.654 6        37.977 6
G16  20493374.255 9 107693388.265 9       533.758 9        55.978 9  20493373.428 6         0.000 6       415.915 6        37.977 6
G26  20665213.044 9 108596405.165 9     -1504.775 9        55.869 9  20665215.864 6         0.000 6     -1172.552 6        37.977 6
G20  21925583.828 9 115219687.758 9      2548.837 9        55.323 9  21925584.139 6         0.000 6      1986.108 6        37.977 6
> 2019 07 03 12 01 38.0000000  0  8       0.000000000000
G07  25331147.813 9 133116034.253 9      2168.717 9        54.137 9  25331148.474 6         0.000 6      1689.910 6        37.977 6
G10  23783540.997 9 124983297.243 9      3524.008 9        54.679 9  23783544.699 6         0.000 6      2745.983 6        37.977 6
G21  21180062.779 9 111301960.430 9     -1264.998 9        55.705 9  21180062.067 6         0.000 6      -985.713 6        37.977 6
G29  24322530.372 9 127815703.006 9     -3123.353 9        54.467 9  24322531.970 6         0.000 6     -2433.784 6        37.977 6
G27  21986492.456 9 115539770.787 9      2490.267 9        55.381 9  21986494.382 6         0.000 6      1940.468 6        37.977 6
G16  20493272.743 9 107692854.816 9       533.141 9        55.978 9  20493271.916 6         0.000 6       415.434 6        37.977 6
G26  20665499.448 9 108597910.225 9     -1505.348 9        55.868 9  20665502.268 6         0.000 6     -1172.999 6        37.977 6
G20  21925098.843 9 115217139.148 9      2548.391 9        55.323 9  21925099.154 6         0.000 6      1985.760 6        37.977 6
> 2019 07 03 12 01 39.0000000  0  8       0.000000000000
G07  25330735.164 9 133113865.774 9      2168.254 9        54.137 9  25330735.826 6         0.000 6      1689.550 6        37.977 6
G10  23782870.413 9 124979773.311 9      3523.867 9        54.679 9  23782874.114 6         0.000 6      2745.873 6        37.977 6
G21  21180303.534 9 111303225.604 9     -1265.357 9        55.705 9  21180302.821 6         0.000 6      -985.993 6        37.977 6
G29  24323124.734 9 127818826.391 9     -3123.437 9        54.467 9  24323126.333 6         0.000 6     -2433.850 6        37.977 6
G27  21986018.596 9 115537280.640 9      2490.029 9        55.382 9  21986020.522 6         0.000 6      1940.283 6        37.977 6
G16  20493171.347 9 107692321.981 9       532.523 9        55.978 9  20493170.521 6         0.000 6       414.953 6        37.977 6
G26  20665785.960 9 108599415.854 9     -1505.922 9        55.868 9  20665788.780 6         0.000 6     -1173.446 6        37.977 6
G20  21924613.942 9 115214590.981 9      2547.944 9        55.323 9  21924614.253 6         0.000 6      1985.412 6        37.977 6
> 2019 07 03 12 01 40.0000000  0  8       0.000000000000
G07  25330322.603 9 133111697.754 9      2167.792 9        54.137 9  25330323.264 6         0.000 6      1689.190 6        37.977 6
G10  23782199.857 9 124976249.525 9      3523.726 9        54.679 9  23782203.557 6         0.000 6      2745.763 6        37.977 6
G21  21180544.358 9 111304491.139 9     -1265.715 9        55.705 9  21180543.645 6         0.000 6      -986.272 6        37.977 6
G29  24323719.112 9 127821949.860 9     -3123.522 9        54.466 9  24323720.712 6         0.000 6     -2433.916 6        37.977 6
G27  21985544.782 9 115534790.733 9      2489.790 9        55.382 9  21985546.708 6         0.000 6      1940.097 6        37.977 6
G16  20493070.071 9 107691789.767 9       531.905 9        55.978 9  20493069.244 6         0.000 6       414.472 6        37.977 6
G26  20666072.581 9 108600922.061 9     -1506.495 9        55.868 9  20666075.402 6         0.000 6     -1173.893 6        37.977 6
G20  21924129.127 9 115212043.265 9      2547.497 9        55.323 9  21924129.438 6         0.000 6      1985.064 6        37.977 6
> 2019 07 03 12 01 41.0000000  0  8       0.000000000000
G07  25329910.130 9 133109530.197 9      2167.330 9        54.137 9  25329910.791 6         0.000 6      1688.829 6        37.977 6
G10  23781529.328 9 124972725.881 9      3523.584 9        54.680 9  23781533.027 6         0.000 6      2745.653 6        37.977 6
G21  21180785.249 9 111305757.033 9     -1266.074 9        55.705 9  21180784.537 6         0.000 6      -986.551 6        37.977 6
G29  24324313.507 9 127825073.415 9     -3123.607 9        54.466 9  24324315.107 6         0.000 6     -2433.982 6        37.977 6
G27  21985071.013 9 115532301.065 9      2489.552 9        55.382 9  21985072.939 6         0.000 6      1939.911 6        37.977 6
G16  20492968.911 9 107691258.171 9       531.288 9        55.978 9  20492968.084 6         0.000 6       413.990 6        37.977 6
G26  20666359.313 9 108602428.841 9     -1507.069 9        55.868 9  20666362.134 6         0.000 6     -1174.340 6        37.977 6
G20  21923644.397 9 115209495.997 9      2547.050 9        55.324 9  21923644.707 6         0.000 6      1984.715 6        37.977 6
> 2019 07 03 12 01 42.0000000  0  8       0.000000000000
G07  25329497.746 9 133107363.108 9      2166.867 9        54.138 9  25329498.407 6         0.000 6      1688.469 6        37.977 6
G10  23780858.824 9 124969202.371 9      3523.443 9        54.680 9  23780862.523 6         0.000 6      2745.542 6        37.977 6
G21  21181026.208 9 111307023.281 9     -1266.433 9        55.705 9  21181025.496 6         0.000 6      -986.831 6        37.977 6
G29  24324907.917 9 127828197.048 9     -3123.691 9        54.466 9  24324909.518 6         0.000 6     -2434.048 6        37.977 6
G27  21984597.290 9 115529811.637 9      2489.314 9        55.382 9  21984599.216 6         0.000 6      1939.726 6        37.977 6
G16  20492867.869 9 107690727.190 9       530.670 9        55.978 9  20492867.042 6         0.000 6       413.509 6        37.977 6
G26  20666646.152 9 108603936.189 9     -1507.642 9        55.868 9  20666648.973 6         0.000 6     -1174.786 6        37.977 6
G20  21923159.751 9 115206949.167 9      2546.603 9        55.324 9  21923160.061 6         0.000 6      1984.367 6        37.977 6
> 2019 07 03 12 01 43.0000000  0  8       0.000000000000
G07  25329085.449 9 133105196.475 9      2166.405 9        54.138 9  25329086.109 6         0.000 6      1688.109 6        37.977 6
G10  23780188.349 9 124965679.010 9      3523.301 9        54.680 9  23780192.047 6         0.000 6      2745.432 6        37.977 6
G21  21181267.237 9 111308289.892 9     -1266.791 9        55.705 9  21181266.524 6         0.000 6      -987.110 6        37.977 6
G29  24325502.343 9 127831320.771 9     -3123.776 9        54.466 9  24325503.945 6         0.000 6     -2434.114 6        37.977 6
G27  21984123.612 9 115527322.445 9      2489.075 9        55.382 9  21984125.538 6         0.000 6      1939.540 6        37.977 6
G16  20492766.944 9 107690196.829 9       530.052 9        55.978 9  20492766.118 6         0.000 6       413.028 6        37.977 6
G26  20666933.101 9 108605444.116 9     -1508.215 9        55.868 9  20666935.922 6         0.000 6     -1175.233 6        37.977 6
G20  21922675.191 9 115204402.793 9      2546.155 9        55.324 9  21922675.501 6         0.000 6      1984.018 6        37.977 6
> 2019 07 03 12 01 44.0000000  0  8       0.000000000000
G07  25328673.240 9 133103030.308 9      2165.942 9        54.138 9  25328673.900 6         0.000 6      1687.748 6        37.977 6
G10  23779517.900 9 124962155.786 9      3523.159 9        54.680 9  23779521.597 6         0.000 6      2745.322 6        37.977 6
G21  21181508.333 9 111309556.860 9     -1267.149 9        55.705 9  21181507.620 6         0.000 6      -987.389 6        37.977 6
G29  24326096.786 9 127834444.579 9     -3123.860 9        54.466 9  24326098.388 6         0.000 6     -2434.180 6        37.977 6
G27  21983649.979 9 115524833.490 9      2488.837 9        55.383 9  21983651.905 6         0.000 6      1939.354 6        37.977 6
G16  20492666.137 9 107689667.082 9       529.434 9        55.979 9  20492665.310 6         0.000 6       412.546 6        37.977 6
G26  20667220.159 9 108606952.612 9     -1508.789 9        55.868 9  20667222.980 6         0.000 6     -1175.680 6        37.977 6
G20  21922190.716 9 115201856.861 9      2545.708 9        55.324 9  21922191.025 6         0.000 6      1983.670 6        37.977 6
> 2019 07 03 12 01 45.0000000  0  8       0.000000000000
G07  25328261.119 9 133100864.600 9      2165.480 9        54.138 9  25328261.779 6         0.000 6      1687.388 6        37.977 6
G10  23778847.478 9 124958632.708 9      3523.017 9        54.681 9  23778851.175 6         0.000 6      2745.211 6        37.977 6
G21  21181749.497 9 111310824.187 9     -1267.508 9        55.705 9  21181748.785 6         0.000 6      -987.669 6        37.977 6
G29  24326691.245 9 127837568.472 9     -3123.945 9        54.465 9  24326692.848 6         0.000 6     -2434.246 6        37.977 6
G27  21983176.392 9 115522344.775 9      2488.598 9        55.383 9  21983178.318 6         0.000 6      1939.168 6        37.977 6
G16  20492565.448 9 107689137.957 9       528.817 9        55.979 9  20492564.621 6         0.000 6       412.065 6        37.977 6
G26  20667507.326 9 108608461.685 9     -1509.362 9        55.868 9  20667510.147 6         0.000 6     -1176.127 6        37.977 6
G20  21921706.326 9 115199311.382 9      2545.261 9        55.324 9  21921706.635 6         0.000 6      1983.321 6        37.977 6
> 2019 07 03 12 01 46.0000000  0  8       0.000000000000
G07  25327849.086 9 133098699.358 9      2165.017 9        54.138 9  25327849.746 6         0.000 6      1687.027 6        37.977 6
G10  23778177.083 9 124955109.768 9      3522.875 9        54.681 9  23778180.779 6         0.000 6      2745.100 6        37.977 6
G21  21181990.730 9 111312091.871 9     -1267.866 9        55.705 9  21181990.017 6         0.000 6      -987.948 6        37.977 6
G29  24327285.720 9 127840692.449 9     -3124.030 9        54.465 9  24327287.324 6         0.000 6     -2434.311 6        37.977 6
G27  21982702.850 9 115519856.297 9      2488.360 9        55.383 9  21982704.775 6         0.000 6      1938.982 6        37.977 6
G16  20492464.875 9 107688609.446 9       528.199 9        55.979 9  20492464.049 6         0.000 6       411.583 6        37.977 6
G26  20667794.602 9 108609971.327 9     -1509.935 9        55.867 9  20667797.423 6         0.000 6     -1176.573 6        37.977 6
G20  21921222.021 9 115196766.345 9      2544.813 9        55.325 9  21921222.330 6         0.000 6      1982.972 6        37.977 6
> 2019 07 03 12 01 47.0000000  0  8       0.000000000000
G07  25327437.141 9 133096534.576 9      2164.554 9        54.138 9  25327437.801 6         0.000 6      1686.666 6        37.977 6
G10  23777506.716 9 124951586.974 9      3522.733 9        54.681 9  23777510.411 6         0.000 6      2744.990 6        37.977 6
G21  21182232.031 9 111313359.916 9     -1268.224 9        55.705 9  21182231.318 6         0.000 6      -988.227 6        37.977 6
G29  24327880.211 9 127843816.510 9     -3124.114 9        54.465 9  24327881.815 6         0.000 6     -2434.377 6        37.977 6
G27  21982229.354 9 115517368.060 9      2488.121 9        55.383 9  21982231.279 6         0.000 6      1938.796 6        37.977 6
G16  20492364.421 9 107688081.556 9       527.581 9        55.979 9  20492363.595 6         0.000 6       411.102 6        37.977 6
G26  20668081.987 9 108611481.547 9     -1510.508 9        55.867 9  20668084.809 6         0.000 6     -1177.020 6        37.977 6
G20  21920737.802 9 115194221.760 9      2544.365 9        55.325 9  21920738.110 6         0.000 6      1982.624 6        37.977 6
> 2019 07 03 12 01 48.0000000  0  8       0.000000000000
G07  25327025.285 9 133094370.260 9      2164.091 9        54.138 9  25327025.944 6         0.000 6      1686.306 6        37.977 6
G10  23776836.374 9 124948064.318 9      3522.591 9        54.681 9  23776840.069 6         0.000 6      2744.879 6        37.977 6
G21  21182473.399 9 111314628.316 9     -1268.582 9        55.704 9  21182472.687 6         0.000 6      -988.506 6        37.977 6
G29  24328474.718 9 127846940.656 9     -3124.199 9        54.465 9  24328476.323 6         0.000 6     -2434.443 6        37.977 6
G27  21981755.902 9 115514880.059 9      2487.882 9        55.383 9  21981757.827 6         0.000 6      1938.610 6        37.977 6
G16  20492264.084 9 107687554.281 9       526.963 9        55.979 9  20492263.257 6         0.000 6       410.620 6        37.977 6
G26  20668369.481 9 108612992.336 9     -1511.082 9        55.867 9  20668372.303 6         0.000 6     -1177.467 6        37.977 6
G20  21920253.667 9 115191677.619 9      2543.918 9        55.325 9  21920253.975 6         0.000 6      1982.275 6        37.977 6
> 2019 07 03 12 01 49.0000000  0  8       0.000000000000
G07  25326613.516 9 133092206.404 9      2163.628 9        54.139 9  25326614.175 6         0.000 6      1685.945 6        37.977 6
G10  23776166.061 9 124944541.809 9      3522.449 9        54.682 9  23776169.756 6         0.000 6      2744.768 6        37.977 6
G21  21182714.836 9 111315897.077 9     -1268.941 9        55.704 9  21182714.124 6         0.000 6      -988.785 6        37.977 6
G29  24329069.242 9 127850064.887 9     -3124.283 9        54.464 9  24329070.847 6         0.000 6     -2434.509 6        37.977 6
G27  21981282.497 9 115512392.298 9      2487.644 9        55.384 9  21981284.422 6         0.000 6      1938.424 6        37.977 6
G16  20492163.865 9 107687027.627 9       526.345 9        55.979 9  20492163.038 6         0.000 6       410.139 6        37.977 6
G26  20668657.085 9 108614503.702 9     -1511.655 9        55.867 9  20668659.907 6         0.000 6     -1177.913 6        37.977 6
G20  21919769.618 9 115189133.930 9      2543.470 9        55.325 9  21919769.926 6         0.000 6      1981.926 6        37.977 6
> 2019 07 03 12 01 50.0000000  0  8       0.000000000000
G07  25326201.837 9 133090043.016 9      2163.165 9        54.139 9  25326202.496 6         0.000 6      1685.584 6        37.977 6
G10  23775495.774 9 124941019.435 9      3522.306 9        54.682 9  23775499.467 6         0.000 6      2744.657 6        37.977 6
G21  21182956.341 9 111317166.191 9     -1269.299 9        55.704 9  21182955.629 6         0.000 6      -989.064 6        37.977 6
G29  24329663.780 9 127853189.196 9     -3124.367 9        54.464 9  24329665.386 6         0.000 6     -2434.575 6        37.977 6
G27  21980809.137 9 115509904.778 9      2487.405 9        55.384 9  21980811.062 6         0.000 6      1938.238 6        37.977 6
G16  20492063.764 9 107686501.589 9       525.727 9        55.979 9  20492062.937 6         0.000 6       409.657 6        37.977 6
G26  20668944.797 9 108616015.636 9     -1512.228 9        55.867 9  20668947.619 6         0.000 6     -1178.360 6        37.977 6
G20  21919285.653 9 115186590.681 9      2543.022 9        55.325 9  21919285.961 6         0.000 6      1981.577 6        37.977 6
> 2019 07 03 12 01 51.0000000  0  8       0.000000000000
G07  25325790.244 9 133087880.086 9      2162.702 9        54.139 9  25325790.903 6         0.000 6      1685.223 6        37.977 6
G10  23774825.515 9 124937497.210 9      3522.164 9        54.682 9  23774829.208 6         0.000 6      2744.546 6        37.977 6
G21  21183197.915 9 111318435.668 9     -1269.657 9        55.704 9  21183197.203 6         0.000 6      -989.343 6        37.977 6
G29  24330258.335 9 127856313.596 9     -3124.452 9        54.464 9  24330259.942 6         0.000 6     -2434.640 6        37.977 6
G27  21980335.822 9 115507417.495 9      2487.166 9        55.384 9  21980337.747 6         0.000 6      1938.052 6        37.977 6
G16  20491963.780 9 107685976.171 9       525.109 9        55.979 9  20491962.953 6         0.000 6       409.176 6        37.977 6
G26  20669232.619 9 108617528.149 9     -1512.801 9        55.867 9  20669235.441 6         0.000 6     -1178.806 6        37.977 6
G20  21918801.775 9 115184047.887 9      2542.574 9        55.325 9  21918802.082 6         0.000 6      1981.228 6        37.977 6
> 2019 07 03 12 01 52.0000000  0  8       0.000000000000
G07  25325378.739 9 133085717.619 9      2162.239 9        54.139 9  25325379.398 6         0.000 6      1684.862 6        37.977 6
G10  23774155.283 9 124933975.128 9      3522.021 9        54.682 9  23774158.975 6         0.000 6      2744.435 6        37.977 6
G21  21183439.556 9 111319705.503 9     -1270.015 9        55.704 9  21183438.844 6         0.000 6      -989.622 6        37.977 6
G29  24330852.907 9 127859438.079 9     -3124.536 9        54.464 9  24330854.514 6         0.000 6     -2434.706 6        37.977 6
G27  21979862.553 9 115504930.451 9      2486.928 9        55.384 9  21979864.477 6         0.000 6      1937.866 6        37.977 6
G16  20491863.914 9 107685451.371 9       524.491 9        55.979 9  20491863.087 6         0.000 6       408.694 6        37.977 6
G26  20669520.550 9 108619041.234 9     -1513.374 9        55.867 9  20669523.372 6         0.000 6     -1179.253 6        37.977 6
G20  21918317.982 9 115181505.542 9      2542.126 9        55.326 9  21918318.289 6         0.000 6      1980.878 6        37.977 6
> 2019 07 03 12 01 53.0000000  0  8       0.000000000000
G07  25324967.324 9 133083555.618 9      2161.776 9        54.139 9  25324967.982 6         0.000 6      1684.501 6        37.977 6
G10  23773485.077 9 124930453.184 9      3521.879 9        54.682 9  23773488.769 6         0.000 6      2744.324 6        37.977 6
G21  21183681.266 9 111320975.693 9     -1270.372 9        55.704 9  21183680.554 6         0.000 6      -989.901 6        37.977 6
G29  24331447.494 9 127862562.647 9     -3124.621 9        54.464 9  24331449.102 6         0.000 6     -2434.772 6        37.977 6
G27  21979389.329 9 115502443.643 9      2486.689 9        55.384 9  21979391.253 6         0.000 6      1937.680 6        37.977 6
G16  20491764.165 9 107684927.186 9       523.873 9        55.979 9  20491763.338 6         0.000 6       408.213 6        37.977 6
G26  20669808.589 9 108620554.888 9     -1513.947 9        55.867 9  20669811.411 6         0.000 6     -1179.699 6        37.977 6
G20  21917834.273 9 115178963.640 9      2541.678 9        55.326 9  21917834.580 6         0.000 6      1980.529 6        37.977 6
> 2019 07 03 12 01 54.0000000  0  8       0.000000000000
G07  25324555.996 9 133081394.077 9      2161.312 9        54.139 9  25324556.654 6         0.000 6      1684.140 6        37.977 6
G10  23772814.899 9 124926931.387 9      3521.736 9        54.683 9  23772818.590 6         0.000 6      2744.212 6        37.977 6
G21  21183923.044 9 111322246.244 9     -1270.730 9        55.704 9  21183922.332 6         0.000 6      -990.180 6        37.977 6
G29  24332042.098 9 127865687.300 9     -3124.705 9        54.463 9  24332043.706 6         0.000 6     -2434.838 6        37.977 6
G27  21978916.150 9 115499957.077 9      2486.450 9        55.384 9  21978918.074 6         0.000 6      1937.494 6        37.977 6
G16  20491664.534 9 107684403.623 9       523.255 9        55.979 9  20491663.707 6         0.000 6       407.731 6        37.977 6
G26  20670096.738 9 108622069.120 9     -1514.520 9        55.867 9  20670099.560 6         0.000 6     -1180.146 6        37.977 6
G20  21917350.650 9 115176422.191 9      2541.229 9        55.326 9  21917350.957 6         0.000 6      1980.180 6        37.977 6
> 2019 07 03 12 01 55.0000000  0  8       0.000000000000
G07  25324144.756 9 133079233.003 9      2160.849 9        54.139 9  25324145.414 6         0.000 6      1683.779 6        37.977 6
G10  23772144.748 9 124923409.729 9      3521.593 9        54.683 9  23772148.439 6         0.000 6      2744.101 6        37.977 6
G21  21184164.889 9 111323517.150 9     -1271.088 9        55.704 9  21184164.177 6         0.000 6      -990.458 6        37.977 6
G29  24332636.717 9 127868812.036 9     -3124.789 9        54.463 9  24332638.327 6         0.000 6     -2434.903 6        37.977 6
G27  21978443.017 9 115497470.747 9      2486.211 9        55.385 9  21978444.941 6         0.000 6      1937.308 6        37.977 6
G16  20491565.020 9 107683880.674 9       522.636 9        55.979 9  20491564.193 6         0.000 6       407.249 6        37.977 6
G26  20670384.995 9 108623583.919 9     -1515.093 9        55.866 9  20670387.817 6         0.000 6     -1180.592 6        37.977 6
G20  21916867.112 9 115173881.186 9      2540.781 9        55.326 9  21916867.419 6         0.000 6      1979.830 6        37.977 6
> 2019 07 03 12 01 56.0000000  0  8       0.000000000000
G07  25323733.604 9 133077072.389 9      2160.385 9        54.139 9  25323734.262 6         0.000 6      1683.418 6        37.977 6
G10  23771474.625 9 124919888.218 9      3521.450 9        54.683 9  23771478.315 6         0.000 6      2743.990 6        37.977 6
G21  21184406.803 9 111324788.416 9     -1271.446 9        55.704 9  21184406.091 6         0.000 6      -990.737 6        37.977 6
G29  24333231.353 9 127871936.857 9     -3124.874 9        54.463 9  24333232.963 6         0.000 6     -2434.969 6        37.977 6
G27  21977969.929 9 115494984.658 9      2485.972 9        55.385 9  21977971.853 6         0.000 6      1937.122 6        37.977 6
G16  20491465.624 9 107683358.347 9       522.018 9        55.979 9  20491464.798 6         0.000 6       406.767 6        37.977 6
G26  20670673.362 9 108625099.297 9     -1515.666 9        55.866 9  20670676.185 6         0.000 6     -1181.039 6        37.977 6
G20  21916383.661 9 115171340.634 9      2540.333 9        55.326 9  21916383.966 6         0.000 6      1979.481 6        37.977 6
> 2019 07 03 12 01 57.0000000  0  8       0.000000000000
G07  25323322.542 9 133074912.244 9      2159.922 9        54.140 9  25323323.199 6         0.000 6      1683.057 6        37.977 6
G10  23770804.528 9 124916366.844 9      3521.307 9        54.683 9  23770808.217 6         0.000 6      2743.878 6        37.977 6
G21  21184648.784 9 111326060.035 9     -1271.803 9        55.704 9  21184648.073 6         0.000 6      -991.016 6        37.977 6
G29  24333826.004 9 127875061.758 9     -3124.958 9        54.463 9  24333827.614 6         0.000 6     -2435.035 6        37.977 6
G27  21977496.888 9 115492498.810 9      2485.733 9        55.385 9  21977498.811 6         0.000 6      1936.936 6        37.977 6
G16  20491366.346 9 107682836.636 9       521.400 9        55.979 9  20491365.519 6         0.000 6       406.286 6        37.977 6
G26  20670961.837 9 108626615.242 9     -1516.238 9        55.866 9  20670964.660 6         0.000 6     -1181.485 6        37.977 6
G20  21915900.293 9 115168800.523 9      2539.884 9        55.327 9  21915900.598 6         0.000 6      1979.131 6        37.977 6
> 2019 07 03 12 01 58.0000000  0  8       0.000000000000
G07  25322911.566 9 133072752.558 9      2159.458 9        54.140 9  25322912.224 6         0.000 6      1682.696 6        37.977 6
G10  23770134.459 9 124912845.619 9      3521.164 9        54.684 9  23770138.147 6         0.000 6      2743.766 6        37.977 6
G21  21184890.835 9 111327332.017 9     -1272.161 9        55.703 9  21184890.123 6         0.000 6      -991.295 6        37.977 6
G29  24334420.671 9 127878186.747 9     -3125.042 9        54.463 9  24334422.283 6         0.000 6     -2435.100 6        37.977 6
G27  21977023.891 9 115490013.198 9      2485.494 9        55.385 9  21977025.814 6         0.000 6      1936.749 6        37.977 6
G16  20491267.186 9 107682315.545 9       520.782 9        55.979 9  20491266.359 6         0.000 6       405.804 6        37.977 6
G26  20671250.422 9 108628131.765 9     -1516.811 9        55.866 9  20671253.245 6         0.000 6     -1181.931 6        37.977 6
G20  21915417.012 9 115166260.868 9      2539.435 9        55.327 9  21915417.317 6         0.000 6      1978.782 6        37.977 6
> 2019 07 03 12 01 59.0000000  0  8       0.000000000000
G07  25322500.680 9 133070593.338 9      2158.995 9        54.140 9  25322501.337 6         0.000 6      1682.334 6        37.977 6
G10  23769464.416 9 124909324.533 9      3521.020 9        54.684 9  23769468.104 6         0.000 6      2743.655 6        37.977 6
G21  21185132.952 9 111328604.354 9     -1272.519 9        55.703 9  21185132.241 6         0.000 6      -991.573 6        37.977 6
G29  24335015.355 9 127881311.821 9     -3125.126 9        54.462 9  24335016.967 6         0.000 6     -2435.166 6        37.977 6
G27  21976550.940 9 115487527.824 9      2485.255 9        55.385 9  21976552.863 6         0.000 6      1936.563 6        37.977 6
G16  20491168.143 9 107681795.069 9       520.163 9        55.979 9  20491167.316 6         0.000 6       405.322 6        37.977 6
G26  20671539.115 9 108629648.856 9     -1517.384 9        55.866 9  20671541.938 6         0.000 6     -1182.378 6        37.977 6
G20  21914933.815 9 115163721.657 9      2538.987 9        55.327 9  21914934.120 6         0.000 6      1978.432 6        37.977 6
> 2019 07 03 12 02  0.0000000  0  8       0.000000000000
G07  25322089.881 9 133068434.580 9      2158.531 9        54.140 9  25322090.538 6         0.000 6      1681.973 6        37.977 6
G10  23768794.402 9 124905803.594 9      3520.877 9        54.684 9  23768798.089 6         0.000 6      2743.543 6        37.977 6
G21  21185375.138 9 111329877.049 9     -1272.876 9        55.703 9  21185374.427 6         0.000 6      -991.852 6        37.977 6
G29  24335610.055 9 127884436.977 9     -3125.210 9        54.462 9  24335611.667 6         0.000 6     -2435.232 6        37.977 6
G27  21976078.034 9 115485042.692 9      2485.016 9        55.386 9  21976079.957 6         0.000 6      1936.377 6        37.977 6
G16  20491069.218 9 107681275.215 9       519.545 9        55.979 9  20491068.391 6         0.000 6       404.840 6        37.977 6
G26  20671827.918 9 108631166.523 9     -1517.957 9        55.866 9  20671830.741 6         0.000 6     -1182.824 6        37.977 6
G20  21914450.704 9 115161182.898 9      2538.538 9        55.327 9  21914451.009 6         0.000 6      1978.082 6        37.977 6
