     3.00           Observation Data    M (Mixed)           RINEX VERSION / TYPE
SimGEN V6.06.00     Spirent             03-Jul-19 12:00     PGM / RUN BY / DATE 
                                                            MARKER NAME         
1                                                           MARKER NUMBER       
GROUND_CRAFT                                                MARKER TYPE         
jin4hi              Spirent                                 OBSERVER / AGENCY   
rec_num             rec_type            rec_vers            REC # / TYPE / VERS 
1                   ant_type                                ANT # / TYPE        
  1000.000                                                  INTERVAL            
  2019     7     3    12     0    1.0000000     GPS         TIME OF FIRST OBS   
  4162659.2590   664359.7300  4770549.9870                  APPROX POSITION XYZ 
        0.0000        0.0000        0.0000                  ANTENNA: DELTA H/E/N
G    8 C1C L1C D1C S1C C2C L2C D2C S2C                      SYS / # / OBS TYPES 
        0.0000        0.0000        0.0000                  ANTENNA: DELTA X/Y/Z
DBHZ                                                        SIGNAL STRENGTH UNIT
                                                            END OF HEADER       
> 2019 07 03 12 00  1.0000000  0  8       0.000000000000
G07  25371555.884 9 133328379.750 9      2213.157 9        54.123 9  25371556.567 6         0.000 6      1724.538 6        37.977 6
G10  23848735.603 9 125325896.172 9      3537.179 9        54.655 9  23848739.368 6         0.000 6      2756.243 6        37.977 6
G21  21157061.539 9 111181088.167 9     -1229.973 9        55.715 9  21157060.823 6         0.000 6      -958.420 6        37.977 6
G29  24265032.252 9 127513549.334 9     -3115.012 9        54.487 9  24265033.790 6         0.000 6     -2427.282 6        37.977 6
G27  22032610.800 9 115782124.061 9      2513.160 9        55.363 9  22032612.743 6         0.000 6      1958.306 6        37.977 6
G16  20503636.709 9 107747317.823 9       592.835 9        55.974 9  20503635.882 6         0.000 6       461.950 6        37.977 6
G26  20638219.255 9 108454552.015 9     -1449.571 9        55.880 9  20638222.065 6         0.000 6     -1129.536 6        37.977 6
G20  21972573.588 9 115466620.178 9      2591.276 9        55.304 9  21972573.926 6         0.000 6      2019.176 6        37.977 6
> 2019 07 03 12 00  2.0000000  0  8       0.000000000000
G07  25371134.767 9 133326166.769 9      2212.758 9        54.123 9  25371135.450 6         0.000 6      1724.228 6        37.977 6
G10  23848062.509 9 125322359.050 9      3537.067 9        54.655 9  23848066.273 6         0.000 6      2756.159 6        37.977 6
G21  21157295.630 9 111182318.322 9     -1230.338 9        55.715 9  21157294.914 6         0.000 6      -958.705 6        37.977 6
G29  24265625.032 9 127516664.407 9     -3115.126 9        54.487 9  24265626.571 6         0.000 6     -2427.374 6        37.977 6
G27  22032132.583 9 115779611.016 9      2512.930 9        55.363 9  22032134.526 6         0.000 6      1958.128 6        37.977 6
G16  20503523.954 9 107746725.294 9       592.222 9        55.974 9  20503523.128 6         0.000 6       461.472 6        37.977 6
G26  20638495.154 9 108456001.874 9     -1450.150 9        55.880 9  20638497.965 6         0.000 6     -1129.987 6        37.977 6
G20  21972080.526 9 115464029.120 9      2590.844 9        55.305 9  21972080.863 6         0.000 6      2018.840 6        37.977 6
> 2019 07 03 12 00  3.0000000  0  8       0.000000000000
G07  25370713.737 9 133323954.245 9      2212.303 9        54.123 9  25370714.419 6         0.000 6      1723.873 6        37.977 6
G10  23847389.439 9 125318822.058 9      3536.936 9        54.656 9  23847393.203 6         0.000 6      2756.056 6        37.977 6
G21  21157529.790 9 111183548.839 9     -1230.702 9        55.715 9  21157529.073 6         0.000 6      -958.989 6        37.977 6
G29  24266217.828 9 127519779.561 9     -3115.213 9        54.487 9  24266219.367 6         0.000 6     -2427.441 6        37.977 6
G27  22031654.412 9 115777098.211 9      2512.695 9        55.364 9  22031656.354 6         0.000 6      1957.945 6        37.977 6
G16  20503411.317 9 107746133.380 9       591.608 9        55.974 9  20503410.490 6         0.000 6       460.994 6        37.977 6
G26  20638771.163 9 108457452.311 9     -1450.726 9        55.880 9  20638773.974 6         0.000 6     -1130.437 6        37.977 6
G20  21971587.545 9 115461438.497 9      2590.406 9        55.305 9  21971587.883 6         0.000 6      2018.499 6        37.977 6
> 2019 07 03 12 00  4.0000000  0  8       0.000000000000
G07  25370292.793 9 133321742.175 9      2211.848 9        54.124 9  25370293.476 6         0.000 6      1723.519 6        37.977 6
G10  23846716.395 9 125315285.194 9      3536.804 9        54.656 9  23846720.158 6         0.000 6      2755.954 6        37.977 6
G21  21157764.019 9 111184779.720 9     -1231.066 9        55.715 9  21157763.302 6         0.000 6      -959.272 6        37.977 6
G29  24266810.642 9 127522894.807 9     -3115.300 9        54.487 9  24266812.182 6         0.000 6     -2427.509 6        37.977 6
G27  22031176.284 9 115774585.634 9      2512.460 9        55.364 9  22031178.226 6         0.000 6      1957.762 6        37.977 6
G16  20503298.795 9 107745542.075 9       590.995 9        55.974 9  20503297.969 6         0.000 6       460.515 6        37.977 6
G26  20639047.281 9 108458903.319 9     -1451.303 9        55.880 9  20639050.092 6         0.000 6     -1130.886 6        37.977 6
G20  21971094.648 9 115458848.310 9      2589.968 9        55.305 9  21971094.985 6         0.000 6      2018.158 6        37.977 6
> 2019 07 03 12 00  5.0000000  0  8       0.000000000000
G07  25369871.936 9 133319530.558 9      2211.393 9        54.124 9  25369872.618 6         0.000 6      1723.164 6        37.977 6
G10  23846043.376 9 125311748.466 9      3536.673 9        54.656 9  23846047.138 6         0.000 6      2755.852 6        37.977 6
G21  21157998.318 9 111186010.967 9     -1231.430 9        55.715 9  21157997.601 6         0.000 6      -959.556 6        37.977 6
G29  24267403.472 9 127526010.141 9     -3115.387 9        54.486 9  24267405.012 6         0.000 6     -2427.577 6        37.977 6
G27  22030698.201 9 115772073.294 9      2512.225 9        55.364 9  22030700.143 6         0.000 6      1957.579 6        37.977 6
G16  20503186.391 9 107744951.388 9       590.381 9        55.974 9  20503185.564 6         0.000 6       460.037 6        37.977 6
G26  20639323.510 9 108460354.909 9     -1451.880 9        55.879 9  20639326.321 6         0.000 6     -1131.335 6        37.977 6
G20  21970601.836 9 115456258.566 9      2589.530 9        55.305 9  21970602.172 6         0.000 6      2017.817 6        37.977 6
> 2019 07 03 12 00  6.0000000  0  8       0.000000000000
G07  25369451.165 9 133317319.399 9      2210.938 9        54.124 9  25369451.847 6         0.000 6      1722.810 6        37.977 6
G10  23845370.381 9 125308211.865 9      3536.542 9        54.656 9  23845374.143 6         0.000 6      2755.749 6        37.977 6
G21  21158232.685 9 111187242.576 9     -1231.794 9        55.714 9  21158231.969 6         0.000 6      -959.840 6        37.977 6
G29  24267996.319 9 127529125.560 9     -3115.473 9        54.486 9  24267997.860 6         0.000 6     -2427.644 6        37.977 6
G27  22030220.162 9 115769561.187 9      2511.991 9        55.364 9  22030222.104 6         0.000 6      1957.396 6        37.977 6
G16  20503074.103 9 107744361.311 9       589.767 9        55.974 9  20503073.276 6         0.000 6       459.559 6        37.977 6
G26  20639599.848 9 108461807.070 9     -1452.456 9        55.879 9  20639602.658 6         0.000 6     -1131.785 6        37.977 6
G20  21970109.105 9 115453669.256 9      2589.092 9        55.305 9  21970109.442 6         0.000 6      2017.475 6        37.977 6
> 2019 07 03 12 00  7.0000000  0  8       0.000000000000
G07  25369030.481 9 133315108.692 9      2210.483 9        54.124 9  25369031.163 6         0.000 6      1722.455 6        37.977 6
G10  23844697.412 9 125304675.400 9      3536.410 9        54.656 9  23844701.173 6         0.000 6      2755.647 6        37.977 6
G21  21158467.122 9 111188474.551 9     -1232.158 9        55.714 9  21158466.406 6         0.000 6      -960.123 6        37.977 6
G29  24268589.182 9 127532241.067 9     -3115.560 9        54.486 9  24268590.723 6         0.000 6     -2427.712 6        37.977 6
G27  22029742.169 9 115767049.316 9      2511.756 9        55.364 9  22029744.110 6         0.000 6      1957.213 6        37.977 6
G16  20502961.933 9 107743771.851 9       589.153 9        55.974 9  20502961.106 6         0.000 6       459.080 6        37.977 6
G26  20639876.296 9 108463259.813 9     -1453.033 9        55.879 9  20639879.107 6         0.000 6     -1132.234 6        37.977 6
G20  21969616.459 9 115451080.387 9      2588.654 9        55.306 9  21969616.795 6         0.000 6      2017.134 6        37.977 6
> 2019 07 03 12 00  8.0000000  0  8       0.000000000000
G07  25368609.884 9 133312898.443 9      2210.028 9        54.124 9  25368610.566 6         0.000 6      1722.101 6        37.977 6
G10  23844024.467 9 125301139.062 9      3536.278 9        54.657 9  23844028.228 6         0.000 6      2755.544 6        37.977 6
G21  21158701.628 9 111189706.888 9     -1232.521 9        55.714 9  21158700.912 6         0.000 6      -960.407 6        37.977 6
G29  24269182.061 9 127535356.661 9     -3115.647 9        54.486 9  24269183.604 6         0.000 6     -2427.779 6        37.977 6
G27  22029264.219 9 115764537.679 9      2511.521 9        55.365 9  22029266.161 6         0.000 6      1957.030 6        37.977 6
G16  20502849.878 9 107743183.002 9       588.539 9        55.974 9  20502849.052 6         0.000 6       458.602 6        37.977 6
G26  20640152.853 9 108464713.128 9     -1453.610 9        55.879 9  20640155.664 6         0.000 6     -1132.683 6        37.977 6
G20  21969123.896 9 115448491.953 9      2588.215 9        55.306 9  21969124.232 6         0.000 6      2016.792 6        37.977 6
> 2019 07 03 12 00  9.0000000  0  8       0.000000000000
G07  25368189.373 9 133310688.646 9      2209.573 9        54.124 9  25368190.054 6         0.000 6      1721.746 6        37.977 6
G10  23843351.548 9 125297602.860 9      3536.147 9        54.657 9  23843355.308 6         0.000 6      2755.442 6        37.977 6
G21  21158936.204 9 111190939.590 9     -1232.885 9        55.714 9  21158935.488 6         0.000 6      -960.690 6        37.977 6
G29  24269774.958 9 127538472.341 9     -3115.734 9        54.486 9  24269776.500 6         0.000 6     -2427.847 6        37.977 6
G27  22028786.315 9 115762026.278 9      2511.286 9        55.365 9  22028788.257 6         0.000 6      1956.847 6        37.977 6
G16  20502737.942 9 107742594.770 9       587.925 9        55.974 9  20502737.115 6         0.000 6       458.123 6        37.977 6
G26  20640429.520 9 108466167.025 9     -1454.186 9        55.879 9  20640432.331 6         0.000 6     -1133.133 6        37.977 6
G20  21968631.416 9 115445903.962 9      2587.777 9        55.306 9  21968631.752 6         0.000 6      2016.451 6        37.977 6
> 2019 07 03 12 00 10.0000000  0  8       0.000000000000
G07  25367768.950 9 133308479.310 9      2209.118 9        54.124 9  25367769.631 6         0.000 6      1721.391 6        37.977 6
G10  23842678.653 9 125294066.784 9      3536.015 9        54.657 9  23842682.412 6         0.000 6      2755.339 6        37.977 6
G21  21159170.848 9 111192172.652 9     -1233.249 9        55.714 9  21159170.132 6         0.000 6      -960.973 6        37.977 6
G29  24270367.869 9 127541588.103 9     -3115.820 9        54.485 9  24270369.413 6         0.000 6     -2427.915 6        37.977 6
G27  22028308.456 9 115759515.114 9      2511.051 9        55.365 9  22028310.397 6         0.000 6      1956.664 6        37.977 6
G16  20502626.121 9 107742007.151 9       587.311 9        55.974 9  20502625.295 6         0.000 6       457.645 6        37.977 6
G26  20640706.297 9 108467621.492 9     -1454.763 9        55.879 9  20640709.108 6         0.000 6     -1133.582 6        37.977 6
G20  21968139.019 9 115443316.401 9      2587.339 9        55.306 9  21968139.354 6         0.000 6      2016.109 6        37.977 6
> 2019 07 03 12 00 11.0000000  0  8       0.000000000000
G07  25367348.612 9 133306270.423 9      2208.662 9        54.125 9  25367349.293 6         0.000 6      1721.036 6        37.977 6
G10  23842005.784 9 125290530.846 9      3535.883 9        54.657 9  23842009.543 6         0.000 6      2755.236 6        37.977 6
G21  21159405.562 9 111193406.082 9     -1233.612 9        55.714 9  21159404.846 6         0.000 6      -961.257 6        37.977 6
G29  24270960.798 9 127544703.956 9     -3115.907 9        54.485 9  24270962.342 6         0.000 6     -2427.982 6        37.977 6
G27  22027830.641 9 115757004.183 9      2510.816 9        55.365 9  22027832.582 6         0.000 6      1956.481 6        37.977 6
G16  20502514.418 9 107741420.147 9       586.697 9        55.974 9  20502513.592 6         0.000 6       457.166 6        37.977 6
G26  20640983.184 9 108469076.542 9     -1455.339 9        55.879 9  20640985.995 6         0.000 6     -1134.031 6        37.977 6
G20  21967646.707 9 115440729.286 9      2586.900 9        55.306 9  21967647.042 6         0.000 6      2015.767 6        37.977 6
> 2019 07 03 12 00 12.0000000  0  8       0.000000000000
G07  25366928.361 9 133304061.993 9      2208.207 9        54.125 9  25366929.041 6         0.000 6      1720.682 6        37.977 6
G10  23841332.941 9 125286995.040 9      3535.751 9        54.658 9  23841336.699 6         0.000 6      2755.133 6        37.977 6
G21  21159640.345 9 111194639.876 9     -1233.976 9        55.714 9  21159639.629 6         0.000 6      -961.540 6        37.977 6
G29  24271553.744 9 127547819.897 9     -3115.994 9        54.485 9  24271555.289 6         0.000 6     -2428.050 6        37.977 6
G27  22027352.871 9 115754493.487 9      2510.581 9        55.365 9  22027354.812 6         0.000 6      1956.298 6        37.977 6
G16  20502402.832 9 107740833.757 9       586.083 9        55.974 9  20502402.005 6         0.000 6       456.688 6        37.977 6
G26  20641260.180 9 108470532.168 9     -1455.916 9        55.879 9  20641262.992 6         0.000 6     -1134.480 6        37.977 6
G20  21967154.478 9 115438142.610 9      2586.461 9        55.306 9  21967154.812 6         0.000 6      2015.426 6        37.977 6
> 2019 07 03 12 00 13.0000000  0  8       0.000000000000
G07  25366508.197 9 133301854.020 9      2207.751 9        54.125 9  25366508.877 6         0.000 6      1720.327 6        37.977 6
G10  23840660.122 9 125283459.362 9      3535.619 9        54.658 9  23840663.879 6         0.000 6      2755.030 6        37.977 6
G21  21159875.197 9 111195874.030 9     -1234.340 9        55.714 9  21159874.481 6         0.000 6      -961.823 6        37.977 6
G29  24272146.706 9 127550935.924 9     -3116.080 9        54.485 9  24272148.252 6         0.000 6     -2428.117 6        37.977 6
G27  22026875.146 9 115751983.025 9      2510.346 9        55.365 9  22026877.086 6         0.000 6      1956.115 6        37.977 6
G16  20502291.362 9 107740247.979 9       585.468 9        55.974 9  20502290.535 6         0.000 6       456.209 6        37.977 6
G26  20641537.286 9 108471988.365 9     -1456.492 9        55.878 9  20641540.097 6         0.000 6     -1134.929 6        37.977 6
G20  21966662.331 9 115435556.368 9      2586.023 9        55.307 9  21966662.666 6         0.000 6      2015.084 6        37.977 6
> 2019 07 03 12 00 14.0000000  0  8       0.000000000000
G07  25366088.119 9 133299646.500 9      2207.296 9        54.125 9  25366088.799 6         0.000 6      1719.972 6        37.977 6
G10  23839987.328 9 125279923.820 9      3535.486 9        54.658 9  23839991.085 6         0.000 6      2754.927 6        37.977 6
G21  21160110.119 9 111197108.551 9     -1234.703 9        55.714 9  21160109.403 6         0.000 6      -962.106 6        37.977 6
G29  24272739.685 9 127554052.037 9     -3116.167 9        54.485 9  24272741.231 6         0.000 6     -2428.185 6        37.977 6
G27  22026397.465 9 115749472.799 9      2510.111 9        55.366 9  22026399.406 6         0.000 6      1955.931 6        37.977 6
G16  20502180.010 9 107739662.817 9       584.854 9        55.974 9  20502179.183 6         0.000 6       455.731 6        37.977 6
G26  20641814.502 9 108473445.144 9     -1457.069 9        55.878 9  20641817.313 6         0.000 6     -1135.379 6        37.977 6
G20  21966170.269 9 115432970.569 9      2585.584 9        55.307 9  21966170.604 6         0.000 6      2014.742 6        37.977 6
> 2019 07 03 12 00 15.0000000  0  8       0.000000000000
G07  25365668.128 9 133297439.439 9      2206.840 9        54.125 9  25365668.808 6         0.000 6      1719.617 6        37.977 6
G10  23839314.559 9 125276388.406 9      3535.354 9        54.658 9  23839318.315 6         0.000 6      2754.824 6        37.977 6
G21  21160345.109 9 111198343.432 9     -1235.066 9        55.714 9  21160344.393 6         0.000 6      -962.390 6        37.977 6
G29  24273332.680 9 127557168.238 9     -3116.254 9        54.484 9  24273334.227 6         0.000 6     -2428.252 6        37.977 6
G27  22025919.829 9 115746962.806 9      2509.876 9        55.366 9  22025921.769 6         0.000 6      1955.748 6        37.977 6
G16  20502068.773 9 107739078.267 9       584.240 9        55.975 9  20502067.947 6         0.000 6       455.252 6        37.977 6
G26  20642091.827 9 108474902.494 9     -1457.645 9        55.878 9  20642094.638 6         0.000 6     -1135.828 6        37.977 6
G20  21965678.290 9 115430385.205 9      2585.145 9        55.307 9  21965678.624 6         0.000 6      2014.400 6        37.977 6
> 2019 07 03 12 00 16.0000000  0  8       0.000000000000
G07  25365248.224 9 133295232.830 9      2206.384 9        54.125 9  25365248.904 6         0.000 6      1719.261 6        37.977 6
G10  23838641.817 9 125272853.130 9      3535.221 9        54.659 9  23838645.572 6         0.000 6      2754.721 6        37.977 6
G21  21160580.169 9 111199578.680 9     -1235.430 9        55.713 9  21160579.453 6         0.000 6      -962.673 6        37.977 6
G29  24273925.692 9 127560284.525 9     -3116.340 9        54.484 9  24273927.239 6         0.000 6     -2428.320 6        37.977 6
G27  22025442.238 9 115744453.051 9      2509.641 9        55.366 9  22025444.178 6         0.000 6      1955.565 6        37.977 6
G16  20501957.655 9 107738494.334 9       583.626 9        55.975 9  20501956.828 6         0.000 6       454.773 6        37.977 6
G26  20642369.262 9 108476360.425 9     -1458.221 9        55.878 9  20642372.074 6         0.000 6     -1136.277 6        37.977 6
G20  21965186.395 9 115427800.285 9      2584.706 9        55.307 9  21965186.729 6         0.000 6      2014.058 6        37.977 6
> 2019 07 03 12 00 17.0000000  0  8       0.000000000000
G07  25364828.407 9 133293026.680 9      2205.928 9        54.125 9  25364829.087 6         0.000 6      1718.906 6        37.977 6
G10  23837969.098 9 125269317.981 9      3535.089 9        54.659 9  23837972.853 6         0.000 6      2754.617 6        37.977 6
G21  21160815.298 9 111200814.288 9     -1235.793 9        55.713 9  21160814.581 6         0.000 6      -962.956 6        37.977 6
G29  24274518.720 9 127563400.898 9     -3116.427 9        54.484 9  24274520.267 6         0.000 6     -2428.387 6        37.977 6
G27  22024964.691 9 115741943.529 9      2509.405 9        55.366 9  22024966.631 6         0.000 6      1955.382 6        37.977 6
G16  20501846.652 9 107737911.013 9       583.011 9        55.975 9  20501845.825 6         0.000 6       454.295 6        37.977 6
G26  20642646.806 9 108477818.928 9     -1458.798 9        55.878 9  20642649.618 6         0.000 6     -1136.726 6        37.977 6
G20  21964694.583 9 115425215.799 9      2584.267 9        55.307 9  21964694.916 6         0.000 6      2013.716 6        37.977 6
> 2019 07 03 12 00 18.0000000  0  8       0.000000000000
G07  25364408.677 9 133290820.986 9      2205.472 9        54.126 9  25364409.356 6         0.000 6      1718.551 6        37.977 6
G10  23837296.405 9 125265782.967 9      3534.956 9        54.659 9  23837300.159 6         0.000 6      2754.514 6        37.977 6
G21  21161050.495 9 111202050.260 9     -1236.156 9        55.713 9  21161049.779 6         0.000 6      -963.239 6        37.977 6
G29  24275111.763 9 127566517.353 9     -3116.513 9        54.484 9  24275113.312 6         0.000 6     -2428.455 6        37.977 6
G27  22024487.190 9 115739434.247 9      2509.170 9        55.366 9  22024489.130 6         0.000 6      1955.198 6        37.977 6
G16  20501735.767 9 107737328.310 9       582.397 9        55.975 9  20501734.941 6         0.000 6       453.816 6        37.977 6
G26  20642924.461 9 108479278.012 9     -1459.374 9        55.878 9  20642927.273 6         0.000 6     -1137.175 6        37.977 6
G20  21964202.855 9 115422631.753 9      2583.828 9        55.308 9  21964203.187 6         0.000 6      2013.373 6        37.977 6
> 2019 07 03 12 00 19.0000000  0  8       0.000000000000
G07  25363989.033 9 133288615.748 9      2205.017 9        54.126 9  25363989.712 6         0.000 6      1718.196 6        37.977 6
G10  23836623.737 9 125262248.084 9      3534.823 9        54.659 9  23836627.491 6         0.000 6      2754.410 6        37.977 6
G21  21161285.762 9 111203286.594 9     -1236.519 9        55.713 9  21161285.046 6         0.000 6      -963.522 6        37.977 6
G29  24275704.824 9 127569633.899 9     -3116.600 9        54.483 9  24275706.373 6         0.000 6     -2428.522 6        37.977 6
G27  22024009.733 9 115736925.195 9      2508.935 9        55.367 9  22024011.673 6         0.000 6      1955.015 6        37.977 6
G16  20501624.999 9 107736746.217 9       581.783 9        55.975 9  20501624.172 6         0.000 6       453.337 6        37.977 6
G26  20643202.225 9 108480737.667 9     -1459.950 9        55.878 9  20643205.037 6         0.000 6     -1137.624 6        37.977 6
G20  21963711.209 9 115420048.145 9      2583.388 9        55.308 9  21963711.542 6         0.000 6      2013.031 6        37.977 6
> 2019 07 03 12 00 20.0000000  0  8       0.000000000000
G07  25363569.476 9 133286410.963 9      2204.560 9        54.126 9  25363570.155 6         0.000 6      1717.840 6        37.977 6
G10  23835951.096 9 125258713.338 9      3534.690 9        54.660 9  23835954.848 6         0.000 6      2754.307 6        37.977 6
G21  21161521.098 9 111204523.294 9     -1236.882 9        55.713 9  21161520.382 6         0.000 6      -963.805 6        37.977 6
G29  24276297.902 9 127572750.532 9     -3116.686 9        54.483 9  24276299.451 6         0.000 6     -2428.589 6        37.977 6
G27  22023532.321 9 115734416.381 9      2508.700 9        55.367 9  22023534.260 6         0.000 6      1954.832 6        37.977 6
G16  20501514.348 9 107736164.742 9       581.168 9        55.975 9  20501513.521 6         0.000 6       452.858 6        37.977 6
G26  20643480.099 9 108482197.904 9     -1460.526 9        55.878 9  20643482.911 6         0.000 6     -1138.073 6        37.977 6
G20  21963219.649 9 115417464.981 9      2582.949 9        55.308 9  21963219.981 6         0.000 6      2012.689 6        37.977 6
> 2019 07 03 12 00 21.0000000  0  8       0.000000000000
G07  25363150.006 9 133284206.637 9      2204.104 9        54.126 9  25363150.685 6         0.000 6      1717.485 6        37.977 6
G10  23835278.478 9 125255178.721 9      3534.557 9        54.660 9  23835282.230 6         0.000 6      2754.203 6        37.977 6
G21  21161756.503 9 111205760.355 9     -1237.245 9        55.713 9  21161755.787 6         0.000 6      -964.088 6        37.977 6
G29  24276890.996 9 127575867.252 9     -3116.773 9        54.483 9  24276892.546 6         0.000 6     -2428.657 6        37.977 6
G27  22023054.953 9 115731907.800 9      2508.464 9        55.367 9  22023056.893 6         0.000 6      1954.648 6        37.977 6
G16  20501403.813 9 107735583.878 9       580.554 9        55.975 9  20501402.986 6         0.000 6       452.379 6        37.977 6
G26  20643758.082 9 108483658.712 9     -1461.102 9        55.878 9  20643760.894 6         0.000 6     -1138.522 6        37.977 6
G20  21962728.171 9 115414882.252 9      2582.509 9        55.308 9  21962728.503 6         0.000 6      2012.346 6        37.977 6
> 2019 07 03 12 00 22.0000000  0  8       0.000000000000
G07  25362730.622 9 133282002.765 9      2203.648 9        54.126 9  25362731.301 6         0.000 6      1717.129 6        37.977 6
G10  23834605.887 9 125251644.241 9      3534.424 9        54.660 9  23834609.638 6         0.000 6      2754.099 6        37.977 6
G21  21161991.978 9 111206997.782 9     -1237.608 9        55.713 9  21161991.262 6         0.000 6      -964.370 6        37.977 6
G29  24277484.106 9 127578984.058 9     -3116.859 9        54.483 9  24277485.657 6         0.000 6     -2428.724 6        37.977 6
G27  22022577.631 9 115729399.456 9      2508.229 9        55.367 9  22022579.570 6         0.000 6      1954.465 6        37.977 6
G16  20501293.396 9 107735003.632 9       579.939 9        55.975 9  20501292.569 6         0.000 6       451.901 6        37.977 6
G26  20644036.175 9 108485120.100 9     -1461.679 9        55.877 9  20644038.987 6         0.000 6     -1138.971 6        37.977 6
G20  21962236.778 9 115412299.967 9      2582.070 9        55.308 9  21962237.109 6         0.000 6      2012.004 6        37.977 6
> 2019 07 03 12 00 23.0000000  0  8       0.000000000000
G07  25362311.325 9 133279799.349 9      2203.192 9        54.126 9  25362312.004 6         0.000 6      1716.774 6        37.977 6
G10  23833933.321 9 125248109.894 9      3534.291 9        54.660 9  23833937.072 6         0.000 6      2753.996 6        37.977 6
G21  21162227.522 9 111208235.571 9     -1237.971 9        55.713 9  21162226.806 6         0.000 6      -964.653 6        37.977 6
G29  24278077.233 9 127582100.950 9     -3116.946 9        54.483 9  24278078.784 6         0.000 6     -2428.791 6        37.977 6
G27  22022100.353 9 115726891.347 9      2507.993 9        55.367 9  22022102.292 6         0.000 6      1954.281 6        37.977 6
G16  20501183.096 9 107734424.000 9       579.324 9        55.975 9  20501182.269 6         0.000 6       451.422 6        37.977 6
G26  20644314.378 9 108486582.065 9     -1462.255 9        55.877 9  20644317.190 6         0.000 6     -1139.420 6        37.977 6
G20  21961745.468 9 115409718.122 9      2581.630 9        55.309 9  21961745.799 6         0.000 6      2011.661 6        37.977 6
> 2019 07 03 12 00 24.0000000  0  8       0.000000000000
G07  25361892.116 9 133277596.392 9      2202.735 9        54.126 9  25361892.794 6         0.000 6      1716.418 6        37.977 6
G10  23833260.780 9 125244575.676 9      3534.157 9        54.661 9  23833264.530 6         0.000 6      2753.892 6        37.977 6
G21  21162463.134 9 111209473.721 9     -1238.334 9        55.713 9  21162462.418 6         0.000 6      -964.936 6        37.977 6
G29  24278670.376 9 127585217.929 9     -3117.032 9        54.482 9  24278671.928 6         0.000 6     -2428.859 6        37.977 6
G27  22021623.120 9 115724383.473 9      2507.758 9        55.368 9  22021625.059 6         0.000 6      1954.098 6        37.977 6
G16  20501072.912 9 107733844.980 9       578.710 9        55.975 9  20501072.085 6         0.000 6       450.943 6        37.977 6
G26  20644592.690 9 108488044.601 9     -1462.831 9        55.877 9  20644595.502 6         0.000 6     -1139.868 6        37.977 6
G20  21961254.241 9 115407136.712 9      2581.190 9        55.309 9  21961254.572 6         0.000 6      2011.318 6        37.977 6
> 2019 07 03 12 00 25.0000000  0  8       0.000000000000
G07  25361472.993 9 133275393.888 9      2202.279 9        54.127 9  25361473.670 6         0.000 6      1716.062 6        37.977 6
G10  23832588.265 9 125241041.596 9      3534.024 9        54.661 9  23832592.014 6         0.000 6      2753.788 6        37.977 6
G21  21162698.815 9 111210712.236 9     -1238.697 9        55.713 9  21162698.100 6         0.000 6      -965.219 6        37.977 6
G29  24279263.536 9 127588334.994 9     -3117.119 9        54.482 9  24279265.089 6         0.000 6     -2428.926 6        37.977 6
G27  22021145.932 9 115721875.835 9      2507.522 9        55.368 9  22021147.870 6         0.000 6      1953.914 6        37.977 6
G16  20500962.845 9 107733266.577 9       578.095 9        55.975 9  20500962.019 6         0.000 6       450.464 6        37.977 6
G26  20644871.112 9 108489507.718 9     -1463.407 9        55.877 9  20644873.925 6         0.000 6     -1140.317 6        37.977 6
G20  21960763.099 9 115404555.746 9      2580.750 9        55.309 9  21960763.430 6         0.000 6      2010.976 6        37.977 6
> 2019 07 03 12 00 26.0000000  0  8       0.000000000000
G07  25361053.957 9 133273191.847 9      2201.822 9        54.127 9  25361054.635 6         0.000 6      1715.707 6        37.977 6
G10  23831915.774 9 125237507.643 9      3533.890 9        54.661 9  23831919.522 6         0.000 6      2753.684 6        37.977 6
G21  21162934.565 9 111211951.109 9     -1239.060 9        55.713 9  21162933.850 6         0.000 6      -965.501 6        37.977 6
G29  24279856.711 9 127591452.140 9     -3117.205 9        54.482 9  24279858.264 6         0.000 6     -2428.993 6        37.977 6
G27  22020668.789 9 115719368.435 9      2507.287 9        55.368 9  22020670.727 6         0.000 6      1953.731 6        37.977 6
G16  20500852.896 9 107732688.788 9       577.480 9        55.975 9  20500852.069 6         0.000 6       449.985 6        37.977 6
G26  20645149.643 9 108490971.406 9     -1463.983 9        55.877 9  20645152.456 6         0.000 6     -1140.766 6        37.977 6
G20  21960272.039 9 115401975.213 9      2580.311 9        55.309 9  21960272.369 6         0.000 6      2010.633 6        37.977 6
> 2019 07 03 12 00 27.0000000  0  8       0.000000000000
G07  25360635.008 9 133270990.256 9      2201.366 9        54.127 9  25360635.685 6         0.000 6      1715.351 6        37.977 6
G10  23831243.309 9 125233973.830 9      3533.757 9        54.661 9  23831247.058 6         0.000 6      2753.579 6        37.977 6
G21  21163170.385 9 111213190.349 9     -1239.423 9        55.712 9  21163169.669 6         0.000 6      -965.784 6        37.977 6
G29  24280449.903 9 127594569.378 9     -3117.291 9        54.482 9  24280451.457 6         0.000 6     -2429.061 6        37.977 6
G27  22020191.690 9 115716861.268 9      2507.051 9        55.368 9  22020193.629 6         0.000 6      1953.547 6        37.977 6
G16  20500743.063 9 107732111.614 9       576.866 9        55.975 9  20500742.237 6         0.000 6       449.506 6        37.977 6
G26  20645428.284 9 108492435.675 9     -1464.559 9        55.877 9  20645431.097 6         0.000 6     -1141.215 6        37.977 6
G20  21959781.064 9 115399395.127 9      2579.870 9        55.309 9  21959781.394 6         0.000 6      2010.290 6        37.977 6
> 2019 07 03 12 00 28.0000000  0  8       0.000000000000
G07  25360216.146 9 133268789.125 9      2200.909 9        54.127 9  25360216.823 6         0.000 6      1714.995 6        37.977 6
G10  23830570.870 9 125230440.147 9      3533.623 9        54.662 9  23830574.617 6         0.000 6      2753.475 6        37.977 6
G21  21163406.273 9 111214429.950 9     -1239.785 9        55.712 9  21163405.558 6         0.000 6      -966.067 6        37.977 6
G29  24281043.112 9 127597686.702 9     -3117.377 9        54.482 9  24281044.667 6         0.000 6     -2429.128 6        37.977 6
G27  22019714.636 9 115714354.336 9      2506.816 9        55.368 9  22019716.575 6         0.000 6      1953.364 6        37.977 6
G16  20500633.347 9 107731535.053 9       576.251 9        55.975 9  20500632.521 6         0.000 6       449.027 6        37.977 6
G26  20645707.034 9 108493900.515 9     -1465.135 9        55.877 9  20645709.847 6         0.000 6     -1141.664 6        37.977 6
G20  21959290.172 9 115396815.477 9      2579.430 9        55.310 9  21959290.502 6         0.000 6      2009.947 6        37.977 6
> 2019 07 03 12 00 29.0000000  0  8       0.000000000000
G07  25359797.370 9 133266588.448 9      2200.452 9        54.127 9  25359798.047 6         0.000 6      1714.639 6        37.977 6
G10  23829898.456 9 125226906.601 9      3533.489 9        54.662 9  23829902.203 6         0.000 6      2753.371 6        37.977 6
G21  21163642.231 9 111215669.916 9     -1240.148 9        55.712 9  21163641.516 6         0.000 6      -966.349 6        37.977 6
G29  24281636.338 9 127600804.113 9     -3117.464 9        54.481 9  24281637.893 6         0.000 6     -2429.195 6        37.977 6
G27  22019237.628 9 115711847.640 9      2506.580 9        55.368 9  22019239.566 6         0.000 6      1953.180 6        37.977 6
G16  20500523.749 9 107730959.109 9       575.636 9        55.975 9  20500522.922 6         0.000 6       448.548 6        37.977 6
G26  20645985.895 9 108495365.936 9     -1465.710 9        55.877 9  20645988.708 6         0.000 6     -1142.112 6        37.977 6
G20  21958799.364 9 115394236.271 9      2578.990 9        55.310 9  21958799.694 6         0.000 6      2009.604 6        37.977 6
> 2019 07 03 12 00 30.0000000  0  8       0.000000000000
G07  25359378.682 9 133264388.231 9      2199.995 9        54.127 9  25359379.359 6         0.000 6      1714.283 6        37.977 6
G10  23829226.068 9 125223373.185 9      3533.355 9        54.662 9  23829229.814 6         0.000 6      2753.266 6        37.977 6
G21  21163878.258 9 111216910.242 9     -1240.510 9        55.712 9  21163877.542 6         0.000 6      -966.632 6        37.977 6
G29  24282229.580 9 127603921.609 9     -3117.550 9        54.481 9  24282231.136 6         0.000 6     -2429.262 6        37.977 6
G27  22018760.663 9 115709341.179 9      2506.344 9        55.369 9  22018762.601 6         0.000 6      1952.996 6        37.977 6
G16  20500414.267 9 107730383.778 9       575.021 9        55.975 9  20500413.440 6         0.000 6       448.069 6        37.977 6
G26  20646264.864 9 108496831.928 9     -1466.286 9        55.877 9  20646267.678 6         0.000 6     -1142.561 6        37.977 6
G20  21958308.640 9 115391657.502 9      2578.550 9        55.310 9  21958308.970 6         0.000 6      2009.261 6        37.977 6
> 2019 07 03 12 00 31.0000000  0  8       0.000000000000
G07  25358960.081 9 133262188.467 9      2199.538 9        54.127 9  25358960.757 6         0.000 6      1713.927 6        37.977 6
G10  23828553.705 9 125219839.908 9      3533.221 9        54.662 9  23828557.451 6         0.000 6      2753.162 6        37.977 6
G21  21164114.353 9 111218150.933 9     -1240.873 9        55.712 9  21164113.638 6         0.000 6      -966.914 6        37.977 6
G29  24282822.838 9 127607039.192 9     -3117.636 9        54.481 9  24282824.394 6         0.000 6     -2429.330 6        37.977 6
G27  22018283.744 9 115706834.955 9      2506.109 9        55.369 9  22018285.682 6         0.000 6      1952.813 6        37.977 6
G16  20500304.902 9 107729809.064 9       574.406 9        55.975 9  20500304.076 6         0.000 6       447.589 6        37.977 6
G26  20646543.944 9 108498298.500 9     -1466.862 9        55.876 9  20646546.757 6         0.000 6     -1143.010 6        37.977 6
G20  21957818.000 9 115389079.177 9      2578.109 9        55.310 9  21957818.330 6         0.000 6      2008.917 6        37.977 6
> 2019 07 03 12 00 32.0000000  0  8       0.000000000000
G07  25358541.566 9 133259989.161 9      2199.081 9        54.128 9  25358542.242 6         0.000 6      1713.571 6        37.977 6
G10  23827881.368 9 125216306.765 9      3533.087 9        54.663 9  23827885.113 6         0.000 6      2753.057 6        37.977 6
G21  21164350.518 9 111219391.987 9     -1241.235 9        55.712 9  21164349.803 6         0.000 6      -967.197 6        37.977 6
G29  24283416.113 9 127610156.862 9     -3117.722 9        54.481 9  24283417.670 6         0.000 6     -2429.397 6        37.977 6
G27  22017806.870 9 115704328.967 9      2505.873 9        55.369 9  22017808.808 6         0.000 6      1952.629 6        37.977 6
G16  20500195.655 9 107729234.965 9       573.791 9        55.975 9  20500194.828 6         0.000 6       447.110 6        37.977 6
G26  20646823.133 9 108499765.649 9     -1467.438 9        55.876 9  20646825.947 6         0.000 6     -1143.459 6        37.977 6
G20  21957327.444 9 115386501.292 9      2577.669 9        55.310 9  21957327.773 6         0.000 6      2008.574 6        37.977 6
> 2019 07 03 12 00 33.0000000  0  8       0.000000000000
G07  25358123.139 9 133257790.314 9      2198.624 9        54.128 9  25358123.814 6         0.000 6      1713.215 6        37.977 6
G10  23827209.056 9 125212773.751 9      3532.953 9        54.663 9  23827212.800 6         0.000 6      2752.953 6        37.977 6
G21  21164586.751 9 111220633.400 9     -1241.598 9        55.712 9  21164586.036 6         0.000 6      -967.479 6        37.977 6
G29  24284009.404 9 127613274.617 9     -3117.809 9        54.481 9  24284010.961 6         0.000 6     -2429.464 6        37.977 6
G27  22017330.040 9 115701823.213 9      2505.637 9        55.369 9  22017331.978 6         0.000 6      1952.445 6        37.977 6
G16  20500086.524 9 107728661.478 9       573.176 9        55.975 9  20500085.697 6         0.000 6       446.631 6        37.977 6
G26  20647102.431 9 108501233.368 9     -1468.014 9        55.876 9  20647105.245 6         0.000 6     -1143.907 6        37.977 6
G20  21956836.971 9 115383923.844 9      2577.228 9        55.311 9  21956837.300 6         0.000 6      2008.231 6        37.977 6
> 2019 07 03 12 00 34.0000000  0  8       0.000000000000
G07  25357704.798 9 133255591.925 9      2198.167 9        54.128 9  25357705.474 6         0.000 6      1712.858 6        37.977 6
G10  23826536.770 9 125209240.874 9      3532.818 9        54.663 9  23826540.514 6         0.000 6      2752.848 6        37.977 6
G21  21164823.054 9 111221875.176 9     -1241.960 9        55.712 9  21164822.338 6         0.000 6      -967.761 6        37.977 6
G29  24284602.710 9 127616392.453 9     -3117.895 9        54.480 9  24284604.268 6         0.000 6     -2429.531 6        37.977 6
G27  22016853.257 9 115699317.700 9      2505.401 9        55.369 9  22016855.194 6         0.000 6      1952.261 6        37.977 6
G16  20499977.511 9 107728088.610 9       572.561 9        55.975 9  20499976.684 6         0.000 6       446.152 6        37.977 6
G26  20647381.840 9 108502701.668 9     -1468.589 9        55.876 9  20647384.654 6         0.000 6     -1144.356 6        37.977 6
G20  21956346.583 9 115381346.838 9      2576.787 9        55.311 9  21956346.911 6         0.000 6      2007.887 6        37.977 6
> 2019 07 03 12 00 35.0000000  0  8       0.000000000000
G07  25357286.545 9 133253393.993 9      2197.710 9        54.128 9  25357287.220 6         0.000 6      1712.502 6        37.977 6
G10  23825864.509 9 125205708.130 9      3532.684 9        54.663 9  23825868.252 6         0.000 6      2752.743 6        37.977 6
G21  21165059.425 9 111223117.314 9     -1242.322 9        55.712 9  21165058.709 6         0.000 6      -968.044 6        37.977 6
G29  24285196.034 9 127619510.381 9     -3117.981 9        54.480 9  24285197.593 6         0.000 6     -2429.598 6        37.977 6
G27  22016376.517 9 115696812.418 9      2505.165 9        55.370 9  22016378.454 6         0.000 6      1952.078 6        37.977 6
G16  20499868.614 9 107727516.353 9       571.946 9        55.975 9  20499867.787 6         0.000 6       445.673 6        37.977 6
G26  20647661.357 9 108504170.538 9     -1469.165 9        55.876 9  20647664.171 6         0.000 6     -1144.804 6        37.977 6
G20  21955856.277 9 115378770.271 9      2576.347 9        55.311 9  21955856.606 6         0.000 6      2007.544 6        37.977 6
> 2019 07 03 12 00 36.0000000  0  8       0.000000000000
G07  25356868.378 9 133251196.515 9      2197.253 9        54.128 9  25356869.053 6         0.000 6      1712.146 6        37.977 6
G10  23825192.275 9 125202175.524 9      3532.549 9        54.664 9  23825196.017 6         0.000 6      2752.638 6        37.977 6
G21  21165295.865 9 111224359.817 9     -1242.685 9        55.712 9  21165295.150 6         0.000 6      -968.326 6        37.977 6
G29  24285789.374 9 127622628.395 9     -3118.067 9        54.480 9  24285790.934 6         0.000 6     -2429.665 6        37.977 6
G27  22015899.822 9 115694307.373 9      2504.930 9        55.370 9  22015901.759 6         0.000 6      1951.894 6        37.977 6
G16  20499759.835 9 107726944.714 9       571.331 9        55.975 9  20499759.008 6         0.000 6       445.193 6        37.977 6
G26  20647940.985 9 108505639.989 9     -1469.741 9        55.876 9  20647943.799 6         0.000 6     -1145.253 6        37.977 6
G20  21955366.057 9 115376194.150 9      2575.906 9        55.311 9  21955366.385 6         0.000 6      2007.200 6        37.977 6
> 2019 07 03 12 00 37.0000000  0  8       0.000000000000
G07  25356450.299 9 133248999.497 9      2196.795 9        54.128 9  25356450.974 6         0.000 6      1711.789 6        37.977 6
G10  23824520.065 9 125198643.049 9      3532.414 9        54.664 9  23824523.806 6         0.000 6      2752.533 6        37.977 6
G21  21165532.374 9 111225602.680 9     -1243.047 9        55.711 9  21165531.659 6         0.000 6      -968.608 6        37.977 6
G29  24286382.731 9 127625746.495 9     -3118.153 9        54.480 9  24286384.291 6         0.000 6     -2429.732 6        37.977 6
G27  22015423.172 9 115691802.562 9      2504.694 9        55.370 9  22015425.109 6         0.000 6      1951.710 6        37.977 6
G16  20499651.172 9 107726373.688 9       570.716 9        55.976 9  20499650.345 6         0.000 6       444.714 6        37.977 6
G26  20648220.721 9 108507110.011 9     -1470.316 9        55.876 9  20648223.535 6         0.000 6     -1145.701 6        37.977 6
G20  21954875.920 9 115373618.465 9      2575.465 9        55.311 9  21954876.247 6         0.000 6      2006.857 6        37.977 6
> 2019 07 03 12 00 38.0000000  0  8       0.000000000000
G07  25356032.306 9 133246802.934 9      2196.338 9        54.128 9  25356032.981 6         0.000 6      1711.433 6        37.977 6
G10  23823847.882 9 125195110.712 9      3532.280 9        54.664 9  23823851.622 6         0.000 6      2752.428 6        37.977 6
G21  21165768.953 9 111226845.907 9     -1243.409 9        55.711 9  21165768.237 6         0.000 6      -968.890 6        37.977 6
G29  24286976.104 9 127628864.681 9     -3118.239 9        54.479 9  24286977.665 6         0.000 6     -2429.799 6        37.977 6
G27  22014946.567 9 115689297.989 9      2504.458 9        55.370 9  22014948.504 6         0.000 6      1951.526 6        37.977 6
G16  20499542.627 9 107725803.279 9       570.101 9        55.976 9  20499541.800 6         0.000 6       444.235 6        37.977 6
G26  20648500.568 9 108508580.614 9     -1470.892 9        55.876 9  20648503.382 6         0.000 6     -1146.150 6        37.977 6
G20  21954385.867 9 115371043.226 9      2575.023 9        55.311 9  21954386.194 6         0.000 6      2006.513 6        37.977 6
> 2019 07 03 12 00 39.0000000  0  8       0.000000000000
G07  25355614.401 9 133244606.832 9      2195.880 9        54.129 9  25355615.076 6         0.000 6      1711.076 6        37.977 6
G10  23823175.723 9 125191578.507 9      3532.145 9        54.664 9  23823179.463 6         0.000 6      2752.323 6        37.977 6
G21  21166005.599 9 111228089.493 9     -1243.771 9        55.711 9  21166004.884 6         0.000 6      -969.172 6        37.977 6
G29  24287569.493 9 127631982.953 9     -3118.325 9        54.479 9  24287571.055 6         0.000 6     -2429.866 6        37.977 6
G27  22014470.007 9 115686793.651 9      2504.222 9        55.370 9  22014471.943 6         0.000 6      1951.342 6        37.977 6
G16  20499434.198 9 107725233.483 9       569.486 9        55.976 9  20499433.371 6         0.000 6       443.755 6        37.977 6
G26  20648780.523 9 108510051.787 9     -1471.467 9        55.875 9  20648783.337 6         0.000 6     -1146.598 6        37.977 6
G20  21953895.897 9 115368468.423 9      2574.582 9        55.312 9  21953896.224 6         0.000 6      2006.169 6        37.977 6
> 2019 07 03 12 00 40.0000000  0  8       0.000000000000
G07  25355196.582 9 133242411.184 9      2195.423 9        54.129 9  25355197.257 6         0.000 6      1710.720 6        37.977 6
G10  23822503.591 9 125188046.440 9      3532.010 9        54.665 9  23822507.331 6         0.000 6      2752.218 6        37.977 6
G21  21166242.316 9 111229333.444 9     -1244.133 9        55.711 9  21166241.600 6         0.000 6      -969.454 6        37.977 6
G29  24288162.899 9 127635101.311 9     -3118.411 9        54.479 9  24288164.461 6         0.000 6     -2429.933 6        37.977 6
G27  22013993.492 9 115684289.550 9      2503.985 9        55.371 9  22013995.428 6         0.000 6      1951.158 6        37.977 6
G16  20499325.887 9 107724664.305 9       568.870 9        55.976 9  20499325.060 6         0.000 6       443.276 6        37.977 6
G26  20649060.589 9 108511523.541 9     -1472.043 9        55.875 9  20649063.403 6         0.000 6     -1147.047 6        37.977 6
G20  21953406.013 9 115365894.066 9      2574.141 9        55.312 9  21953406.339 6         0.000 6      2005.825 6        37.977 6
> 2019 07 03 12 00 41.0000000  0  8       0.000000000000
G07  25354778.851 9 133240215.994 9      2194.965 9        54.129 9  25354779.525 6         0.000 6      1710.363 6        37.977 6
G10  23821831.485 9 125184514.509 9      3531.874 9        54.665 9  23821835.224 6         0.000 6      2752.113 6        37.977 6
G21  21166479.101 9 111230577.758 9     -1244.495 9        55.711 9  21166478.386 6         0.000 6      -969.736 6        37.977 6
G29  24288756.321 9 127638219.755 9     -3118.497 9        54.479 9  24288757.884 6         0.000 6     -2430.001 6        37.977 6
G27  22013517.021 9 115681785.685 9      2503.749 9        55.371 9  22013518.958 6         0.000 6      1950.974 6        37.977 6
G16  20499217.693 9 107724095.742 9       568.255 9        55.976 9  20499216.867 6         0.000 6       442.796 6        37.977 6
G26  20649340.764 9 108512995.870 9     -1472.619 9        55.875 9  20649343.578 6         0.000 6     -1147.495 6        37.977 6
G20  21952916.212 9 115363320.150 9      2573.700 9        55.312 9  21952916.538 6         0.000 6      2005.481 6        37.977 6
> 2019 07 03 12 00 42.0000000  0  8       0.000000000000
G07  25354361.208 9 133238021.267 9      2194.507 9        54.129 9  25354361.882 6         0.000 6      1710.007 6        37.977 6
G10  23821159.403 9 125180982.706 9      3531.739 9        54.665 9  23821163.141 6         0.000 6      2752.007 6        37.977 6
G21  21166715.954 9 111231822.428 9     -1244.857 9        55.711 9  21166715.239 6         0.000 6      -970.018 6        37.977 6
G29  24289349.759 9 127641338.280 9     -3118.583 9        54.479 9  24289351.322 6         0.000 6     -2430.067 6        37.977 6
G27  22013040.597 9 115679282.058 9      2503.513 9        55.371 9  22013042.532 6         0.000 6      1950.790 6        37.977 6
G16  20499109.616 9 107723527.792 9       567.640 9        55.976 9  20499108.789 6         0.000 6       442.317 6        37.977 6
G26  20649621.048 9 108514468.769 9     -1473.194 9        55.875 9  20649623.862 6         0.000 6     -1147.944 6        37.977 6
G20  21952426.494 9 115360746.669 9      2573.258 9        55.312 9  21952426.820 6         0.000 6      2005.137 6        37.977 6
> 2019 07 03 12 00 43.0000000  0  8       0.000000000000
G07  25353943.650 9 133235826.992 9      2194.049 9        54.129 9  25353944.324 6         0.000 6      1709.650 6        37.977 6
G10  23820487.348 9 125177451.045 9      3531.604 9        54.665 9  23820491.086 6         0.000 6      2751.902 6        37.977 6
G21  21166952.877 9 111233067.465 9     -1245.218 9        55.711 9  21166952.161 6         0.000 6      -970.300 6        37.977 6
G29  24289943.213 9 127644456.896 9     -3118.669 9        54.478 9  24289944.777 6         0.000 6     -2430.134 6        37.977 6
G27  22012564.216 9 115676778.666 9      2503.277 9        55.371 9  22012566.152 6         0.000 6      1950.606 6        37.977 6
G16  20499001.656 9 107722960.460 9       567.024 9        55.976 9  20499000.830 6         0.000 6       441.837 6        37.977 6
G26  20649901.442 9 108515942.249 9     -1473.769 9        55.875 9  20649904.256 6         0.000 6     -1148.392 6        37.977 6
G20  21951936.861 9 115358173.636 9      2572.817 9        55.312 9  21951937.187 6         0.000 6      2004.793 6        37.977 6
> 2019 07 03 12 00 44.0000000  0  8       0.000000000000
G07  25353526.181 9 133233633.178 9      2193.591 9        54.129 9  25353526.854 6         0.000 6      1709.293 6        37.977 6
G10  23819815.319 9 125173919.515 9      3531.468 9        54.666 9  23819819.055 6         0.000 6      2751.796 6        37.977 6
G21  21167189.868 9 111234312.861 9     -1245.580 9        55.711 9  21167189.153 6         0.000 6      -970.582 6        37.977 6
G29  24290536.685 9 127647575.598 9     -3118.755 9        54.478 9  24290538.249 6         0.000 6     -2430.201 6        37.977 6
G27  22012087.881 9 115674275.508 9      2503.041 9        55.371 9  22012089.816 6         0.000 6      1950.422 6        37.977 6
G16  20498893.813 9 107722393.740 9       566.409 9        55.976 9  20498892.986 6         0.000 6       441.358 6        37.977 6
G26  20650181.945 9 108517416.299 9     -1474.345 9        55.875 9  20650184.759 6         0.000 6     -1148.840 6        37.977 6
G20  21951447.312 9 115355601.041 9      2572.375 9        55.313 9  21951447.637 6         0.000 6      2004.449 6        37.977 6
> 2019 07 03 12 00 45.0000000  0  8       0.000000000000
G07  25353108.798 9 133231439.820 9      2193.133 9        54.129 9  25353109.471 6         0.000 6      1708.936 6        37.977 6
G10  23819143.315 9 125170388.125 9      3531.333 9        54.666 9  23819147.052 6         0.000 6      2751.691 6        37.977 6
G21  21167426.928 9 111235558.621 9     -1245.942 9        55.711 9  21167426.213 6         0.000 6      -970.864 6        37.977 6
G29  24291130.172 9 127650694.386 9     -3118.841 9        54.478 9  24291131.737 6         0.000 6     -2430.268 6        37.977 6
G27  22011611.590 9 115671772.588 9      2502.805 9        55.371 9  22011613.526 6         0.000 6      1950.238 6        37.977 6
G16  20498786.088 9 107721827.639 9       565.794 9        55.976 9  20498785.261 6         0.000 6       440.878 6        37.977 6
G26  20650462.558 9 108518890.930 9     -1474.920 9        55.875 9  20650465.373 6         0.000 6     -1149.289 6        37.977 6
G20  21950957.847 9 115353028.891 9      2571.933 9        55.313 9  21950958.172 6         0.000 6      2004.105 6        37.977 6
> 2019 07 03 12 00 46.0000000  0  8       0.000000000000
G07  25352691.503 9 133229246.922 9      2192.675 9        54.130 9  25352692.176 6         0.000 6      1708.579 6        37.977 6
G10  23818471.337 9 125166856.866 9      3531.197 9        54.666 9  23818475.073 6         0.000 6      2751.585 6        37.977 6
G21  21167664.057 9 111236804.741 9     -1246.304 9        55.711 9  21167663.342 6         0.000 6      -971.146 6        37.977 6
G29  24291723.676 9 127653813.260 9     -3118.927 9        54.478 9  24291725.242 6         0.000 6     -2430.335 6        37.977 6
G27  22011135.345 9 115669269.902 9      2502.568 9        55.372 9  22011137.280 6         0.000 6      1950.054 6        37.977 6
G16  20498678.479 9 107721262.150 9       565.178 9        55.976 9  20498677.652 6         0.000 6       440.399 6        37.977 6
G26  20650743.280 9 108520366.131 9     -1475.495 9        55.875 9  20650746.095 6         0.000 6     -1149.737 6        37.977 6
G20  21950468.466 9 115350457.179 9      2571.491 9        55.313 9  21950468.791 6         0.000 6      2003.761 6        37.977 6
> 2019 07 03 12 00 47.0000000  0  8       0.000000000000
G07  25352274.294 9 133227054.479 9      2192.217 9        54.130 9  25352274.967 6         0.000 6      1708.222 6        37.977 6
G10  23817799.386 9 125163325.748 9      3531.061 9        54.666 9  23817803.120 6         0.000 6      2751.479 6        37.977 6
G21  21167901.255 9 111238051.225 9     -1246.665 9        55.710 9  21167900.540 6         0.000 6      -971.428 6        37.977 6
G29  24292317.196 9 127656932.220 9     -3119.013 9        54.478 9  24292318.763 6         0.000 6     -2430.402 6        37.977 6
G27  22010659.144 9 115666767.455 9      2502.332 9        55.372 9  22010661.079 6         0.000 6      1949.870 6        37.977 6
G16  20498570.987 9 107720697.280 9       564.563 9        55.976 9  20498570.161 6         0.000 6       439.919 6        37.977 6
G26  20651024.112 9 108521841.913 9     -1476.071 9        55.875 9  20651026.927 6         0.000 6     -1150.185 6        37.977 6
G20  21949979.169 9 115347885.914 9      2571.049 9        55.313 9  21949979.494 6         0.000 6      2003.416 6        37.977 6
> 2019 07 03 12 00 48.0000000  0  8       0.000000000000
G07  25351857.173 9 133224862.497 9      2191.759 9        54.130 9  25351857.846 6         0.000 6      1707.865 6        37.977 6
G10  23817127.459 9 125159794.760 9      3530.926 9        54.667 9  23817131.193 6         0.000 6      2751.373 6        37.977 6
G21  21168138.521 9 111239298.068 9     -1247.027 9        55.710 9  21168137.807 6         0.000 6      -971.709 6        37.977 6
G29  24292910.733 9 127660051.266 9     -3119.099 9        54.477 9  24292912.300 6         0.000 6     -2430.469 6        37.977 6
G27  22010182.988 9 115664265.242 9      2502.096 9        55.372 9  22010184.923 6         0.000 6      1949.686 6        37.977 6
G16  20498463.613 9 107720133.022 9       563.947 9        55.976 9  20498462.786 6         0.000 6       439.439 6        37.977 6
G26  20651305.052 9 108523318.264 9     -1476.646 9        55.874 9  20651307.868 6         0.000 6     -1150.634 6        37.977 6
G20  21949489.956 9 115345315.086 9      2570.607 9        55.313 9  21949490.281 6         0.000 6      2003.072 6        37.977 6
> 2019 07 03 12 00 49.0000000  0  8       0.000000000000
G07  25351440.139 9 133222670.974 9      2191.300 9        54.130 9  25351440.812 6         0.000 6      1707.508 6        37.977 6
G10  23816455.559 9 125156263.911 9      3530.790 9        54.667 9  23816459.292 6         0.000 6      2751.267 6        37.977 6
G21  21168375.857 9 111240545.272 9     -1247.388 9        55.710 9  21168375.142 6         0.000 6      -971.991 6        37.977 6
G29  24293504.285 9 127663170.392 9     -3119.185 9        54.477 9  24293505.853 6         0.000 6     -2430.536 6        37.977 6
G27  22009706.879 9 115661763.271 9      2501.859 9        55.372 9  22009708.813 6         0.000 6      1949.501 6        37.977 6
G16  20498356.356 9 107719569.384 9       563.331 9        55.976 9  20498355.529 6         0.000 6       438.959 6        37.977 6
G26  20651586.104 9 108524795.196 9     -1477.221 9        55.874 9  20651588.919 6         0.000 6     -1151.082 6        37.977 6
G20  21949000.827 9 115342744.701 9      2570.165 9        55.314 9  21949001.152 6         0.000 6      2002.727 6        37.977 6
> 2019 07 03 12 00 50.0000000  0  8       0.000000000000
G07  25351023.193 9 133220479.909 9      2190.842 9        54.130 9  25351023.865 6         0.000 6      1707.151 6        37.977 6
G10  23815783.684 9 125152733.196 9      3530.654 9        54.667 9  23815787.417 6         0.000 6      2751.161 6        37.977 6
G21  21168613.261 9 111241792.838 9     -1247.750 9        55.710 9  21168612.546 6         0.000 6      -972.273 6        37.977 6
G29  24294097.854 9 127666289.609 9     -3119.270 9        54.477 9  24294099.422 6         0.000 6     -2430.603 6        37.977 6
G27  22009230.813 9 115659261.530 9      2501.623 9        55.372 9  22009232.747 6         0.000 6      1949.317 6        37.977 6
G16  20498249.216 9 107719006.358 9       562.716 9        55.976 9  20498248.389 6         0.000 6       438.480 6        37.977 6
G26  20651867.263 9 108526272.698 9     -1477.796 9        55.874 9  20651870.079 6         0.000 6     -1151.530 6        37.977 6
G20  21948511.782 9 115340174.758 9      2569.723 9        55.314 9  21948512.106 6         0.000 6      2002.383 6        37.977 6
> 2019 07 03 12 00 51.0000000  0  8       0.000000000000
G07  25350606.333 9 133218289.300 9      2190.384 9        54.130 9  25350607.005 6         0.000 6      1706.793 6        37.977 6
G10  23815111.836 9 125149202.621 9      3530.517 9        54.667 9  23815115.568 6         0.000 6      2751.055 6        37.977 6
G21  21168850.734 9 111243040.768 9     -1248.111 9        55.710 9  21168850.019 6         0.000 6      -972.554 6        37.977 6
G29  24294691.440 9 127669408.912 9     -3119.356 9        54.477 9  24294693.009 6         0.000 6     -2430.670 6        37.977 6
G27  22008754.792 9 115656760.028 9      2501.386 9        55.373 9  22008756.727 6         0.000 6      1949.133 6        37.977 6
G16  20498142.193 9 107718443.950 9       562.100 9        55.976 9  20498141.366 6         0.000 6       438.000 6        37.977 6
G26  20652148.533 9 108527750.780 9     -1478.371 9        55.874 9  20652151.349 6         0.000 6     -1151.978 6        37.977 6
G20  21948022.822 9 115337605.261 9      2569.280 9        55.314 9  21948023.146 6         0.000 6      2002.038 6        37.977 6
> 2019 07 03 12 00 52.0000000  0  8       0.000000000000
G07  25350189.561 9 133216099.149 9      2189.925 9        54.130 9  25350190.232 6         0.000 6      1706.436 6        37.977 6
G10  23814440.014 9 125145672.183 9      3530.381 9        54.668 9  23814443.745 6         0.000 6      2750.949 6        37.977 6
G21  21169088.276 9 111244289.059 9     -1248.472 9        55.710 9  21169087.561 6         0.000 6      -972.836 6        37.977 6
G29  24295285.042 9 127672528.301 9     -3119.442 9        54.476 9  24295286.611 6         0.000 6     -2430.737 6        37.977 6
G27  22008278.817 9 115654258.763 9      2501.150 9        55.373 9  22008280.751 6         0.000 6      1948.949 6        37.977 6
G16  20498035.288 9 107717882.158 9       561.484 9        55.976 9  20498034.461 6         0.000 6       437.520 6        37.977 6
G26  20652429.913 9 108529229.437 9     -1478.947 9        55.874 9  20652432.728 6         0.000 6     -1152.426 6        37.977 6
G20  21947533.947 9 115335036.206 9      2568.838 9        55.314 9  21947534.270 6         0.000 6      2001.693 6        37.977 6
> 2019 07 03 12 00 53.0000000  0  8       0.000000000000
G07  25349772.876 9 133213909.460 9      2189.466 9        54.131 9  25349773.547 6         0.000 6      1706.079 6        37.977 6
G10  23813768.217 9 125142141.876 9      3530.245 9        54.668 9  23813771.948 6         0.000 6      2750.843 6        37.977 6
G21  21169325.886 9 111245537.708 9     -1248.834 9        55.710 9  21169325.172 6         0.000 6      -973.117 6        37.977 6
G29  24295878.660 9 127675647.775 9     -3119.528 9        54.476 9  24295880.230 6         0.000 6     -2430.803 6        37.977 6
G27  22007802.886 9 115651757.732 9      2500.913 9        55.373 9  22007804.820 6         0.000 6      1948.764 6        37.977 6
G16  20497928.499 9 107717320.978 9       560.868 9        55.976 9  20497927.672 6         0.000 6       437.040 6        37.977 6
G26  20652711.401 9 108530708.665 9     -1479.522 9        55.874 9  20652714.216 6         0.000 6     -1152.874 6        37.977 6
G20  21947045.154 9 115332467.589 9      2568.395 9        55.314 9  21947045.478 6         0.000 6      2001.348 6        37.977 6
> 2019 07 03 12 00 54.0000000  0  8       0.000000000000
G07  25349356.278 9 133211720.226 9      2189.008 9        54.131 9  25349356.949 6         0.000 6      1705.721 6        37.977 6
G10  23813096.446 9 125138611.710 9      3530.108 9        54.668 9  23813100.177 6         0.000 6      2750.736 6        37.977 6
G21  21169563.566 9 111246786.722 9     -1249.195 9        55.710 9  21169562.851 6         0.000 6      -973.399 6        37.977 6
G29  24296472.294 9 127678767.336 9     -3119.613 9        54.476 9  24296473.865 6         0.000 6     -2430.870 6        37.977 6
G27  22007327.000 9 115649256.940 9      2500.677 9        55.373 9  22007328.934 6         0.000 6      1948.580 6        37.977 6
G16  20497821.827 9 107716760.418 9       560.253 9        55.976 9  20497821.001 6         0.000 6       436.560 6        37.977 6
G26  20652992.999 9 108532188.472 9     -1480.097 9        55.874 9  20652995.815 6         0.000 6     -1153.323 6        37.977 6
G20  21946556.447 9 115329899.420 9      2567.953 9        55.315 9  21946556.770 6         0.000 6      2001.003 6        37.977 6
> 2019 07 03 12 00 55.0000000  0  8       0.000000000000
G07  25348939.768 9 133209531.454 9      2188.549 9        54.131 9  25348940.439 6         0.000 6      1705.364 6        37.977 6
G10  23812424.701 9 125135081.677 9      3529.972 9        54.668 9  23812428.431 6         0.000 6      2750.630 6        37.977 6
G21  21169801.314 9 111248036.094 9     -1249.556 9        55.710 9  21169800.599 6         0.000 6      -973.680 6        37.977 6
G29  24297065.945 9 127681886.982 9     -3119.699 9        54.476 9  24297067.517 6         0.000 6     -2430.937 6        37.977 6
G27  22006851.160 9 115646756.383 9      2500.440 9        55.373 9  22006853.093 6         0.000 6      1948.396 6        37.977 6
G16  20497715.273 9 107716200.470 9       559.637 9        55.976 9  20497714.446 6         0.000 6       436.081 6        37.977 6
G26  20653274.706 9 108533668.850 9     -1480.672 9        55.874 9  20653277.522 6         0.000 6     -1153.771 6        37.977 6
G20  21946067.823 9 115327331.689 9      2567.510 9        55.315 9  21946068.146 6         0.000 6      2000.658 6        37.977 6
> 2019 07 03 12 00 56.0000000  0  8       0.000000000000
G07  25348523.344 9 133207343.138 9      2188.090 9        54.131 9  25348524.015 6         0.000 6      1705.006 6        37.977 6
G10  23811752.983 9 125131551.784 9      3529.835 9        54.669 9  23811756.712 6         0.000 6      2750.523 6        37.977 6
G21  21170039.131 9 111249285.830 9     -1249.917 9        55.710 9  21170038.416 6         0.000 6      -973.961 6        37.977 6
G29  24297659.612 9 127685006.713 9     -3119.785 9        54.476 9  24297661.184 6         0.000 6     -2431.004 6        37.977 6
G27  22006375.364 9 115644256.064 9      2500.203 9        55.374 9  22006377.298 6         0.000 6      1948.211 6        37.977 6
G16  20497608.836 9 107715641.141 9       559.021 9        55.976 9  20497608.009 6         0.000 6       435.601 6        37.977 6
G26  20653556.523 9 108535149.807 9     -1481.247 9        55.873 9  20653559.339 6         0.000 6     -1154.219 6        37.977 6
G20  21945579.285 9 115324764.405 9      2567.067 9        55.315 9  21945579.607 6         0.000 6      2000.313 6        37.977 6
> 2019 07 03 12 00 57.0000000  0  8       0.000000000000
G07  25348107.009 9 133205155.287 9      2187.631 9        54.131 9  25348107.680 6         0.000 6      1704.649 6        37.977 6
G10  23811081.290 9 125128022.021 9      3529.698 9        54.669 9  23811085.018 6         0.000 6      2750.417 6        37.977 6
G21  21170277.015 9 111250535.922 9     -1250.278 9        55.709 9  21170276.301 6         0.000 6      -974.243 6        37.977 6
G29  24298253.295 9 127688126.525 9     -3119.870 9        54.475 9  24298254.867 6         0.000 6     -2431.070 6        37.977 6
G27  22005899.614 9 115641755.983 9      2499.967 9        55.374 9  22005901.548 6         0.000 6      1948.027 6        37.977 6
G16  20497502.516 9 107715082.426 9       558.405 9        55.976 9  20497501.689 6         0.000 6       435.121 6        37.977 6
G26  20653838.449 9 108536631.335 9     -1481.822 9        55.873 9  20653841.265 6         0.000 6     -1154.667 6        37.977 6
G20  21945090.829 9 115322197.556 9      2566.624 9        55.315 9  21945091.151 6         0.000 6      1999.968 6        37.977 6
> 2019 07 03 12 00 58.0000000  0  8       0.000000000000
G07  25347690.761 9 133202967.889 9      2187.172 9        54.131 9  25347691.431 6         0.000 6      1704.291 6        37.977 6
G10  23810409.623 9 125124492.403 9      3529.561 9        54.669 9  23810413.351 6         0.000 6      2750.310 6        37.977 6
G21  21170514.970 9 111251786.380 9     -1250.639 9        55.709 9  21170514.255 6         0.000 6      -974.524 6        37.977 6
G29  24298846.994 9 127691246.428 9     -3119.956 9        54.475 9  24298848.568 6         0.000 6     -2431.137 6        37.977 6
G27  22005423.909 9 115639256.137 9      2499.730 9        55.374 9  22005425.842 6         0.000 6      1947.842 6        37.977 6
G16  20497396.314 9 107714524.329 9       557.789 9        55.977 9  20497395.487 6         0.000 6       434.641 6        37.977 6
G26  20654120.485 9 108538113.442 9     -1482.396 9        55.873 9  20654123.301 6         0.000 6     -1155.115 6        37.977 6
G20  21944602.458 9 115319631.157 9      2566.181 9        55.315 9  21944602.780 6         0.000 6      1999.623 6        37.977 6
> 2019 07 03 12 00 59.0000000  0  8       0.000000000000
G07  25347274.600 9 133200780.953 9      2186.713 9        54.131 9  25347275.270 6         0.000 6      1703.933 6        37.977 6
G10  23809737.982 9 125120962.916 9      3529.424 9        54.669 9  23809741.709 6         0.000 6      2750.203 6        37.977 6
G21  21170752.992 9 111253037.197 9     -1251.000 9        55.709 9  21170752.278 6         0.000 6      -974.805 6        37.977 6
G29  24299440.710 9 127694366.417 9     -3120.041 9        54.475 9  24299442.284 6         0.000 6     -2431.204 6        37.977 6
G27  22004948.248 9 115636756.527 9      2499.493 9        55.374 9  22004950.181 6         0.000 6      1947.658 6        37.977 6
G16  20497290.228 9 107713966.845 9       557.173 9        55.977 9  20497289.401 6         0.000 6       434.161 6        37.977 6
G26  20654402.629 9 108539596.119 9     -1482.971 9        55.873 9  20654405.445 6         0.000 6     -1155.563 6        37.977 6
G20  21944114.172 9 115317065.198 9      2565.738 9        55.316 9  21944114.493 6         0.000 6      1999.278 6        37.977 6
> 2019 07 03 12 01  0.0000000  0  8       0.000000000000
G07  25346858.526 9 133198594.473 9      2186.254 9        54.132 9  25346859.196 6         0.000 6      1703.575 6        37.977 6
G10  23809066.368 9 125117433.571 9      3529.287 9        54.669 9  23809070.095 6         0.000 6      2750.096 6        37.977 6
G21  21170991.084 9 111254288.376 9     -1251.361 9        55.709 9  21170990.370 6         0.000 6      -975.087 6        37.977 6
G29  24300034.443 9 127697486.491 9     -3120.127 9        54.475 9  24300036.017 6         0.000 6     -2431.270 6        37.977 6
G27  22004472.633 9 115634257.155 9      2499.256 9        55.374 9  22004474.566 6         0.000 6      1947.473 6        37.977 6
G16  20497184.260 9 107713409.980 9       556.557 9        55.977 9  20497183.434 6         0.000 6       433.681 6        37.977 6
G26  20654684.884 9 108541079.376 9     -1483.546 9        55.873 9  20654687.700 6         0.000 6     -1156.010 6        37.977 6
G20  21943625.970 9 115314499.686 9      2565.295 9        55.316 9  21943626.291 6         0.000 6      1998.932 6        37.977 6
> 2019 07 03 12 01  1.0000000  0  8       0.000000000000
G07  25346442.539 9 133196408.452 9      2185.795 9        54.132 9  25346443.209 6         0.000 6      1703.217 6        37.977 6
G10  23808394.780 9 125113904.364 9      3529.150 9        54.670 9  23808398.506 6         0.000 6      2749.989 6        37.977 6
G21  21171229.244 9 111255539.917 9     -1251.722 9        55.709 9  21171228.530 6         0.000 6      -975.368 6        37.977 6
G29  24300628.191 9 127700606.650 9     -3120.213 9        54.475 9  24300629.767 6         0.000 6     -2431.337 6        37.977 6
G27  22003997.063 9 115631758.019 9      2499.020 9        55.375 9  22003998.996 6         0.000 6      1947.289 6        37.977 6
G16  20497078.410 9 107712853.731 9       555.941 9        55.977 9  20497077.583 6         0.000 6       433.201 6        37.977 6
G26  20654967.248 9 108542563.208 9     -1484.121 9        55.873 9  20654970.064 6         0.000 6     -1156.458 6        37.977 6
G20  21943137.853 9 115311934.617 9      2564.852 9        55.316 9  21943138.174 6         0.000 6      1998.587 6        37.977 6
> 2019 07 03 12 01  2.0000000  0  8       0.000000000000
G07  25346026.641 9 133194222.894 9      2185.335 9        54.132 9  25346027.310 6         0.000 6      1702.860 6        37.977 6
G10  23807723.218 9 125110375.289 9      3529.012 9        54.670 9  23807726.943 6         0.000 6      2749.882 6        37.977 6
G21  21171467.473 9 111256791.816 9     -1252.082 9        55.709 9  21171466.759 6         0.000 6      -975.649 6        37.977 6
G29  24301221.956 9 127703726.896 9     -3120.298 9        54.474 9  24301223.532 6         0.000 6     -2431.404 6        37.977 6
G27  22003521.537 9 115629259.119 9      2498.783 9        55.375 9  22003523.470 6         0.000 6      1947.104 6        37.977 6
G16  20496972.676 9 107712298.095 9       555.325 9        55.977 9  20496971.849 6         0.000 6       432.721 6        37.977 6
G26  20655249.720 9 108544047.610 9     -1484.696 9        55.873 9  20655252.537 6         0.000 6     -1156.906 6        37.977 6
G20  21942649.819 9 115309369.987 9      2564.408 9        55.316 9  21942650.140 6         0.000 6      1998.241 6        37.977 6
> 2019 07 03 12 01  3.0000000  0  8       0.000000000000
G07  25345610.829 9 133192037.792 9      2184.876 9        54.132 9  25345611.498 6         0.000 6      1702.502 6        37.977 6
G10  23807051.682 9 125106846.356 9      3528.875 9        54.670 9  23807055.407 6         0.000 6      2749.775 6        37.977 6
G21  21171705.771 9 111258044.078 9     -1252.443 9        55.709 9  21171705.056 6         0.000 6      -975.930 6        37.977 6
G29  24301815.737 9 127706847.226 9     -3120.384 9        54.474 9  24301817.314 6         0.000 6     -2431.470 6        37.977 6
G27  22003046.057 9 115626760.458 9      2498.546 9        55.375 9  22003047.990 6         0.000 6      1946.919 6        37.977 6
G16  20496867.060 9 107711743.079 9       554.708 9        55.977 9  20496866.233 6         0.000 6       432.240 6        37.977 6
G26  20655532.303 9 108545532.591 9     -1485.270 9        55.873 9  20655535.120 6         0.000 6     -1157.354 6        37.977 6
G20  21942161.871 9 115306805.805 9      2563.965 9        55.316 9  21942162.191 6         0.000 6      1997.896 6        37.977 6
> 2019 07 03 12 01  4.0000000  0  8       0.000000000000
G07  25345195.105 9 133189853.152 9      2184.416 9        54.132 9  25345195.774 6         0.000 6      1702.144 6        37.977 6
G10  23806380.172 9 125103317.556 9      3528.737 9        54.670 9  23806383.896 6         0.000 6      2749.668 6        37.977 6
G21  21171944.136 9 111259296.698 9     -1252.804 9        55.709 9  21171943.422 6         0.000 6      -976.211 6        37.977 6
G29  24302409.535 9 127709967.642 9     -3120.469 9        54.474 9  24302411.112 6         0.000 6     -2431.537 6        37.977 6
G27  22002570.622 9 115624262.031 9      2498.309 9        55.375 9  22002572.554 6         0.000 6      1946.735 6        37.977 6
G16  20496761.560 9 107711188.675 9       554.092 9        55.977 9  20496760.733 6         0.000 6       431.760 6        37.977 6
G26  20655814.995 9 108547018.143 9     -1485.845 9        55.873 9  20655817.812 6         0.000 6     -1157.802 6        37.977 6
G20  21941674.006 9 115304242.062 9      2563.521 9        55.316 9  21941674.326 6         0.000 6      1997.550 6        37.977 6
> 2019 07 03 12 01  5.0000000  0  8       0.000000000000
G07  25344779.469 9 133187668.972 9      2183.957 9        54.132 9  25344780.138 6         0.000 6      1701.785 6        37.977 6
G10  23805708.688 9 125099788.895 9      3528.600 9        54.671 9  23805712.411 6         0.000 6      2749.561 6        37.977 6
G21  21172182.571 9 111260549.679 9     -1253.164 9        55.709 9  21172181.857 6         0.000 6      -976.492 6        37.977 6
G29  24303003.347 9 127713088.139 9     -3120.555 9        54.474 9  24303004.925 6         0.000 6     -2431.604 6        37.977 6
G27  22002095.233 9 115621763.847 9      2498.072 9        55.375 9  22002097.165 6         0.000 6      1946.550 6        37.977 6
G16  20496656.179 9 107710634.893 9       553.476 9        55.977 9  20496655.352 6         0.000 6       431.280 6        37.977 6
G26  20656097.796 9 108548504.273 9     -1486.420 9        55.872 9  20656100.613 6         0.000 6     -1158.250 6        37.977 6
G20  21941186.225 9 115301678.764 9      2563.078 9        55.317 9  21941186.545 6         0.000 6      1997.205 6        37.977 6
> 2019 07 03 12 01  6.0000000  0  8       0.000000000000
G07  25344363.920 9 133185485.251 9      2183.497 9        54.132 9  25344364.588 6         0.000 6      1701.427 6        37.977 6
G10  23805037.230 9 125096260.371 9      3528.462 9        54.671 9  23805040.953 6         0.000 6      2749.454 6        37.977 6
G21  21172421.074 9 111261803.021 9     -1253.525 9        55.709 9  21172420.360 6         0.000 6      -976.773 6        37.977 6
G29  24303597.177 9 127716208.726 9     -3120.640 9        54.474 9  24303598.756 6         0.000 6     -2431.670 6        37.977 6
G27  22001619.888 9 115619265.895 9      2497.835 9        55.375 9  22001621.820 6         0.000 6      1946.365 6        37.977 6
G16  20496550.914 9 107710081.721 9       552.860 9        55.977 9  20496550.087 6         0.000 6       430.800 6        37.977 6
G26  20656380.706 9 108549990.974 9     -1486.994 9        55.872 9  20656383.523 6         0.000 6     -1158.697 6        37.977 6
G20  21940698.529 9 115299115.909 9      2562.634 9        55.317 9  21940698.849 6         0.000 6      1996.859 6        37.977 6
> 2019 07 03 12 01  7.0000000  0  8       0.000000000000
G07  25343948.458 9 133183301.988 9      2183.037 9        54.133 9  25343949.126 6         0.000 6      1701.069 6        37.977 6
G10  23804365.799 9 125092731.988 9      3528.324 9        54.671 9  23804369.521 6         0.000 6      2749.346 6        37.977 6
G21  21172659.646 9 111263056.725 9     -1253.885 9        55.709 9  21172658.932 6         0.000 6      -977.054 6        37.977 6
G29  24304191.023 9 127719329.398 9     -3120.725 9        54.473 9  24304192.602 6         0.000 6     -2431.737 6        37.977 6
G27  22001144.588 9 115616768.181 9      2497.598 9        55.376 9  22001146.520 6         0.000 6      1946.181 6        37.977 6
G16  20496445.767 9 107709529.170 9       552.243 9        55.977 9  20496444.940 6         0.000 6       430.320 6        37.977 6
G26  20656663.727 9 108551478.254 9     -1487.569 9        55.872 9  20656666.544 6         0.000 6     -1159.145 6        37.977 6
G20  21940210.919 9 115296553.501 9      2562.190 9        55.317 9  21940211.238 6         0.000 6      1996.513 6        37.977 6
> 2019 07 03 12 01  8.0000000  0  8       0.000000000000
G07  25343533.084 9 133181119.186 9      2182.578 9        54.133 9  25343533.752 6         0.000 6      1700.711 6        37.977 6
G10  23803694.394 9 125089203.739 9      3528.186 9        54.671 9  23803698.115 6         0.000 6      2749.239 6        37.977 6
G21  21172898.286 9 111264310.788 9     -1254.246 9        55.708 9  21172897.573 6         0.000 6      -977.335 6        37.977 6
G29  24304784.886 9 127722450.156 9     -3120.811 9        54.473 9  24304786.465 6         0.000 6     -2431.803 6        37.977 6
G27  22000669.334 9 115614270.703 9      2497.361 9        55.376 9  22000671.265 6         0.000 6      1945.996 6        37.977 6
G16  20496340.736 9 107708977.231 9       551.627 9        55.977 9  20496339.909 6         0.000 6       429.839 6        37.977 6
G26  20656946.855 9 108552966.103 9     -1488.144 9        55.872 9  20656949.673 6         0.000 6     -1159.593 6        37.977 6
G20  21939723.392 9 115293991.533 9      2561.746 9        55.317 9  21939723.711 6         0.000 6      1996.167 6        37.977 6
> 2019 07 03 12 01  9.0000000  0  8       0.000000000000
G07  25343117.797 9 133178936.842 9      2182.118 9        54.133 9  25343118.465 6         0.000 6      1700.352 6        37.977 6
G10  23803023.015 9 125085675.633 9      3528.048 9        54.672 9  23803026.736 6         0.000 6      2749.131 6        37.977 6
G21  21173136.996 9 111265565.213 9     -1254.606 9        55.708 9  21173136.282 6         0.000 6      -977.615 6        37.977 6
G29  24305378.764 9 127725570.999 9     -3120.896 9        54.473 9  24305380.345 6         0.000 6     -2431.870 6        37.977 6
G27  22000194.124 9 115611773.464 9      2497.123 9        55.376 9  22000196.056 6         0.000 6      1945.811 6        37.977 6
G16  20496235.824 9 107708425.913 9       551.011 9        55.977 9  20496234.997 6         0.000 6       429.359 6        37.977 6
G26  20657230.094 9 108554454.533 9     -1488.718 9        55.872 9  20657232.912 6         0.000 6     -1160.041 6        37.977 6
G20  21939235.950 9 115291430.014 9      2561.302 9        55.317 9  21939236.268 6         0.000 6      1995.821 6        37.977 6
> 2019 07 03 12 01 10.0000000  0  8       0.000000000000
G07  25342702.598 9 133176754.961 9      2181.658 9        54.133 9  25342703.266 6         0.000 6      1699.994 6        37.977 6
G10  23802351.663 9 125082147.660 9      3527.910 9        54.672 9  23802355.382 6         0.000 6      2749.023 6        37.977 6
G21  21173375.773 9 111266819.996 9     -1254.966 9        55.708 9  21173375.059 6         0.000 6      -977.896 6        37.977 6
G29  24305972.659 9 127728691.928 9     -3120.981 9        54.473 9  24305974.240 6         0.000 6     -2431.936 6        37.977 6
G27  21999718.960 9 115609276.460 9      2496.886 9        55.376 9  21999720.891 6         0.000 6      1945.626 6        37.977 6
G16  20496131.028 9 107707875.207 9       550.394 9        55.977 9  20496130.201 6         0.000 6       428.879 6        37.977 6
G26  20657513.442 9 108555943.531 9     -1489.293 9        55.872 9  20657516.259 6         0.000 6     -1160.488 6        37.977 6
G20  21938748.592 9 115288868.934 9      2560.858 9        55.318 9  21938748.910 6         0.000 6      1995.475 6        37.977 6
> 2019 07 03 12 01 11.0000000  0  8       0.000000000000
G07  25342287.486 9 133174573.537 9      2181.198 9        54.133 9  25342288.154 6         0.000 6      1699.635 6        37.977 6
G10  23801680.337 9 125078619.830 9      3527.772 9        54.672 9  23801684.056 6         0.000 6      2748.916 6        37.977 6
G21  21173614.620 9 111268075.142 9     -1255.327 9        55.708 9  21173613.906 6         0.000 6      -978.177 6        37.977 6
G29  24306566.571 9 127731812.942 9     -3121.067 9        54.472 9  24306568.152 6         0.000 6     -2432.003 6        37.977 6
G27  21999243.841 9 115606779.695 9      2496.649 9        55.376 9  21999245.772 6         0.000 6      1945.441 6        37.977 6
G16  20496026.350 9 107707325.121 9       549.778 9        55.977 9  20496025.523 6         0.000 6       428.398 6        37.977 6
G26  20657796.899 9 108557433.109 9     -1489.867 9        55.872 9  20657799.717 6         0.000 6     -1160.936 6        37.977 6
G20  21938261.319 9 115286308.303 9      2560.414 9        55.318 9  21938261.637 6         0.000 6      1995.129 6        37.977 6
> 2019 07 03 12 01 12.0000000  0  8       0.000000000000
G07  25341872.462 9 133172392.572 9      2180.738 9        54.133 9  25341873.129 6         0.000 6      1699.277 6        37.977 6
G10  23801009.037 9 125075092.138 9      3527.633 9        54.672 9  23801012.756 6         0.000 6      2748.808 6        37.977 6
G21  21173853.535 9 111269330.648 9     -1255.687 9        55.708 9  21173852.821 6         0.000 6      -978.457 6        37.977 6
G29  24307160.498 9 127734934.041 9     -3121.152 9        54.472 9  24307162.080 6         0.000 6     -2432.069 6        37.977 6
G27  21998768.767 9 115604283.167 9      2496.412 9        55.377 9  21998770.698 6         0.000 6      1945.257 6        37.977 6
G16  20495921.790 9 107706775.652 9       549.161 9        55.977 9  20495920.963 6         0.000 6       427.918 6        37.977 6
G26  20658080.466 9 108558923.262 9     -1490.441 9        55.872 9  20658083.284 6         0.000 6     -1161.383 6        37.977 6
G20  21937774.131 9 115283748.116 9      2559.969 9        55.318 9  21937774.448 6         0.000 6      1994.782 6        37.977 6
> 2019 07 03 12 01 13.0000000  0  8       0.000000000000
G07  25341457.526 9 133170212.074 9      2180.278 9        54.133 9  25341458.193 6         0.000 6      1698.918 6        37.977 6
G10  23800337.763 9 125071564.578 9      3527.495 9        54.673 9  23800341.481 6         0.000 6      2748.700 6        37.977 6
G21  21174092.517 9 111270586.510 9     -1256.047 9        55.708 9  21174091.804 6         0.000 6      -978.738 6        37.977 6
G29  24307754.441 9 127738055.220 9     -3121.237 9        54.472 9  24307756.023 6         0.000 6     -2432.136 6        37.977 6
G27  21998293.738 9 115601786.879 9      2496.174 9        55.377 9  21998295.669 6         0.000 6      1945.072 6        37.977 6
G16  20495817.346 9 107706226.797 9       548.545 9        55.977 9  20495816.519 6         0.000 6       427.437 6        37.977 6
G26  20658364.142 9 108560413.984 9     -1491.016 9        55.871 9  20658366.959 6         0.000 6     -1161.831 6        37.977 6
G20  21937287.025 9 115281188.366 9      2559.525 9        55.318 9  21937287.343 6         0.000 6      1994.436 6        37.977 6
> 2019 07 03 12 01 14.0000000  0  8       0.000000000000
G07  25341042.677 9 133168032.030 9      2179.817 9        54.134 9  25341043.344 6         0.000 6      1698.560 6        37.977 6
G10  23799666.516 9 125068037.163 9      3527.356 9        54.673 9  23799670.233 6         0.000 6      2748.592 6        37.977 6
G21  21174331.569 9 111271842.736 9     -1256.407 9        55.708 9  21174330.856 6         0.000 6      -979.019 6        37.977 6
G29  24308348.400 9 127741176.490 9     -3121.323 9        54.472 9  24308349.984 6         0.000 6     -2432.202 6        37.977 6
G27  21997818.755 9 115599290.826 9      2495.937 9        55.377 9  21997820.685 6         0.000 6      1944.887 6        37.977 6
G16  20495713.020 9 107705678.561 9       547.928 9        55.977 9  20495712.193 6         0.000 6       426.957 6        37.977 6
G26  20658647.927 9 108561905.285 9     -1491.590 9        55.871 9  20658650.745 6         0.000 6     -1162.279 6        37.977 6
G20  21936800.006 9 115278629.067 9      2559.080 9        55.318 9  21936800.324 6         0.000 6      1994.090 6        37.977 6
> 2019 07 03 12 01 15.0000000  0  8       0.000000000000
G07  25340627.916 9 133165852.449 9      2179.357 9        54.134 9  25340628.582 6         0.000 6      1698.201 6        37.977 6
G10  23798995.295 9 125064509.883 9      3527.217 9        54.673 9  23798999.011 6         0.000 6      2748.484 6        37.977 6
G21  21174570.690 9 111273099.320 9     -1256.767 9        55.708 9  21174569.976 6         0.000 6      -979.299 6        37.977 6
G29  24308942.376 9 127744297.845 9     -3121.408 9        54.472 9  24308943.960 6         0.000 6     -2432.268 6        37.977 6
G27  21997343.816 9 115596795.008 9      2495.700 9        55.377 9  21997345.746 6         0.000 6      1944.702 6        37.977 6
G16  20495608.811 9 107705130.938 9       547.311 9        55.977 9  20495607.984 6         0.000 6       426.476 6        37.977 6
G26  20658931.821 9 108563397.156 9     -1492.165 9        55.871 9  20658934.639 6         0.000 6     -1162.726 6        37.977 6
G20  21936313.071 9 115276070.210 9      2558.636 9        55.319 9  21936313.388 6         0.000 6      1993.743 6        37.977 6
> 2019 07 03 12 01 16.0000000  0  8       0.000000000000
G07  25340213.242 9 133163673.326 9      2178.896 9        54.134 9  25340213.908 6         0.000 6      1697.842 6        37.977 6
G10  23798324.101 9 125060982.745 9      3527.079 9        54.673 9  23798327.817 6         0.000 6      2748.376 6        37.977 6
G21  21174809.879 9 111274356.266 9     -1257.127 9        55.708 9  21174809.165 6         0.000 6      -979.580 6        37.977 6
G29  24309536.369 9 127747419.285 9     -3121.493 9        54.471 9  24309537.953 6         0.000 6     -2432.335 6        37.977 6
G27  21996868.923 9 115594299.430 9      2495.462 9        55.377 9  21996870.853 6         0.000 6      1944.517 6        37.977 6
G16  20495504.720 9 107704583.935 9       546.695 9        55.977 9  20495503.893 6         0.000 6       425.996 6        37.977 6
G26  20659215.825 9 108564889.606 9     -1492.739 9        55.871 9  20659218.643 6         0.000 6     -1163.174 6        37.977 6
G20  21935826.221 9 115273511.801 9      2558.191 9        55.319 9  21935826.538 6         0.000 6      1993.397 6        37.977 6
> 2019 07 03 12 01 17.0000000  0  8       0.000000000000
G07  25339798.656 9 133161494.666 9      2178.436 9        54.134 9  25339799.322 6         0.000 6      1697.484 6        37.977 6
G10  23797652.933 9 125057455.742 9      3526.940 9        54.674 9  23797656.648 6         0.000 6      2748.267 6        37.977 6
G21  21175049.136 9 111275613.570 9     -1257.487 9        55.708 9  21175048.422 6         0.000 6      -979.860 6        37.977 6
G29  24310130.377 9 127750540.811 9     -3121.578 9        54.471 9  24310131.962 6         0.000 6     -2432.401 6        37.977 6
G27  21996394.074 9 115591804.087 9      2495.225 9        55.378 9  21996396.004 6         0.000 6      1944.332 6        37.977 6
G16  20495400.745 9 107704037.545 9       546.078 9        55.977 9  20495399.918 6         0.000 6       425.515 6        37.977 6
G26  20659499.938 9 108566382.625 9     -1493.313 9        55.871 9  20659502.756 6         0.000 6     -1163.621 6        37.977 6
G20  21935339.455 9 115270953.832 9      2557.746 9        55.319 9  21935339.772 6         0.000 6      1993.050 6        37.977 6
> 2019 07 03 12 01 18.0000000  0  8       0.000000000000
G07  25339384.157 9 133159316.464 9      2177.975 9        54.134 9  25339384.823 6         0.000 6      1697.125 6        37.977 6
G10  23796981.792 9 125053928.883 9      3526.801 9        54.674 9  23796985.506 6         0.000 6      2748.159 6        37.977 6
G21  21175288.462 9 111276871.237 9     -1257.847 9        55.707 9  21175287.748 6         0.000 6      -980.141 6        37.977 6
G29  24310724.402 9 127753662.421 9     -3121.663 9        54.471 9  24310725.988 6         0.000 6     -2432.468 6        37.977 6
G27  21995919.271 9 115589308.984 9      2494.987 9        55.378 9  21995921.201 6         0.000 6      1944.147 6        37.977 6
G16  20495296.889 9 107703491.776 9       545.461 9        55.977 9  20495296.062 6         0.000 6       425.035 6        37.977 6
G26  20659784.160 9 108567876.224 9     -1493.887 9        55.871 9  20659786.979 6         0.000 6     -1164.068 6        37.977 6
G20  21934852.774 9 115268396.313 9      2557.301 9        55.319 9  21934853.091 6         0.000 6      1992.704 6        37.977 6
> 2019 07 03 12 01 19.0000000  0  8       0.000000000000
G07  25338969.746 9 133157138.725 9      2177.515 9        54.134 9  25338970.412 6         0.000 6      1696.766 6        37.977 6
G10  23796310.676 9 125050402.158 9      3526.662 9        54.674 9  23796314.390 6         0.000 6      2748.051 6        37.977 6
G21  21175527.856 9 111278129.260 9     -1258.207 9        55.707 9  21175527.142 6         0.000 6      -980.421 6        37.977 6
G29  24311318.443 9 127756784.117 9     -3121.749 9        54.471 9  24311320.029 6         0.000 6     -2432.534 6        37.977 6
G27  21995444.513 9 115586814.116 9      2494.750 9        55.378 9  21995446.443 6         0.000 6      1943.962 6        37.977 6
G16  20495193.149 9 107702946.620 9       544.844 9        55.977 9  20495192.322 6         0.000 6       424.554 6        37.977 6
G26  20660068.491 9 108569370.391 9     -1494.461 9        55.871 9  20660071.310 6         0.000 6     -1164.516 6        37.977 6
G20  21934366.178 9 115265839.234 9      2556.856 9        55.319 9  21934366.494 6         0.000 6      1992.357 6        37.977 6
> 2019 07 03 12 01 20.0000000  0  8       0.000000000000
G07  25338555.424 9 133154961.447 9      2177.054 9        54.134 9  25338556.089 6         0.000 6      1696.407 6        37.977 6
G10  23795639.588 9 125046875.574 9      3526.522 9        54.674 9  23795643.301 6         0.000 6      2747.942 6        37.977 6
G21  21175767.319 9 111279387.644 9     -1258.566 9        55.707 9  21175766.605 6         0.000 6      -980.701 6        37.977 6
G29  24311912.499 9 127759905.893 9     -3121.834 9        54.471 9  24311914.086 6         0.000 6     -2432.600 6        37.977 6
G27  21994969.801 9 115584319.491 9      2494.512 9        55.378 9  21994971.731 6         0.000 6      1943.776 6        37.977 6
G16  20495089.527 9 107702402.085 9       544.228 9        55.977 9  20495088.701 6         0.000 6       424.073 6        37.977 6
G26  20660352.932 9 108570865.138 9     -1495.036 9        55.871 9  20660355.751 6         0.000 6     -1164.963 6        37.977 6
G20  21933879.666 9 115263282.602 9      2556.411 9        55.320 9  21933879.982 6         0.000 6      1992.010 6        37.977 6
> 2019 07 03 12 01 21.0000000  0  8       0.000000000000
G07  25338141.188 9 133152784.627 9      2176.593 9        54.135 9  25338141.853 6         0.000 6      1696.048 6        37.977 6
G10  23794968.526 9 125043349.132 9      3526.383 9        54.675 9  23794972.238 6         0.000 6      2747.834 6        37.977 6
G21  21176006.850 9 111280646.390 9     -1258.926 9        55.707 9  21176006.137 6         0.000 6      -980.982 6        37.977 6
G29  24312506.572 9 127763027.759 9     -3121.919 9        54.470 9  24312508.160 6         0.000 6     -2432.667 6        37.977 6
G27  21994495.134 9 115581825.100 9      2494.275 9        55.378 9  21994497.063 6         0.000 6      1943.591 6        37.977 6
G16  20494986.023 9 107701858.166 9       543.611 9        55.978 9  20494985.196 6         0.000 6       423.593 6        37.977 6
G26  20660637.483 9 108572360.459 9     -1495.610 9        55.870 9  20660640.302 6         0.000 6     -1165.411 6        37.977 6
G20  21933393.239 9 115260726.418 9      2555.966 9        55.320 9  21933393.555 6         0.000 6      1991.663 6        37.977 6
> 2019 07 03 12 01 22.0000000  0  8       0.000000000000
G07  25337727.040 9 133150608.271 9      2176.132 9        54.135 9  25337727.705 6         0.000 6      1695.689 6        37.977 6
G10  23794297.490 9 125039822.825 9      3526.244 9        54.675 9  23794301.202 6         0.000 6      2747.725 6        37.977 6
G21  21176246.449 9 111281905.493 9     -1259.286 9        55.707 9  21176245.736 6         0.000 6      -981.262 6        37.977 6
G29  24313100.662 9 127766149.709 9     -3122.004 9        54.470 9  24313102.250 6         0.000 6     -2432.733 6        37.977 6
G27  21994020.512 9 115579330.945 9      2494.037 9        55.378 9  21994022.441 6         0.000 6      1943.406 6        37.977 6
G16  20494882.636 9 107701314.861 9       542.994 9        55.978 9  20494881.809 6         0.000 6       423.112 6        37.977 6
G26  20660922.142 9 108573856.349 9     -1496.184 9        55.870 9  20660924.960 6         0.000 6     -1165.858 6        37.977 6
G20  21932906.897 9 115258170.674 9      2555.521 9        55.320 9  21932907.212 6         0.000 6      1991.316 6        37.977 6
> 2019 07 03 12 01 23.0000000  0  8       0.000000000000
G07  25337312.980 9 133148432.372 9      2175.671 9        54.135 9  25337313.645 6         0.000 6      1695.329 6        37.977 6
G10  23793626.481 9 125036296.662 9      3526.104 9        54.675 9  23793630.193 6         0.000 6      2747.616 6        37.977 6
G21  21176486.118 9 111283164.957 9     -1259.645 9        55.707 9  21176485.404 6         0.000 6      -981.542 6        37.977 6
G29  24313694.767 9 127769271.746 9     -3122.089 9        54.470 9  24313696.356 6         0.000 6     -2432.799 6        37.977 6
G27  21993545.935 9 115576837.030 9      2493.799 9        55.379 9  21993547.864 6         0.000 6      1943.221 6        37.977 6
G16  20494779.366 9 107700772.175 9       542.377 9        55.978 9  20494778.539 6         0.000 6       422.631 6        37.977 6
G26  20661206.911 9 108575352.818 9     -1496.758 9        55.870 9  20661209.730 6         0.000 6     -1166.305 6        37.977 6
G20  21932420.640 9 115255615.381 9      2555.076 9        55.320 9  21932420.955 6         0.000 6      1990.969 6        37.977 6
> 2019 07 03 12 01 24.0000000  0  8       0.000000000000
G07  25336899.008 9 133146256.938 9      2175.210 9        54.135 9  25336899.672 6         0.000 6      1694.970 6        37.977 6
G10  23792955.499 9 125032770.634 9      3525.964 9        54.675 9  23792959.209 6         0.000 6      2747.507 6        37.977 6
G21  21176725.854 9 111284424.779 9     -1260.005 9        55.707 9  21176725.141 6         0.000 6      -981.822 6        37.977 6
G29  24314288.889 9 127772393.867 9     -3122.174 9        54.470 9  24314290.479 6         0.000 6     -2432.865 6        37.977 6
G27  21993071.403 9 115574343.350 9      2493.562 9        55.379 9  21993073.332 6         0.000 6      1943.036 6        37.977 6
G16  20494676.213 9 107700230.104 9       541.760 9        55.978 9  20494675.386 6         0.000 6       422.150 6        37.977 6
G26  20661491.788 9 108576849.856 9     -1497.332 9        55.870 9  20661494.607 6         0.000 6     -1166.752 6        37.977 6
G20  21931934.467 9 115253060.528 9      2554.630 9        55.320 9  21931934.781 6         0.000 6      1990.622 6        37.977 6
> 2019 07 03 12 01 25.0000000  0  8       0.000000000000
G07  25336485.123 9 133144081.962 9      2174.749 9        54.135 9  25336485.787 6         0.000 6      1694.611 6        37.977 6
G10  23792284.543 9 125029244.750 9      3525.825 9        54.676 9  23792288.253 6         0.000 6      2747.398 6        37.977 6
G21  21176965.659 9 111285684.963 9     -1260.364 9        55.707 9  21176964.946 6         0.000 6      -982.102 6        37.977 6
G29  24314883.027 9 127775516.073 9     -3122.259 9        54.470 9  24314884.617 6         0.000 6     -2432.932 6        37.977 6
G27  21992596.916 9 115571849.910 9      2493.324 9        55.379 9  21992598.845 6         0.000 6      1942.850 6        37.977 6
G16  20494573.178 9 107699688.653 9       541.143 9        55.978 9  20494572.352 6         0.000 6       421.670 6        37.977 6
G26  20661776.775 9 108578347.473 9     -1497.906 9        55.870 9  20661779.594 6         0.000 6     -1167.200 6        37.977 6
G20  21931448.379 9 115250506.125 9      2554.184 9        55.321 9  21931448.693 6         0.000 6      1990.275 6        37.977 6
> 2019 07 03 12 01 26.0000000  0  8       0.000000000000
G07  25336071.326 9 133141907.449 9      2174.288 9        54.135 9  25336071.990 6         0.000 6      1694.251 6        37.977 6
G10  23791613.613 9 125025719.001 9      3525.685 9        54.676 9  23791617.323 6         0.000 6      2747.289 6        37.977 6
G21  21177205.532 9 111286945.504 9     -1260.724 9        55.707 9  21177204.819 6         0.000 6      -982.382 6        37.977 6
G29  24315477.181 9 127778638.364 9     -3122.344 9        54.469 9  24315478.772 6         0.000 6     -2432.998 6        37.977 6
G27  21992122.475 9 115569356.706 9      2493.086 9        55.379 9  21992124.403 6         0.000 6      1942.665 6        37.977 6
G16  20494470.260 9 107699147.815 9       540.526 9        55.978 9  20494469.434 6         0.000 6       421.189 6        37.977 6
G26  20662061.871 9 108579845.659 9     -1498.480 9        55.870 9  20662064.690 6         0.000 6     -1167.647 6        37.977 6
G20  21930962.375 9 115247952.164 9      2553.739 9        55.321 9  21930962.689 6         0.000 6      1989.928 6        37.977 6
> 2019 07 03 12 01 27.0000000  0  8       0.000000000000
G07  25335657.617 9 133139733.395 9      2173.827 9        54.135 9  25335658.281 6         0.000 6      1693.892 6        37.977 6
G10  23790942.711 9 125022193.397 9      3525.545 9        54.676 9  23790946.420 6         0.000 6      2747.180 6        37.977 6
G21  21177445.474 9 111288206.407 9     -1261.083 9        55.707 9  21177444.761 6         0.000 6      -982.662 6        37.977 6
G29  24316071.352 9 127781760.740 9     -3122.429 9        54.469 9  24316072.943 6         0.000 6     -2433.064 6        37.977 6
G27  21991648.079 9 115566863.741 9      2492.848 9        55.379 9  21991650.007 6         0.000 6      1942.480 6        37.977 6
G16  20494367.461 9 107698607.598 9       539.909 9        55.978 9  20494366.634 6         0.000 6       420.708 6        37.977 6
G26  20662347.077 9 108581344.424 9     -1499.054 9        55.870 9  20662349.896 6         0.000 6     -1168.094 6        37.977 6
G20  21930476.458 9 115245398.653 9      2553.293 9        55.321 9  21930476.771 6         0.000 6      1989.580 6        37.977 6
> 2019 07 03 12 01 28.0000000  0  8       0.000000000000
G07  25335243.996 9 133137559.808 9      2173.366 9        54.136 9  25335244.660 6         0.000 6      1693.533 6        37.977 6
G10  23790271.835 9 125018667.926 9      3525.405 9        54.676 9  23790275.543 6         0.000 6      2747.071 6        37.977 6
G21  21177685.484 9 111289467.664 9     -1261.442 9        55.706 9  21177684.771 6         0.000 6      -982.942 6        37.977 6
G29  24316665.537 9 127784883.195 9     -3122.514 9        54.469 9  24316667.129 6         0.000 6     -2433.130 6        37.977 6
G27  21991173.729 9 115564371.016 9      2492.610 9        55.380 9  21991175.657 6         0.000 6      1942.295 6        37.977 6
G16  20494264.778 9 107698067.996 9       539.291 9        55.978 9  20494263.951 6         0.000 6       420.227 6        37.977 6
G26  20662632.391 9 108582843.758 9     -1499.627 9        55.870 9  20662635.210 6         0.000 6     -1168.541 6        37.977 6
G20  21929990.623 9 115242845.579 9      2552.847 9        55.321 9  21929990.937 6         0.000 6      1989.233 6        37.977 6
> 2019 07 03 12 01 29.0000000  0  8       0.000000000000
G07  25334830.462 9 133135386.677 9      2172.904 9        54.136 9  25334831.126 6         0.000 6      1693.173 6        37.977 6
G10  23789600.986 9 125015142.602 9      3525.264 9        54.677 9  23789604.693 6         0.000 6      2746.962 6        37.977 6
G21  21177925.562 9 111290729.286 9     -1261.802 9        55.706 9  21177924.849 6         0.000 6      -983.222 6        37.977 6
G29  24317259.740 9 127788005.741 9     -3122.599 9        54.469 9  24317261.333 6         0.000 6     -2433.196 6        37.977 6
G27  21990699.423 9 115561878.527 9      2492.373 9        55.380 9  21990701.351 6         0.000 6      1942.109 6        37.977 6
G16  20494162.213 9 107697529.013 9       538.674 9        55.978 9  20494161.386 6         0.000 6       419.746 6        37.977 6
G26  20662917.815 9 108584343.670 9     -1500.201 9        55.870 9  20662920.635 6         0.000 6     -1168.988 6        37.977 6
G20  21929504.875 9 115240292.960 9      2552.401 9        55.321 9  21929505.188 6         0.000 6      1988.885 6        37.977 6
> 2019 07 03 12 01 30.0000000  0  8       0.000000000000
G07  25334417.016 9 133133214.007 9      2172.443 9        54.136 9  25334417.680 6         0.000 6      1692.813 6        37.977 6
G10  23788930.163 9 125011617.419 9      3525.124 9        54.677 9  23788933.870 6         0.000 6      2746.853 6        37.977 6
G21  21178165.709 9 111291991.266 9     -1262.161 9        55.706 9  21178164.996 6         0.000 6      -983.502 6        37.977 6
G29  24317853.959 9 127791128.372 9     -3122.683 9        54.468 9  24317855.552 6         0.000 6     -2433.262 6        37.977 6
G27  21990225.163 9 115559386.277 9      2492.135 9        55.380 9  21990227.091 6         0.000 6      1941.924 6        37.977 6
G16  20494059.765 9 107696990.648 9       538.057 9        55.978 9  20494058.938 6         0.000 6       419.265 6        37.977 6
G26  20663203.348 9 108585844.157 9     -1500.775 9        55.869 9  20663206.168 6         0.000 6     -1169.436 6        37.977 6
G20  21929019.211 9 115237740.786 9      2551.955 9        55.321 9  21929019.524 6         0.000 6      1988.538 6        37.977 6
> 2019 07 03 12 01 31.0000000  0  8       0.000000000000
G07  25334003.659 9 133131041.802 9      2171.981 9        54.136 9  25334004.322 6         0.000 6      1692.454 6        37.977 6
G10  23788259.367 9 125008092.371 9      3524.984 9        54.677 9  23788263.073 6         0.000 6      2746.743 6        37.977 6
G21  21178405.924 9 111293253.604 9     -1262.520 9        55.706 9  21178405.211 6         0.000 6      -983.782 6        37.977 6
G29  24318448.194 9 127794251.088 9     -3122.768 9        54.468 9  24318449.788 6         0.000 6     -2433.329 6        37.977 6
G27  21989750.948 9 115556894.262 9      2491.897 9        55.380 9  21989752.876 6         0.000 6      1941.738 6        37.977 6
G16  20493957.434 9 107696452.896 9       537.440 9        55.978 9  20493956.608 6         0.000 6       418.784 6        37.977 6
G26  20663488.990 9 108587345.212 9     -1501.349 9        55.869 9  20663491.810 6         0.000 6     -1169.883 6        37.977 6
G20  21928533.632 9 115235189.054 9      2551.509 9        55.322 9  21928533.945 6         0.000 6      1988.190 6        37.977 6
> 2019 07 03 12 01 32.0000000  0  8       0.000000000000
G07  25333590.388 9 133128870.055 9      2171.519 9        54.136 9  25333591.051 6         0.000 6      1692.094 6        37.977 6
G10  23787588.598 9 125004567.468 9      3524.843 9        54.677 9  23787592.304 6         0.000 6      2746.634 6        37.977 6
G21  21178646.208 9 111294516.302 9     -1262.879 9        55.706 9  21178645.495 6         0.000 6      -984.062 6        37.977 6
G29  24319042.445 9 127797373.888 9     -3122.853 9        54.468 9  24319044.040 6         0.000 6     -2433.395 6        37.977 6
G27  21989276.779 9 115554402.487 9      2491.659 9        55.380 9  21989278.706 6         0.000 6      1941.553 6        37.977 6
G16  20493855.222 9 107695915.765 9       536.822 9        55.978 9  20493854.395 6         0.000 6       418.303 6        37.977 6
G26  20663774.742 9 108588846.846 9     -1501.923 9        55.869 9  20663777.562 6         0.000 6     -1170.330 6        37.977 6
G20  21928048.139 9 115232637.772 9      2551.063 9        55.322 9  21928048.451 6         0.000 6      1987.842 6        37.977 6
> 2019 07 03 12 01 33.0000000  0  8       0.000000000000
G07  25333177.207 9 133126698.773 9      2171.058 9        54.136 9  25333177.869 6         0.000 6      1691.734 6        37.977 6
G10  23786917.856 9 125001042.701 9      3524.703 9        54.678 9  23786921.560 6         0.000 6      2746.524 6        37.977 6
G21  21178886.560 9 111295779.358 9     -1263.238 9        55.706 9  21178885.847 6         0.000 6      -984.342 6        37.977 6
G29  24319636.712 9 127800496.773 9     -3122.938 9        54.468 9  24319638.307 6         0.000 6     -2433.461 6        37.977 6
G27  21988802.654 9 115551910.948 9      2491.421 9        55.381 9  21988804.581 6         0.000 6      1941.367 6        37.977 6
G16  20493753.126 9 107695379.248 9       536.205 9        55.978 9  20493752.299 6         0.000 6       417.822 6        37.977 6
G26  20664060.602 9 108590349.049 9     -1502.496 9        55.869 9  20664063.422 6         0.000 6     -1170.777 6        37.977 6
G20  21927562.729 9 115230086.933 9      2550.617 9        55.322 9  21927563.041 6         0.000 6      1987.495 6        37.977 6
> 2019 07 03 12 01 34.0000000  0  8       0.000000000000
G07  25332764.112 9 133124527.949 9      2170.596 9        54.136 9  25332764.774 6         0.000 6      1691.374 6        37.977 6
G10  23786247.140 9 124997518.079 9      3524.562 9        54.678 9  23786250.844 6         0.000 6      2746.415 6        37.977 6
G21  21179126.980 9 111297042.775 9     -1263.597 9        55.706 9  21179126.267 6         0.000 6      -984.621 6        37.977 6
G29  24320230.995 9 127803619.743 9     -3123.023 9        54.468 9  24320232.591 6         0.000 6     -2433.527 6        37.977 6
G27  21988328.575 9 115549419.649 9      2491.182 9        55.381 9  21988330.502 6         0.000 6      1941.182 6        37.977 6
G16  20493651.148 9 107694843.352 9       535.588 9        55.978 9  20493650.321 6         0.000 6       417.341 6        37.977 6
G26  20664346.572 9 108591851.830 9     -1503.070 9        55.869 9  20664349.392 6         0.000 6     -1171.224 6        37.977 6
G20  21927077.405 9 115227536.544 9      2550.170 9        55.322 9  21927077.717 6         0.000 6      1987.147 6        37.977 6
> 2019 07 03 12 01 35.0000000  0  8       0.000000000000
G07  25332351.106 9 133122357.591 9      2170.134 9        54.137 9  25332351.768 6         0.000 6      1691.014 6        37.977 6
G10  23785576.451 9 124993993.594 9      3524.421 9        54.678 9  23785580.154 6         0.000 6      2746.305 6        37.977 6
G21  21179367.468 9 111298306.548 9     -1263.956 9        55.706 9  21179366.756 6         0.000 6      -984.901 6        37.977 6
G29  24320825.295 9 127806742.798 9     -3123.108 9        54.467 9  24320826.892 6         0.000 6     -2433.593 6        37.977 6
G27  21987854.541 9 115546928.587 9      2490.944 9        55.381 9  21987856.468 6         0.000 6      1940.996 6        37.977 6
G16  20493549.287 9 107694308.070 9       534.970 9        55.978 9  20493548.461 6         0.000 6       416.860 6        37.977 6
G26  20664632.650 9 108593355.180 9     -1503.643 9        55.869 9  20664635.471 6         0.000 6     -1171.671 6        37.977 6
G20  21926592.166 9 115224986.597 9      2549.724 9        55.322 9  21926592.477 6         0.000 6      1986.799 6        37.977 6
> 2019 07 03 12 01 36.0000000  0  8       0.000000000000
G07  25331938.187 9 133120187.694 9      2169.672 9        54.137 9  25331938.849 6         0.000 6      1690.654 6        37.977 6
G10  23784905.789 9 124990469.251 9      3524.280 9        54.678 9  23784909.492 6         0.000 6      2746.195 6        37.977 6
G21  21179608.025 9 111299570.680 9     -1264.315 9        55.706 9  21179607.312 6         0.000 6      -985.181 6        37.977 6
G29  24321419.610 9 127809865.933 9     -3123.192 9        54.467 9  24321421.207 6         0.000 6     -2433.659 6        37.977 6
G27  21987380.553 9 115544437.768 9      2490.706 9        55.381 9  21987382.480 6         0.000 6      1940.811 6        37.977 6
G16  20493447.545 9 107693773.409 9       534.353 9        55.978 9  20493446.718 6         0.000 6       416.379 6        37.977 6
G26  20664918.839 9 108594859.108 9     -1504.217 9        55.869 9  20664921.659 6         0.000 6     -1172.118 6        37.977 6
G20  21926107.011 9 115222437.098 9      2549.277 9        55.323 9  21926107.323 6         0.000 6      1986.451 6        37.977 6
> 2019 07 03 12 01 37.0000000  0  8       0.000000000000
G07  25331525.357 9 133118018.259 9      2169.210 9        54.137 9  25331526.019 6         0.000 6      1690.294 6        37.977 6
G10  23784235.153 9 124986945.047 9      3524.139 9        54.679 9  23784238.855 6         0.000 6      2746.085 6        37.977 6
G21  21179848.650 9 111300835.172 9     -1264.674 9        55.706 9  21179847.937 6         0.000 6      -985.460 6        37.977 6
G29  24322013.941 9 127812989.157 9     -3123.277 9        54.467 9  24322015.539 6         0.000 6     -2433.725 6        37.977 6
G27  21986906.610 9 115541947.181 9      2490.468 9        55.381 9  21986908.537 6         0.000 6      1940.625 6        37.977 6
G16  20493345.919 9 107693239.362 9       533.735 9        55.978 9  20493345.092 6         0.000 6       415.898 6        37.977 6
G26  20665205.135 9 108596363.606 9     -1504.791 9        55.869 9  20665207.956 6         0.000 6     -1172.565 6        37.977 6
G20  21925621.942 9 115219888.044 9      2548.830 9        55.323 9  21925622.253 6         0.000 6      1986.103 6        37.977 6
> 2019 07 03 12 01 38.0000000  0  8       0.000000000000
G07  25331112.614 9 133115849.284 9      2168.748 9        54.137 9  25331113.276 6         0.000 6      1689.934 6        37.977 6
G10  23783564.545 9 124983420.989 9      3523.998 9        54.679 9  23783568.247 6         0.000 6      2745.975 6        37.977 6
G21  21180089.343 9 111302100.024 9     -1265.032 9        55.705 9  21180088.630 6         0.000 6      -985.740 6        37.977 6
G29  24322608.289 9 127816112.466 9     -3123.362 9        54.467 9  24322609.888 6         0.000 6     -2433.791 6        37.977 6
G27  21986432.712 9 115539456.835 9      2490.230 9        55.381 9  21986434.639 6         0.000 6      1940.439 6        37.977 6
G16  20493244.412 9 107692705.936 9       533.118 9        55.978 9  20493243.585 6         0.000 6       415.416 6        37.977 6
G26  20665491.542 9 108597868.681 9     -1505.364 9        55.868 9  20665494.363 6         0.000 6     -1173.011 6        37.977 6
G20  21925136.958 9 115217339.442 9      2548.384 9        55.323 9  21925137.269 6         0.000 6      1985.755 6        37.977 6
> 2019 07 03 12 01 39.0000000  0  8       0.000000000000
G07  25330699.960 9 133113680.773 9      2168.286 9        54.137 9  25330700.621 6         0.000 6      1689.574 6        37.977 6
G10  23782893.963 9 124979897.068 9      3523.857 9        54.679 9  23782897.664 6         0.000 6      2745.865 6        37.977 6
G21  21180330.104 9 111303365.232 9     -1265.391 9        55.705 9  21180329.392 6         0.000 6      -986.019 6        37.977 6
G29  24323202.653 9 127819235.860 9     -3123.446 9        54.467 9  24323204.253 6         0.000 6     -2433.857 6        37.977 6
G27  21985958.860 9 115536966.725 9      2489.991 9        55.382 9  21985960.786 6         0.000 6      1940.254 6        37.977 6
G16  20493143.021 9 107692173.123 9       532.500 9        55.978 9  20493142.194 6         0.000 6       414.935 6        37.977 6
G26  20665778.057 9 108599374.325 9     -1505.938 9        55.868 9  20665780.878 6         0.000 6     -1173.458 6        37.977 6
G20  21924652.058 9 115214791.282 9      2547.937 9        55.323 9  21924652.369 6         0.000 6      1985.406 6        37.977 6
> 2019 07 03 12 01 40.0000000  0  8       0.000000000000
G07  25330287.393 9 133111512.722 9      2167.823 9        54.137 9  25330288.054 6         0.000 6      1689.214 6        37.977 6
G10  23782223.409 9 124976373.292 9      3523.716 9        54.679 9  23782227.109 6         0.000 6      2745.755 6        37.977 6
G21  21180570.934 9 111304630.802 9     -1265.750 9        55.705 9  21180570.222 6         0.000 6      -986.299 6        37.977 6
G29  24323797.033 9 127822359.338 9     -3123.531 9        54.466 9  24323798.633 6         0.000 6     -2433.923 6        37.977 6
G27  21985485.053 9 115534476.856 9      2489.753 9        55.382 9  21985486.979 6         0.000 6      1940.068 6        37.977 6
G16  20493041.748 9 107691640.932 9       531.883 9        55.978 9  20493040.921 6         0.000 6       414.454 6        37.977 6
G26  20666064.682 9 108600880.548 9     -1506.511 9        55.868 9  20666067.503 6         0.000 6     -1173.905 6        37.977 6
G20  21924167.245 9 115212243.573 9      2547.490 9        55.323 9  21924167.555 6         0.000 6      1985.058 6        37.977 6
> 2019 07 03 12 01 41.0000000  0  8       0.000000000000
G07  25329874.913 9 133109345.134 9      2167.361 9        54.137 9  25329875.574 6         0.000 6      1688.854 6        37.977 6
G10  23781552.882 9 124972849.658 9      3523.574 9        54.680 9  23781556.581 6         0.000 6      2745.645 6        37.977 6
G21  21180811.833 9 111305896.730 9     -1266.108 9        55.705 9  21180811.120 6         0.000 6      -986.578 6        37.977 6
G29  24324391.430 9 127825482.901 9     -3123.616 9        54.466 9  24324393.030 6         0.000 6     -2433.989 6        37.977 6
G27  21985011.291 9 115531987.225 9      2489.515 9        55.382 9  21985013.217 6         0.000 6      1939.882 6        37.977 6
G16  20492940.593 9 107691109.358 9       531.265 9        55.978 9  20492939.766 6         0.000 6       413.973 6        37.977 6
G26  20666351.416 9 108602387.344 9     -1507.084 9        55.868 9  20666354.237 6         0.000 6     -1174.352 6        37.977 6
G20  21923682.516 9 115209696.311 9      2547.043 9        55.324 9  21923682.826 6         0.000 6      1984.710 6        37.977 6
> 2019 07 03 12 01 42.0000000  0  8       0.000000000000
G07  25329462.523 9 133107178.010 9      2166.899 9        54.138 9  25329463.184 6         0.000 6      1688.493 6        37.977 6
G10  23780882.380 9 124969326.160 9      3523.433 9        54.680 9  23780886.079 6         0.000 6      2745.535 6        37.977 6
G21  21181052.799 9 111307163.014 9     -1266.467 9        55.705 9  21181052.086 6         0.000 6      -986.857 6        37.977 6
G29  24324985.842 9 127828606.549 9     -3123.700 9        54.466 9  24324987.443 6         0.000 6     -2434.055 6        37.977 6
G27  21984537.575 9 115529497.830 9      2489.276 9        55.382 9  21984539.501 6         0.000 6      1939.697 6        37.977 6
G16  20492839.555 9 107690578.399 9       530.647 9        55.978 9  20492838.728 6         0.000 6       413.491 6        37.977 6
G26  20666638.258 9 108603894.708 9     -1507.658 9        55.868 9  20666641.079 6         0.000 6     -1174.799 6        37.977 6
G20  21923197.872 9 115207149.492 9      2546.596 9        55.324 9  21923198.181 6         0.000 6      1984.361 6        37.977 6
> 2019 07 03 12 01 43.0000000  0  8       0.000000000000
G07  25329050.220 9 133105011.346 9      2166.436 9        54.138 9  25329050.880 6         0.000 6      1688.133 6        37.977 6
G10  23780211.907 9 124965802.809 9      3523.291 9        54.680 9  23780215.605 6         0.000 6      2745.424 6        37.977 6
G21  21181293.833 9 111308429.660 9     -1266.825 9        55.705 9  21181293.121 6         0.000 6      -987.137 6        37.977 6
G29  24325580.270 9 127831730.281 9     -3123.785 9        54.466 9  24325581.872 6         0.000 6     -2434.121 6        37.977 6
G27  21984063.904 9 115527008.675 9      2489.038 9        55.382 9  21984065.830 6         0.000 6      1939.511 6        37.977 6
G16  20492738.635 9 107690048.061 9       530.029 9        55.978 9  20492737.808 6         0.000 6       413.010 6        37.977 6
G26  20666925.210 9 108605402.651 9     -1508.231 9        55.868 9  20666928.032 6         0.000 6     -1175.245 6        37.977 6
G20  21922713.313 9 115204603.125 9      2546.148 9        55.324 9  21922713.622 6         0.000 6      1984.013 6        37.977 6
> 2019 07 03 12 01 44.0000000  0  8       0.000000000000
G07  25328638.006 9 133102845.150 9      2165.974 9        54.138 9  25328638.666 6         0.000 6      1687.773 6        37.977 6
G10  23779541.459 9 124962279.593 9      3523.149 9        54.680 9  23779545.157 6         0.000 6      2745.314 6        37.977 6
G21  21181534.936 9 111309696.659 9     -1267.184 9        55.705 9  21181534.223 6         0.000 6      -987.416 6        37.977 6
G29  24326174.714 9 127834854.093 9     -3123.869 9        54.465 9  24326176.316 6         0.000 6     -2434.187 6        37.977 6
G27  21983590.279 9 115524519.761 9      2488.800 9        55.383 9  21983592.204 6         0.000 6      1939.325 6        37.977 6
G16  20492637.832 9 107689518.338 9       529.412 9        55.979 9  20492637.005 6         0.000 6       412.529 6        37.977 6
G26  20667212.271 9 108606911.162 9     -1508.804 9        55.868 9  20667215.092 6         0.000 6     -1175.692 6        37.977 6
G20  21922228.838 9 115202057.197 9      2545.701 9        55.324 9  21922229.147 6         0.000 6      1983.664 6        37.977 6
> 2019 07 03 12 01 45.0000000  0  8       0.000000000000
G07  25328225.879 9 133100679.411 9      2165.511 9        54.138 9  25328226.539 6         0.000 6      1687.412 6        37.977 6
G10  23778871.040 9 124958756.525 9      3523.007 9        54.681 9  23778874.737 6         0.000 6      2745.203 6        37.977 6
G21  21181776.107 9 111310964.021 9     -1267.542 9        55.705 9  21181775.394 6         0.000 6      -987.695 6        37.977 6
G29  24326769.175 9 127837977.994 9     -3123.954 9        54.465 9  24326770.778 6         0.000 6     -2434.252 6        37.977 6
G27  21983116.699 9 115522031.083 9      2488.561 9        55.383 9  21983118.624 6         0.000 6      1939.139 6        37.977 6
G16  20492537.147 9 107688989.235 9       528.794 9        55.979 9  20492536.320 6         0.000 6       412.047 6        37.977 6
G26  20667499.441 9 108608420.251 9     -1509.378 9        55.868 9  20667502.263 6         0.000 6     -1176.139 6        37.977 6
G20  21921744.450 9 115199511.724 9      2545.254 9        55.324 9  21921744.759 6         0.000 6      1983.316 6        37.977 6
> 2019 07 03 12 01 46.0000000  0  8       0.000000000000
G07  25327813.840 9 133098514.138 9      2165.048 9        54.138 9  25327814.500 6         0.000 6      1687.052 6        37.977 6
G10  23778200.646 9 124955233.595 9      3522.865 9        54.681 9  23778204.343 6         0.000 6      2745.093 6        37.977 6
G21  21182017.345 9 111312231.739 9     -1267.900 9        55.705 9  21182016.633 6         0.000 6      -987.974 6        37.977 6
G29  24327363.651 9 127841101.980 9     -3124.038 9        54.465 9  24327365.255 6         0.000 6     -2434.318 6        37.977 6
G27  21982643.163 9 115519542.642 9      2488.322 9        55.383 9  21982645.089 6         0.000 6      1938.953 6        37.977 6
G16  20492436.579 9 107688460.747 9       528.176 9        55.979 9  20492435.752 6         0.000 6       411.566 6        37.977 6
G26  20667786.720 9 108609929.909 9     -1509.951 9        55.867 9  20667789.542 6         0.000 6     -1176.586 6        37.977 6
G20  21921260.146 9 115196966.695 9      2544.806 9        55.325 9  21921260.455 6         0.000 6      1982.967 6        37.977 6
> 2019 07 03 12 01 47.0000000  0  8       0.000000000000
G07  25327401.889 9 133096349.324 9      2164.585 9        54.138 9  25327402.549 6         0.000 6      1686.691 6        37.977 6
G10  23777530.281 9 124951710.811 9      3522.723 9        54.681 9  23777533.977 6         0.000 6      2744.982 6        37.977 6
G21  21182258.653 9 111313499.817 9     -1268.258 9        55.705 9  21182257.941 6         0.000 6      -988.254 6        37.977 6
G29  24327958.144 9 127844226.050 9     -3124.123 9        54.465 9  24327959.748 6         0.000 6     -2434.384 6        37.977 6
G27  21982169.674 9 115517054.442 9      2488.084 9        55.383 9  21982171.599 6         0.000 6      1938.767 6        37.977 6
G16  20492336.129 9 107687932.880 9       527.558 9        55.979 9  20492335.302 6         0.000 6       411.084 6        37.977 6
G26  20668074.109 9 108611440.145 9     -1510.524 9        55.867 9  20668076.930 6         0.000 6     -1177.032 6        37.977 6
G20  21920775.928 9 115194422.117 9      2544.358 9        55.325 9  21920776.237 6         0.000 6      1982.618 6        37.977 6
> 2019 07 03 12 01 48.0000000  0  8       0.000000000000
G07  25326990.027 9 133094184.977 9      2164.123 9        54.138 9  25326990.686 6         0.000 6      1686.330 6        37.977 6
G10  23776859.942 9 124948188.165 9      3522.581 9        54.681 9  23776863.637 6         0.000 6      2744.871 6        37.977 6
G21  21182500.028 9 111314768.252 9     -1268.617 9        55.704 9  21182499.316 6         0.000 6      -988.533 6        37.977 6
G29  24328552.653 9 127847350.205 9     -3124.207 9        54.465 9  24328554.258 6         0.000 6     -2434.450 6        37.977 6
G27  21981696.230 9 115514566.478 9      2487.845 9        55.383 9  21981698.155 6         0.000 6      1938.581 6        37.977 6
G16  20492235.796 9 107687405.628 9       526.940 9        55.979 9  20492234.970 6         0.000 6       410.603 6        37.977 6
G26  20668361.605 9 108612950.949 9     -1511.097 9        55.867 9  20668364.427 6         0.000 6     -1177.479 6        37.977 6
G20  21920291.795 9 115191877.983 9      2543.911 9        55.325 9  21920292.103 6         0.000 6      1982.269 6        37.977 6
> 2019 07 03 12 01 49.0000000  0  8       0.000000000000
G07  25326578.252 9 133092021.089 9      2163.660 9        54.139 9  25326578.911 6         0.000 6      1685.969 6        37.977 6
G10  23776189.630 9 124944665.666 9      3522.439 9        54.681 9  23776193.325 6         0.000 6      2744.760 6        37.977 6
G21  21182741.472 9 111316037.047 9     -1268.975 9        55.704 9  21182740.760 6         0.000 6      -988.812 6        37.977 6
G29  24329147.178 9 127850474.444 9     -3124.292 9        54.464 9  24329148.783 6         0.000 6     -2434.516 6        37.977 6
G27  21981222.831 9 115512078.755 9      2487.607 9        55.384 9  21981224.756 6         0.000 6      1938.395 6        37.977 6
G16  20492135.582 9 107686878.996 9       526.322 9        55.979 9  20492134.755 6         0.000 6       410.121 6        37.977 6
G26  20668649.212 9 108614462.331 9     -1511.670 9        55.867 9  20668652.034 6         0.000 6     -1177.925 6        37.977 6
G20  21919807.747 9 115189334.300 9      2543.463 9        55.325 9  21919808.055 6         0.000 6      1981.920 6        37.977 6
> 2019 07 03 12 01 50.0000000  0  8       0.000000000000
G07  25326166.565 9 133089857.664 9      2163.197 9        54.139 9  25326167.224 6         0.000 6      1685.609 6        37.977 6
G10  23775519.346 9 124941143.308 9      3522.296 9        54.682 9  23775523.040 6         0.000 6      2744.649 6        37.977 6
G21  21182982.984 9 111317306.200 9     -1269.333 9        55.704 9  21182982.272 6         0.000 6      -989.091 6        37.977 6
G29  24329741.719 9 127853598.768 9     -3124.376 9        54.464 9  24329743.325 6         0.000 6     -2434.582 6        37.977 6
G27  21980749.478 9 115509591.270 9      2487.368 9        55.384 9  21980751.403 6         0.000 6      1938.209 6        37.977 6
G16  20492035.485 9 107686352.983 9       525.704 9        55.979 9  20492034.658 6         0.000 6       409.640 6        37.977 6
G26  20668936.928 9 108615974.286 9     -1512.243 9        55.867 9  20668939.750 6         0.000 6     -1178.372 6        37.977 6
G20  21919323.785 9 115186791.066 9      2543.015 9        55.325 9  21919324.093 6         0.000 6      1981.571 6        37.977 6
> 2019 07 03 12 01 51.0000000  0  8       0.000000000000
G07  25325754.968 9 133087694.708 9      2162.734 9        54.139 9  25325755.627 6         0.000 6      1685.248 6        37.977 6
G10  23774849.088 9 124937621.087 9      3522.154 9        54.682 9  23774852.781 6         0.000 6      2744.538 6        37.977 6
G21  21183224.563 9 111318575.706 9     -1269.691 9        55.704 9  21183223.851 6         0.000 6      -989.370 6        37.977 6
G29  24330336.275 9 127856723.171 9     -3124.461 9        54.464 9  24330337.882 6         0.000 6     -2434.647 6        37.977 6
G27  21980276.171 9 115507104.026 9      2487.129 9        55.384 9  21980278.095 6         0.000 6      1938.023 6        37.977 6
G16  20491935.505 9 107685827.586 9       525.086 9        55.979 9  20491934.678 6         0.000 6       409.158 6        37.977 6
G26  20669224.752 9 108617486.809 9     -1512.817 9        55.867 9  20669227.574 6         0.000 6     -1178.819 6        37.977 6
G20  21918839.907 9 115184248.272 9      2542.567 9        55.325 9  21918840.214 6         0.000 6      1981.222 6        37.977 6
> 2019 07 03 12 01 52.0000000  0  8       0.000000000000
G07  25325343.457 9 133085532.210 9      2162.270 9        54.139 9  25325344.116 6         0.000 6      1684.887 6        37.977 6
G10  23774178.857 9 124934099.015 9      3522.011 9        54.682 9  23774182.550 6         0.000 6      2744.427 6        37.977 6
G21  21183466.211 9 111319845.575 9     -1270.049 9        55.704 9  21183465.499 6         0.000 6      -989.649 6        37.977 6
G29  24330930.848 9 127859847.663 9     -3124.545 9        54.464 9  24330932.456 6         0.000 6     -2434.713 6        37.977 6
G27  21979802.909 9 115504617.019 9      2486.890 9        55.384 9  21979804.833 6         0.000 6      1937.837 6        37.977 6
G16  20491835.643 9 107685302.809 9       524.468 9        55.979 9  20491834.816 6         0.000 6       408.676 6        37.977 6
G26  20669512.686 9 108618999.910 9     -1513.390 9        55.867 9  20669515.508 6         0.000 6     -1179.265 6        37.977 6
G20  21918356.115 9 115181705.934 9      2542.119 9        55.326 9  21918356.422 6         0.000 6      1980.873 6        37.977 6
> 2019 07 03 12 01 53.0000000  0  8       0.000000000000
G07  25324932.036 9 133083370.177 9      2161.807 9        54.139 9  25324932.694 6         0.000 6      1684.526 6        37.977 6
G10  23773508.654 9 124930577.081 9      3521.869 9        54.682 9  23773512.346 6         0.000 6      2744.316 6        37.977 6
G21  21183707.927 9 111321115.800 9     -1270.407 9        55.704 9  21183707.215 6         0.000 6      -989.927 6        37.977 6
G29  24331525.437 9 127862972.240 9     -3124.629 9        54.464 9  24331527.045 6         0.000 6     -2434.779 6        37.977 6
G27  21979329.692 9 115502130.249 9      2486.652 9        55.384 9  21979331.616 6         0.000 6      1937.651 6        37.977 6
G16  20491735.898 9 107684778.646 9       523.850 9        55.979 9  20491735.072 6         0.000 6       408.195 6        37.977 6
G26  20669800.728 9 108620513.580 9     -1513.962 9        55.867 9  20669803.550 6         0.000 6     -1179.711 6        37.977 6
G20  21917872.408 9 115179164.039 9      2541.671 9        55.326 9  21917872.714 6         0.000 6      1980.524 6        37.977 6
> 2019 07 03 12 01 54.0000000  0  8       0.000000000000
G07  25324520.701 9 133081208.606 9      2161.344 9        54.139 9  25324521.360 6         0.000 6      1684.165 6        37.977 6
G10  23772838.478 9 124927055.294 9      3521.726 9        54.683 9  23772842.169 6         0.000 6      2744.205 6        37.977 6
G21  21183949.711 9 111322386.385 9     -1270.764 9        55.704 9  21183949.000 6         0.000 6      -990.206 6        37.977 6
G29  24332120.042 9 127866096.902 9     -3124.714 9        54.463 9  24332121.651 6         0.000 6     -2434.844 6        37.977 6
G27  21978856.520 9 115499643.719 9      2486.413 9        55.384 9  21978858.444 6         0.000 6      1937.465 6        37.977 6
G16  20491636.272 9 107684255.105 9       523.232 9        55.979 9  20491635.445 6         0.000 6       407.713 6        37.977 6
G26  20670088.880 9 108622027.827 9     -1514.535 9        55.867 9  20670091.702 6         0.000 6     -1180.158 6        37.977 6
G20  21917388.786 9 115176622.597 9      2541.222 9        55.326 9  21917389.093 6         0.000 6      1980.174 6        37.977 6
> 2019 07 03 12 01 55.0000000  0  8       0.000000000000
G07  25324109.456 9 133079047.500 9      2160.880 9        54.139 9  25324110.114 6         0.000 6      1683.804 6        37.977 6
G10  23772168.329 9 124923533.646 9      3521.583 9        54.683 9  23772172.019 6         0.000 6      2744.093 6        37.977 6
G21  21184191.564 9 111323657.325 9     -1271.122 9        55.704 9  21184190.852 6         0.000 6      -990.485 6        37.977 6
G29  24332714.664 9 127869221.647 9     -3124.798 9        54.463 9  24332716.273 6         0.000 6     -2434.910 6        37.977 6
G27  21978383.394 9 115497157.426 9      2486.174 9        55.385 9  21978385.318 6         0.000 6      1937.279 6        37.977 6
G16  20491536.762 9 107683732.179 9       522.614 9        55.979 9  20491535.936 6         0.000 6       407.231 6        37.977 6
G26  20670377.140 9 108623542.642 9     -1515.108 9        55.866 9  20670379.963 6         0.000 6     -1180.604 6        37.977 6
G20  21916905.250 9 115174081.599 9      2540.774 9        55.326 9  21916905.556 6         0.000 6      1979.825 6        37.977 6
> 2019 07 03 12 01 56.0000000  0  8       0.000000000000
G07  25323698.298 9 133076886.855 9      2160.417 9        54.140 9  25323698.956 6         0.000 6      1683.443 6        37.977 6
G10  23771498.207 9 124920012.145 9      3521.440 9        54.683 9  23771501.897 6         0.000 6      2743.982 6        37.977 6
G21  21184433.484 9 111324928.625 9     -1271.480 9        55.704 9  21184432.772 6         0.000 6      -990.764 6        37.977 6
G29  24333309.301 9 127872346.477 9     -3124.882 9        54.463 9  24333310.911 6         0.000 6     -2434.976 6        37.977 6
G27  21977910.313 9 115494671.375 9      2485.935 9        55.385 9  21977912.237 6         0.000 6      1937.093 6        37.977 6
G16  20491437.371 9 107683209.875 9       521.995 9        55.979 9  20491436.544 6         0.000 6       406.750 6        37.977 6
G26  20670665.510 9 108625058.035 9     -1515.681 9        55.866 9  20670668.333 6         0.000 6     -1181.051 6        37.977 6
G20  21916421.799 9 115171541.054 9      2540.326 9        55.326 9  21916422.105 6         0.000 6      1979.476 6        37.977 6
> 2019 07 03 12 01 57.0000000  0  8       0.000000000000
G07  25323287.229 9 133074726.676 9      2159.953 9        54.140 9  25323287.887 6         0.000 6      1683.081 6        37.977 6
G10  23770828.112 9 124916490.783 9      3521.297 9        54.683 9  23770831.802 6         0.000 6      2743.870 6        37.977 6
G21  21184675.472 9 111326200.281 9     -1271.838 9        55.704 9  21184674.760 6         0.000 6      -991.043 6        37.977 6
G29  24333903.954 9 127875471.391 9     -3124.967 9        54.463 9  24333905.565 6         0.000 6     -2435.041 6        37.977 6
G27  21977437.278 9 115492185.560 9      2485.696 9        55.385 9  21977439.202 6         0.000 6      1936.907 6        37.977 6
G16  20491338.097 9 107682688.185 9       521.377 9        55.979 9  20491337.270 6         0.000 6       406.268 6        37.977 6
G26  20670953.988 9 108626573.996 9     -1516.254 9        55.866 9  20670956.811 6         0.000 6     -1181.497 6        37.977 6
G20  21915938.433 9 115169000.953 9      2539.877 9        55.327 9  21915938.739 6         0.000 6      1979.126 6        37.977 6
> 2019 07 03 12 01 58.0000000  0  8       0.000000000000
G07  25322876.248 9 133072566.958 9      2159.490 9        54.140 9  25322876.905 6         0.000 6      1682.720 6        37.977 6
G10  23770158.045 9 124912969.568 9      3521.154 9        54.684 9  23770161.734 6         0.000 6      2743.759 6        37.977 6
G21  21184917.529 9 111327472.297 9     -1272.195 9        55.703 9  21184916.817 6         0.000 6      -991.321 6        37.977 6
G29  24334498.624 9 127878596.389 9     -3125.051 9        54.463 9  24334500.235 6         0.000 6     -2435.107 6        37.977 6
G27  21976964.289 9 115489699.986 9      2485.457 9        55.385 9  21976966.212 6         0.000 6      1936.720 6        37.977 6
G16  20491238.941 9 107682167.117 9       520.759 9        55.979 9  20491238.114 6         0.000 6       405.786 6        37.977 6
G26  20671242.576 9 108628090.535 9     -1516.827 9        55.866 9  20671245.399 6         0.000 6     -1181.943 6        37.977 6
G20  21915455.153 9 115166461.305 9      2539.428 9        55.327 9  21915455.459 6         0.000 6      1978.776 6        37.977 6
> 2019 07 03 12 01 59.0000000  0  8       0.000000000000
G07  25322465.355 9 133070407.706 9      2159.026 9        54.140 9  25322466.012 6         0.000 6      1682.359 6        37.977 6
G10  23769488.005 9 124909448.494 9      3521.010 9        54.684 9  23769491.693 6         0.000 6      2743.647 6        37.977 6
G21  21185159.653 9 111328744.668 9     -1272.553 9        55.703 9  21185158.942 6         0.000 6      -991.600 6        37.977 6
G29  24335093.308 9 127881721.467 9     -3125.135 9        54.462 9  24335094.920 6         0.000 6     -2435.173 6        37.977 6
G27  21976491.345 9 115487214.655 9      2485.218 9        55.385 9  21976493.268 6         0.000 6      1936.534 6        37.977 6
G16  20491139.903 9 107681646.669 9       520.141 9        55.979 9  20491139.076 6         0.000 6       405.304 6        37.977 6
G26  20671531.273 9 108629607.646 9     -1517.400 9        55.866 9  20671534.096 6         0.000 6     -1182.390 6        37.977 6
G20  21914971.958 9 115163922.102 9      2538.980 9        55.327 9  21914972.263 6         0.000 6      1978.427 6        37.977 6
> 2019 07 03 12 02  0.0000000  0  8       0.000000000000
G07  25322054.551 9 133068248.917 9      2158.562 9        54.140 9  25322055.207 6         0.000 6      1681.997 6        37.977 6
G10  23768817.992 9 124905927.562 9      3520.867 9        54.684 9  23768821.680 6         0.000 6      2743.535 6        37.977 6
G21  21185401.846 9 111330017.398 9     -1272.910 9        55.703 9  21185401.134 6         0.000 6      -991.878 6        37.977 6
G29  24335688.010 9 127884846.637 9     -3125.219 9        54.462 9  24335689.623 6         0.000 6     -2435.238 6        37.977 6
G27  21976018.446 9 115484729.554 9      2484.979 9        55.386 9  21976020.369 6         0.000 6      1936.348 6        37.977 6
G16  20491040.981 9 107681126.833 9       519.522 9        55.979 9  20491040.155 6         0.000 6       404.822 6        37.977 6
G26  20671820.078 9 108631125.325 9     -1517.972 9        55.866 9  20671822.901 6         0.000 6     -1182.836 6        37.977 6
G20  21914488.849 9 115161383.349 9      2538.531 9        55.327 9  21914489.154 6         0.000 6      1978.077 6        37.977 6
