     3.00           Observation Data    M (Mixed)           RINEX VERSION / TYPE
SimGEN V6.06.00     Spirent             03-Jul-19 12:00     PGM / RUN BY / DATE 
                                                            MARKER NAME         
1                                                           MARKER NUMBER       
GROUND_CRAFT                                                MARKER TYPE         
jin4hi              Spirent                                 OBSERVER / AGENCY   
rec_num             rec_type            rec_vers            REC # / TYPE / VERS 
1                   ant_type                                ANT # / TYPE        
  1000.000                                                  INTERVAL            
  2019     7     3    12     0    1.0000000     GPS         TIME OF FIRST OBS   
  4162654.5310   664389.3550  4770549.9870                  APPROX POSITION XYZ 
        0.0000        0.0000        0.0000                  ANTENNA: DELTA H/E/N
G    8 C1C L1C D1C S1C C2C L2C D2C S2C                      SYS / # / OBS TYPES 
        0.0000        0.0000        0.0000                  ANTENNA: DELTA X/Y/Z
DBHZ                                                        SIGNAL STRENGTH UNIT
                                                            END OF HEADER       
> 2019 07 03 12 00  1.0000000  0  8       0.000000000000
G07  25371568.867 9 133328447.978 9      2213.146 9        54.123 9  25371569.550 6         0.000 6      1724.529 6        37.977 6
G10  23848726.842 9 125325850.135 9      3537.183 9        54.655 9  23848730.608 6         0.000 6      2756.246 6        37.977 6
G21  21157051.814 9 111181037.058 9     -1229.960 9        55.715 9  21157051.097 6         0.000 6      -958.411 6        37.977 6
G29  24265003.097 9 127513396.124 9     -3115.009 9        54.487 9  24265004.635 6         0.000 6     -2427.279 6        37.977 6
G27  22032633.459 9 115782243.131 9      2513.173 9        55.363 9  22032635.402 6         0.000 6      1958.317 6        37.977 6
G16  20503647.491 9 107747374.486 9       592.844 9        55.974 9  20503646.665 6         0.000 6       461.956 6        37.977 6
G26  20638222.330 9 108454568.173 9     -1449.565 9        55.880 9  20638225.140 6         0.000 6     -1129.531 6        37.977 6
G20  21972559.344 9 115466545.325 9      2591.279 9        55.304 9  21972559.682 6         0.000 6      2019.178 6        37.977 6
> 2019 07 03 12 00  2.0000000  0  8       0.000000000000
G07  25371147.753 9 133326235.011 9      2212.746 9        54.123 9  25371148.436 6         0.000 6      1724.219 6        37.977 6
G10  23848053.747 9 125322313.008 9      3537.071 9        54.655 9  23848057.512 6         0.000 6      2756.162 6        37.977 6
G21  21157285.902 9 111182267.198 9     -1230.325 9        55.715 9  21157285.185 6         0.000 6      -958.695 6        37.977 6
G29  24265595.876 9 127516511.188 9     -3115.122 9        54.487 9  24265597.414 6         0.000 6     -2427.371 6        37.977 6
G27  22032155.240 9 115779730.077 9      2512.943 9        55.363 9  22032157.183 6         0.000 6      1958.138 6        37.977 6
G16  20503534.735 9 107746781.950 9       592.231 9        55.974 9  20503533.909 6         0.000 6       461.479 6        37.977 6
G26  20638498.228 9 108456018.026 9     -1450.144 9        55.880 9  20638501.038 6         0.000 6     -1129.982 6        37.977 6
G20  21972066.280 9 115463954.261 9      2590.846 9        55.305 9  21972066.618 6         0.000 6      2018.842 6        37.977 6
> 2019 07 03 12 00  3.0000000  0  8       0.000000000000
G07  25370726.724 9 133324022.496 9      2212.291 9        54.123 9  25370727.407 6         0.000 6      1723.864 6        37.977 6
G10  23847380.678 9 125318776.013 9      3536.940 9        54.656 9  23847384.441 6         0.000 6      2756.059 6        37.977 6
G21  21157520.060 9 111183497.705 9     -1230.689 9        55.715 9  21157519.343 6         0.000 6      -958.979 6        37.977 6
G29  24266188.672 9 127519626.344 9     -3115.209 9        54.487 9  24266190.211 6         0.000 6     -2427.438 6        37.977 6
G27  22031677.065 9 115777217.254 9      2512.709 9        55.364 9  22031679.008 6         0.000 6      1957.955 6        37.977 6
G16  20503422.096 9 107746190.026 9       591.617 9        55.974 9  20503421.269 6         0.000 6       461.000 6        37.977 6
G26  20638774.236 9 108457468.457 9     -1450.720 9        55.880 9  20638777.046 6         0.000 6     -1130.432 6        37.977 6
G20  21971573.300 9 115461363.638 9      2590.408 9        55.305 9  21971573.638 6         0.000 6      2018.501 6        37.977 6
> 2019 07 03 12 00  4.0000000  0  8       0.000000000000
G07  25370305.783 9 133321810.438 9      2211.837 9        54.124 9  25370306.466 6         0.000 6      1723.510 6        37.977 6
G10  23846707.632 9 125315239.146 9      3536.808 9        54.656 9  23846711.395 6         0.000 6      2755.957 6        37.977 6
G21  21157754.286 9 111184728.573 9     -1231.053 9        55.715 9  21157753.569 6         0.000 6      -959.262 6        37.977 6
G29  24266781.485 9 127522741.587 9     -3115.296 9        54.487 9  24266783.025 6         0.000 6     -2427.506 6        37.977 6
G27  22031198.934 9 115774704.664 9      2512.474 9        55.364 9  22031200.877 6         0.000 6      1957.773 6        37.977 6
G16  20503309.573 9 107745598.713 9       591.003 9        55.974 9  20503308.746 6         0.000 6       460.522 6        37.977 6
G26  20639050.353 9 108458919.459 9     -1451.297 9        55.880 9  20639053.163 6         0.000 6     -1130.881 6        37.977 6
G20  21971080.403 9 115458773.449 9      2589.971 9        55.305 9  21971080.740 6         0.000 6      2018.160 6        37.977 6
> 2019 07 03 12 00  5.0000000  0  8       0.000000000000
G07  25369884.928 9 133319598.833 9      2211.382 9        54.124 9  25369885.610 6         0.000 6      1723.155 6        37.977 6
G10  23846034.612 9 125311702.414 9      3536.677 9        54.656 9  23846038.375 6         0.000 6      2755.855 6        37.977 6
G21  21157988.582 9 111185959.808 9     -1231.417 9        55.715 9  21157987.866 6         0.000 6      -959.546 6        37.977 6
G29  24267374.314 9 127525856.916 9     -3115.383 9        54.486 9  24267375.855 6         0.000 6     -2427.574 6        37.977 6
G27  22030720.849 9 115772192.310 9      2512.239 9        55.364 9  22030722.791 6         0.000 6      1957.590 6        37.977 6
G16  20503197.167 9 107745008.016 9       590.389 9        55.974 9  20503196.341 6         0.000 6       460.044 6        37.977 6
G26  20639326.580 9 108460371.043 9     -1451.874 9        55.879 9  20639329.391 6         0.000 6     -1131.331 6        37.977 6
G20  21970587.590 9 115456183.702 9      2589.533 9        55.305 9  21970587.926 6         0.000 6      2017.819 6        37.977 6
> 2019 07 03 12 00  6.0000000  0  8       0.000000000000
G07  25369464.160 9 133317387.685 9      2210.927 9        54.124 9  25369464.842 6         0.000 6      1722.801 6        37.977 6
G10  23845361.617 9 125308165.809 9      3536.545 9        54.656 9  23845365.379 6         0.000 6      2755.752 6        37.977 6
G21  21158222.947 9 111187191.404 9     -1231.781 9        55.714 9  21158222.231 6         0.000 6      -959.830 6        37.977 6
G29  24267967.160 9 127528972.332 9     -3115.470 9        54.486 9  24267968.701 6         0.000 6     -2427.641 6        37.977 6
G27  22030242.808 9 115769680.189 9      2512.004 9        55.364 9  22030244.750 6         0.000 6      1957.407 6        37.977 6
G16  20503084.878 9 107744417.931 9       589.775 9        55.974 9  20503084.051 6         0.000 6       459.565 6        37.977 6
G26  20639602.917 9 108461823.198 9     -1452.450 9        55.879 9  20639605.727 6         0.000 6     -1131.780 6        37.977 6
G20  21970094.859 9 115453594.389 9      2589.095 9        55.305 9  21970095.195 6         0.000 6      2017.477 6        37.977 6
> 2019 07 03 12 00  7.0000000  0  8       0.000000000000
G07  25369043.478 9 133315176.989 9      2210.472 9        54.124 9  25369044.160 6         0.000 6      1722.446 6        37.977 6
G10  23844688.647 9 125304629.340 9      3536.414 9        54.657 9  23844692.408 6         0.000 6      2755.650 6        37.977 6
G21  21158457.382 9 111188423.366 9     -1232.145 9        55.714 9  21158456.666 6         0.000 6      -960.113 6        37.977 6
G29  24268560.023 9 127532087.835 9     -3115.557 9        54.486 9  24268561.564 6         0.000 6     -2427.709 6        37.977 6
G27  22029764.812 9 115767168.305 9      2511.770 9        55.364 9  22029766.753 6         0.000 6      1957.224 6        37.977 6
G16  20502972.706 9 107743828.462 9       589.161 9        55.974 9  20502971.879 6         0.000 6       459.087 6        37.977 6
G26  20639879.364 9 108463275.935 9     -1453.027 9        55.879 9  20639882.174 6         0.000 6     -1132.229 6        37.977 6
G20  21969602.212 9 115451005.518 9      2588.656 9        55.306 9  21969602.548 6         0.000 6      2017.136 6        37.977 6
> 2019 07 03 12 00  8.0000000  0  8       0.000000000000
G07  25368622.883 9 133312966.752 9      2210.016 9        54.124 9  25368623.564 6         0.000 6      1722.092 6        37.977 6
G10  23844015.701 9 125301092.999 9      3536.282 9        54.657 9  23844019.462 6         0.000 6      2755.547 6        37.977 6
G21  21158691.886 9 111189655.690 9     -1232.509 9        55.714 9  21158691.169 6         0.000 6      -960.397 6        37.977 6
G29  24269152.902 9 127535203.425 9     -3115.643 9        54.486 9  24269154.444 6         0.000 6     -2427.777 6        37.977 6
G27  22029286.860 9 115764656.654 9      2511.535 9        55.365 9  22029288.801 6         0.000 6      1957.041 6        37.977 6
G16  20502860.650 9 107743239.605 9       588.548 9        55.974 9  20502859.823 6         0.000 6       458.608 6        37.977 6
G26  20640155.919 9 108464729.244 9     -1453.604 9        55.879 9  20640158.730 6         0.000 6     -1132.679 6        37.977 6
G20  21969109.648 9 115448417.082 9      2588.218 9        55.306 9  21969109.984 6         0.000 6      2016.794 6        37.977 6
> 2019 07 03 12 00  9.0000000  0  8       0.000000000000
G07  25368202.374 9 133310756.967 9      2209.561 9        54.124 9  25368203.055 6         0.000 6      1721.737 6        37.977 6
G10  23843342.782 9 125297556.793 9      3536.150 9        54.657 9  23843346.542 6         0.000 6      2755.445 6        37.977 6
G21  21158926.459 9 111190888.380 9     -1232.872 9        55.714 9  21158925.743 6         0.000 6      -960.680 6        37.977 6
G29  24269745.797 9 127538319.102 9     -3115.730 9        54.486 9  24269747.340 6         0.000 6     -2427.844 6        37.977 6
G27  22028808.953 9 115762145.239 9      2511.300 9        55.365 9  22028810.894 6         0.000 6      1956.858 6        37.977 6
G16  20502748.711 9 107742651.364 9       587.934 9        55.974 9  20502747.884 6         0.000 6       458.130 6        37.977 6
G26  20640432.586 9 108466183.135 9     -1454.180 9        55.879 9  20640435.397 6         0.000 6     -1133.128 6        37.977 6
G20  21968617.168 9 115445829.087 9      2587.780 9        55.306 9  21968617.504 6         0.000 6      2016.453 6        37.977 6
> 2019 07 03 12 00 10.0000000  0  8       0.000000000000
G07  25367781.953 9 133308547.642 9      2209.106 9        54.124 9  25367782.634 6         0.000 6      1721.382 6        37.977 6
G10  23842669.886 9 125294020.713 9      3536.019 9        54.657 9  23842673.645 6         0.000 6      2755.342 6        37.977 6
G21  21159161.101 9 111192121.429 9     -1233.236 9        55.714 9  21159160.384 6         0.000 6      -960.963 6        37.977 6
G29  24270338.708 9 127541434.860 9     -3115.817 9        54.485 9  24270340.252 6         0.000 6     -2427.912 6        37.977 6
G27  22028331.091 9 115759634.061 9      2511.065 9        55.365 9  22028333.032 6         0.000 6      1956.675 6        37.977 6
G16  20502636.889 9 107742063.736 9       587.319 9        55.974 9  20502636.063 6         0.000 6       457.652 6        37.977 6
G26  20640709.361 9 108467637.596 9     -1454.757 9        55.879 9  20640712.172 6         0.000 6     -1133.577 6        37.977 6
G20  21968124.771 9 115443241.524 9      2587.341 9        55.306 9  21968125.106 6         0.000 6      2016.111 6        37.977 6
> 2019 07 03 12 00 11.0000000  0  8       0.000000000000
G07  25367361.617 9 133306338.768 9      2208.651 9        54.125 9  25367362.298 6         0.000 6      1721.027 6        37.977 6
G10  23841997.017 9 125290484.771 9      3535.887 9        54.657 9  23842000.775 6         0.000 6      2755.239 6        37.977 6
G21  21159395.812 9 111193354.846 9     -1233.600 9        55.714 9  21159395.096 6         0.000 6      -961.247 6        37.977 6
G29  24270931.637 9 127544550.710 9     -3115.904 9        54.485 9  24270933.181 6         0.000 6     -2427.979 6        37.977 6
G27  22027853.274 9 115757123.117 9      2510.830 9        55.365 9  22027855.215 6         0.000 6      1956.491 6        37.977 6
G16  20502525.184 9 107741476.724 9       586.705 9        55.974 9  20502524.358 6         0.000 6       457.173 6        37.977 6
G26  20640986.247 9 108469092.640 9     -1455.333 9        55.879 9  20640989.058 6         0.000 6     -1134.026 6        37.977 6
G20  21967632.458 9 115440654.406 9      2586.903 9        55.306 9  21967632.793 6         0.000 6      2015.770 6        37.977 6
> 2019 07 03 12 00 12.0000000  0  8       0.000000000000
G07  25366941.368 9 133304130.348 9      2208.195 9        54.125 9  25366942.049 6         0.000 6      1720.672 6        37.977 6
G10  23841324.172 9 125286948.961 9      3535.754 9        54.658 9  23841327.930 6         0.000 6      2755.136 6        37.977 6
G21  21159630.593 9 111194588.627 9     -1233.963 9        55.714 9  21159629.877 6         0.000 6      -961.530 6        37.977 6
G29  24271524.582 9 127547666.647 9     -3115.990 9        54.485 9  24271526.126 6         0.000 6     -2428.047 6        37.977 6
G27  22027375.501 9 115754612.407 9      2510.595 9        55.365 9  22027377.442 6         0.000 6      1956.308 6        37.977 6
G16  20502413.597 9 107740890.325 9       586.091 9        55.974 9  20502412.770 6         0.000 6       456.694 6        37.977 6
G26  20641263.243 9 108470548.259 9     -1455.910 9        55.879 9  20641266.054 6         0.000 6     -1134.476 6        37.977 6
G20  21967140.228 9 115438067.728 9      2586.464 9        55.306 9  21967140.563 6         0.000 6      2015.428 6        37.977 6
> 2019 07 03 12 00 13.0000000  0  8       0.000000000000
G07  25366521.207 9 133301922.387 9      2207.740 9        54.125 9  25366521.887 6         0.000 6      1720.318 6        37.977 6
G10  23840651.352 9 125283413.279 9      3535.622 9        54.658 9  23840655.110 6         0.000 6      2755.033 6        37.977 6
G21  21159865.443 9 111195822.769 9     -1234.327 9        55.714 9  21159864.726 6         0.000 6      -961.813 6        37.977 6
G29  24272117.543 9 127550782.671 9     -3116.077 9        54.485 9  24272119.088 6         0.000 6     -2428.114 6        37.977 6
G27  22026897.773 9 115752101.931 9      2510.360 9        55.365 9  22026899.713 6         0.000 6      1956.125 6        37.977 6
G16  20502302.125 9 107740304.538 9       585.477 9        55.974 9  20502301.298 6         0.000 6       456.216 6        37.977 6
G26  20641540.347 9 108472004.451 9     -1456.486 9        55.878 9  20641543.158 6         0.000 6     -1134.925 6        37.977 6
G20  21966648.081 9 115435481.483 9      2586.025 9        55.307 9  21966648.416 6         0.000 6      2015.086 6        37.977 6
> 2019 07 03 12 00 14.0000000  0  8       0.000000000000
G07  25366101.131 9 133299714.879 9      2207.284 9        54.125 9  25366101.811 6         0.000 6      1719.962 6        37.977 6
G10  23839978.558 9 125279877.734 9      3535.490 9        54.658 9  23839982.315 6         0.000 6      2754.930 6        37.977 6
G21  21160100.362 9 111197057.276 9     -1234.690 9        55.714 9  21160099.645 6         0.000 6      -962.096 6        37.977 6
G29  24272710.521 9 127553898.781 9     -3116.164 9        54.485 9  24272712.067 6         0.000 6     -2428.182 6        37.977 6
G27  22026420.090 9 115749591.691 9      2510.125 9        55.366 9  22026422.030 6         0.000 6      1955.942 6        37.977 6
G16  20502190.771 9 107739719.368 9       584.863 9        55.974 9  20502189.944 6         0.000 6       455.737 6        37.977 6
G26  20641817.562 9 108473461.224 9     -1457.063 9        55.878 9  20641820.373 6         0.000 6     -1135.374 6        37.977 6
G20  21966156.019 9 115432895.682 9      2585.587 9        55.307 9  21966156.353 6         0.000 6      2014.744 6        37.977 6
> 2019 07 03 12 00 15.0000000  0  8       0.000000000000
G07  25365681.143 9 133297507.830 9      2206.828 9        54.125 9  25365681.823 6         0.000 6      1719.607 6        37.977 6
G10  23839305.789 9 125276342.316 9      3535.358 9        54.658 9  23839309.545 6         0.000 6      2754.827 6        37.977 6
G21  21160335.350 9 111198292.145 9     -1235.054 9        55.714 9  21160334.633 6         0.000 6      -962.380 6        37.977 6
G29  24273303.516 9 127557014.977 9     -3116.250 9        54.484 9  24273305.062 6         0.000 6     -2428.249 6        37.977 6
G27  22025942.451 9 115747081.685 9      2509.890 9        55.366 9  22025944.391 6         0.000 6      1955.759 6        37.977 6
G16  20502079.533 9 107739134.809 9       584.249 9        55.975 9  20502078.706 6         0.000 6       455.259 6        37.977 6
G26  20642094.886 9 108474918.568 9     -1457.639 9        55.878 9  20642097.697 6         0.000 6     -1135.823 6        37.977 6
G20  21965664.039 9 115430310.315 9      2585.148 9        55.307 9  21965664.373 6         0.000 6      2014.402 6        37.977 6
> 2019 07 03 12 00 16.0000000  0  8       0.000000000000
G07  25365261.241 9 133295301.233 9      2206.372 9        54.125 9  25365261.920 6         0.000 6      1719.252 6        37.977 6
G10  23838633.045 9 125272807.036 9      3535.225 9        54.659 9  23838636.801 6         0.000 6      2754.724 6        37.977 6
G21  21160570.407 9 111199527.380 9     -1235.417 9        55.713 9  21160569.691 6         0.000 6      -962.663 6        37.977 6
G29  24273896.526 9 127560131.261 9     -3116.337 9        54.484 9  24273898.074 6         0.000 6     -2428.317 6        37.977 6
G27  22025464.857 9 115744571.916 9      2509.654 9        55.366 9  22025466.797 6         0.000 6      1955.576 6        37.977 6
G16  20501968.413 9 107738550.868 9       583.634 9        55.975 9  20501967.586 6         0.000 6       454.780 6        37.977 6
G26  20642372.320 9 108476376.493 9     -1458.215 9        55.878 9  20642375.132 6         0.000 6     -1136.272 6        37.977 6
G20  21965172.144 9 115427725.392 9      2584.709 9        55.307 9  21965172.477 6         0.000 6      2014.060 6        37.977 6
> 2019 07 03 12 00 17.0000000  0  8       0.000000000000
G07  25364841.426 9 133293095.097 9      2205.917 9        54.125 9  25364842.106 6         0.000 6      1718.897 6        37.977 6
G10  23837960.326 9 125269271.881 9      3535.093 9        54.659 9  23837964.080 6         0.000 6      2754.620 6        37.977 6
G21  21160805.533 9 111200762.973 9     -1235.780 9        55.713 9  21160804.817 6         0.000 6      -962.946 6        37.977 6
G29  24274489.553 9 127563247.625 9     -3116.423 9        54.484 9  24274491.101 6         0.000 6     -2428.384 6        37.977 6
G27  22024987.308 9 115742062.384 9      2509.419 9        55.366 9  22024989.248 6         0.000 6      1955.392 6        37.977 6
G16  20501857.409 9 107737967.539 9       583.020 9        55.975 9  20501856.582 6         0.000 6       454.301 6        37.977 6
G26  20642649.863 9 108477834.990 9     -1458.792 9        55.878 9  20642652.675 6         0.000 6     -1136.721 6        37.977 6
G20  21964680.330 9 115425140.900 9      2584.270 9        55.307 9  21964680.663 6         0.000 6      2013.718 6        37.977 6
> 2019 07 03 12 00 18.0000000  0  8       0.000000000000
G07  25364421.698 9 133290889.412 9      2205.461 9        54.126 9  25364422.377 6         0.000 6      1718.542 6        37.977 6
G10  23837287.632 9 125265736.865 9      3534.960 9        54.659 9  23837291.387 6         0.000 6      2754.517 6        37.977 6
G21  21161040.728 9 111201998.934 9     -1236.143 9        55.713 9  21161040.012 6         0.000 6      -963.229 6        37.977 6
G29  24275082.597 9 127566364.082 9     -3116.510 9        54.484 9  24275084.145 6         0.000 6     -2428.452 6        37.977 6
G27  22024509.804 9 115739553.085 9      2509.184 9        55.366 9  22024511.744 6         0.000 6      1955.209 6        37.977 6
G16  20501746.522 9 107737384.826 9       582.406 9        55.975 9  20501745.696 6         0.000 6       453.823 6        37.977 6
G26  20642927.517 9 108479294.068 9     -1459.368 9        55.878 9  20642930.328 6         0.000 6     -1137.170 6        37.977 6
G20  21964188.602 9 115422556.854 9      2583.830 9        55.308 9  21964188.935 6         0.000 6      2013.375 6        37.977 6
> 2019 07 03 12 00 19.0000000  0  8       0.000000000000
G07  25364002.056 9 133288684.186 9      2205.005 9        54.126 9  25364002.736 6         0.000 6      1718.187 6        37.977 6
G10  23836614.964 9 125262201.978 9      3534.827 9        54.659 9  23836618.717 6         0.000 6      2754.413 6        37.977 6
G21  21161275.993 9 111203235.256 9     -1236.507 9        55.713 9  21161275.277 6         0.000 6      -963.512 6        37.977 6
G29  24275675.657 9 127569480.625 9     -3116.596 9        54.483 9  24275677.206 6         0.000 6     -2428.519 6        37.977 6
G27  22024032.344 9 115737044.019 9      2508.949 9        55.367 9  22024034.284 6         0.000 6      1955.026 6        37.977 6
G16  20501635.752 9 107736802.725 9       581.791 9        55.975 9  20501634.925 6         0.000 6       453.344 6        37.977 6
G26  20643205.279 9 108480753.717 9     -1459.944 9        55.878 9  20643208.091 6         0.000 6     -1137.619 6        37.977 6
G20  21963696.956 9 115419973.244 9      2583.391 9        55.308 9  21963697.289 6         0.000 6      2013.033 6        37.977 6
> 2019 07 03 12 00 20.0000000  0  8       0.000000000000
G07  25363582.501 9 133286479.413 9      2204.549 9        54.126 9  25363583.180 6         0.000 6      1717.831 6        37.977 6
G10  23835942.321 9 125258667.229 9      3534.694 9        54.660 9  23835946.074 6         0.000 6      2754.310 6        37.977 6
G21  21161511.327 9 111204471.944 9     -1236.870 9        55.713 9  21161510.611 6         0.000 6      -963.795 6        37.977 6
G29  24276268.734 9 127572597.254 9     -3116.683 9        54.483 9  24276270.283 6         0.000 6     -2428.587 6        37.977 6
G27  22023554.930 9 115734535.191 9      2508.713 9        55.367 9  22023556.869 6         0.000 6      1954.842 6        37.977 6
G16  20501525.099 9 107736221.241 9       581.177 9        55.975 9  20501524.273 6         0.000 6       452.865 6        37.977 6
G26  20643483.152 9 108482213.947 9     -1460.520 9        55.878 9  20643485.964 6         0.000 6     -1138.068 6        37.977 6
G20  21963205.395 9 115417390.077 9      2582.952 9        55.308 9  21963205.728 6         0.000 6      2012.691 6        37.977 6
> 2019 07 03 12 00 21.0000000  0  8       0.000000000000
G07  25363163.034 9 133284275.098 9      2204.093 9        54.126 9  25363163.712 6         0.000 6      1717.476 6        37.977 6
G10  23835269.703 9 125255132.608 9      3534.561 9        54.660 9  23835273.455 6         0.000 6      2754.206 6        37.977 6
G21  21161746.729 9 111205708.992 9     -1237.233 9        55.713 9  21161746.013 6         0.000 6      -964.078 6        37.977 6
G29  24276861.827 9 127575713.970 9     -3116.769 9        54.483 9  24276863.377 6         0.000 6     -2428.654 6        37.977 6
G27  22023077.559 9 115732026.596 9      2508.478 9        55.367 9  22023079.499 6         0.000 6      1954.659 6        37.977 6
G16  20501414.563 9 107735640.368 9       580.562 9        55.975 9  20501413.736 6         0.000 6       452.386 6        37.977 6
G26  20643761.133 9 108483674.749 9     -1461.096 9        55.878 9  20643763.946 6         0.000 6     -1138.517 6        37.977 6
G20  21962713.917 9 115414807.346 9      2582.512 9        55.308 9  21962714.249 6         0.000 6      2012.348 6        37.977 6
> 2019 07 03 12 00 22.0000000  0  8       0.000000000000
G07  25362743.652 9 133282071.238 9      2203.636 9        54.126 9  25362744.331 6         0.000 6      1717.120 6        37.977 6
G10  23834597.111 9 125251598.124 9      3534.428 9        54.660 9  23834600.863 6         0.000 6      2754.102 6        37.977 6
G21  21161982.201 9 111206946.405 9     -1237.596 9        55.713 9  21161981.485 6         0.000 6      -964.360 6        37.977 6
G29  24277454.937 9 127578830.772 9     -3116.856 9        54.483 9  24277456.488 6         0.000 6     -2428.721 6        37.977 6
G27  22022600.234 9 115729518.238 9      2508.243 9        55.367 9  22022602.174 6         0.000 6      1954.475 6        37.977 6
G16  20501304.144 9 107735060.113 9       579.948 9        55.975 9  20501303.317 6         0.000 6       451.907 6        37.977 6
G26  20644039.226 9 108485136.132 9     -1461.673 9        55.877 9  20644042.038 6         0.000 6     -1138.966 6        37.977 6
G20  21962222.523 9 115412225.058 9      2582.072 9        55.308 9  21962222.855 6         0.000 6      2012.006 6        37.977 6
> 2019 07 03 12 00 23.0000000  0  8       0.000000000000
G07  25362324.358 9 133279867.833 9      2203.180 9        54.126 9  25362325.036 6         0.000 6      1716.765 6        37.977 6
G10  23833924.545 9 125248063.773 9      3534.295 9        54.660 9  23833928.295 6         0.000 6      2753.999 6        37.977 6
G21  21162217.743 9 111208184.182 9     -1237.959 9        55.713 9  21162217.027 6         0.000 6      -964.643 6        37.977 6
G29  24278048.063 9 127581947.661 9     -3116.942 9        54.483 9  24278049.614 6         0.000 6     -2428.789 6        37.977 6
G27  22022122.954 9 115727010.116 9      2508.007 9        55.367 9  22022124.893 6         0.000 6      1954.292 6        37.977 6
G16  20501193.842 9 107734480.473 9       579.333 9        55.975 9  20501193.015 6         0.000 6       451.428 6        37.977 6
G26  20644317.428 9 108486598.091 9     -1462.249 9        55.877 9  20644320.240 6         0.000 6     -1139.415 6        37.977 6
G20  21961731.213 9 115409643.210 9      2581.633 9        55.309 9  21961731.544 6         0.000 6      2011.663 6        37.977 6
> 2019 07 03 12 00 24.0000000  0  8       0.000000000000
G07  25361905.150 9 133277664.888 9      2202.724 9        54.126 9  25361905.828 6         0.000 6      1716.409 6        37.977 6
G10  23833252.003 9 125244529.552 9      3534.161 9        54.661 9  23833255.753 6         0.000 6      2753.895 6        37.977 6
G21  21162453.352 9 111209422.319 9     -1238.322 9        55.713 9  21162452.636 6         0.000 6      -964.926 6        37.977 6
G29  24278641.205 9 127585064.636 9     -3117.029 9        54.482 9  24278642.758 6         0.000 6     -2428.856 6        37.977 6
G27  22021645.718 9 115724502.228 9      2507.772 9        55.368 9  22021647.657 6         0.000 6      1954.109 6        37.977 6
G16  20501083.657 9 107733901.444 9       578.718 9        55.975 9  20501082.830 6         0.000 6       450.949 6        37.977 6
G26  20644595.738 9 108488060.621 9     -1462.825 9        55.877 9  20644598.551 6         0.000 6     -1139.864 6        37.977 6
G20  21961239.985 9 115407061.798 9      2581.193 9        55.309 9  21961240.317 6         0.000 6      2011.320 6        37.977 6
> 2019 07 03 12 00 25.0000000  0  8       0.000000000000
G07  25361486.030 9 133275462.398 9      2202.267 9        54.127 9  25361486.708 6         0.000 6      1716.053 6        37.977 6
G10  23832579.486 9 125240995.466 9      3534.028 9        54.661 9  23832583.236 6         0.000 6      2753.791 6        37.977 6
G21  21162689.031 9 111210660.819 9     -1238.684 9        55.713 9  21162688.315 6         0.000 6      -965.209 6        37.977 6
G29  24279234.364 9 127588181.693 9     -3117.115 9        54.482 9  24279235.916 6         0.000 6     -2428.923 6        37.977 6
G27  22021168.528 9 115721994.580 9      2507.536 9        55.368 9  22021170.467 6         0.000 6      1953.925 6        37.977 6
G16  20500973.589 9 107733323.035 9       578.104 9        55.975 9  20500972.762 6         0.000 6       450.470 6        37.977 6
G26  20644874.159 9 108489523.732 9     -1463.401 9        55.877 9  20644876.972 6         0.000 6     -1140.313 6        37.977 6
G20  21960748.842 9 115404480.826 9      2580.753 9        55.309 9  21960749.173 6         0.000 6      2010.978 6        37.977 6
> 2019 07 03 12 00 26.0000000  0  8       0.000000000000
G07  25361066.996 9 133273260.366 9      2201.811 9        54.127 9  25361067.674 6         0.000 6      1715.698 6        37.977 6
G10  23831906.995 9 125237461.511 9      3533.894 9        54.661 9  23831910.744 6         0.000 6      2753.687 6        37.977 6
G21  21162924.779 9 111211899.681 9     -1239.047 9        55.713 9  21162924.063 6         0.000 6      -965.491 6        37.977 6
G29  24279827.539 9 127591298.841 9     -3117.201 9        54.482 9  24279829.092 6         0.000 6     -2428.991 6        37.977 6
G27  22020691.382 9 115719487.162 9      2507.301 9        55.368 9  22020693.320 6         0.000 6      1953.742 6        37.977 6
G16  20500863.637 9 107732745.235 9       577.489 9        55.975 9  20500862.811 6         0.000 6       449.992 6        37.977 6
G26  20645152.689 9 108490987.414 9     -1463.977 9        55.877 9  20645155.502 6         0.000 6     -1140.761 6        37.977 6
G20  21960257.782 9 115401900.293 9      2580.313 9        55.309 9  21960258.113 6         0.000 6      2010.635 6        37.977 6
> 2019 07 03 12 00 27.0000000  0  8       0.000000000000
G07  25360648.049 9 133271058.787 9      2201.354 9        54.127 9  25360648.726 6         0.000 6      1715.342 6        37.977 6
G10  23831234.530 9 125233927.694 9      3533.761 9        54.661 9  23831238.278 6         0.000 6      2753.582 6        37.977 6
G21  21163160.596 9 111213138.909 9     -1239.410 9        55.712 9  21163159.881 6         0.000 6      -965.774 6        37.977 6
G29  24280420.731 9 127594416.075 9     -3117.288 9        54.482 9  24280422.285 6         0.000 6     -2429.058 6        37.977 6
G27  22020214.281 9 115716979.982 9      2507.065 9        55.368 9  22020216.219 6         0.000 6      1953.558 6        37.977 6
G16  20500753.803 9 107732168.053 9       576.874 9        55.975 9  20500752.976 6         0.000 6       449.512 6        37.977 6
G26  20645431.329 9 108492451.677 9     -1464.553 9        55.877 9  20645434.142 6         0.000 6     -1141.210 6        37.977 6
G20  21959766.807 9 115399320.204 9      2579.873 9        55.309 9  21959767.137 6         0.000 6      2010.292 6        37.977 6
> 2019 07 03 12 00 28.0000000  0  8       0.000000000000
G07  25360229.189 9 133268857.668 9      2200.897 9        54.127 9  25360229.866 6         0.000 6      1714.986 6        37.977 6
G10  23830562.090 9 125230394.007 9      3533.627 9        54.662 9  23830565.837 6         0.000 6      2753.478 6        37.977 6
G21  21163396.482 9 111214378.497 9     -1239.773 9        55.712 9  21163395.767 6         0.000 6      -966.057 6        37.977 6
G29  24281013.939 9 127597533.396 9     -3117.374 9        54.482 9  24281015.494 6         0.000 6     -2429.125 6        37.977 6
G27  22019737.224 9 115714473.036 9      2506.830 9        55.368 9  22019739.163 6         0.000 6      1953.374 6        37.977 6
G16  20500644.086 9 107731591.483 9       576.260 9        55.975 9  20500643.259 6         0.000 6       449.033 6        37.977 6
G26  20645710.078 9 108493916.511 9     -1465.129 9        55.877 9  20645712.891 6         0.000 6     -1141.659 6        37.977 6
G20  21959275.914 9 115396740.552 9      2579.433 9        55.310 9  21959276.244 6         0.000 6      2009.949 6        37.977 6
> 2019 07 03 12 00 29.0000000  0  8       0.000000000000
G07  25359810.416 9 133266657.003 9      2200.441 9        54.127 9  25359811.093 6         0.000 6      1714.630 6        37.977 6
G10  23829889.676 9 125226860.458 9      3533.493 9        54.662 9  23829893.422 6         0.000 6      2753.374 6        37.977 6
G21  21163632.438 9 111215618.450 9     -1240.135 9        55.712 9  21163631.722 6         0.000 6      -966.339 6        37.977 6
G29  24281607.164 9 127600650.803 9     -3117.460 9        54.481 9  24281608.719 6         0.000 6     -2429.192 6        37.977 6
G27  22019260.213 9 115711966.327 9      2506.594 9        55.368 9  22019262.151 6         0.000 6      1953.191 6        37.977 6
G16  20500534.486 9 107731015.531 9       575.645 9        55.975 9  20500533.659 6         0.000 6       448.554 6        37.977 6
G26  20645988.938 9 108495381.926 9     -1465.704 9        55.877 9  20645991.751 6         0.000 6     -1142.108 6        37.977 6
G20  21958785.106 9 115394161.344 9      2578.993 9        55.310 9  21958785.436 6         0.000 6      2009.606 6        37.977 6
> 2019 07 03 12 00 30.0000000  0  8       0.000000000000
G07  25359391.730 9 133264456.797 9      2199.984 9        54.127 9  25359392.407 6         0.000 6      1714.274 6        37.977 6
G10  23829217.286 9 125223327.038 9      3533.359 9        54.662 9  23829221.032 6         0.000 6      2753.269 6        37.977 6
G21  21163868.462 9 111216858.764 9     -1240.498 9        55.712 9  21163867.746 6         0.000 6      -966.622 6        37.977 6
G29  24282200.405 9 127603768.296 9     -3117.546 9        54.481 9  24282201.961 6         0.000 6     -2429.260 6        37.977 6
G27  22018783.246 9 115709459.852 9      2506.358 9        55.369 9  22018785.184 6         0.000 6      1953.007 6        37.977 6
G16  20500425.002 9 107730440.191 9       575.030 9        55.975 9  20500424.175 6         0.000 6       448.075 6        37.977 6
G26  20646267.906 9 108496847.911 9     -1466.280 9        55.877 9  20646270.719 6         0.000 6     -1142.557 6        37.977 6
G20  21958294.381 9 115391582.571 9      2578.552 9        55.310 9  21958294.711 6         0.000 6      2009.263 6        37.977 6
> 2019 07 03 12 00 31.0000000  0  8       0.000000000000
G07  25358973.131 9 133262257.045 9      2199.527 9        54.127 9  25358973.807 6         0.000 6      1713.918 6        37.977 6
G10  23828544.923 9 125219793.757 9      3533.225 9        54.662 9  23828548.668 6         0.000 6      2753.165 6        37.977 6
G21  21164104.555 9 111218099.442 9     -1240.860 9        55.712 9  21164103.839 6         0.000 6      -966.904 6        37.977 6
G29  24282793.663 9 127606885.875 9     -3117.633 9        54.481 9  24282795.219 6         0.000 6     -2429.327 6        37.977 6
G27  22018306.324 9 115706953.614 9      2506.122 9        55.369 9  22018308.262 6         0.000 6      1952.823 6        37.977 6
G16  20500315.636 9 107729865.468 9       574.415 9        55.975 9  20500314.809 6         0.000 6       447.596 6        37.977 6
G26  20646546.985 9 108498314.478 9     -1466.856 9        55.876 9  20646549.798 6         0.000 6     -1143.005 6        37.977 6
G20  21957803.741 9 115389004.244 9      2578.112 9        55.310 9  21957804.070 6         0.000 6      2008.920 6        37.977 6
> 2019 07 03 12 00 32.0000000  0  8       0.000000000000
G07  25358554.618 9 133260057.751 9      2199.070 9        54.128 9  25358555.294 6         0.000 6      1713.562 6        37.977 6
G10  23827872.585 9 125216260.610 9      3533.091 9        54.663 9  23827876.330 6         0.000 6      2753.060 6        37.977 6
G21  21164340.717 9 111219340.483 9     -1241.223 9        55.712 9  21164340.002 6         0.000 6      -967.187 6        37.977 6
G29  24283386.937 9 127610003.541 9     -3117.719 9        54.481 9  24283388.494 6         0.000 6     -2429.394 6        37.977 6
G27  22017829.448 9 115704447.612 9      2505.887 9        55.369 9  22017831.385 6         0.000 6      1952.640 6        37.977 6
G16  20500206.387 9 107729291.361 9       573.800 9        55.975 9  20500205.560 6         0.000 6       447.117 6        37.977 6
G26  20646826.173 9 108499781.620 9     -1467.432 9        55.876 9  20646828.986 6         0.000 6     -1143.454 6        37.977 6
G20  21957313.185 9 115386426.357 9      2577.671 9        55.310 9  21957313.514 6         0.000 6      2008.576 6        37.977 6
> 2019 07 03 12 00 33.0000000  0  8       0.000000000000
G07  25358136.193 9 133257858.918 9      2198.613 9        54.128 9  25358136.869 6         0.000 6      1713.206 6        37.977 6
G10  23827200.272 9 125212727.590 9      3532.956 9        54.663 9  23827204.016 6         0.000 6      2752.956 6        37.977 6
G21  21164576.948 9 111220581.881 9     -1241.585 9        55.712 9  21164576.232 6         0.000 6      -967.469 6        37.977 6
G29  24283980.226 9 127613121.288 9     -3117.805 9        54.481 9  24283981.784 6         0.000 6     -2429.461 6        37.977 6
G27  22017352.616 9 115701941.848 9      2505.651 9        55.369 9  22017354.553 6         0.000 6      1952.456 6        37.977 6
G16  20500097.254 9 107728717.866 9       573.185 9        55.975 9  20500096.428 6         0.000 6       446.638 6        37.977 6
G26  20647105.470 9 108501249.333 9     -1468.008 9        55.876 9  20647108.283 6         0.000 6     -1143.903 6        37.977 6
G20  21956822.711 9 115383848.903 9      2577.231 9        55.311 9  21956823.039 6         0.000 6      2008.233 6        37.977 6
> 2019 07 03 12 00 34.0000000  0  8       0.000000000000
G07  25357717.855 9 133255660.538 9      2198.156 9        54.128 9  25357718.531 6         0.000 6      1712.849 6        37.977 6
G10  23826527.986 9 125209194.712 9      3532.822 9        54.663 9  23826531.729 6         0.000 6      2752.851 6        37.977 6
G21  21164813.248 9 111221823.647 9     -1241.947 9        55.712 9  21164812.532 6         0.000 6      -967.751 6        37.977 6
G29  24284573.533 9 127616239.126 9     -3117.891 9        54.480 9  24284575.091 6         0.000 6     -2429.528 6        37.977 6
G27  22016875.829 9 115699436.318 9      2505.415 9        55.369 9  22016877.766 6         0.000 6      1952.272 6        37.977 6
G16  20499988.239 9 107728144.989 9       572.570 9        55.975 9  20499987.413 6         0.000 6       446.158 6        37.977 6
G26  20647384.877 9 108502717.627 9     -1468.583 9        55.876 9  20647387.691 6         0.000 6     -1144.351 6        37.977 6
G20  21956332.322 9 115381271.897 9      2576.790 9        55.311 9  21956332.650 6         0.000 6      2007.889 6        37.977 6
> 2019 07 03 12 00 35.0000000  0  8       0.000000000000
G07  25357299.604 9 133253462.617 9      2197.698 9        54.128 9  25357300.279 6         0.000 6      1712.493 6        37.977 6
G10  23825855.724 9 125205661.963 9      3532.688 9        54.663 9  23825859.467 6         0.000 6      2752.746 6        37.977 6
G21  21165049.617 9 111223065.772 9     -1242.310 9        55.712 9  21165048.901 6         0.000 6      -968.034 6        37.977 6
G29  24285166.856 9 127619357.050 9     -3117.977 9        54.480 9  24285168.415 6         0.000 6     -2429.595 6        37.977 6
G27  22016399.086 9 115696931.021 9      2505.179 9        55.370 9  22016401.023 6         0.000 6      1952.088 6        37.977 6
G16  20499879.341 9 107727572.723 9       571.955 9        55.975 9  20499878.514 6         0.000 6       445.679 6        37.977 6
G26  20647664.393 9 108504186.492 9     -1469.159 9        55.876 9  20647667.207 6         0.000 6     -1144.800 6        37.977 6
G20  21955842.016 9 115378695.328 9      2576.349 9        55.311 9  21955842.344 6         0.000 6      2007.546 6        37.977 6
> 2019 07 03 12 00 36.0000000  0  8       0.000000000000
G07  25356881.439 9 133251265.151 9      2197.241 9        54.128 9  25356882.115 6         0.000 6      1712.137 6        37.977 6
G10  23825183.489 9 125202129.354 9      3532.553 9        54.664 9  23825187.231 6         0.000 6      2752.641 6        37.977 6
G21  21165286.055 9 111224308.262 9     -1242.672 9        55.712 9  21165285.339 6         0.000 6      -968.316 6        37.977 6
G29  24285760.196 9 127622475.060 9     -3118.064 9        54.480 9  24285761.755 6         0.000 6     -2429.662 6        37.977 6
G27  22015922.389 9 115694425.963 9      2504.943 9        55.370 9  22015924.326 6         0.000 6      1951.905 6        37.977 6
G16  20499770.560 9 107727001.076 9       571.340 9        55.975 9  20499769.733 6         0.000 6       445.200 6        37.977 6
G26  20647944.019 9 108505655.937 9     -1469.735 9        55.876 9  20647946.833 6         0.000 6     -1145.248 6        37.977 6
G20  21955351.795 9 115376119.204 9      2575.908 9        55.311 9  21955352.123 6         0.000 6      2007.202 6        37.977 6
> 2019 07 03 12 00 37.0000000  0  8       0.000000000000
G07  25356463.362 9 133249068.145 9      2196.784 9        54.128 9  25356464.037 6         0.000 6      1711.780 6        37.977 6
G10  23824511.278 9 125198596.874 9      3532.418 9        54.664 9  23824515.020 6         0.000 6      2752.536 6        37.977 6
G21  21165522.561 9 111225551.112 9     -1243.034 9        55.711 9  21165521.846 6         0.000 6      -968.598 6        37.977 6
G29  24286353.551 9 127625593.157 9     -3118.150 9        54.480 9  24286355.112 6         0.000 6     -2429.730 6        37.977 6
G27  22015445.736 9 115691921.138 9      2504.707 9        55.370 9  22015447.673 6         0.000 6      1951.721 6        37.977 6
G16  20499661.896 9 107726430.040 9       570.725 9        55.976 9  20499661.069 6         0.000 6       444.721 6        37.977 6
G26  20648223.754 9 108507125.953 9     -1470.310 9        55.876 9  20648226.568 6         0.000 6     -1145.697 6        37.977 6
G20  21954861.657 9 115373543.516 9      2575.467 9        55.311 9  21954861.985 6         0.000 6      2006.859 6        37.977 6
> 2019 07 03 12 00 38.0000000  0  8       0.000000000000
G07  25356045.372 9 133246871.594 9      2196.326 9        54.128 9  25356046.047 6         0.000 6      1711.424 6        37.977 6
G10  23823839.094 9 125195064.534 9      3532.283 9        54.664 9  23823842.835 6         0.000 6      2752.431 6        37.977 6
G21  21165759.137 9 111226794.326 9     -1243.396 9        55.711 9  21165758.422 6         0.000 6      -968.880 6        37.977 6
G29  24286946.924 9 127628711.339 9     -3118.236 9        54.479 9  24286948.485 6         0.000 6     -2429.797 6        37.977 6
G27  22014969.129 9 115689416.552 9      2504.471 9        55.370 9  22014971.065 6         0.000 6      1951.537 6        37.977 6
G16  20499553.349 9 107725859.623 9       570.110 9        55.976 9  20499552.522 6         0.000 6       444.241 6        37.977 6
G26  20648503.600 9 108508596.549 9     -1470.886 9        55.876 9  20648506.414 6         0.000 6     -1146.145 6        37.977 6
G20  21954371.604 9 115370968.274 9      2575.026 9        55.311 9  21954371.931 6         0.000 6      2006.515 6        37.977 6
> 2019 07 03 12 00 39.0000000  0  8       0.000000000000
G07  25355627.469 9 133244675.503 9      2195.869 9        54.129 9  25355628.143 6         0.000 6      1711.067 6        37.977 6
G10  23823166.935 9 125191532.325 9      3532.148 9        54.664 9  23823170.675 6         0.000 6      2752.326 6        37.977 6
G21  21165995.782 9 111228037.900 9     -1243.758 9        55.711 9  21165995.066 6         0.000 6      -969.162 6        37.977 6
G29  24287540.313 9 127631829.608 9     -3118.322 9        54.479 9  24287541.874 6         0.000 6     -2429.864 6        37.977 6
G27  22014492.566 9 115686912.199 9      2504.235 9        55.370 9  22014494.502 6         0.000 6      1951.353 6        37.977 6
G16  20499444.918 9 107725289.818 9       569.494 9        55.976 9  20499444.092 6         0.000 6       443.762 6        37.977 6
G26  20648783.554 9 108510067.717 9     -1471.461 9        55.875 9  20648786.368 6         0.000 6     -1146.594 6        37.977 6
G20  21953881.634 9 115368393.469 9      2574.585 9        55.312 9  21953881.961 6         0.000 6      2006.171 6        37.977 6
> 2019 07 03 12 00 40.0000000  0  8       0.000000000000
G07  25355209.652 9 133242479.867 9      2195.411 9        54.129 9  25355210.327 6         0.000 6      1710.711 6        37.977 6
G10  23822494.802 9 125188000.255 9      3532.013 9        54.665 9  23822498.542 6         0.000 6      2752.221 6        37.977 6
G21  21166232.495 9 111229281.838 9     -1244.120 9        55.711 9  21166231.780 6         0.000 6      -969.444 6        37.977 6
G29  24288133.718 9 127634947.962 9     -3118.408 9        54.479 9  24288135.280 6         0.000 6     -2429.931 6        37.977 6
G27  22014016.048 9 115684408.085 9      2503.999 9        55.371 9  22014017.984 6         0.000 6      1951.169 6        37.977 6
G16  20499336.606 9 107724720.631 9       568.879 9        55.976 9  20499335.779 6         0.000 6       443.282 6        37.977 6
G26  20649063.619 9 108511539.464 9     -1472.037 9        55.875 9  20649066.433 6         0.000 6     -1147.042 6        37.977 6
G20  21953391.749 9 115365819.109 9      2574.144 9        55.312 9  21953392.076 6         0.000 6      2005.827 6        37.977 6
> 2019 07 03 12 00 41.0000000  0  8       0.000000000000
G07  25354791.924 9 133240284.694 9      2194.953 9        54.129 9  25354792.598 6         0.000 6      1710.354 6        37.977 6
G10  23821822.694 9 125184468.313 9      3531.878 9        54.665 9  23821826.433 6         0.000 6      2752.116 6        37.977 6
G21  21166469.277 9 111230526.134 9     -1244.482 9        55.711 9  21166468.562 6         0.000 6      -969.726 6        37.977 6
G29  24288727.138 9 127638066.398 9     -3118.494 9        54.479 9  24288728.701 6         0.000 6     -2429.998 6        37.977 6
G27  22013539.576 9 115681904.208 9      2503.763 9        55.371 9  22013541.512 6         0.000 6      1950.985 6        37.977 6
G16  20499228.410 9 107724152.058 9       568.264 9        55.976 9  20499227.583 6         0.000 6       442.803 6        37.977 6
G26  20649343.792 9 108513011.782 9     -1472.612 9        55.875 9  20649346.606 6         0.000 6     -1147.491 6        37.977 6
G20  21952901.946 9 115363245.183 9      2573.702 9        55.312 9  21952902.273 6         0.000 6      2005.483 6        37.977 6
> 2019 07 03 12 00 42.0000000  0  8       0.000000000000
G07  25354374.282 9 133238089.973 9      2194.495 9        54.129 9  25354374.956 6         0.000 6      1709.997 6        37.977 6
G10  23821150.613 9 125180936.513 9      3531.743 9        54.665 9  23821154.351 6         0.000 6      2752.010 6        37.977 6
G21  21166706.129 9 111231770.796 9     -1244.844 9        55.711 9  21166705.414 6         0.000 6      -970.008 6        37.977 6
G29  24289320.576 9 127641184.925 9     -3118.580 9        54.479 9  24289322.139 6         0.000 6     -2430.065 6        37.977 6
G27  22013063.148 9 115679400.566 9      2503.527 9        55.371 9  22013065.084 6         0.000 6      1950.801 6        37.977 6
G16  20499120.332 9 107723584.102 9       567.648 9        55.976 9  20499119.505 6         0.000 6       442.323 6        37.977 6
G26  20649624.075 9 108514484.681 9     -1473.188 9        55.875 9  20649626.890 6         0.000 6     -1147.939 6        37.977 6
G20  21952412.229 9 115360671.706 9      2573.261 9        55.312 9  21952412.555 6         0.000 6      2005.139 6        37.977 6
> 2019 07 03 12 00 43.0000000  0  8       0.000000000000
G07  25353956.727 9 133235895.710 9      2194.038 9        54.129 9  25353957.401 6         0.000 6      1709.641 6        37.977 6
G10  23820478.557 9 125177404.848 9      3531.608 9        54.665 9  23820482.295 6         0.000 6      2751.905 6        37.977 6
G21  21166943.049 9 111233015.820 9     -1245.206 9        55.711 9  21166942.334 6         0.000 6      -970.290 6        37.977 6
G29  24289914.030 9 127644303.537 9     -3118.666 9        54.478 9  24289915.594 6         0.000 6     -2430.132 6        37.977 6
G27  22012586.765 9 115676897.159 9      2503.291 9        55.371 9  22012588.701 6         0.000 6      1950.617 6        37.977 6
G16  20499012.370 9 107723016.761 9       567.033 9        55.976 9  20499011.543 6         0.000 6       441.844 6        37.977 6
G26  20649904.469 9 108515958.155 9     -1473.763 9        55.875 9  20649907.283 6         0.000 6     -1148.387 6        37.977 6
G20  21951922.596 9 115358098.671 9      2572.819 9        55.312 9  21951922.922 6         0.000 6      2004.795 6        37.977 6
> 2019 07 03 12 00 44.0000000  0  8       0.000000000000
G07  25353539.260 9 133233701.908 9      2193.580 9        54.129 9  25353539.933 6         0.000 6      1709.284 6        37.977 6
G10  23819806.527 9 125173873.314 9      3531.472 9        54.666 9  23819810.264 6         0.000 6      2751.799 6        37.977 6
G21  21167180.038 9 111234261.204 9     -1245.567 9        55.711 9  21167179.323 6         0.000 6      -970.572 6        37.977 6
G29  24290507.501 9 127647422.236 9     -3118.752 9        54.478 9  24290509.065 6         0.000 6     -2430.199 6        37.977 6
G27  22012110.427 9 115674393.987 9      2503.055 9        55.371 9  22012112.362 6         0.000 6      1950.433 6        37.977 6
G16  20498904.525 9 107722450.033 9       566.418 9        55.976 9  20498903.699 6         0.000 6       441.364 6        37.977 6
G26  20650184.970 9 108517432.199 9     -1474.339 9        55.875 9  20650187.785 6         0.000 6     -1148.836 6        37.977 6
G20  21951433.046 9 115355526.073 9      2572.377 9        55.313 9  21951433.371 6         0.000 6      2004.451 6        37.977 6
> 2019 07 03 12 00 45.0000000  0  8       0.000000000000
G07  25353121.879 9 133231508.561 9      2193.122 9        54.129 9  25353122.552 6         0.000 6      1708.927 6        37.977 6
G10  23819134.523 9 125170341.921 9      3531.337 9        54.666 9  23819138.259 6         0.000 6      2751.694 6        37.977 6
G21  21167417.096 9 111235506.951 9     -1245.929 9        55.711 9  21167416.381 6         0.000 6      -970.854 6        37.977 6
G29  24291100.988 9 127650541.020 9     -3118.838 9        54.478 9  24291102.553 6         0.000 6     -2430.266 6        37.977 6
G27  22011634.134 9 115671891.054 9      2502.818 9        55.371 9  22011636.069 6         0.000 6      1950.249 6        37.977 6
G16  20498796.798 9 107721883.923 9       565.802 9        55.976 9  20498795.971 6         0.000 6       440.885 6        37.977 6
G26  20650465.582 9 108518906.824 9     -1474.914 9        55.875 9  20650468.397 6         0.000 6     -1149.284 6        37.977 6
G20  21950943.581 9 115352953.921 9      2571.936 9        55.313 9  21950943.906 6         0.000 6      2004.107 6        37.977 6
> 2019 07 03 12 00 46.0000000  0  8       0.000000000000
G07  25352704.586 9 133229315.675 9      2192.664 9        54.130 9  25352705.259 6         0.000 6      1708.570 6        37.977 6
G10  23818462.544 9 125166810.658 9      3531.201 9        54.666 9  23818466.280 6         0.000 6      2751.588 6        37.977 6
G21  21167654.222 9 111236753.058 9     -1246.291 9        55.711 9  21167653.507 6         0.000 6      -971.136 6        37.977 6
G29  24291694.491 9 127653659.891 9     -3118.924 9        54.478 9  24291696.057 6         0.000 6     -2430.333 6        37.977 6
G27  22011157.885 9 115669388.354 9      2502.582 9        55.372 9  22011159.820 6         0.000 6      1950.065 6        37.977 6
G16  20498689.188 9 107721318.425 9       565.187 9        55.976 9  20498688.361 6         0.000 6       440.405 6        37.977 6
G26  20650746.303 9 108520382.019 9     -1475.489 9        55.875 9  20650749.118 6         0.000 6     -1149.732 6        37.977 6
G20  21950454.199 9 115350382.207 9      2571.494 9        55.313 9  21950454.524 6         0.000 6      2003.763 6        37.977 6
> 2019 07 03 12 00 47.0000000  0  8       0.000000000000
G07  25352287.379 9 133227123.244 9      2192.205 9        54.130 9  25352288.052 6         0.000 6      1708.213 6        37.977 6
G10  23817790.592 9 125163279.536 9      3531.065 9        54.666 9  23817794.327 6         0.000 6      2751.482 6        37.977 6
G21  21167891.418 9 111237999.529 9     -1246.652 9        55.710 9  21167890.703 6         0.000 6      -971.418 6        37.977 6
G29  24292288.010 9 127656778.847 9     -3119.009 9        54.478 9  24292289.577 6         0.000 6     -2430.400 6        37.977 6
G27  22010681.682 9 115666885.893 9      2502.346 9        55.372 9  22010683.617 6         0.000 6      1949.881 6        37.977 6
G16  20498581.695 9 107720753.547 9       564.571 9        55.976 9  20498580.868 6         0.000 6       439.926 6        37.977 6
G26  20651027.134 9 108521857.794 9     -1476.065 9        55.875 9  20651029.949 6         0.000 6     -1150.181 6        37.977 6
G20  21949964.902 9 115347810.938 9      2571.052 9        55.313 9  21949965.227 6         0.000 6      2003.418 6        37.977 6
> 2019 07 03 12 00 48.0000000  0  8       0.000000000000
G07  25351870.261 9 133224931.274 9      2191.747 9        54.130 9  25351870.933 6         0.000 6      1707.856 6        37.977 6
G10  23817118.664 9 125159748.544 9      3530.929 9        54.667 9  23817122.399 6         0.000 6      2751.376 6        37.977 6
G21  21168128.682 9 111239246.359 9     -1247.014 9        55.710 9  21168127.967 6         0.000 6      -971.699 6        37.977 6
G29  24292881.546 9 127659897.889 9     -3119.095 9        54.477 9  24292883.113 6         0.000 6     -2430.466 6        37.977 6
G27  22010205.524 9 115664383.666 9      2502.109 9        55.372 9  22010207.459 6         0.000 6      1949.696 6        37.977 6
G16  20498474.318 9 107720189.280 9       563.956 9        55.976 9  20498473.492 6         0.000 6       439.446 6        37.977 6
G26  20651308.074 9 108523334.140 9     -1476.640 9        55.874 9  20651310.889 6         0.000 6     -1150.629 6        37.977 6
G20  21949475.688 9 115345240.108 9      2570.610 9        55.313 9  21949476.013 6         0.000 6      2003.074 6        37.977 6
> 2019 07 03 12 00 49.0000000  0  8       0.000000000000
G07  25351453.229 9 133222739.763 9      2191.289 9        54.130 9  25351453.902 6         0.000 6      1707.499 6        37.977 6
G10  23816446.763 9 125156217.691 9      3530.793 9        54.667 9  23816450.497 6         0.000 6      2751.270 6        37.977 6
G21  21168366.015 9 111240493.551 9     -1247.375 9        55.710 9  21168365.300 6         0.000 6      -971.981 6        37.977 6
G29  24293475.098 9 127663017.012 9     -3119.181 9        54.477 9  24293476.665 6         0.000 6     -2430.533 6        37.977 6
G27  22009729.411 9 115661881.681 9      2501.873 9        55.372 9  22009731.346 6         0.000 6      1949.512 6        37.977 6
G16  20498367.060 9 107719625.634 9       563.340 9        55.976 9  20498366.233 6         0.000 6       438.966 6        37.977 6
G26  20651589.123 9 108524811.066 9     -1477.215 9        55.874 9  20651591.939 6         0.000 6     -1151.077 6        37.977 6
G20  21948986.559 9 115342669.720 9      2570.168 9        55.314 9  21948986.883 6         0.000 6      2002.729 6        37.977 6
> 2019 07 03 12 00 50.0000000  0  8       0.000000000000
G07  25351036.285 9 133220548.709 9      2190.830 9        54.130 9  25351036.957 6         0.000 6      1707.142 6        37.977 6
G10  23815774.888 9 125152686.972 9      3530.657 9        54.667 9  23815778.621 6         0.000 6      2751.164 6        37.977 6
G21  21168603.416 9 111241741.104 9     -1247.737 9        55.710 9  21168602.701 6         0.000 6      -972.263 6        37.977 6
G29  24294068.666 9 127666136.225 9     -3119.267 9        54.477 9  24294070.234 6         0.000 6     -2430.600 6        37.977 6
G27  22009253.343 9 115659379.927 9      2501.637 9        55.372 9  22009255.277 6         0.000 6      1949.328 6        37.977 6
G16  20498259.918 9 107719062.598 9       562.724 9        55.976 9  20498259.091 6         0.000 6       438.486 6        37.977 6
G26  20651870.282 9 108526288.562 9     -1477.790 9        55.874 9  20651873.097 6         0.000 6     -1151.525 6        37.977 6
G20  21948497.513 9 115340099.774 9      2569.725 9        55.314 9  21948497.837 6         0.000 6      2002.385 6        37.977 6
> 2019 07 03 12 00 51.0000000  0  8       0.000000000000
G07  25350619.428 9 133218358.112 9      2190.372 9        54.130 9  25350620.099 6         0.000 6      1706.784 6        37.977 6
G10  23815103.039 9 125149156.394 9      3530.521 9        54.667 9  23815106.771 6         0.000 6      2751.058 6        37.977 6
G21  21168840.887 9 111242989.021 9     -1248.098 9        55.710 9  21168840.172 6         0.000 6      -972.544 6        37.977 6
G29  24294662.251 9 127669255.525 9     -3119.353 9        54.477 9  24294663.820 6         0.000 6     -2430.667 6        37.977 6
G27  22008777.320 9 115656878.412 9      2501.400 9        55.373 9  22008779.254 6         0.000 6      1949.144 6        37.977 6
G16  20498152.894 9 107718500.182 9       562.109 9        55.976 9  20498152.067 6         0.000 6       438.007 6        37.977 6
G26  20652151.551 9 108527766.638 9     -1478.365 9        55.874 9  20652154.366 6         0.000 6     -1151.974 6        37.977 6
G20  21948008.553 9 115337530.274 9      2569.283 9        55.314 9  21948008.877 6         0.000 6      2002.040 6        37.977 6
> 2019 07 03 12 00 52.0000000  0  8       0.000000000000
G07  25350202.657 9 133216167.973 9      2189.913 9        54.130 9  25350203.329 6         0.000 6      1706.427 6        37.977 6
G10  23814431.216 9 125145625.951 9      3530.385 9        54.668 9  23814434.948 6         0.000 6      2750.952 6        37.977 6
G21  21169078.427 9 111244237.299 9     -1248.460 9        55.710 9  21169077.712 6         0.000 6      -972.826 6        37.977 6
G29  24295255.852 9 127672374.910 9     -3119.438 9        54.477 9  24295257.422 6         0.000 6     -2430.734 6        37.977 6
G27  22008301.342 9 115654377.132 9      2501.164 9        55.373 9  22008303.276 6         0.000 6      1948.959 6        37.977 6
G16  20498045.987 9 107717938.381 9       561.493 9        55.976 9  20498045.160 6         0.000 6       437.527 6        37.977 6
G26  20652432.929 9 108529245.289 9     -1478.941 9        55.874 9  20652435.745 6         0.000 6     -1152.422 6        37.977 6
G20  21947519.677 9 115334961.217 9      2568.841 9        55.314 9  21947520.000 6         0.000 6      2001.695 6        37.977 6
> 2019 07 03 12 00 53.0000000  0  8       0.000000000000
G07  25349785.975 9 133213978.295 9      2189.455 9        54.131 9  25349786.646 6         0.000 6      1706.070 6        37.977 6
G10  23813759.418 9 125142095.641 9      3530.249 9        54.668 9  23813763.149 6         0.000 6      2750.846 6        37.977 6
G21  21169316.034 9 111245485.936 9     -1248.821 9        55.710 9  21169315.320 6         0.000 6      -973.107 6        37.977 6
G29  24295849.470 9 127675494.381 9     -3119.524 9        54.476 9  24295851.040 6         0.000 6     -2430.801 6        37.977 6
G27  22007825.408 9 115651876.088 9      2500.927 9        55.373 9  22007827.342 6         0.000 6      1948.775 6        37.977 6
G16  20497939.196 9 107717377.193 9       560.877 9        55.976 9  20497938.369 6         0.000 6       437.047 6        37.977 6
G26  20652714.416 9 108530724.511 9     -1479.516 9        55.874 9  20652717.232 6         0.000 6     -1152.870 6        37.977 6
G20  21947030.884 9 115332392.598 9      2568.398 9        55.314 9  21947031.207 6         0.000 6      2001.350 6        37.977 6
> 2019 07 03 12 00 54.0000000  0  8       0.000000000000
G07  25349369.379 9 133211789.073 9      2188.996 9        54.131 9  25349370.050 6         0.000 6      1705.712 6        37.977 6
G10  23813087.647 9 125138565.471 9      3530.112 9        54.668 9  23813091.378 6         0.000 6      2750.739 6        37.977 6
G21  21169553.711 9 111246734.937 9     -1249.182 9        55.710 9  21169552.997 6         0.000 6      -973.389 6        37.977 6
G29  24296443.104 9 127678613.938 9     -3119.610 9        54.476 9  24296444.675 6         0.000 6     -2430.867 6        37.977 6
G27  22007349.520 9 115649375.282 9      2500.690 9        55.373 9  22007351.454 6         0.000 6      1948.591 6        37.977 6
G16  20497832.523 9 107716816.624 9       560.261 9        55.976 9  20497831.696 6         0.000 6       436.567 6        37.977 6
G26  20652996.013 9 108532204.312 9     -1480.091 9        55.874 9  20652998.829 6         0.000 6     -1153.318 6        37.977 6
G20  21946542.176 9 115329824.426 9      2567.955 9        55.315 9  21946542.499 6         0.000 6      2001.005 6        37.977 6
> 2019 07 03 12 00 55.0000000  0  8       0.000000000000
G07  25348952.871 9 133209600.313 9      2188.537 9        54.131 9  25348953.542 6         0.000 6      1705.355 6        37.977 6
G10  23812415.902 9 125135035.434 9      3529.975 9        54.668 9  23812419.631 6         0.000 6      2750.633 6        37.977 6
G21  21169791.457 9 111247984.296 9     -1249.543 9        55.710 9  21169790.742 6         0.000 6      -973.670 6        37.977 6
G29  24297036.754 9 127681733.581 9     -3119.696 9        54.476 9  24297038.325 6         0.000 6     -2430.934 6        37.977 6
G27  22006873.677 9 115646874.710 9      2500.454 9        55.373 9  22006875.610 6         0.000 6      1948.406 6        37.977 6
G16  20497725.967 9 107716256.668 9       559.645 9        55.976 9  20497725.140 6         0.000 6       436.087 6        37.977 6
G26  20653277.719 9 108533684.684 9     -1480.666 9        55.874 9  20653280.535 6         0.000 6     -1153.766 6        37.977 6
G20  21946053.552 9 115327256.692 9      2567.513 9        55.315 9  21946053.875 6         0.000 6      2000.660 6        37.977 6
> 2019 07 03 12 00 56.0000000  0  8       0.000000000000
G07  25348536.450 9 133207412.012 9      2188.078 9        54.131 9  25348537.121 6         0.000 6      1704.997 6        37.977 6
G10  23811744.182 9 125131505.535 9      3529.839 9        54.669 9  23811747.911 6         0.000 6      2750.526 6        37.977 6
G21  21170029.271 9 111249234.017 9     -1249.904 9        55.710 9  21170028.556 6         0.000 6      -973.952 6        37.977 6
G29  24297630.419 9 127684853.304 9     -3119.781 9        54.476 9  24297631.991 6         0.000 6     -2431.001 6        37.977 6
G27  22006397.879 9 115644374.381 9      2500.217 9        55.374 9  22006399.813 6         0.000 6      1948.222 6        37.977 6
G16  20497619.529 9 107715697.332 9       559.029 9        55.976 9  20497618.702 6         0.000 6       435.607 6        37.977 6
G26  20653559.535 9 108535165.635 9     -1481.241 9        55.873 9  20653562.351 6         0.000 6     -1154.214 6        37.977 6
G20  21945565.012 9 115324689.402 9      2567.070 9        55.315 9  21945565.334 6         0.000 6      2000.315 6        37.977 6
> 2019 07 03 12 00 57.0000000  0  8       0.000000000000
G07  25348120.117 9 133205224.169 9      2187.619 9        54.131 9  25348120.788 6         0.000 6      1704.639 6        37.977 6
G10  23811072.488 9 125127975.771 9      3529.702 9        54.669 9  23811076.217 6         0.000 6      2750.420 6        37.977 6
G21  21170267.154 9 111250484.099 9     -1250.265 9        55.709 9  21170266.439 6         0.000 6      -974.233 6        37.977 6
G29  24298224.102 9 127687973.117 9     -3119.867 9        54.475 9  24298225.675 6         0.000 6     -2431.068 6        37.977 6
G27  22005922.126 9 115641874.283 9      2499.981 9        55.374 9  22005924.059 6         0.000 6      1948.037 6        37.977 6
G16  20497513.207 9 107715138.607 9       558.414 9        55.976 9  20497512.380 6         0.000 6       435.127 6        37.977 6
G26  20653841.459 9 108536647.157 9     -1481.816 9        55.873 9  20653844.276 6         0.000 6     -1154.662 6        37.977 6
G20  21945076.556 9 115322122.554 9      2566.627 9        55.315 9  21945076.878 6         0.000 6      1999.970 6        37.977 6
> 2019 07 03 12 00 58.0000000  0  8       0.000000000000
G07  25347703.871 9 133203036.783 9      2187.160 9        54.131 9  25347704.541 6         0.000 6      1704.282 6        37.977 6
G10  23810400.822 9 125124446.149 9      3529.565 9        54.669 9  23810404.549 6         0.000 6      2750.313 6        37.977 6
G21  21170505.106 9 111251734.544 9     -1250.626 9        55.709 9  21170504.391 6         0.000 6      -974.514 6        37.977 6
G29  24298817.801 9 127691093.017 9     -3119.952 9        54.475 9  24298819.375 6         0.000 6     -2431.134 6        37.977 6
G27  22005446.418 9 115639374.424 9      2499.744 9        55.374 9  22005448.351 6         0.000 6      1947.853 6        37.977 6
G16  20497407.003 9 107714580.502 9       557.798 9        55.976 9  20497406.176 6         0.000 6       434.647 6        37.977 6
G26  20654123.494 9 108538129.258 9     -1482.391 9        55.873 9  20654126.310 6         0.000 6     -1155.110 6        37.977 6
G20  21944588.185 9 115319556.153 9      2566.184 9        55.315 9  21944588.507 6         0.000 6      1999.625 6        37.977 6
> 2019 07 03 12 00 59.0000000  0  8       0.000000000000
G07  25347287.712 9 133200849.858 9      2186.701 9        54.131 9  25347288.382 6         0.000 6      1703.924 6        37.977 6
G10  23809729.180 9 125120916.658 9      3529.428 9        54.669 9  23809732.907 6         0.000 6      2750.206 6        37.977 6
G21  21170743.126 9 111252985.348 9     -1250.987 9        55.709 9  21170742.411 6         0.000 6      -974.795 6        37.977 6
G29  24299411.516 9 127694213.002 9     -3120.038 9        54.475 9  24299413.090 6         0.000 6     -2431.201 6        37.977 6
G27  22004970.755 9 115636874.799 9      2499.507 9        55.374 9  22004972.688 6         0.000 6      1947.668 6        37.977 6
G16  20497300.916 9 107714023.009 9       557.182 9        55.977 9  20497300.089 6         0.000 6       434.167 6        37.977 6
G26  20654405.638 9 108539611.929 9     -1482.965 9        55.873 9  20654408.454 6         0.000 6     -1155.558 6        37.977 6
G20  21944099.898 9 115316990.191 9      2565.741 9        55.316 9  21944100.220 6         0.000 6      1999.280 6        37.977 6
> 2019 07 03 12 01  0.0000000  0  8       0.000000000000
G07  25346871.640 9 133198663.390 9      2186.242 9        54.132 9  25346872.310 6         0.000 6      1703.566 6        37.977 6
G10  23809057.565 9 125117387.310 9      3529.291 9        54.669 9  23809061.291 6         0.000 6      2750.099 6        37.977 6
G21  21170981.215 9 111254236.515 9     -1251.348 9        55.709 9  21170980.501 6         0.000 6      -975.077 6        37.977 6
G29  24300005.248 9 127697333.073 9     -3120.124 9        54.475 9  24300006.823 6         0.000 6     -2431.268 6        37.977 6
G27  22004495.137 9 115634375.413 9      2499.270 9        55.374 9  22004497.070 6         0.000 6      1947.484 6        37.977 6
G16  20497194.946 9 107713466.135 9       556.565 9        55.977 9  20497194.120 6         0.000 6       433.687 6        37.977 6
G26  20654687.891 9 108541095.181 9     -1483.540 9        55.873 9  20654690.708 6         0.000 6     -1156.006 6        37.977 6
G20  21943611.696 9 115314424.676 9      2565.298 9        55.316 9  21943612.017 6         0.000 6      1998.934 6        37.977 6
> 2019 07 03 12 01  1.0000000  0  8       0.000000000000
G07  25346455.656 9 133196477.381 9      2185.783 9        54.132 9  25346456.326 6         0.000 6      1703.208 6        37.977 6
G10  23808385.976 9 125113858.098 9      3529.154 9        54.670 9  23808389.702 6         0.000 6      2749.992 6        37.977 6
G21  21171219.373 9 111255488.042 9     -1251.709 9        55.709 9  21171218.659 6         0.000 6      -975.358 6        37.977 6
G29  24300598.996 9 127700453.229 9     -3120.209 9        54.475 9  24300600.571 6         0.000 6     -2431.334 6        37.977 6
G27  22004019.564 9 115631876.264 9      2499.033 9        55.374 9  22004021.497 6         0.000 6      1947.299 6        37.977 6
G16  20497089.094 9 107712909.878 9       555.949 9        55.977 9  20497088.267 6         0.000 6       433.207 6        37.977 6
G26  20654970.254 9 108542579.006 9     -1484.115 9        55.873 9  20654973.071 6         0.000 6     -1156.454 6        37.977 6
G20  21943123.578 9 115311859.604 9      2564.854 9        55.316 9  21943123.899 6         0.000 6      1998.589 6        37.977 6
> 2019 07 03 12 01  2.0000000  0  8       0.000000000000
G07  25346039.760 9 133194291.835 9      2185.324 9        54.132 9  25346040.429 6         0.000 6      1702.850 6        37.977 6
G10  23807714.413 9 125110329.019 9      3529.016 9        54.670 9  23807718.138 6         0.000 6      2749.885 6        37.977 6
G21  21171457.599 9 111256739.928 9     -1252.070 9        55.709 9  21171456.885 6         0.000 6      -975.639 6        37.977 6
G29  24301192.760 9 127703573.470 9     -3120.295 9        54.474 9  24301194.336 6         0.000 6     -2431.401 6        37.977 6
G27  22003544.036 9 115629377.350 9      2498.796 9        55.375 9  22003545.969 6         0.000 6      1947.115 6        37.977 6
G16  20496983.358 9 107712354.233 9       555.333 9        55.977 9  20496982.532 6         0.000 6       432.727 6        37.977 6
G26  20655252.726 9 108544063.402 9     -1484.690 9        55.873 9  20655255.542 6         0.000 6     -1156.902 6        37.977 6
G20  21942635.544 9 115309294.972 9      2564.411 9        55.316 9  21942635.865 6         0.000 6      1998.244 6        37.977 6
> 2019 07 03 12 01  3.0000000  0  8       0.000000000000
G07  25345623.950 9 133192106.744 9      2184.864 9        54.132 9  25345624.619 6         0.000 6      1702.492 6        37.977 6
G10  23807042.877 9 125106800.083 9      3528.879 9        54.670 9  23807046.601 6         0.000 6      2749.778 6        37.977 6
G21  21171695.894 9 111257992.178 9     -1252.430 9        55.709 9  21171695.180 6         0.000 6      -975.920 6        37.977 6
G29  24301786.541 9 127706693.798 9     -3120.380 9        54.474 9  24301788.117 6         0.000 6     -2431.468 6        37.977 6
G27  22003068.553 9 115626878.675 9      2498.560 9        55.375 9  22003070.486 6         0.000 6      1946.930 6        37.977 6
G16  20496877.741 9 107711799.208 9       554.717 9        55.977 9  20496876.914 6         0.000 6       432.247 6        37.977 6
G26  20655535.307 9 108545548.378 9     -1485.265 9        55.873 9  20655538.124 6         0.000 6     -1157.349 6        37.977 6
G20  21942147.595 9 115306730.787 9      2563.968 9        55.316 9  21942147.916 6         0.000 6      1997.898 6        37.977 6
> 2019 07 03 12 01  4.0000000  0  8       0.000000000000
G07  25345208.229 9 133189922.119 9      2184.405 9        54.132 9  25345208.898 6         0.000 6      1702.134 6        37.977 6
G10  23806371.365 9 125103271.277 9      3528.741 9        54.670 9  23806375.089 6         0.000 6      2749.671 6        37.977 6
G21  21171934.257 9 111259244.783 9     -1252.791 9        55.709 9  21171933.543 6         0.000 6      -976.201 6        37.977 6
G29  24302380.336 9 127709814.205 9     -3120.466 9        54.474 9  24302381.914 6         0.000 6     -2431.534 6        37.977 6
G27  22002593.116 9 115624380.238 9      2498.323 9        55.375 9  22002595.048 6         0.000 6      1946.746 6        37.977 6
G16  20496772.240 9 107711244.797 9       554.101 9        55.977 9  20496771.413 6         0.000 6       431.767 6        37.977 6
G26  20655817.998 9 108547033.923 9     -1485.839 9        55.873 9  20655820.814 6         0.000 6     -1157.797 6        37.977 6
G20  21941659.729 9 115304167.039 9      2563.524 9        55.316 9  21941660.049 6         0.000 6      1997.552 6        37.977 6
> 2019 07 03 12 01  5.0000000  0  8       0.000000000000
G07  25344792.594 9 133187737.948 9      2183.945 9        54.132 9  25344793.263 6         0.000 6      1701.776 6        37.977 6
G10  23805699.881 9 125099742.615 9      3528.604 9        54.671 9  23805703.604 6         0.000 6      2749.564 6        37.977 6
G21  21172172.690 9 111260497.754 9     -1253.152 9        55.709 9  21172171.976 6         0.000 6      -976.482 6        37.977 6
G29  24302974.149 9 127712934.703 9     -3120.551 9        54.474 9  24302975.727 6         0.000 6     -2431.601 6        37.977 6
G27  22002117.724 9 115621882.037 9      2498.086 9        55.375 9  22002119.656 6         0.000 6      1946.561 6        37.977 6
G16  20496666.857 9 107710691.005 9       553.485 9        55.977 9  20496666.030 6         0.000 6       431.287 6        37.977 6
G26  20656100.798 9 108548520.047 9     -1486.414 9        55.872 9  20656103.615 6         0.000 6     -1158.245 6        37.977 6
G20  21941171.949 9 115301603.741 9      2563.080 9        55.317 9  21941172.269 6         0.000 6      1997.207 6        37.977 6
> 2019 07 03 12 01  6.0000000  0  8       0.000000000000
G07  25344377.048 9 133185554.239 9      2183.485 9        54.132 9  25344377.716 6         0.000 6      1701.418 6        37.977 6
G10  23805028.423 9 125096214.086 9      3528.466 9        54.671 9  23805032.145 6         0.000 6      2749.457 6        37.977 6
G21  21172411.191 9 111261751.082 9     -1253.512 9        55.709 9  21172410.476 6         0.000 6      -976.763 6        37.977 6
G29  24303567.979 9 127716055.287 9     -3120.637 9        54.474 9  24303569.557 6         0.000 6     -2431.667 6        37.977 6
G27  22001642.376 9 115619384.071 9      2497.849 9        55.375 9  22001644.308 6         0.000 6      1946.376 6        37.977 6
G16  20496561.590 9 107710137.825 9       552.868 9        55.977 9  20496560.763 6         0.000 6       430.806 6        37.977 6
G26  20656383.707 9 108550006.742 9     -1486.989 9        55.872 9  20656386.524 6         0.000 6     -1158.693 6        37.977 6
G20  21940684.252 9 115299040.883 9      2562.637 9        55.317 9  21940684.572 6         0.000 6      1996.861 6        37.977 6
> 2019 07 03 12 01  7.0000000  0  8       0.000000000000
G07  25343961.588 9 133183370.987 9      2183.026 9        54.133 9  25343962.256 6         0.000 6      1701.060 6        37.977 6
G10  23804356.991 9 125092685.700 9      3528.328 9        54.671 9  23804360.713 6         0.000 6      2749.349 6        37.977 6
G21  21172649.760 9 111263004.774 9     -1253.873 9        55.709 9  21172649.046 6         0.000 6      -977.044 6        37.977 6
G29  24304161.824 9 127719175.956 9     -3120.722 9        54.473 9  24304163.403 6         0.000 6     -2431.734 6        37.977 6
G27  22001167.074 9 115616886.343 9      2497.611 9        55.376 9  22001169.006 6         0.000 6      1946.191 6        37.977 6
G16  20496456.441 9 107709585.265 9       552.252 9        55.977 9  20496455.614 6         0.000 6       430.326 6        37.977 6
G26  20656666.726 9 108551494.016 9     -1487.563 9        55.872 9  20656669.543 6         0.000 6     -1159.141 6        37.977 6
G20  21940196.641 9 115296478.473 9      2562.193 9        55.317 9  21940196.960 6         0.000 6      1996.515 6        37.977 6
> 2019 07 03 12 01  8.0000000  0  8       0.000000000000
G07  25343546.216 9 133181188.197 9      2182.566 9        54.133 9  25343546.885 6         0.000 6      1700.702 6        37.977 6
G10  23803685.585 9 125089157.447 9      3528.190 9        54.671 9  23803689.306 6         0.000 6      2749.242 6        37.977 6
G21  21172888.398 9 111264258.824 9     -1254.233 9        55.708 9  21172887.684 6         0.000 6      -977.325 6        37.977 6
G29  24304755.686 9 127722296.710 9     -3120.807 9        54.473 9  24304757.266 6         0.000 6     -2431.801 6        37.977 6
G27  22000691.816 9 115614388.851 9      2497.374 9        55.376 9  22000693.748 6         0.000 6      1946.007 6        37.977 6
G16  20496351.409 9 107709033.318 9       551.636 9        55.977 9  20496350.582 6         0.000 6       429.846 6        37.977 6
G26  20656949.854 9 108552981.860 9     -1488.138 9        55.872 9  20656952.671 6         0.000 6     -1159.588 6        37.977 6
G20  21939709.114 9 115293916.502 9      2561.749 9        55.317 9  21939709.433 6         0.000 6      1996.169 6        37.977 6
> 2019 07 03 12 01  9.0000000  0  8       0.000000000000
G07  25343130.932 9 133179005.865 9      2182.106 9        54.133 9  25343131.600 6         0.000 6      1700.343 6        37.977 6
G10  23803014.206 9 125085629.337 9      3528.052 9        54.672 9  23803017.926 6         0.000 6      2749.134 6        37.977 6
G21  21173127.105 9 111265513.236 9     -1254.593 9        55.708 9  21173126.391 6         0.000 6      -977.605 6        37.977 6
G29  24305349.564 9 127725417.550 9     -3120.893 9        54.473 9  24305351.144 6         0.000 6     -2431.867 6        37.977 6
G27  22000216.604 9 115611891.598 9      2497.137 9        55.376 9  22000218.536 6         0.000 6      1945.822 6        37.977 6
G16  20496246.495 9 107708481.991 9       551.019 9        55.977 9  20496245.668 6         0.000 6       429.366 6        37.977 6
G26  20657233.092 9 108554470.283 9     -1488.712 9        55.872 9  20657235.909 6         0.000 6     -1160.036 6        37.977 6
G20  21939221.671 9 115291354.980 9      2561.305 9        55.317 9  21939221.990 6         0.000 6      1995.823 6        37.977 6
> 2019 07 03 12 01 10.0000000  0  8       0.000000000000
G07  25342715.735 9 133176823.995 9      2181.646 9        54.133 9  25342716.403 6         0.000 6      1699.985 6        37.977 6
G10  23802342.852 9 125082101.361 9      3527.914 9        54.672 9  23802346.572 6         0.000 6      2749.026 6        37.977 6
G21  21173365.880 9 111266768.007 9     -1254.954 9        55.708 9  21173365.166 6         0.000 6      -977.886 6        37.977 6
G29  24305943.458 9 127728538.475 9     -3120.978 9        54.473 9  24305945.039 6         0.000 6     -2431.934 6        37.977 6
G27  21999741.437 9 115609394.580 9      2496.900 9        55.376 9  21999743.368 6         0.000 6      1945.637 6        37.977 6
G16  20496141.698 9 107707931.276 9       550.403 9        55.977 9  20496140.871 6         0.000 6       428.885 6        37.977 6
G26  20657516.438 9 108555959.276 9     -1489.287 9        55.872 9  20657519.255 6         0.000 6     -1160.484 6        37.977 6
G20  21938734.313 9 115288793.898 9      2560.861 9        55.318 9  21938734.631 6         0.000 6      1995.477 6        37.977 6
> 2019 07 03 12 01 11.0000000  0  8       0.000000000000
G07  25342300.625 9 133174642.583 9      2181.186 9        54.133 9  25342301.293 6         0.000 6      1699.626 6        37.977 6
G10  23801671.526 9 125078573.527 9      3527.775 9        54.672 9  23801675.245 6         0.000 6      2748.919 6        37.977 6
G21  21173604.724 9 111268023.140 9     -1255.314 9        55.708 9  21173604.010 6         0.000 6      -978.167 6        37.977 6
G29  24306537.369 9 127731659.486 9     -3121.063 9        54.472 9  24306538.950 6         0.000 6     -2432.000 6        37.977 6
G27  21999266.316 9 115606897.801 9      2496.663 9        55.376 9  21999268.247 6         0.000 6      1945.452 6        37.977 6
G16  20496037.018 9 107707381.182 9       549.786 9        55.977 9  20496036.191 6         0.000 6       428.405 6        37.977 6
G26  20657799.894 9 108557448.848 9     -1489.861 9        55.872 9  20657802.712 6         0.000 6     -1160.931 6        37.977 6
G20  21938247.039 9 115286233.264 9      2560.416 9        55.318 9  21938247.358 6         0.000 6      1995.131 6        37.977 6
> 2019 07 03 12 01 12.0000000  0  8       0.000000000000
G07  25341885.604 9 133172461.633 9      2180.726 9        54.133 9  25341886.271 6         0.000 6      1699.268 6        37.977 6
G10  23801000.225 9 125075045.829 9      3527.637 9        54.672 9  23801003.943 6         0.000 6      2748.811 6        37.977 6
G21  21173843.636 9 111269278.631 9     -1255.674 9        55.708 9  21173842.922 6         0.000 6      -978.448 6        37.977 6
G29  24307131.295 9 127734780.577 9     -3121.149 9        54.472 9  24307132.877 6         0.000 6     -2432.067 6        37.977 6
G27  21998791.240 9 115604401.264 9      2496.426 9        55.377 9  21998793.171 6         0.000 6      1945.267 6        37.977 6
G16  20495932.456 9 107706831.705 9       549.170 9        55.977 9  20495931.629 6         0.000 6       427.924 6        37.977 6
G26  20658083.460 9 108558938.994 9     -1490.436 9        55.872 9  20658086.278 6         0.000 6     -1161.379 6        37.977 6
G20  21937759.850 9 115283673.071 9      2559.972 9        55.318 9  21937760.168 6         0.000 6      1994.785 6        37.977 6
> 2019 07 03 12 01 13.0000000  0  8       0.000000000000
G07  25341470.670 9 133170281.144 9      2180.266 9        54.133 9  25341471.337 6         0.000 6      1698.909 6        37.977 6
G10  23800328.950 9 125071518.267 9      3527.499 9        54.673 9  23800332.668 6         0.000 6      2748.703 6        37.977 6
G21  21174082.617 9 111270534.482 9     -1256.034 9        55.708 9  21174081.903 6         0.000 6      -978.728 6        37.977 6
G29  24307725.237 9 127737901.758 9     -3121.234 9        54.472 9  24307726.820 6         0.000 6     -2432.133 6        37.977 6
G27  21998316.208 9 115601904.958 9      2496.188 9        55.377 9  21998318.139 6         0.000 6      1945.082 6        37.977 6
G16  20495828.011 9 107706282.841 9       548.553 9        55.977 9  20495827.184 6         0.000 6       427.444 6        37.977 6
G26  20658367.134 9 108560429.711 9     -1491.010 9        55.871 9  20658369.952 6         0.000 6     -1161.826 6        37.977 6
G20  21937272.745 9 115281113.321 9      2559.528 9        55.318 9  21937273.063 6         0.000 6      1994.438 6        37.977 6
> 2019 07 03 12 01 14.0000000  0  8       0.000000000000
G07  25341055.823 9 133168101.112 9      2179.805 9        54.134 9  25341056.490 6         0.000 6      1698.551 6        37.977 6
G10  23799657.703 9 125067990.849 9      3527.360 9        54.673 9  23799661.420 6         0.000 6      2748.595 6        37.977 6
G21  21174321.666 9 111271790.695 9     -1256.394 9        55.708 9  21174320.953 6         0.000 6      -979.009 6        37.977 6
G29  24308319.197 9 127741023.024 9     -3121.319 9        54.472 9  24308320.780 6         0.000 6     -2432.199 6        37.977 6
G27  21997841.222 9 115599408.891 9      2495.951 9        55.377 9  21997843.152 6         0.000 6      1944.898 6        37.977 6
G16  20495723.683 9 107705734.596 9       547.937 9        55.977 9  20495722.856 6         0.000 6       426.964 6        37.977 6
G26  20658650.919 9 108561921.006 9     -1491.584 9        55.871 9  20658653.737 6         0.000 6     -1162.274 6        37.977 6
G20  21936785.725 9 115278554.021 9      2559.083 9        55.318 9  21936786.043 6         0.000 6      1994.092 6        37.977 6
> 2019 07 03 12 01 15.0000000  0  8       0.000000000000
G07  25340641.064 9 133165921.543 9      2179.345 9        54.134 9  25340641.730 6         0.000 6      1698.192 6        37.977 6
G10  23798986.481 9 125064463.564 9      3527.221 9        54.673 9  23798990.197 6         0.000 6      2748.487 6        37.977 6
G21  21174560.784 9 111273047.267 9     -1256.754 9        55.708 9  21174560.070 6         0.000 6      -979.289 6        37.977 6
G29  24308913.172 9 127744144.375 9     -3121.404 9        54.472 9  24308914.756 6         0.000 6     -2432.266 6        37.977 6
G27  21997366.280 9 115596913.059 9      2495.714 9        55.377 9  21997368.211 6         0.000 6      1944.713 6        37.977 6
G16  20495619.472 9 107705186.964 9       547.320 9        55.977 9  20495618.646 6         0.000 6       426.483 6        37.977 6
G26  20658934.811 9 108563412.871 9     -1492.159 9        55.871 9  20658937.630 6         0.000 6     -1162.721 6        37.977 6
G20  21936298.790 9 115275995.160 9      2558.638 9        55.319 9  21936299.107 6         0.000 6      1993.745 6        37.977 6
> 2019 07 03 12 01 16.0000000  0  8       0.000000000000
G07  25340226.392 9 133163742.431 9      2178.885 9        54.134 9  25340227.058 6         0.000 6      1697.833 6        37.977 6
G10  23798315.286 9 125060936.423 9      3527.082 9        54.673 9  23798319.002 6         0.000 6      2748.379 6        37.977 6
G21  21174799.971 9 111274304.200 9     -1257.114 9        55.708 9  21174799.257 6         0.000 6      -979.570 6        37.977 6
G29  24309507.164 9 127747265.812 9     -3121.490 9        54.471 9  24309508.748 6         0.000 6     -2432.332 6        37.977 6
G27  21996891.384 9 115594417.467 9      2495.476 9        55.377 9  21996893.315 6         0.000 6      1944.528 6        37.977 6
G16  20495515.380 9 107704639.953 9       546.703 9        55.977 9  20495514.553 6         0.000 6       426.003 6        37.977 6
G26  20659218.814 9 108564905.315 9     -1492.733 9        55.871 9  20659221.633 6         0.000 6     -1163.169 6        37.977 6
G20  21935811.939 9 115273436.748 9      2558.194 9        55.319 9  21935812.256 6         0.000 6      1993.399 6        37.977 6
> 2019 07 03 12 01 17.0000000  0  8       0.000000000000
G07  25339811.808 9 133161563.783 9      2178.424 9        54.134 9  25339812.475 6         0.000 6      1697.474 6        37.977 6
G10  23797644.117 9 125057409.416 9      3526.944 9        54.674 9  23797647.832 6         0.000 6      2748.270 6        37.977 6
G21  21175039.225 9 111275561.491 9     -1257.474 9        55.708 9  21175038.512 6         0.000 6      -979.850 6        37.977 6
G29  24310101.171 9 127750387.334 9     -3121.575 9        54.471 9  24310102.757 6         0.000 6     -2432.399 6        37.977 6
G27  21996416.533 9 115591922.110 9      2495.239 9        55.378 9  21996418.463 6         0.000 6      1944.343 6        37.977 6
G16  20495411.403 9 107704093.555 9       546.087 9        55.977 9  20495410.577 6         0.000 6       425.522 6        37.977 6
G26  20659502.926 9 108566398.328 9     -1493.307 9        55.871 9  20659505.744 6         0.000 6     -1163.616 6        37.977 6
G20  21935325.173 9 115270878.777 9      2557.749 9        55.319 9  21935325.489 6         0.000 6      1993.052 6        37.977 6
> 2019 07 03 12 01 18.0000000  0  8       0.000000000000
G07  25339397.312 9 133159385.593 9      2177.964 9        54.134 9  25339397.978 6         0.000 6      1697.115 6        37.977 6
G10  23796972.975 9 125053882.553 9      3526.804 9        54.674 9  23796976.690 6         0.000 6      2748.162 6        37.977 6
G21  21175278.549 9 111276819.145 9     -1257.834 9        55.707 9  21175277.836 6         0.000 6      -980.131 6        37.977 6
G29  24310695.196 9 127753508.941 9     -3121.660 9        54.471 9  24310696.781 6         0.000 6     -2432.465 6        37.977 6
G27  21995941.728 9 115589426.993 9      2495.001 9        55.378 9  21995943.658 6         0.000 6      1944.157 6        37.977 6
G16  20495307.545 9 107703547.777 9       545.470 9        55.977 9  20495306.719 6         0.000 6       425.041 6        37.977 6
G26  20659787.147 9 108567891.921 9     -1493.881 9        55.871 9  20659789.966 6         0.000 6     -1164.064 6        37.977 6
G20  21934838.492 9 115268321.255 9      2557.304 9        55.319 9  21934838.808 6         0.000 6      1992.706 6        37.977 6
> 2019 07 03 12 01 19.0000000  0  8       0.000000000000
G07  25338982.903 9 133157207.866 9      2177.503 9        54.134 9  25338983.569 6         0.000 6      1696.757 6        37.977 6
G10  23796301.859 9 125050355.824 9      3526.665 9        54.674 9  23796305.573 6         0.000 6      2748.054 6        37.977 6
G21  21175517.941 9 111278077.156 9     -1258.194 9        55.707 9  21175517.227 6         0.000 6      -980.411 6        37.977 6
G29  24311289.236 9 127756630.634 9     -3121.745 9        54.471 9  24311290.822 6         0.000 6     -2432.531 6        37.977 6
G27  21995466.967 9 115586932.111 9      2494.764 9        55.378 9  21995468.897 6         0.000 6      1943.972 6        37.977 6
G16  20495203.804 9 107703002.612 9       544.853 9        55.977 9  20495202.977 6         0.000 6       424.561 6        37.977 6
G26  20660071.477 9 108569386.083 9     -1494.456 9        55.871 9  20660074.296 6         0.000 6     -1164.511 6        37.977 6
G20  21934351.894 9 115265764.174 9      2556.859 9        55.319 9  21934352.210 6         0.000 6      1992.359 6        37.977 6
> 2019 07 03 12 01 20.0000000  0  8       0.000000000000
G07  25338568.583 9 133155030.599 9      2177.042 9        54.134 9  25338569.248 6         0.000 6      1696.397 6        37.977 6
G10  23795630.770 9 125046829.237 9      3526.526 9        54.674 9  23795634.483 6         0.000 6      2747.945 6        37.977 6
G21  21175757.401 9 111279335.527 9     -1258.554 9        55.707 9  21175756.687 6         0.000 6      -980.691 6        37.977 6
G29  24311883.291 9 127759752.406 9     -3121.830 9        54.471 9  24311884.878 6         0.000 6     -2432.598 6        37.977 6
G27  21994992.253 9 115584437.473 9      2494.526 9        55.378 9  21994994.182 6         0.000 6      1943.787 6        37.977 6
G16  20495100.181 9 107702458.069 9       544.236 9        55.977 9  20495099.354 6         0.000 6       424.080 6        37.977 6
G26  20660355.917 9 108570880.823 9     -1495.030 9        55.871 9  20660358.736 6         0.000 6     -1164.959 6        37.977 6
G20  21933865.382 9 115263207.539 9      2556.414 9        55.320 9  21933865.698 6         0.000 6      1992.012 6        37.977 6
> 2019 07 03 12 01 21.0000000  0  8       0.000000000000
G07  25338154.349 9 133152853.791 9      2176.581 9        54.135 9  25338155.015 6         0.000 6      1696.038 6        37.977 6
G10  23794959.707 9 125043302.791 9      3526.387 9        54.675 9  23794963.420 6         0.000 6      2747.837 6        37.977 6
G21  21175996.930 9 111280594.259 9     -1258.913 9        55.707 9  21175996.217 6         0.000 6      -980.972 6        37.977 6
G29  24312477.364 9 127762874.268 9     -3121.915 9        54.470 9  24312478.952 6         0.000 6     -2432.664 6        37.977 6
G27  21994517.583 9 115581943.068 9      2494.289 9        55.378 9  21994519.512 6         0.000 6      1943.602 6        37.977 6
G16  20494996.675 9 107701914.141 9       543.619 9        55.978 9  20494995.848 6         0.000 6       423.599 6        37.977 6
G26  20660640.467 9 108572376.138 9     -1495.604 9        55.870 9  20660643.285 6         0.000 6     -1165.406 6        37.977 6
G20  21933378.955 9 115260651.352 9      2555.969 9        55.320 9  21933379.270 6         0.000 6      1991.665 6        37.977 6
> 2019 07 03 12 01 22.0000000  0  8       0.000000000000
G07  25337740.204 9 133150677.446 9      2176.121 9        54.135 9  25337740.869 6         0.000 6      1695.679 6        37.977 6
G10  23794288.671 9 125039776.480 9      3526.247 9        54.675 9  23794292.383 6         0.000 6      2747.728 6        37.977 6
G21  21176236.527 9 111281853.349 9     -1259.273 9        55.707 9  21176235.814 6         0.000 6      -981.252 6        37.977 6
G29  24313071.453 9 127765996.216 9     -3122.000 9        54.470 9  24313073.041 6         0.000 6     -2432.730 6        37.977 6
G27  21994042.957 9 115579448.899 9      2494.051 9        55.378 9  21994044.887 6         0.000 6      1943.417 6        37.977 6
G16  20494893.286 9 107701370.827 9       543.002 9        55.978 9  20494892.459 6         0.000 6       423.119 6        37.977 6
G26  20660925.124 9 108573872.022 9     -1496.178 9        55.870 9  20660927.943 6         0.000 6     -1165.853 6        37.977 6
G20  21932892.612 9 115258095.606 9      2555.524 9        55.320 9  21932892.927 6         0.000 6      1991.318 6        37.977 6
> 2019 07 03 12 01 23.0000000  0  8       0.000000000000
G07  25337326.146 9 133148501.560 9      2175.660 9        54.135 9  25337326.811 6         0.000 6      1695.320 6        37.977 6
G10  23793617.662 9 125036250.313 9      3526.108 9        54.675 9  23793621.373 6         0.000 6      2747.619 6        37.977 6
G21  21176476.193 9 111283112.801 9     -1259.633 9        55.707 9  21176475.480 6         0.000 6      -981.532 6        37.977 6
G29  24313665.558 9 127769118.249 9     -3122.085 9        54.470 9  24313667.147 6         0.000 6     -2432.796 6        37.977 6
G27  21993568.378 9 115576954.970 9      2493.813 9        55.379 9  21993570.307 6         0.000 6      1943.232 6        37.977 6
G16  20494790.014 9 107700828.134 9       542.385 9        55.978 9  20494789.188 6         0.000 6       422.638 6        37.977 6
G26  20661209.892 9 108575368.485 9     -1496.752 9        55.870 9  20661212.711 6         0.000 6     -1166.301 6        37.977 6
G20  21932406.354 9 115255540.310 9      2555.078 9        55.320 9  21932406.669 6         0.000 6      1990.971 6        37.977 6
> 2019 07 03 12 01 24.0000000  0  8       0.000000000000
G07  25336912.176 9 133146326.137 9      2175.199 9        54.135 9  25336912.841 6         0.000 6      1694.961 6        37.977 6
G10  23792946.678 9 125032724.281 9      3525.968 9        54.675 9  23792950.389 6         0.000 6      2747.510 6        37.977 6
G21  21176715.927 9 111284372.611 9     -1259.992 9        55.707 9  21176715.213 6         0.000 6      -981.812 6        37.977 6
G29  24314259.679 9 127772240.366 9     -3122.170 9        54.470 9  24314261.269 6         0.000 6     -2432.863 6        37.977 6
G27  21993093.843 9 115574461.276 9      2493.576 9        55.379 9  21993095.772 6         0.000 6      1943.047 6        37.977 6
G16  20494686.860 9 107700286.053 9       541.768 9        55.978 9  20494686.033 6         0.000 6       422.157 6        37.977 6
G26  20661494.768 9 108576865.518 9     -1497.326 9        55.870 9  20661497.587 6         0.000 6     -1166.748 6        37.977 6
G20  21931920.181 9 115252985.455 9      2554.633 9        55.320 9  21931920.495 6         0.000 6      1990.624 6        37.977 6
> 2019 07 03 12 01 25.0000000  0  8       0.000000000000
G07  25336498.293 9 133144151.172 9      2174.738 9        54.135 9  25336498.958 6         0.000 6      1694.602 6        37.977 6
G10  23792275.722 9 125029198.394 9      3525.828 9        54.676 9  23792279.432 6         0.000 6      2747.401 6        37.977 6
G21  21176955.729 9 111285632.782 9     -1260.352 9        55.707 9  21176955.016 6         0.000 6      -982.092 6        37.977 6
G29  24314853.816 9 127775362.569 9     -3122.255 9        54.470 9  24314855.407 6         0.000 6     -2432.929 6        37.977 6
G27  21992619.354 9 115571967.822 9      2493.338 9        55.379 9  21992621.283 6         0.000 6      1942.861 6        37.977 6
G16  20494583.824 9 107699744.594 9       541.151 9        55.978 9  20494582.997 6         0.000 6       421.676 6        37.977 6
G26  20661779.754 9 108578363.129 9     -1497.900 9        55.870 9  20661782.574 6         0.000 6     -1167.195 6        37.977 6
G20  21931434.093 9 115250431.049 9      2554.187 9        55.321 9  21931434.407 6         0.000 6      1990.277 6        37.977 6
> 2019 07 03 12 01 26.0000000  0  8       0.000000000000
G07  25336084.499 9 133141976.672 9      2174.276 9        54.135 9  25336085.163 6         0.000 6      1694.242 6        37.977 6
G10  23791604.791 9 125025672.641 9      3525.689 9        54.676 9  23791608.501 6         0.000 6      2747.292 6        37.977 6
G21  21177195.600 9 111286893.310 9     -1260.711 9        55.707 9  21177194.887 6         0.000 6      -982.372 6        37.977 6
G29  24315447.970 9 127778484.857 9     -3122.340 9        54.469 9  24315449.561 6         0.000 6     -2432.995 6        37.977 6
G27  21992144.910 9 115569474.604 9      2493.100 9        55.379 9  21992146.839 6         0.000 6      1942.676 6        37.977 6
G16  20494480.904 9 107699203.748 9       540.534 9        55.978 9  20494480.077 6         0.000 6       421.196 6        37.977 6
G26  20662064.849 9 108579861.309 9     -1498.474 9        55.870 9  20662067.668 6         0.000 6     -1167.642 6        37.977 6
G20  21930948.088 9 115247877.085 9      2553.741 9        55.321 9  21930948.403 6         0.000 6      1989.930 6        37.977 6
> 2019 07 03 12 01 27.0000000  0  8       0.000000000000
G07  25335670.792 9 133139802.629 9      2173.815 9        54.135 9  25335671.456 6         0.000 6      1693.883 6        37.977 6
G10  23790933.889 9 125022147.034 9      3525.549 9        54.676 9  23790937.597 6         0.000 6      2747.183 6        37.977 6
G21  21177435.540 9 111288154.200 9     -1261.070 9        55.707 9  21177434.826 6         0.000 6      -982.652 6        37.977 6
G29  24316042.139 9 127781607.229 9     -3122.425 9        54.469 9  24316043.731 6         0.000 6     -2433.061 6        37.977 6
G27  21991670.512 9 115566981.626 9      2492.862 9        55.379 9  21991672.440 6         0.000 6      1942.491 6        37.977 6
G16  20494378.103 9 107698663.522 9       539.917 9        55.978 9  20494377.276 6         0.000 6       420.715 6        37.977 6
G26  20662350.054 9 108581360.068 9     -1499.048 9        55.870 9  20662352.873 6         0.000 6     -1168.090 6        37.977 6
G20  21930462.170 9 115245323.571 9      2553.296 9        55.321 9  21930462.484 6         0.000 6      1989.582 6        37.977 6
> 2019 07 03 12 01 28.0000000  0  8       0.000000000000
G07  25335257.173 9 133137629.054 9      2173.354 9        54.136 9  25335257.837 6         0.000 6      1693.523 6        37.977 6
G10  23790263.011 9 125018621.559 9      3525.408 9        54.676 9  23790266.719 6         0.000 6      2747.074 6        37.977 6
G21  21177675.547 9 111289415.445 9     -1261.430 9        55.706 9  21177674.834 6         0.000 6      -982.932 6        37.977 6
G29  24316636.324 9 127784729.682 9     -3122.510 9        54.469 9  24316637.917 6         0.000 6     -2433.127 6        37.977 6
G27  21991196.159 9 115564488.887 9      2492.624 9        55.380 9  21991198.087 6         0.000 6      1942.305 6        37.977 6
G16  20494275.418 9 107698123.912 9       539.300 9        55.978 9  20494274.591 6         0.000 6       420.234 6        37.977 6
G26  20662635.367 9 108582859.396 9     -1499.622 9        55.870 9  20662638.186 6         0.000 6     -1168.537 6        37.977 6
G20  21929976.335 9 115242770.496 9      2552.850 9        55.321 9  21929976.649 6         0.000 6      1989.235 6        37.977 6
> 2019 07 03 12 01 29.0000000  0  8       0.000000000000
G07  25334843.642 9 133135455.934 9      2172.892 9        54.136 9  25334844.305 6         0.000 6      1693.164 6        37.977 6
G10  23789592.161 9 125015096.231 9      3525.268 9        54.677 9  23789595.869 6         0.000 6      2746.965 6        37.977 6
G21  21177915.623 9 111290677.053 9     -1261.789 9        55.706 9  21177914.910 6         0.000 6      -983.212 6        37.977 6
G29  24317230.526 9 127787852.224 9     -3122.595 9        54.469 9  24317232.119 6         0.000 6     -2433.194 6        37.977 6
G27  21990721.851 9 115561996.384 9      2492.386 9        55.380 9  21990723.779 6         0.000 6      1942.120 6        37.977 6
G16  20494172.851 9 107697584.920 9       538.683 9        55.978 9  20494172.025 6         0.000 6       419.753 6        37.977 6
G26  20662920.790 9 108584359.302 9     -1500.195 9        55.870 9  20662923.609 6         0.000 6     -1168.984 6        37.977 6
G20  21929490.586 9 115240217.873 9      2552.404 9        55.321 9  21929490.899 6         0.000 6      1988.887 6        37.977 6
> 2019 07 03 12 01 30.0000000  0  8       0.000000000000
G07  25334430.199 9 133133283.279 9      2172.431 9        54.136 9  25334430.862 6         0.000 6      1692.804 6        37.977 6
G10  23788921.338 9 125011571.039 9      3525.128 9        54.677 9  23788925.044 6         0.000 6      2746.856 6        37.977 6
G21  21178155.767 9 111291939.018 9     -1262.148 9        55.706 9  21178155.054 6         0.000 6      -983.492 6        37.977 6
G29  24317824.745 9 127790974.851 9     -3122.680 9        54.468 9  24317826.338 6         0.000 6     -2433.260 6        37.977 6
G27  21990247.588 9 115559504.118 9      2492.149 9        55.380 9  21990249.516 6         0.000 6      1941.935 6        37.977 6
G16  20494070.402 9 107697046.543 9       538.066 9        55.978 9  20494069.575 6         0.000 6       419.272 6        37.977 6
G26  20663206.321 9 108585859.778 9     -1500.769 9        55.869 9  20663209.141 6         0.000 6     -1169.431 6        37.977 6
G20  21929004.922 9 115237665.692 9      2551.958 9        55.321 9  21929005.235 6         0.000 6      1988.540 6        37.977 6
> 2019 07 03 12 01 31.0000000  0  8       0.000000000000
G07  25334016.843 9 133131111.083 9      2171.969 9        54.136 9  25334017.506 6         0.000 6      1692.444 6        37.977 6
G10  23788250.542 9 125008045.992 9      3524.988 9        54.677 9  23788254.248 6         0.000 6      2746.746 6        37.977 6
G21  21178395.980 9 111293201.345 9     -1262.507 9        55.706 9  21178395.267 6         0.000 6      -983.772 6        37.977 6
G29  24318418.979 9 127794097.564 9     -3122.765 9        54.468 9  24318420.573 6         0.000 6     -2433.326 6        37.977 6
G27  21989773.370 9 115557012.091 9      2491.911 9        55.380 9  21989775.298 6         0.000 6      1941.749 6        37.977 6
G16  20493968.070 9 107696508.786 9       537.448 9        55.978 9  20493967.243 6         0.000 6       418.791 6        37.977 6
G26  20663491.962 9 108587360.832 9     -1501.343 9        55.869 9  20663494.782 6         0.000 6     -1169.878 6        37.977 6
G20  21928519.343 9 115235113.962 9      2551.512 9        55.322 9  21928519.655 6         0.000 6      1988.192 6        37.977 6
> 2019 07 03 12 01 32.0000000  0  8       0.000000000000
G07  25333603.575 9 133128939.348 9      2171.508 9        54.136 9  25333604.237 6         0.000 6      1692.085 6        37.977 6
G10  23787579.772 9 125004521.085 9      3524.847 9        54.677 9  23787583.478 6         0.000 6      2746.637 6        37.977 6
G21  21178636.261 9 111294464.031 9     -1262.866 9        55.706 9  21178635.548 6         0.000 6      -984.052 6        37.977 6
G29  24319013.229 9 127797220.361 9     -3122.850 9        54.468 9  24319014.824 6         0.000 6     -2433.392 6        37.977 6
G27  21989299.198 9 115554520.302 9      2491.672 9        55.380 9  21989301.126 6         0.000 6      1941.564 6        37.977 6
G16  20493865.856 9 107695971.646 9       536.831 9        55.978 9  20493865.029 6         0.000 6       418.310 6        37.977 6
G26  20663777.713 9 108588862.460 9     -1501.917 9        55.869 9  20663780.533 6         0.000 6     -1170.325 6        37.977 6
G20  21928033.849 9 115232562.678 9      2551.066 9        55.322 9  21928034.161 6         0.000 6      1987.844 6        37.977 6
> 2019 07 03 12 01 33.0000000  0  8       0.000000000000
G07  25333190.395 9 133126768.077 9      2171.046 9        54.136 9  25333191.058 6         0.000 6      1691.725 6        37.977 6
G10  23786909.029 9 125000996.315 9      3524.707 9        54.678 9  23786912.733 6         0.000 6      2746.527 6        37.977 6
G21  21178876.610 9 111295727.074 9     -1263.225 9        55.706 9  21178875.898 6         0.000 6      -984.332 6        37.977 6
G29  24319607.496 9 127800343.243 9     -3122.935 9        54.468 9  24319609.091 6         0.000 6     -2433.458 6        37.977 6
G27  21988825.071 9 115552028.749 9      2491.434 9        55.381 9  21988826.998 6         0.000 6      1941.378 6        37.977 6
G16  20493763.758 9 107695435.121 9       536.214 9        55.978 9  20493762.931 6         0.000 6       417.829 6        37.977 6
G26  20664063.572 9 108590364.657 9     -1502.490 9        55.869 9  20664066.392 6         0.000 6     -1170.772 6        37.977 6
G20  21927548.439 9 115230011.836 9      2550.619 9        55.322 9  21927548.751 6         0.000 6      1987.497 6        37.977 6
> 2019 07 03 12 01 34.0000000  0  8       0.000000000000
G07  25332777.302 9 133124597.266 9      2170.584 9        54.136 9  25332777.965 6         0.000 6      1691.365 6        37.977 6
G10  23786238.313 9 124997471.689 9      3524.566 9        54.678 9  23786242.017 6         0.000 6      2746.418 6        37.977 6
G21  21179117.028 9 111296990.478 9     -1263.584 9        55.706 9  21179116.316 6         0.000 6      -984.611 6        37.977 6
G29  24320201.779 9 127803466.209 9     -3123.019 9        54.468 9  24320203.375 6         0.000 6     -2433.524 6        37.977 6
G27  21988350.989 9 115549537.437 9      2491.196 9        55.381 9  21988352.916 6         0.000 6      1941.193 6        37.977 6
G16  20493661.779 9 107694899.216 9       535.596 9        55.978 9  20493660.952 6         0.000 6       417.348 6        37.977 6
G26  20664349.541 9 108591867.432 9     -1503.064 9        55.869 9  20664352.361 6         0.000 6     -1171.219 6        37.977 6
G20  21927063.114 9 115227461.444 9      2550.173 9        55.322 9  21927063.426 6         0.000 6      1987.149 6        37.977 6
> 2019 07 03 12 01 35.0000000  0  8       0.000000000000
G07  25332364.299 9 133122426.922 9      2170.122 9        54.137 9  25332364.961 6         0.000 6      1691.005 6        37.977 6
G10  23785567.622 9 124993947.197 9      3524.425 9        54.678 9  23785571.326 6         0.000 6      2746.308 6        37.977 6
G21  21179357.514 9 111298254.236 9     -1263.943 9        55.706 9  21179356.801 6         0.000 6      -984.891 6        37.977 6
G29  24320796.077 9 127806589.256 9     -3123.104 9        54.467 9  24320797.673 6         0.000 6     -2433.590 6        37.977 6
G27  21987876.953 9 115547046.364 9      2490.958 9        55.381 9  21987878.880 6         0.000 6      1941.007 6        37.977 6
G16  20493559.917 9 107694363.927 9       534.979 9        55.978 9  20493559.090 6         0.000 6       416.867 6        37.977 6
G26  20664635.618 9 108593370.776 9     -1503.638 9        55.869 9  20664638.438 6         0.000 6     -1171.666 6        37.977 6
G20  21926577.874 9 115224911.492 9      2549.726 9        55.322 9  21926578.185 6         0.000 6      1986.801 6        37.977 6
> 2019 07 03 12 01 36.0000000  0  8       0.000000000000
G07  25331951.382 9 133120257.034 9      2169.660 9        54.137 9  25331952.044 6         0.000 6      1690.645 6        37.977 6
G10  23784896.960 9 124990422.853 9      3524.284 9        54.678 9  23784900.663 6         0.000 6      2746.198 6        37.977 6
G21  21179598.068 9 111299518.358 9     -1264.302 9        55.706 9  21179597.355 6         0.000 6      -985.171 6        37.977 6
G29  24321390.392 9 127809712.392 9     -3123.189 9        54.467 9  24321391.989 6         0.000 6     -2433.656 6        37.977 6
G27  21987402.962 9 115544555.527 9      2490.720 9        55.381 9  21987404.889 6         0.000 6      1940.822 6        37.977 6
G16  20493458.172 9 107693829.257 9       534.361 9        55.978 9  20493457.346 6         0.000 6       416.385 6        37.977 6
G26  20664921.805 9 108594874.699 9     -1504.211 9        55.869 9  20664924.626 6         0.000 6     -1172.113 6        37.977 6
G20  21926092.719 9 115222361.993 9      2549.280 9        55.323 9  21926093.031 6         0.000 6      1986.453 6        37.977 6
> 2019 07 03 12 01 37.0000000  0  8       0.000000000000
G07  25331538.554 9 133118087.611 9      2169.198 9        54.137 9  25331539.216 6         0.000 6      1690.285 6        37.977 6
G10  23784226.323 9 124986898.646 9      3524.143 9        54.679 9  23784230.026 6         0.000 6      2746.088 6        37.977 6
G21  21179838.691 9 111300782.836 9     -1264.661 9        55.706 9  21179837.978 6         0.000 6      -985.450 6        37.977 6
G29  24321984.723 9 127812835.613 9     -3123.274 9        54.467 9  24321986.321 6         0.000 6     -2433.722 6        37.977 6
G27  21986929.016 9 115542064.927 9      2490.482 9        55.381 9  21986930.943 6         0.000 6      1940.636 6        37.977 6
G16  20493356.545 9 107693295.201 9       533.744 9        55.978 9  20493355.718 6         0.000 6       415.904 6        37.977 6
G26  20665208.101 9 108596379.190 9     -1504.785 9        55.869 9  20665210.921 6         0.000 6     -1172.560 6        37.977 6
G20  21925607.649 9 115219812.937 9      2548.833 9        55.323 9  21925607.960 6         0.000 6      1986.105 6        37.977 6
> 2019 07 03 12 01 38.0000000  0  8       0.000000000000
G07  25331125.814 9 133115918.647 9      2168.736 9        54.137 9  25331126.475 6         0.000 6      1689.925 6        37.977 6
G10  23783555.715 9 124983374.584 9      3524.002 9        54.679 9  23783559.416 6         0.000 6      2745.978 6        37.977 6
G21  21180079.382 9 111302047.676 9     -1265.020 9        55.705 9  21180078.669 6         0.000 6      -985.730 6        37.977 6
G29  24322579.070 9 127815958.919 9     -3123.358 9        54.467 9  24322580.669 6         0.000 6     -2433.788 6        37.977 6
G27  21986455.116 9 115539574.567 9      2490.244 9        55.381 9  21986457.043 6         0.000 6      1940.450 6        37.977 6
G16  20493255.036 9 107692761.766 9       533.126 9        55.978 9  20493254.209 6         0.000 6       415.423 6        37.977 6
G26  20665494.507 9 108597884.260 9     -1505.358 9        55.868 9  20665497.327 6         0.000 6     -1173.007 6        37.977 6
G20  21925122.665 9 115217264.332 9      2548.386 9        55.323 9  21925122.976 6         0.000 6      1985.757 6        37.977 6
> 2019 07 03 12 01 39.0000000  0  8       0.000000000000
G07  25330713.161 9 133113750.149 9      2168.274 9        54.137 9  25330713.823 6         0.000 6      1689.565 6        37.977 6
G10  23782885.132 9 124979850.659 9      3523.861 9        54.679 9  23782888.833 6         0.000 6      2745.868 6        37.977 6
G21  21180320.141 9 111303312.872 9     -1265.378 9        55.705 9  21180319.428 6         0.000 6      -986.009 6        37.977 6
G29  24323173.434 9 127819082.309 9     -3123.443 9        54.467 9  24323175.033 6         0.000 6     -2433.854 6        37.977 6
G27  21985981.261 9 115537084.443 9      2490.005 9        55.382 9  21985983.187 6         0.000 6      1940.265 6        37.977 6
G16  20493153.643 9 107692228.945 9       532.509 9        55.978 9  20493152.816 6         0.000 6       414.942 6        37.977 6
G26  20665781.020 9 108599389.898 9     -1505.932 9        55.868 9  20665783.841 6         0.000 6     -1173.454 6        37.977 6
G20  21924637.765 9 115214716.169 9      2547.939 9        55.323 9  21924638.075 6         0.000 6      1985.408 6        37.977 6
> 2019 07 03 12 01 40.0000000  0  8       0.000000000000
G07  25330300.596 9 133111582.109 9      2167.812 9        54.137 9  25330301.258 6         0.000 6      1689.205 6        37.977 6
G10  23782214.577 9 124976326.879 9      3523.719 9        54.679 9  23782218.277 6         0.000 6      2745.758 6        37.977 6
G21  21180560.968 9 111304578.428 9     -1265.737 9        55.705 9  21180560.256 6         0.000 6      -986.289 6        37.977 6
G29  24323767.813 9 127822205.784 9     -3123.528 9        54.466 9  24323769.413 6         0.000 6     -2433.920 6        37.977 6
G27  21985507.451 9 115534594.560 9      2489.767 9        55.382 9  21985509.377 6         0.000 6      1940.079 6        37.977 6
G16  20493052.369 9 107691696.745 9       531.891 9        55.978 9  20493051.542 6         0.000 6       414.461 6        37.977 6
G26  20666067.644 9 108600896.115 9     -1506.505 9        55.868 9  20666070.465 6         0.000 6     -1173.901 6        37.977 6
G20  21924152.951 9 115212168.458 9      2547.492 9        55.323 9  21924153.261 6         0.000 6      1985.060 6        37.977 6
> 2019 07 03 12 01 41.0000000  0  8       0.000000000000
G07  25329888.120 9 133109414.532 9      2167.349 9        54.137 9  25329888.781 6         0.000 6      1688.845 6        37.977 6
G10  23781544.049 9 124972803.241 9      3523.578 9        54.680 9  23781547.749 6         0.000 6      2745.648 6        37.977 6
G21  21180801.864 9 111305844.344 9     -1266.095 9        55.705 9  21180801.151 6         0.000 6      -986.568 6        37.977 6
G29  24324362.209 9 127825329.344 9     -3123.612 9        54.466 9  24324363.809 6         0.000 6     -2433.986 6        37.977 6
G27  21985033.687 9 115532104.915 9      2489.529 9        55.382 9  21985035.613 6         0.000 6      1939.893 6        37.977 6
G16  20492951.212 9 107691165.163 9       531.273 9        55.978 9  20492950.385 6         0.000 6       413.979 6        37.977 6
G26  20666354.377 9 108602402.905 9     -1507.079 9        55.868 9  20666357.198 6         0.000 6     -1174.347 6        37.977 6
G20  21923668.221 9 115209621.193 9      2547.045 9        55.324 9  21923668.531 6         0.000 6      1984.712 6        37.977 6
> 2019 07 03 12 01 42.0000000  0  8       0.000000000000
G07  25329475.731 9 133107247.420 9      2166.887 9        54.138 9  25329476.392 6         0.000 6      1688.484 6        37.977 6
G10  23780873.547 9 124969279.740 9      3523.436 9        54.680 9  23780877.246 6         0.000 6      2745.538 6        37.977 6
G21  21181042.828 9 111307110.615 9     -1266.454 9        55.705 9  21181042.115 6         0.000 6      -986.847 6        37.977 6
G29  24324956.620 9 127828452.988 9     -3123.697 9        54.466 9  24324958.221 6         0.000 6     -2434.052 6        37.977 6
G27  21984559.968 9 115529615.506 9      2489.290 9        55.382 9  21984561.894 6         0.000 6      1939.707 6        37.977 6
G16  20492850.172 9 107690634.195 9       530.656 9        55.978 9  20492849.346 6         0.000 6       413.498 6        37.977 6
G26  20666641.218 9 108603910.264 9     -1507.652 9        55.868 9  20666644.039 6         0.000 6     -1174.794 6        37.977 6
G20  21923183.577 9 115207074.372 9      2546.598 9        55.324 9  21923183.886 6         0.000 6      1984.363 6        37.977 6
> 2019 07 03 12 01 43.0000000  0  8       0.000000000000
G07  25329063.431 9 133105080.771 9      2166.424 9        54.138 9  25329064.091 6         0.000 6      1688.124 6        37.977 6
G10  23780203.072 9 124965756.383 9      3523.295 9        54.680 9  23780206.771 6         0.000 6      2745.427 6        37.977 6
G21  21181283.859 9 111308377.245 9     -1266.812 9        55.705 9  21181283.147 6         0.000 6      -987.127 6        37.977 6
G29  24325551.047 9 127831576.712 9     -3123.782 9        54.466 9  24325552.649 6         0.000 6     -2434.118 6        37.977 6
G27  21984086.295 9 115527126.341 9      2489.052 9        55.382 9  21984088.221 6         0.000 6      1939.522 6        37.977 6
G16  20492749.251 9 107690103.849 9       530.038 9        55.978 9  20492748.424 6         0.000 6       413.017 6        37.977 6
G26  20666928.169 9 108605418.200 9     -1508.225 9        55.868 9  20666930.991 6         0.000 6     -1175.241 6        37.977 6
G20  21922699.017 9 115204527.998 9      2546.151 9        55.324 9  21922699.326 6         0.000 6      1984.015 6        37.977 6
> 2019 07 03 12 01 44.0000000  0  8       0.000000000000
G07  25328651.219 9 133102914.584 9      2165.962 9        54.138 9  25328651.879 6         0.000 6      1687.763 6        37.977 6
G10  23779532.624 9 124962233.165 9      3523.153 9        54.680 9  23779536.322 6         0.000 6      2745.317 6        37.977 6
G21  21181524.959 9 111309644.234 9     -1267.171 9        55.705 9  21181524.247 6         0.000 6      -987.406 6        37.977 6
G29  24326145.491 9 127834700.525 9     -3123.866 9        54.465 9  24326147.093 6         0.000 6     -2434.184 6        37.977 6
G27  21983612.666 9 115524637.409 9      2488.813 9        55.383 9  21983614.592 6         0.000 6      1939.336 6        37.977 6
G16  20492648.446 9 107689574.117 9       529.420 9        55.979 9  20492647.619 6         0.000 6       412.535 6        37.977 6
G26  20667215.229 9 108606926.705 9     -1508.799 9        55.868 9  20667218.050 6         0.000 6     -1175.688 6        37.977 6
G20  21922214.542 9 115201982.071 9      2545.704 9        55.324 9  21922214.851 6         0.000 6      1983.666 6        37.977 6
> 2019 07 03 12 01 45.0000000  0  8       0.000000000000
G07  25328239.094 9 133100748.857 9      2165.499 9        54.138 9  25328239.754 6         0.000 6      1687.403 6        37.977 6
G10  23778862.204 9 124958710.094 9      3523.011 9        54.681 9  23778865.901 6         0.000 6      2745.206 6        37.977 6
G21  21181766.128 9 111310911.583 9     -1267.529 9        55.705 9  21181765.416 6         0.000 6      -987.685 6        37.977 6
G29  24326739.951 9 127837824.423 9     -3123.951 9        54.465 9  24326741.554 6         0.000 6     -2434.250 6        37.977 6
G27  21983139.084 9 115522148.718 9      2488.575 9        55.383 9  21983141.009 6         0.000 6      1939.150 6        37.977 6
G16  20492547.760 9 107689045.006 9       528.802 9        55.979 9  20492546.933 6         0.000 6       412.054 6        37.977 6
G26  20667502.398 9 108608435.789 9     -1509.372 9        55.868 9  20667505.220 6         0.000 6     -1176.134 6        37.977 6
G20  21921730.154 9 115199436.596 9      2545.256 9        55.324 9  21921730.462 6         0.000 6      1983.318 6        37.977 6
> 2019 07 03 12 01 46.0000000  0  8       0.000000000000
G07  25327827.057 9 133098583.595 9      2165.037 9        54.138 9  25327827.717 6         0.000 6      1687.042 6        37.977 6
G10  23778191.810 9 124955187.160 9      3522.869 9        54.681 9  23778195.506 6         0.000 6      2745.096 6        37.977 6
G21  21182007.364 9 111312179.288 9     -1267.887 9        55.705 9  21182006.652 6         0.000 6      -987.964 6        37.977 6
G29  24327334.427 9 127840948.406 9     -3124.035 9        54.465 9  24327336.031 6         0.000 6     -2434.316 6        37.977 6
G27  21982665.546 9 115519660.263 9      2488.336 9        55.383 9  21982667.471 6         0.000 6      1938.964 6        37.977 6
G16  20492447.190 9 107688516.509 9       528.185 9        55.979 9  20492446.363 6         0.000 6       411.572 6        37.977 6
G26  20667789.676 9 108609945.441 9     -1509.945 9        55.867 9  20667792.497 6         0.000 6     -1176.581 6        37.977 6
G20  21921245.849 9 115196891.564 9      2544.809 9        55.325 9  21921246.158 6         0.000 6      1982.969 6        37.977 6
> 2019 07 03 12 01 47.0000000  0  8       0.000000000000
G07  25327415.109 9 133096418.794 9      2164.574 9        54.138 9  25327415.768 6         0.000 6      1686.682 6        37.977 6
G10  23777521.444 9 124951664.372 9      3522.727 9        54.681 9  23777525.140 6         0.000 6      2744.985 6        37.977 6
G21  21182248.670 9 111313447.354 9     -1268.246 9        55.705 9  21182247.957 6         0.000 6      -988.244 6        37.977 6
G29  24327928.919 9 127844072.473 9     -3124.120 9        54.465 9  24327930.524 6         0.000 6     -2434.382 6        37.977 6
G27  21982192.054 9 115517172.048 9      2488.098 9        55.383 9  21982193.979 6         0.000 6      1938.778 6        37.977 6
G16  20492346.739 9 107687988.633 9       527.567 9        55.979 9  20492345.912 6         0.000 6       411.091 6        37.977 6
G26  20668077.063 9 108611455.670 9     -1510.518 9        55.867 9  20668079.885 6         0.000 6     -1177.028 6        37.977 6
G20  21920761.631 9 115194346.983 9      2544.361 9        55.325 9  21920761.939 6         0.000 6      1982.620 6        37.977 6
> 2019 07 03 12 01 48.0000000  0  8       0.000000000000
G07  25327003.249 9 133094254.458 9      2164.111 9        54.138 9  25327003.908 6         0.000 6      1686.321 6        37.977 6
G10  23776851.104 9 124948141.722 9      3522.585 9        54.681 9  23776854.799 6         0.000 6      2744.874 6        37.977 6
G21  21182490.042 9 111314715.776 9     -1268.604 9        55.704 9  21182489.330 6         0.000 6      -988.523 6        37.977 6
G29  24328523.427 9 127847196.624 9     -3124.204 9        54.465 9  24328525.032 6         0.000 6     -2434.447 6        37.977 6
G27  21981718.607 9 115514684.071 9      2487.859 9        55.383 9  21981720.532 6         0.000 6      1938.592 6        37.977 6
G16  20492246.404 9 107687461.372 9       526.949 9        55.979 9  20492245.577 6         0.000 6       410.609 6        37.977 6
G26  20668364.559 9 108612966.469 9     -1511.091 9        55.867 9  20668367.381 6         0.000 6     -1177.474 6        37.977 6
G20  21920277.497 9 115191802.846 9      2543.913 9        55.325 9  21920277.805 6         0.000 6      1982.271 6        37.977 6
> 2019 07 03 12 01 49.0000000  0  8       0.000000000000
G07  25326591.476 9 133092090.582 9      2163.648 9        54.139 9  25326592.135 6         0.000 6      1685.960 6        37.977 6
G10  23776180.792 9 124944619.219 9      3522.443 9        54.681 9  23776184.486 6         0.000 6      2744.763 6        37.977 6
G21  21182731.484 9 111315984.558 9     -1268.962 9        55.704 9  21182730.771 6         0.000 6      -988.802 6        37.977 6
G29  24329117.952 9 127850320.860 9     -3124.289 9        54.464 9  24329119.557 6         0.000 6     -2434.513 6        37.977 6
G27  21981245.206 9 115512196.333 9      2487.621 9        55.384 9  21981247.131 6         0.000 6      1938.406 6        37.977 6
G16  20492146.188 9 107686934.733 9       526.331 9        55.979 9  20492145.361 6         0.000 6       410.128 6        37.977 6
G26  20668652.164 9 108614477.845 9     -1511.665 9        55.867 9  20668654.986 6         0.000 6     -1177.921 6        37.977 6
G20  21919793.449 9 115189259.161 9      2543.465 9        55.325 9  21919793.757 6         0.000 6      1981.922 6        37.977 6
> 2019 07 03 12 01 50.0000000  0  8       0.000000000000
G07  25326179.792 9 133089927.169 9      2163.185 9        54.139 9  25326180.451 6         0.000 6      1685.599 6        37.977 6
G10  23775510.507 9 124941096.858 9      3522.300 9        54.682 9  23775514.201 6         0.000 6      2744.652 6        37.977 6
G21  21182972.993 9 111317253.698 9     -1269.320 9        55.704 9  21182972.281 6         0.000 6      -989.081 6        37.977 6
G29  24329712.492 9 127853445.181 9     -3124.373 9        54.464 9  24329714.098 6         0.000 6     -2434.579 6        37.977 6
G27  21980771.850 9 115509708.835 9      2487.382 9        55.384 9  21980773.775 6         0.000 6      1938.220 6        37.977 6
G16  20492046.089 9 107686408.711 9       525.713 9        55.979 9  20492045.263 6         0.000 6       409.646 6        37.977 6
G26  20668939.879 9 108615989.794 9     -1512.238 9        55.867 9  20668942.701 6         0.000 6     -1178.367 6        37.977 6
G20  21919309.486 9 115186715.924 9      2543.018 9        55.325 9  21919309.794 6         0.000 6      1981.573 6        37.977 6
> 2019 07 03 12 01 51.0000000  0  8       0.000000000000
G07  25325768.196 9 133087764.225 9      2162.722 9        54.139 9  25325768.855 6         0.000 6      1685.239 6        37.977 6
G10  23774840.248 9 124937574.633 9      3522.158 9        54.682 9  23774843.941 6         0.000 6      2744.541 6        37.977 6
G21  21183214.570 9 111318523.192 9     -1269.678 9        55.704 9  21183213.858 6         0.000 6      -989.360 6        37.977 6
G29  24330307.048 9 127856569.580 9     -3124.457 9        54.464 9  24330308.654 6         0.000 6     -2434.645 6        37.977 6
G27  21980298.540 9 115507221.577 9      2487.143 9        55.384 9  21980300.465 6         0.000 6      1938.034 6        37.977 6
G16  20491946.108 9 107685883.305 9       525.095 9        55.979 9  20491945.281 6         0.000 6       409.165 6        37.977 6
G26  20669227.702 9 108617502.311 9     -1512.811 9        55.867 9  20669230.524 6         0.000 6     -1178.814 6        37.977 6
G20  21918825.607 9 115184173.128 9      2542.570 9        55.325 9  21918825.914 6         0.000 6      1981.224 6        37.977 6
> 2019 07 03 12 01 52.0000000  0  8       0.000000000000
G07  25325356.688 9 133085601.738 9      2162.259 9        54.139 9  25325357.347 6         0.000 6      1684.878 6        37.977 6
G10  23774170.017 9 124934052.557 9      3522.015 9        54.682 9  23774173.709 6         0.000 6      2744.430 6        37.977 6
G21  21183456.216 9 111319793.048 9     -1270.036 9        55.704 9  21183455.504 6         0.000 6      -989.639 6        37.977 6
G29  24330901.620 9 127859694.069 9     -3124.542 9        54.464 9  24330903.228 6         0.000 6     -2434.710 6        37.977 6
G27  21979825.275 9 115504734.556 9      2486.904 9        55.384 9  21979827.199 6         0.000 6      1937.848 6        37.977 6
G16  20491846.245 9 107685358.519 9       524.477 9        55.979 9  20491845.418 6         0.000 6       408.683 6        37.977 6
G26  20669515.635 9 108619015.407 9     -1513.384 9        55.867 9  20669518.457 6         0.000 6     -1179.260 6        37.977 6
G20  21918341.815 9 115181630.787 9      2542.121 9        55.326 9  21918342.122 6         0.000 6      1980.875 6        37.977 6
> 2019 07 03 12 01 53.0000000  0  8       0.000000000000
G07  25324945.269 9 133083439.717 9      2161.795 9        54.139 9  25324945.927 6         0.000 6      1684.517 6        37.977 6
G10  23773499.812 9 124930530.619 9      3521.872 9        54.682 9  23773503.504 6         0.000 6      2744.319 6        37.977 6
G21  21183697.929 9 111321063.260 9     -1270.394 9        55.704 9  21183697.217 6         0.000 6      -989.917 6        37.977 6
G29  24331496.209 9 127862818.643 9     -3124.626 9        54.464 9  24331497.817 6         0.000 6     -2434.776 6        37.977 6
G27  21979352.055 9 115502247.772 9      2486.666 9        55.384 9  21979353.980 6         0.000 6      1937.662 6        37.977 6
G16  20491746.498 9 107684834.349 9       523.859 9        55.979 9  20491745.671 6         0.000 6       408.201 6        37.977 6
G26  20669803.676 9 108620529.070 9     -1513.957 9        55.867 9  20669806.498 6         0.000 6     -1179.707 6        37.977 6
G20  21917858.107 9 115179088.890 9      2541.673 9        55.326 9  21917858.414 6         0.000 6      1980.526 6        37.977 6
> 2019 07 03 12 01 54.0000000  0  8       0.000000000000
G07  25324533.937 9 133081278.157 9      2161.332 9        54.139 9  25324534.595 6         0.000 6      1684.156 6        37.977 6
G10  23772829.636 9 124927008.829 9      3521.730 9        54.683 9  23772833.327 6         0.000 6      2744.208 6        37.977 6
G21  21183939.711 9 111322333.832 9     -1270.752 9        55.704 9  21183938.999 6         0.000 6      -990.196 6        37.977 6
G29  24332090.813 9 127865943.301 9     -3124.710 9        54.463 9  24332092.422 6         0.000 6     -2434.842 6        37.977 6
G27  21978878.881 9 115499761.228 9      2486.427 9        55.384 9  21978880.805 6         0.000 6      1937.476 6        37.977 6
G16  20491646.870 9 107684310.799 9       523.240 9        55.979 9  20491646.043 6         0.000 6       407.720 6        37.977 6
G26  20670091.827 9 108622043.311 9     -1514.530 9        55.867 9  20670094.649 6         0.000 6     -1180.153 6        37.977 6
G20  21917374.485 9 115176547.445 9      2541.225 9        55.326 9  21917374.792 6         0.000 6      1980.176 6        37.977 6
> 2019 07 03 12 01 55.0000000  0  8       0.000000000000
G07  25324122.693 9 133079117.063 9      2160.869 9        54.139 9  25324123.351 6         0.000 6      1683.795 6        37.977 6
G10  23772159.486 9 124923487.177 9      3521.587 9        54.683 9  23772163.176 6         0.000 6      2744.096 6        37.977 6
G21  21184181.561 9 111323604.759 9     -1271.109 9        55.704 9  21184180.849 6         0.000 6      -990.475 6        37.977 6
G29  24332685.434 9 127869068.043 9     -3124.795 9        54.463 9  24332687.043 6         0.000 6     -2434.908 6        37.977 6
G27  21978405.753 9 115497274.922 9      2486.188 9        55.385 9  21978407.676 6         0.000 6      1937.290 6        37.977 6
G16  20491547.359 9 107683787.865 9       522.622 9        55.979 9  20491546.532 6         0.000 6       407.238 6        37.977 6
G26  20670380.086 9 108623558.121 9     -1515.102 9        55.866 9  20670382.908 6         0.000 6     -1180.600 6        37.977 6
G20  21916890.948 9 115174006.444 9      2540.777 9        55.326 9  21916891.254 6         0.000 6      1979.827 6        37.977 6
> 2019 07 03 12 01 56.0000000  0  8       0.000000000000
G07  25323711.538 9 133076956.430 9      2160.405 9        54.140 9  25323712.196 6         0.000 6      1683.433 6        37.977 6
G10  23771489.364 9 124919965.672 9      3521.444 9        54.683 9  23771493.054 6         0.000 6      2743.985 6        37.977 6
G21  21184423.479 9 111324876.047 9     -1271.467 9        55.704 9  21184422.767 6         0.000 6      -990.754 6        37.977 6
G29  24333280.071 9 127872192.870 9     -3124.879 9        54.463 9  24333281.681 6         0.000 6     -2434.973 6        37.977 6
G27  21977932.669 9 115494788.856 9      2485.949 9        55.385 9  21977934.593 6         0.000 6      1937.104 6        37.977 6
G16  20491447.966 9 107683265.552 9       522.004 9        55.979 9  20491447.139 6         0.000 6       406.756 6        37.977 6
G26  20670668.455 9 108625073.508 9     -1515.675 9        55.866 9  20670671.277 6         0.000 6     -1181.046 6        37.977 6
G20  21916407.497 9 115171465.896 9      2540.328 9        55.326 9  21916407.803 6         0.000 6      1979.478 6        37.977 6
> 2019 07 03 12 01 57.0000000  0  8       0.000000000000
G07  25323300.471 9 133074796.263 9      2159.942 9        54.140 9  25323301.129 6         0.000 6      1683.072 6        37.977 6
G10  23770819.268 9 124916444.306 9      3521.301 9        54.683 9  23770822.957 6         0.000 6      2743.873 6        37.977 6
G21  21184665.464 9 111326147.690 9     -1271.825 9        55.704 9  21184664.753 6         0.000 6      -991.033 6        37.977 6
G29  24333874.723 9 127875317.780 9     -3124.963 9        54.463 9  24333876.334 6         0.000 6     -2435.039 6        37.977 6
G27  21977459.631 9 115492303.027 9      2485.710 9        55.385 9  21977461.555 6         0.000 6      1936.918 6        37.977 6
G16  20491348.690 9 107682743.853 9       521.386 9        55.979 9  20491347.863 6         0.000 6       406.275 6        37.977 6
G26  20670956.932 9 108626589.463 9     -1516.248 9        55.866 9  20670959.754 6         0.000 6     -1181.493 6        37.977 6
G20  21915924.131 9 115168925.793 9      2539.880 9        55.327 9  21915924.436 6         0.000 6      1979.128 6        37.977 6
> 2019 07 03 12 01 58.0000000  0  8       0.000000000000
G07  25322889.492 9 133072636.557 9      2159.478 9        54.140 9  25322890.149 6         0.000 6      1682.711 6        37.977 6
G10  23770149.201 9 124912923.088 9      3521.157 9        54.684 9  23770152.889 6         0.000 6      2743.762 6        37.977 6
G21  21184907.519 9 111327419.693 9     -1272.182 9        55.703 9  21184906.807 6         0.000 6      -991.311 6        37.977 6
G29  24334469.392 9 127878442.775 9     -3125.048 9        54.463 9  24334471.003 6         0.000 6     -2435.105 6        37.977 6
G27  21976986.639 9 115489817.439 9      2485.471 9        55.385 9  21976988.563 6         0.000 6      1936.731 6        37.977 6
G16  20491249.533 9 107682222.777 9       520.767 9        55.979 9  20491248.706 6         0.000 6       405.793 6        37.977 6
G26  20671245.519 9 108628105.996 9     -1516.821 9        55.866 9  20671248.341 6         0.000 6     -1181.939 6        37.977 6
G20  21915440.850 9 115166386.142 9      2539.431 9        55.327 9  21915441.156 6         0.000 6      1978.778 6        37.977 6
> 2019 07 03 12 01 59.0000000  0  8       0.000000000000
G07  25322478.602 9 133070477.320 9      2159.014 9        54.140 9  25322479.259 6         0.000 6      1682.350 6        37.977 6
G10  23769479.159 9 124909402.006 9      3521.014 9        54.684 9  23769482.847 6         0.000 6      2743.650 6        37.977 6
G21  21185149.640 9 111328692.049 9     -1272.540 9        55.703 9  21185148.928 6         0.000 6      -991.590 6        37.977 6
G29  24335064.076 9 127881567.850 9     -3125.132 9        54.462 9  24335065.688 6         0.000 6     -2435.170 6        37.977 6
G27  21976513.693 9 115487332.092 9      2485.232 9        55.385 9  21976515.616 6         0.000 6      1936.545 6        37.977 6
G16  20491150.492 9 107681702.317 9       520.149 9        55.979 9  20491149.666 6         0.000 6       405.311 6        37.977 6
G26  20671534.213 9 108629623.096 9     -1517.394 9        55.866 9  20671537.036 6         0.000 6     -1182.385 6        37.977 6
G20  21914957.654 9 115163846.932 9      2538.982 9        55.327 9  21914957.959 6         0.000 6      1978.429 6        37.977 6
> 2019 07 03 12 02  0.0000000  0  8       0.000000000000
G07  25322067.799 9 133068318.540 9      2158.550 9        54.140 9  25322068.456 6         0.000 6      1681.988 6        37.977 6
G10  23768809.146 9 124905881.075 9      3520.871 9        54.684 9  23768812.833 6         0.000 6      2743.538 6        37.977 6
G21  21185391.831 9 111329964.768 9     -1272.898 9        55.703 9  21185391.119 6         0.000 6      -991.868 6        37.977 6
G29  24335658.777 9 127884693.017 9     -3125.216 9        54.462 9  24335660.390 6         0.000 6     -2435.236 6        37.977 6
G27  21976040.791 9 115484846.979 9      2484.993 9        55.386 9  21976042.714 6         0.000 6      1936.359 6        37.977 6
G16  20491051.570 9 107681182.475 9       519.531 9        55.979 9  20491050.743 6         0.000 6       404.829 6        37.977 6
G26  20671823.018 9 108631140.774 9     -1517.966 9        55.866 9  20671825.841 6         0.000 6     -1182.831 6        37.977 6
G20  21914474.545 9 115161308.181 9      2538.533 9        55.327 9  21914474.850 6         0.000 6      1978.079 6        37.977 6
