     3.00           Observation Data    M (Mixed)           RINEX VERSION / TYPE
SimGEN V6.06.00     Spirent             03-Jul-19 12:00     PGM / RUN BY / DATE 
                                                            MARKER NAME         
1                                                           MARKER NUMBER       
GROUND_CRAFT                                                MARKER TYPE         
jin4hi              Spirent                                 OBSERVER / AGENCY   
rec_num             rec_type            rec_vers            REC # / TYPE / VERS 
1                   ant_type                                ANT # / TYPE        
  1000.000                                                  INTERVAL            
  2019     7     3    12     0    1.0000000     GPS         TIME OF FIRST OBS   
  4162662.4110   664339.9800  4770549.9870                  APPROX POSITION XYZ 
        0.0000        0.0000        0.0000                  ANTENNA: DELTA H/E/N
G    8 C1C L1C D1C S1C C2C L2C D2C S2C                      SYS / # / OBS TYPES 
        0.0000        0.0000        0.0000                  ANTENNA: DELTA X/Y/Z
DBHZ                                                        SIGNAL STRENGTH UNIT
                                                            END OF HEADER       
> 2019 07 03 12 00  1.0000000  0  8       0.000000000000
G07  25371547.228 9 133328334.265 9      2213.165 9        54.123 9  25371547.911 6         0.000 6      1724.544 6        37.977 6
G10  23848741.443 9 125325926.863 9      3537.176 9        54.655 9  23848745.208 6         0.000 6      2756.241 6        37.977 6
G21  21157068.023 9 111181122.239 9     -1229.981 9        55.715 9  21157067.306 6         0.000 6      -958.427 6        37.977 6
G29  24265051.688 9 127513651.475 9     -3115.015 9        54.487 9  24265053.226 6         0.000 6     -2427.284 6        37.977 6
G27  22032595.695 9 115782044.680 9      2513.151 9        55.363 9  22032597.637 6         0.000 6      1958.299 6        37.977 6
G16  20503629.520 9 107747280.047 9       592.830 9        55.974 9  20503628.694 6         0.000 6       461.945 6        37.977 6
G26  20638217.205 9 108454541.243 9     -1449.575 9        55.880 9  20638220.015 6         0.000 6     -1129.539 6        37.977 6
G20  21972583.084 9 115466670.080 9      2591.274 9        55.304 9  21972583.422 6         0.000 6      2019.175 6        37.977 6
> 2019 07 03 12 00  2.0000000  0  8       0.000000000000
G07  25371126.110 9 133326121.276 9      2212.765 9        54.123 9  25371126.793 6         0.000 6      1724.234 6        37.977 6
G10  23848068.350 9 125322389.744 9      3537.064 9        54.655 9  23848072.114 6         0.000 6      2756.157 6        37.977 6
G21  21157302.116 9 111182352.403 9     -1230.346 9        55.715 9  21157301.399 6         0.000 6      -958.712 6        37.977 6
G29  24265644.469 9 127516766.549 9     -3115.128 9        54.487 9  24265646.008 6         0.000 6     -2427.375 6        37.977 6
G27  22032117.480 9 115779531.645 9      2512.920 9        55.363 9  22032119.422 6         0.000 6      1958.121 6        37.977 6
G16  20503516.767 9 107746687.524 9       592.216 9        55.974 9  20503515.940 6         0.000 6       461.467 6        37.977 6
G26  20638493.105 9 108455991.106 9     -1450.154 9        55.880 9  20638495.915 6         0.000 6     -1129.990 6        37.977 6
G20  21972090.022 9 115464079.024 9      2590.842 9        55.305 9  21972090.359 6         0.000 6      2018.839 6        37.977 6
> 2019 07 03 12 00  3.0000000  0  8       0.000000000000
G07  25370705.078 9 133323908.744 9      2212.311 9        54.123 9  25370705.761 6         0.000 6      1723.879 6        37.977 6
G10  23847395.281 9 125318852.754 9      3536.933 9        54.656 9  23847399.045 6         0.000 6      2756.054 6        37.977 6
G21  21157536.277 9 111183582.929 9     -1230.711 9        55.715 9  21157535.560 6         0.000 6      -958.995 6        37.977 6
G29  24266237.266 9 127519881.706 9     -3115.215 9        54.487 9  24266238.805 6         0.000 6     -2427.443 6        37.977 6
G27  22031639.310 9 115777018.849 9      2512.686 9        55.364 9  22031641.252 6         0.000 6      1957.938 6        37.977 6
G16  20503404.130 9 107746095.616 9       591.603 9        55.974 9  20503403.304 6         0.000 6       460.989 6        37.977 6
G26  20638769.115 9 108457441.547 9     -1450.730 9        55.880 9  20638771.925 6         0.000 6     -1130.440 6        37.977 6
G20  21971597.042 9 115461488.402 9      2590.404 9        55.305 9  21971597.379 6         0.000 6      2018.498 6        37.977 6
> 2019 07 03 12 00  4.0000000  0  8       0.000000000000
G07  25370284.133 9 133321696.667 9      2211.856 9        54.124 9  25370284.816 6         0.000 6      1723.525 6        37.977 6
G10  23846722.236 9 125315315.893 9      3536.802 9        54.656 9  23846726.000 6         0.000 6      2755.952 6        37.977 6
G21  21157770.508 9 111184813.818 9     -1231.075 9        55.715 9  21157769.791 6         0.000 6      -959.279 6        37.977 6
G29  24266830.080 9 127522996.955 9     -3115.302 9        54.487 9  24266831.620 6         0.000 6     -2427.511 6        37.977 6
G27  22031161.183 9 115774506.281 9      2512.451 9        55.364 9  22031163.126 6         0.000 6      1957.755 6        37.977 6
G16  20503291.610 9 107745504.317 9       590.989 9        55.974 9  20503290.783 6         0.000 6       460.511 6        37.977 6
G26  20639045.234 9 108458892.559 9     -1451.307 9        55.880 9  20639048.044 6         0.000 6     -1130.889 6        37.977 6
G20  21971104.146 9 115458898.218 9      2589.966 9        55.305 9  21971104.482 6         0.000 6      2018.157 6        37.977 6
> 2019 07 03 12 00  5.0000000  0  8       0.000000000000
G07  25369863.274 9 133319485.042 9      2211.401 9        54.124 9  25369863.957 6         0.000 6      1723.171 6        37.977 6
G10  23846049.218 9 125311779.167 9      3536.671 9        54.656 9  23846052.980 6         0.000 6      2755.850 6        37.977 6
G21  21158004.808 9 111186045.074 9     -1231.438 9        55.715 9  21158004.091 6         0.000 6      -959.563 6        37.977 6
G29  24267422.911 9 127526112.290 9     -3115.389 9        54.486 9  24267424.451 6         0.000 6     -2427.578 6        37.977 6
G27  22030683.102 9 115771993.950 9      2512.216 9        55.364 9  22030685.044 6         0.000 6      1957.572 6        37.977 6
G16  20503179.207 9 107744913.635 9       590.375 9        55.974 9  20503178.380 6         0.000 6       460.032 6        37.977 6
G26  20639321.463 9 108460344.153 9     -1451.884 9        55.879 9  20639324.274 6         0.000 6     -1131.339 6        37.977 6
G20  21970611.333 9 115456308.475 9      2589.528 9        55.305 9  21970611.670 6         0.000 6      2017.815 6        37.977 6
> 2019 07 03 12 00  6.0000000  0  8       0.000000000000
G07  25369442.502 9 133317273.875 9      2210.946 9        54.124 9  25369443.184 6         0.000 6      1722.816 6        37.977 6
G10  23845376.223 9 125308242.569 9      3536.539 9        54.656 9  23845379.985 6         0.000 6      2755.747 6        37.977 6
G21  21158239.177 9 111187276.691 9     -1231.802 9        55.714 9  21158238.461 6         0.000 6      -959.846 6        37.977 6
G29  24268015.758 9 127529227.713 9     -3115.476 9        54.486 9  24268017.299 6         0.000 6     -2427.646 6        37.977 6
G27  22030205.065 9 115769481.852 9      2511.982 9        55.364 9  22030207.007 6         0.000 6      1957.389 6        37.977 6
G16  20503066.920 9 107744323.564 9       589.761 9        55.974 9  20503066.094 6         0.000 6       459.554 6        37.977 6
G26  20639597.802 9 108461796.318 9     -1452.461 9        55.879 9  20639600.612 6         0.000 6     -1131.788 6        37.977 6
G20  21970118.603 9 115453719.167 9      2589.090 9        55.305 9  21970118.939 6         0.000 6      2017.474 6        37.977 6
> 2019 07 03 12 00  7.0000000  0  8       0.000000000000
G07  25369021.817 9 133315063.160 9      2210.491 9        54.124 9  25369022.498 6         0.000 6      1722.461 6        37.977 6
G10  23844703.255 9 125304706.106 9      3536.407 9        54.656 9  23844707.016 6         0.000 6      2755.645 6        37.977 6
G21  21158473.616 9 111188508.675 9     -1232.166 9        55.714 9  21158472.899 6         0.000 6      -960.130 6        37.977 6
G29  24268608.621 9 127532343.222 9     -3115.563 9        54.486 9  24268610.163 6         0.000 6     -2427.714 6        37.977 6
G27  22029727.074 9 115766969.991 9      2511.747 9        55.364 9  22029729.015 6         0.000 6      1957.206 6        37.977 6
G16  20502954.751 9 107743734.110 9       589.147 9        55.974 9  20502953.924 6         0.000 6       459.076 6        37.977 6
G26  20639874.250 9 108463249.066 9     -1453.037 9        55.879 9  20639877.061 6         0.000 6     -1132.237 6        37.977 6
G20  21969625.957 9 115451130.300 9      2588.652 9        55.306 9  21969626.293 6         0.000 6      2017.133 6        37.977 6
> 2019 07 03 12 00  8.0000000  0  8       0.000000000000
G07  25368601.218 9 133312852.903 9      2210.036 9        54.124 9  25368601.900 6         0.000 6      1722.107 6        37.977 6
G10  23844030.311 9 125301169.771 9      3536.276 9        54.657 9  23844034.071 6         0.000 6      2755.542 6        37.977 6
G21  21158708.124 9 111189741.020 9     -1232.530 9        55.714 9  21158707.407 6         0.000 6      -960.413 6        37.977 6
G29  24269201.501 9 127535458.818 9     -3115.649 9        54.486 9  24269203.043 6         0.000 6     -2427.781 6        37.977 6
G27  22029249.126 9 115764458.362 9      2511.512 9        55.365 9  22029251.068 6         0.000 6      1957.023 6        37.977 6
G16  20502842.698 9 107743145.267 9       588.533 9        55.974 9  20502841.871 6         0.000 6       458.597 6        37.977 6
G26  20640150.808 9 108464702.384 9     -1453.614 9        55.879 9  20640153.619 6         0.000 6     -1132.686 6        37.977 6
G20  21969133.394 9 115448541.868 9      2588.214 9        55.306 9  21969133.730 6         0.000 6      2016.791 6        37.977 6
> 2019 07 03 12 00  9.0000000  0  8       0.000000000000
G07  25368180.706 9 133310643.099 9      2209.581 9        54.124 9  25368181.387 6         0.000 6      1721.752 6        37.977 6
G10  23843357.392 9 125297633.572 9      3536.144 9        54.657 9  23843361.152 6         0.000 6      2755.440 6        37.977 6
G21  21158942.701 9 111190973.731 9     -1232.894 9        55.714 9  21158941.984 6         0.000 6      -960.697 6        37.977 6
G29  24269794.398 9 127538574.500 9     -3115.736 9        54.486 9  24269795.941 6         0.000 6     -2427.849 6        37.977 6
G27  22028771.224 9 115761946.971 9      2511.277 9        55.365 9  22028773.165 6         0.000 6      1956.840 6        37.977 6
G16  20502730.762 9 107742557.041 9       587.919 9        55.974 9  20502729.935 6         0.000 6       458.119 6        37.977 6
G26  20640427.477 9 108466156.285 9     -1454.190 9        55.879 9  20640430.288 6         0.000 6     -1133.136 6        37.977 6
G20  21968640.915 9 115445953.878 9      2587.775 9        55.306 9  21968641.251 6         0.000 6      2016.449 6        37.977 6
> 2019 07 03 12 00 10.0000000  0  8       0.000000000000
G07  25367760.280 9 133308433.752 9      2209.125 9        54.124 9  25367760.961 6         0.000 6      1721.397 6        37.977 6
G10  23842684.498 9 125294097.500 9      3536.012 9        54.657 9  23842688.257 6         0.000 6      2755.337 6        37.977 6
G21  21159177.347 9 111192206.803 9     -1233.257 9        55.714 9  21159176.630 6         0.000 6      -960.980 6        37.977 6
G29  24270387.311 9 127541690.270 9     -3115.823 9        54.485 9  24270388.854 6         0.000 6     -2427.916 6        37.977 6
G27  22028293.365 9 115759435.812 9      2511.042 9        55.365 9  22028295.307 6         0.000 6      1956.657 6        37.977 6
G16  20502618.943 9 107741969.426 9       587.305 9        55.974 9  20502618.116 6         0.000 6       457.640 6        37.977 6
G26  20640704.254 9 108467610.757 9     -1454.767 9        55.879 9  20640707.065 6         0.000 6     -1133.585 6        37.977 6
G20  21968148.519 9 115443366.322 9      2587.337 9        55.306 9  21968148.854 6         0.000 6      2016.108 6        37.977 6
> 2019 07 03 12 00 11.0000000  0  8       0.000000000000
G07  25367339.941 9 133306224.861 9      2208.670 9        54.125 9  25367340.622 6         0.000 6      1721.042 6        37.977 6
G10  23842011.630 9 125290561.562 9      3535.880 9        54.657 9  23842015.388 6         0.000 6      2755.234 6        37.977 6
G21  21159412.062 9 111193440.240 9     -1233.621 9        55.714 9  21159411.346 6         0.000 6      -961.263 6        37.977 6
G29  24270980.240 9 127544806.120 9     -3115.910 9        54.485 9  24270981.784 6         0.000 6     -2427.984 6        37.977 6
G27  22027815.553 9 115756924.894 9      2510.807 9        55.365 9  22027817.494 6         0.000 6      1956.474 6        37.977 6
G16  20502507.241 9 107741382.429 9       586.691 9        55.974 9  20502506.414 6         0.000 6       457.162 6        37.977 6
G26  20640981.141 9 108469065.810 9     -1455.343 9        55.879 9  20640983.953 6         0.000 6     -1134.034 6        37.977 6
G20  21967656.206 9 115440779.206 9      2586.898 9        55.306 9  21967656.541 6         0.000 6      2015.766 6        37.977 6
> 2019 07 03 12 00 12.0000000  0  8       0.000000000000
G07  25366919.689 9 133304016.422 9      2208.215 9        54.125 9  25366920.369 6         0.000 6      1720.688 6        37.977 6
G10  23841338.786 9 125287025.759 9      3535.748 9        54.658 9  23841342.544 6         0.000 6      2755.131 6        37.977 6
G21  21159646.847 9 111194674.042 9     -1233.985 9        55.714 9  21159646.131 6         0.000 6      -961.547 6        37.977 6
G29  24271573.186 9 127547922.063 9     -3115.996 9        54.485 9  24271574.730 6         0.000 6     -2428.052 6        37.977 6
G27  22027337.785 9 115754414.207 9      2510.572 9        55.365 9  22027339.726 6         0.000 6      1956.291 6        37.977 6
G16  20502395.656 9 107740796.045 9       586.077 9        55.974 9  20502394.829 6         0.000 6       456.683 6        37.977 6
G26  20641258.139 9 108470521.440 9     -1455.920 9        55.879 9  20641260.950 6         0.000 6     -1134.483 6        37.977 6
G20  21967163.978 9 115438192.532 9      2586.460 9        55.306 9  21967164.312 6         0.000 6      2015.424 6        37.977 6
> 2019 07 03 12 00 13.0000000  0  8       0.000000000000
G07  25366499.523 9 133301808.442 9      2207.759 9        54.125 9  25366500.204 6         0.000 6      1720.333 6        37.977 6
G10  23840665.968 9 125283490.083 9      3535.616 9        54.658 9  23840669.725 6         0.000 6      2755.028 6        37.977 6
G21  21159881.700 9 111195908.205 9     -1234.348 9        55.714 9  21159880.984 6         0.000 6      -961.830 6        37.977 6
G29  24272166.148 9 127551038.093 9     -3116.083 9        54.485 9  24272167.694 6         0.000 6     -2428.119 6        37.977 6
G27  22026860.061 9 115751903.754 9      2510.337 9        55.365 9  22026862.002 6         0.000 6      1956.107 6        37.977 6
G16  20502284.187 9 107740210.272 9       585.463 9        55.974 9  20502283.360 6         0.000 6       456.205 6        37.977 6
G26  20641535.245 9 108471977.641 9     -1456.496 9        55.878 9  20641538.057 6         0.000 6     -1134.933 6        37.977 6
G20  21966671.832 9 115435606.292 9      2586.021 9        55.307 9  21966672.166 6         0.000 6      2015.082 6        37.977 6
> 2019 07 03 12 00 14.0000000  0  8       0.000000000000
G07  25366079.444 9 133299600.914 9      2207.303 9        54.125 9  25366080.124 6         0.000 6      1719.978 6        37.977 6
G10  23839993.175 9 125279954.544 9      3535.484 9        54.658 9  23839996.932 6         0.000 6      2754.925 6        37.977 6
G21  21160116.624 9 111197142.734 9     -1234.711 9        55.714 9  21160115.907 6         0.000 6      -962.113 6        37.977 6
G29  24272759.127 9 127554154.209 9     -3116.169 9        54.485 9  24272760.673 6         0.000 6     -2428.187 6        37.977 6
G27  22026382.382 9 115749393.537 9      2510.102 9        55.366 9  22026384.323 6         0.000 6      1955.924 6        37.977 6
G16  20502172.835 9 107739625.117 9       584.848 9        55.974 9  20502172.009 6         0.000 6       455.726 6        37.977 6
G26  20641812.462 9 108473434.424 9     -1457.073 9        55.878 9  20641815.274 6         0.000 6     -1135.382 6        37.977 6
G20  21966179.770 9 115433020.495 9      2585.582 9        55.307 9  21966180.104 6         0.000 6      2014.740 6        37.977 6
> 2019 07 03 12 00 15.0000000  0  8       0.000000000000
G07  25365659.452 9 133297393.845 9      2206.848 9        54.125 9  25365660.132 6         0.000 6      1719.623 6        37.977 6
G10  23839320.407 9 125276419.133 9      3535.351 9        54.658 9  23839324.163 6         0.000 6      2754.822 6        37.977 6
G21  21160351.616 9 111198377.624 9     -1235.075 9        55.714 9  21160350.899 6         0.000 6      -962.396 6        37.977 6
G29  24273352.123 9 127557270.411 9     -3116.256 9        54.484 9  24273353.670 6         0.000 6     -2428.254 6        37.977 6
G27  22025904.747 9 115746883.554 9      2509.867 9        55.366 9  22025906.688 6         0.000 6      1955.741 6        37.977 6
G16  20502061.600 9 107739040.572 9       584.234 9        55.975 9  20502060.773 6         0.000 6       455.247 6        37.977 6
G26  20642089.788 9 108474891.778 9     -1457.649 9        55.878 9  20642092.599 6         0.000 6     -1135.831 6        37.977 6
G20  21965687.791 9 115430435.132 9      2585.143 9        55.307 9  21965688.125 6         0.000 6      2014.398 6        37.977 6
> 2019 07 03 12 00 16.0000000  0  8       0.000000000000
G07  25365239.546 9 133295187.229 9      2206.392 9        54.125 9  25365240.226 6         0.000 6      1719.267 6        37.977 6
G10  23838647.664 9 125272883.859 9      3535.219 9        54.659 9  23838651.420 6         0.000 6      2754.719 6        37.977 6
G21  21160586.677 9 111199612.880 9     -1235.438 9        55.713 9  21160585.961 6         0.000 6      -962.679 6        37.977 6
G29  24273945.135 9 127560386.701 9     -3116.343 9        54.484 9  24273946.682 6         0.000 6     -2428.322 6        37.977 6
G27  22025427.158 9 115744373.807 9      2509.631 9        55.366 9  22025429.098 6         0.000 6      1955.558 6        37.977 6
G16  20501950.483 9 107738456.645 9       583.620 9        55.975 9  20501949.656 6         0.000 6       454.769 6        37.977 6
G26  20642367.224 9 108476349.714 9     -1458.225 9        55.878 9  20642370.036 6         0.000 6     -1136.280 6        37.977 6
G20  21965195.896 9 115427850.213 9      2584.704 9        55.307 9  21965196.230 6         0.000 6      2014.056 6        37.977 6
> 2019 07 03 12 00 17.0000000  0  8       0.000000000000
G07  25364819.728 9 133292981.071 9      2205.936 9        54.125 9  25364820.407 6         0.000 6      1718.912 6        37.977 6
G10  23837974.946 9 125269348.713 9      3535.086 9        54.659 9  23837978.701 6         0.000 6      2754.615 6        37.977 6
G21  21160821.807 9 111200848.496 9     -1235.801 9        55.713 9  21160821.091 6         0.000 6      -962.962 6        37.977 6
G29  24274538.164 9 127563503.076 9     -3116.429 9        54.484 9  24274539.711 6         0.000 6     -2428.389 6        37.977 6
G27  22024949.613 9 115741864.294 9      2509.396 9        55.366 9  22024951.553 6         0.000 6      1955.374 6        37.977 6
G16  20501839.481 9 107737873.329 9       583.006 9        55.975 9  20501838.655 6         0.000 6       454.290 6        37.977 6
G26  20642644.769 9 108477808.221 9     -1458.802 9        55.878 9  20642647.581 6         0.000 6     -1136.729 6        37.977 6
G20  21964704.084 9 115425265.729 9      2584.265 9        55.307 9  21964704.418 6         0.000 6      2013.714 6        37.977 6
> 2019 07 03 12 00 18.0000000  0  8       0.000000000000
G07  25364399.996 9 133290775.366 9      2205.480 9        54.126 9  25364400.675 6         0.000 6      1718.557 6        37.977 6
G10  23837302.254 9 125265813.704 9      3534.953 9        54.659 9  23837306.008 6         0.000 6      2754.512 6        37.977 6
G21  21161057.007 9 111202084.479 9     -1236.165 9        55.713 9  21161056.291 6         0.000 6      -963.245 6        37.977 6
G29  24275131.209 9 127566619.539 9     -3116.516 9        54.484 9  24275132.757 6         0.000 6     -2428.456 6        37.977 6
G27  22024472.113 9 115739355.018 9      2509.161 9        55.366 9  22024474.053 6         0.000 6      1955.191 6        37.977 6
G16  20501728.597 9 107737290.631 9       582.391 9        55.975 9  20501727.771 6         0.000 6       453.811 6        37.977 6
G26  20642922.424 9 108479267.309 9     -1459.378 9        55.878 9  20642925.236 6         0.000 6     -1137.178 6        37.977 6
G20  21964212.357 9 115422681.688 9      2583.826 9        55.308 9  21964212.690 6         0.000 6      2013.372 6        37.977 6
> 2019 07 03 12 00 19.0000000  0  8       0.000000000000
G07  25363980.351 9 133288570.123 9      2205.024 9        54.126 9  25363981.030 6         0.000 6      1718.202 6        37.977 6
G10  23836629.586 9 125262278.821 9      3534.821 9        54.659 9  23836633.340 6         0.000 6      2754.408 6        37.977 6
G21  21161292.275 9 111203320.820 9     -1236.528 9        55.713 9  21161291.559 6         0.000 6      -963.528 6        37.977 6
G29  24275724.269 9 127569736.082 9     -3116.602 9        54.483 9  24275725.818 6         0.000 6     -2428.524 6        37.977 6
G27  22023994.659 9 115736845.980 9      2508.926 9        55.367 9  22023996.598 6         0.000 6      1955.008 6        37.977 6
G16  20501617.830 9 107736708.545 9       581.777 9        55.975 9  20501617.003 6         0.000 6       453.333 6        37.977 6
G26  20643200.189 9 108480726.968 9     -1459.954 9        55.878 9  20643203.001 6         0.000 6     -1137.627 6        37.977 6
G20  21963720.712 9 115420098.079 9      2583.387 9        55.308 9  21963721.044 6         0.000 6      2013.030 6        37.977 6
> 2019 07 03 12 00 20.0000000  0  8       0.000000000000
G07  25363560.792 9 133286365.331 9      2204.568 9        54.126 9  25363561.471 6         0.000 6      1717.846 6        37.977 6
G10  23835956.945 9 125258744.078 9      3534.688 9        54.660 9  23835960.698 6         0.000 6      2754.305 6        37.977 6
G21  21161527.613 9 111204557.529 9     -1236.891 9        55.713 9  21161526.897 6         0.000 6      -963.811 6        37.977 6
G29  24276317.347 9 127572852.718 9     -3116.689 9        54.483 9  24276318.897 6         0.000 6     -2428.591 6        37.977 6
G27  22023517.248 9 115734337.174 9      2508.690 9        55.367 9  22023519.188 6         0.000 6      1954.824 6        37.977 6
G16  20501507.180 9 107736127.076 9       581.162 9        55.975 9  20501506.353 6         0.000 6       452.854 6        37.977 6
G26  20643478.063 9 108482187.208 9     -1460.530 9        55.878 9  20643480.876 6         0.000 6     -1138.076 6        37.977 6
G20  21963229.151 9 115417514.917 9      2582.947 9        55.308 9  21963229.484 6         0.000 6      2012.687 6        37.977 6
> 2019 07 03 12 00 21.0000000  0  8       0.000000000000
G07  25363141.320 9 133284160.994 9      2204.112 9        54.126 9  25363141.999 6         0.000 6      1717.491 6        37.977 6
G10  23835284.329 9 125255209.467 9      3534.555 9        54.660 9  23835288.081 6         0.000 6      2754.201 6        37.977 6
G21  21161763.020 9 111205794.600 9     -1237.254 9        55.713 9  21161762.304 6         0.000 6      -964.094 6        37.977 6
G29  24276910.441 9 127575969.440 9     -3116.775 9        54.483 9  24276911.992 6         0.000 6     -2428.659 6        37.977 6
G27  22023039.883 9 115731828.604 9      2508.455 9        55.367 9  22023041.822 6         0.000 6      1954.641 6        37.977 6
G16  20501396.647 9 107735546.221 9       580.548 9        55.975 9  20501395.820 6         0.000 6       452.375 6        37.977 6
G26  20643756.048 9 108483648.025 9     -1461.106 9        55.878 9  20643758.860 6         0.000 6     -1138.525 6        37.977 6
G20  21962737.675 9 115414932.194 9      2582.508 9        55.308 9  21962738.007 6         0.000 6      2012.345 6        37.977 6
> 2019 07 03 12 00 22.0000000  0  8       0.000000000000
G07  25362721.936 9 133281957.117 9      2203.656 9        54.126 9  25362722.614 6         0.000 6      1717.135 6        37.977 6
G10  23834611.737 9 125251674.985 9      3534.422 9        54.660 9  23834615.489 6         0.000 6      2754.097 6        37.977 6
G21  21161998.496 9 111207032.033 9     -1237.617 9        55.713 9  21161997.780 6         0.000 6      -964.377 6        37.977 6
G29  24277503.552 9 127579086.248 9     -3116.862 9        54.483 9  24277505.103 6         0.000 6     -2428.726 6        37.977 6
G27  22022562.562 9 115729320.268 9      2508.220 9        55.367 9  22022564.501 6         0.000 6      1954.458 6        37.977 6
G16  20501286.230 9 107734965.977 9       579.933 9        55.975 9  20501285.404 6         0.000 6       451.896 6        37.977 6
G26  20644034.141 9 108485109.413 9     -1461.683 9        55.877 9  20644036.954 6         0.000 6     -1138.974 6        37.977 6
G20  21962246.281 9 115412349.907 9      2582.068 9        55.308 9  21962246.613 6         0.000 6      2012.002 6        37.977 6
> 2019 07 03 12 00 23.0000000  0  8       0.000000000000
G07  25362302.637 9 133279753.693 9      2203.199 9        54.126 9  25362303.315 6         0.000 6      1716.780 6        37.977 6
G10  23833939.172 9 125248140.641 9      3534.288 9        54.660 9  23833942.923 6         0.000 6      2753.994 6        37.977 6
G21  21162234.041 9 111208269.830 9     -1237.980 9        55.713 9  21162233.325 6         0.000 6      -964.660 6        37.977 6
G29  24278096.679 9 127582203.143 9     -3116.948 9        54.483 9  24278098.231 6         0.000 6     -2428.793 6        37.977 6
G27  22022085.286 9 115726812.168 9      2507.984 9        55.367 9  22022087.225 6         0.000 6      1954.274 6        37.977 6
G16  20501175.931 9 107734386.351 9       579.319 9        55.975 9  20501175.105 6         0.000 6       451.417 6        37.977 6
G26  20644312.345 9 108486571.382 9     -1462.259 9        55.877 9  20644315.157 6         0.000 6     -1139.423 6        37.977 6
G20  21961754.971 9 115409768.063 9      2581.628 9        55.309 9  21961755.303 6         0.000 6      2011.660 6        37.977 6
> 2019 07 03 12 00 24.0000000  0  8       0.000000000000
G07  25361883.426 9 133277550.728 9      2202.743 9        54.126 9  25361884.104 6         0.000 6      1716.424 6        37.977 6
G10  23833266.631 9 125244606.426 9      3534.155 9        54.661 9  23833270.381 6         0.000 6      2753.890 6        37.977 6
G21  21162469.655 9 111209507.989 9     -1238.343 9        55.713 9  21162468.939 6         0.000 6      -964.943 6        37.977 6
G29  24278689.823 9 127585320.124 9     -3117.034 9        54.482 9  24278691.375 6         0.000 6     -2428.861 6        37.977 6
G27  22021608.054 9 115724304.303 9      2507.749 9        55.368 9  22021609.993 6         0.000 6      1954.091 6        37.977 6
G16  20501065.748 9 107733807.337 9       578.704 9        55.975 9  20501064.922 6         0.000 6       450.938 6        37.977 6
G26  20644590.657 9 108488033.922 9     -1462.835 9        55.877 9  20644593.470 6         0.000 6     -1139.872 6        37.977 6
G20  21961263.745 9 115407186.655 9      2581.189 9        55.309 9  21961264.076 6         0.000 6      2011.317 6        37.977 6
> 2019 07 03 12 00 25.0000000  0  8       0.000000000000
G07  25361464.302 9 133275348.216 9      2202.287 9        54.127 9  25361464.979 6         0.000 6      1716.068 6        37.977 6
G10  23832594.117 9 125241072.349 9      3534.021 9        54.661 9  23832597.866 6         0.000 6      2753.786 6        37.977 6
G21  21162705.338 9 111210746.512 9     -1238.706 9        55.713 9  21162704.622 6         0.000 6      -965.225 6        37.977 6
G29  24279282.983 9 127588437.191 9     -3117.121 9        54.482 9  24279284.536 6         0.000 6     -2428.928 6        37.977 6
G27  22021130.868 9 115721796.674 9      2507.513 9        55.368 9  22021132.807 6         0.000 6      1953.907 6        37.977 6
G16  20500955.683 9 107733228.940 9       578.089 9        55.975 9  20500954.856 6         0.000 6       450.459 6        37.977 6
G26  20644869.080 9 108489497.043 9     -1463.411 9        55.877 9  20644871.893 6         0.000 6     -1140.320 6        37.977 6
G20  21960772.603 9 115404605.691 9      2580.749 9        55.309 9  21960772.934 6         0.000 6      2010.974 6        37.977 6
> 2019 07 03 12 00 26.0000000  0  8       0.000000000000
G07  25361045.265 9 133273146.167 9      2201.830 9        54.127 9  25361045.942 6         0.000 6      1715.713 6        37.977 6
G10  23831921.626 9 125237538.398 9      3533.888 9        54.661 9  23831925.375 6         0.000 6      2753.682 6        37.977 6
G21  21162941.090 9 111211985.394 9     -1239.068 9        55.713 9  21162940.374 6         0.000 6      -965.508 6        37.977 6
G29  24279876.159 9 127591554.340 9     -3117.207 9        54.482 9  24279877.712 6         0.000 6     -2428.995 6        37.977 6
G27  22020653.727 9 115719289.283 9      2507.278 9        55.368 9  22020655.665 6         0.000 6      1953.724 6        37.977 6
G16  20500845.735 9 107732651.156 9       577.475 9        55.975 9  20500844.908 6         0.000 6       449.980 6        37.977 6
G26  20645147.612 9 108490960.735 9     -1463.987 9        55.877 9  20645150.425 6         0.000 6     -1140.769 6        37.977 6
G20  21960281.543 9 115402025.159 9      2580.309 9        55.309 9  21960281.874 6         0.000 6      2010.631 6        37.977 6
> 2019 07 03 12 00 27.0000000  0  8       0.000000000000
G07  25360626.314 9 133270944.569 9      2201.373 9        54.127 9  25360626.991 6         0.000 6      1715.357 6        37.977 6
G10  23831249.162 9 125234004.588 9      3533.754 9        54.661 9  23831252.910 6         0.000 6      2753.577 6        37.977 6
G21  21163176.911 9 111213224.643 9     -1239.431 9        55.712 9  21163176.195 6         0.000 6      -965.791 6        37.977 6
G29  24280469.352 9 127594671.580 9     -3117.294 9        54.482 9  24280470.906 6         0.000 6     -2429.062 6        37.977 6
G27  22020176.630 9 115716782.126 9      2507.042 9        55.368 9  22020178.568 6         0.000 6      1953.540 6        37.977 6
G16  20500735.903 9 107732073.989 9       576.860 9        55.975 9  20500735.077 6         0.000 6       449.501 6        37.977 6
G26  20645426.254 9 108492425.008 9     -1464.563 9        55.877 9  20645429.067 6         0.000 6     -1141.218 6        37.977 6
G20  21959790.569 9 115399445.075 9      2579.869 9        55.309 9  21959790.899 6         0.000 6      2010.288 6        37.977 6
> 2019 07 03 12 00 28.0000000  0  8       0.000000000000
G07  25360207.451 9 133268743.430 9      2200.917 9        54.127 9  25360208.128 6         0.000 6      1715.001 6        37.977 6
G10  23830576.723 9 125230470.907 9      3533.620 9        54.662 9  23830580.471 6         0.000 6      2753.473 6        37.977 6
G21  21163412.801 9 111214464.252 9     -1239.794 9        55.712 9  21163412.085 6         0.000 6      -966.073 6        37.977 6
G29  24281062.561 9 127597788.907 9     -3117.380 9        54.482 9  24281064.116 6         0.000 6     -2429.130 6        37.977 6
G27  22019699.578 9 115714275.202 9      2506.807 9        55.368 9  22019701.516 6         0.000 6      1953.356 6        37.977 6
G16  20500626.188 9 107731497.433 9       576.245 9        55.975 9  20500625.362 6         0.000 6       449.022 6        37.977 6
G26  20645705.005 9 108493889.852 9     -1465.139 9        55.877 9  20645707.818 6         0.000 6     -1141.667 6        37.977 6
G20  21959299.677 9 115396865.427 9      2579.429 9        55.310 9  21959300.007 6         0.000 6      2009.945 6        37.977 6
> 2019 07 03 12 00 29.0000000  0  8       0.000000000000
G07  25359788.673 9 133266542.745 9      2200.460 9        54.127 9  25359789.350 6         0.000 6      1714.645 6        37.977 6
G10  23829904.310 9 125226937.364 9      3533.487 9        54.662 9  23829908.057 6         0.000 6      2753.369 6        37.977 6
G21  21163648.760 9 111215704.227 9     -1240.156 9        55.712 9  21163648.045 6         0.000 6      -966.356 6        37.977 6
G29  24281655.787 9 127600906.319 9     -3117.466 9        54.481 9  24281657.342 6         0.000 6     -2429.197 6        37.977 6
G27  22019222.571 9 115711768.516 9      2506.571 9        55.368 9  22019224.509 6         0.000 6      1953.173 6        37.977 6
G16  20500516.591 9 107730921.495 9       575.630 9        55.975 9  20500515.764 6         0.000 6       448.543 6        37.977 6
G26  20645983.867 9 108495355.276 9     -1465.714 9        55.877 9  20645986.680 6         0.000 6     -1142.116 6        37.977 6
G20  21958808.870 9 115394286.223 9      2578.988 9        55.310 9  21958809.200 6         0.000 6      2009.602 6        37.977 6
> 2019 07 03 12 00 30.0000000  0  8       0.000000000000
G07  25359369.984 9 133264342.520 9      2200.003 9        54.127 9  25359370.660 6         0.000 6      1714.289 6        37.977 6
G10  23829231.922 9 125223403.951 9      3533.353 9        54.662 9  23829235.668 6         0.000 6      2753.264 6        37.977 6
G21  21163884.788 9 111216944.561 9     -1240.519 9        55.712 9  21163884.073 6         0.000 6      -966.638 6        37.977 6
G29  24282249.029 9 127604023.819 9     -3117.552 9        54.481 9  24282250.585 6         0.000 6     -2429.264 6        37.977 6
G27  22018745.608 9 115709262.064 9      2506.335 9        55.369 9  22018747.546 6         0.000 6      1952.989 6        37.977 6
G16  20500407.110 9 107730346.169 9       575.016 9        55.975 9  20500406.283 6         0.000 6       448.064 6        37.977 6
G26  20646262.837 9 108496821.272 9     -1466.290 9        55.877 9  20646265.650 6         0.000 6     -1142.564 6        37.977 6
G20  21958318.146 9 115391707.455 9      2578.548 9        55.310 9  21958318.476 6         0.000 6      2009.259 6        37.977 6
> 2019 07 03 12 00 31.0000000  0  8       0.000000000000
G07  25358951.381 9 133262142.749 9      2199.546 9        54.127 9  25358952.057 6         0.000 6      1713.933 6        37.977 6
G10  23828559.560 9 125219870.676 9      3533.219 9        54.662 9  23828563.306 6         0.000 6      2753.160 6        37.977 6
G21  21164120.886 9 111218185.261 9     -1240.881 9        55.712 9  21164120.170 6         0.000 6      -966.921 6        37.977 6
G29  24282842.288 9 127607141.404 9     -3117.639 9        54.481 9  24282843.845 6         0.000 6     -2429.331 6        37.977 6
G27  22018268.691 9 115706755.849 9      2506.100 9        55.369 9  22018270.629 6         0.000 6      1952.806 6        37.977 6
G16  20500297.747 9 107729771.461 9       574.401 9        55.975 9  20500296.920 6         0.000 6       447.585 6        37.977 6
G26  20646541.917 9 108498287.849 9     -1466.866 9        55.876 9  20646544.730 6         0.000 6     -1143.013 6        37.977 6
G20  21957827.507 9 115389129.132 9      2578.107 9        55.310 9  21957827.836 6         0.000 6      2008.916 6        37.977 6
> 2019 07 03 12 00 32.0000000  0  8       0.000000000000
G07  25358532.864 9 133259943.435 9      2199.089 9        54.128 9  25358533.541 6         0.000 6      1713.577 6        37.977 6
G10  23827887.224 9 125216337.535 9      3533.084 9        54.663 9  23827890.969 6         0.000 6      2753.055 6        37.977 6
G21  21164357.052 9 111219426.323 9     -1241.244 9        55.712 9  21164356.337 6         0.000 6      -967.203 6        37.977 6
G29  24283435.563 9 127610259.075 9     -3117.725 9        54.481 9  24283437.120 6         0.000 6     -2429.399 6        37.977 6
G27  22017791.818 9 115704249.870 9      2505.864 9        55.369 9  22017793.756 6         0.000 6      1952.622 6        37.977 6
G16  20500188.501 9 107729197.368 9       573.786 9        55.975 9  20500187.674 6         0.000 6       447.106 6        37.977 6
G26  20646821.107 9 108499755.001 9     -1467.442 9        55.876 9  20646823.921 6         0.000 6     -1143.462 6        37.977 6
G20  21957336.951 9 115386551.249 9      2577.667 9        55.310 9  21957337.280 6         0.000 6      2008.573 6        37.977 6
> 2019 07 03 12 00 33.0000000  0  8       0.000000000000
G07  25358114.436 9 133257744.580 9      2198.632 9        54.128 9  25358115.112 6         0.000 6      1713.221 6        37.977 6
G10  23827214.912 9 125212804.524 9      3532.950 9        54.663 9  23827218.656 6         0.000 6      2752.951 6        37.977 6
G21  21164593.287 9 111220667.745 9     -1241.606 9        55.712 9  21164592.571 6         0.000 6      -967.486 6        37.977 6
G29  24284028.855 9 127613376.833 9     -3117.811 9        54.481 9  24284030.413 6         0.000 6     -2429.466 6        37.977 6
G27  22017314.991 9 115701744.125 9      2505.628 9        55.369 9  22017316.928 6         0.000 6      1952.438 6        37.977 6
G16  20500079.371 9 107728623.887 9       573.171 9        55.975 9  20500078.544 6         0.000 6       446.627 6        37.977 6
G26  20647100.406 9 108501222.724 9     -1468.018 9        55.876 9  20647103.220 6         0.000 6     -1143.910 6        37.977 6
G20  21956846.478 9 115383973.803 9      2577.226 9        55.311 9  21956846.807 6         0.000 6      2008.229 6        37.977 6
> 2019 07 03 12 00 34.0000000  0  8       0.000000000000
G07  25357696.094 9 133255546.183 9      2198.175 9        54.128 9  25357696.770 6         0.000 6      1712.865 6        37.977 6
G10  23826542.627 9 125209271.650 9      3532.816 9        54.663 9  23826546.370 6         0.000 6      2752.846 6        37.977 6
G21  21164829.591 9 111221909.529 9     -1241.969 9        55.712 9  21164828.875 6         0.000 6      -967.768 6        37.977 6
G29  24284622.162 9 127616494.672 9     -3117.897 9        54.480 9  24284623.720 6         0.000 6     -2429.533 6        37.977 6
G27  22016838.209 9 115699238.622 9      2505.392 9        55.369 9  22016840.146 6         0.000 6      1952.254 6        37.977 6
G16  20499970.359 9 107728051.025 9       572.556 9        55.975 9  20499969.532 6         0.000 6       446.147 6        37.977 6
G26  20647379.815 9 108502691.028 9     -1468.593 9        55.876 9  20647382.629 6         0.000 6     -1144.359 6        37.977 6
G20  21956356.090 9 115381396.799 9      2576.786 9        55.311 9  21956356.418 6         0.000 6      2007.886 6        37.977 6
> 2019 07 03 12 00 35.0000000  0  8       0.000000000000
G07  25357277.839 9 133253348.243 9      2197.718 9        54.128 9  25357278.515 6         0.000 6      1712.508 6        37.977 6
G10  23825870.366 9 125205738.908 9      3532.681 9        54.663 9  23825874.109 6         0.000 6      2752.741 6        37.977 6
G21  21165065.964 9 111223151.676 9     -1242.331 9        55.712 9  21165065.248 6         0.000 6      -968.050 6        37.977 6
G29  24285215.486 9 127619612.602 9     -3117.983 9        54.480 9  24285217.045 6         0.000 6     -2429.600 6        37.977 6
G27  22016361.470 9 115696733.348 9      2505.156 9        55.370 9  22016363.407 6         0.000 6      1952.070 6        37.977 6
G16  20499861.463 9 107727478.773 9       571.941 9        55.975 9  20499860.636 6         0.000 6       445.668 6        37.977 6
G26  20647659.333 9 108504159.903 9     -1469.169 9        55.876 9  20647662.147 6         0.000 6     -1144.808 6        37.977 6
G20  21955865.785 9 115378820.234 9      2576.345 9        55.311 9  21955866.113 6         0.000 6      2007.543 6        37.977 6
> 2019 07 03 12 00 36.0000000  0  8       0.000000000000
G07  25356859.671 9 133251150.758 9      2197.260 9        54.128 9  25356860.346 6         0.000 6      1712.152 6        37.977 6
G10  23825198.132 9 125202206.304 9      3532.547 9        54.664 9  23825201.874 6         0.000 6      2752.636 6        37.977 6
G21  21165302.406 9 111224394.187 9     -1242.693 9        55.712 9  21165301.690 6         0.000 6      -968.332 6        37.977 6
G29  24285808.827 9 127622730.618 9     -3118.069 9        54.480 9  24285810.386 6         0.000 6     -2429.667 6        37.977 6
G27  22015884.777 9 115694228.313 9      2504.920 9        55.370 9  22015886.714 6         0.000 6      1951.887 6        37.977 6
G16  20499752.685 9 107726907.140 9       571.326 9        55.976 9  20499751.858 6         0.000 6       445.189 6        37.977 6
G26  20647938.961 9 108505629.358 9     -1469.745 9        55.876 9  20647941.775 6         0.000 6     -1145.256 6        37.977 6
G20  21955375.565 9 115376244.114 9      2575.904 9        55.311 9  21955375.893 6         0.000 6      2007.199 6        37.977 6
> 2019 07 03 12 00 37.0000000  0  8       0.000000000000
G07  25356441.590 9 133248953.732 9      2196.803 9        54.128 9  25356442.265 6         0.000 6      1711.796 6        37.977 6
G10  23824525.923 9 125198673.832 9      3532.412 9        54.664 9  23824529.664 6         0.000 6      2752.531 6        37.977 6
G21  21165538.916 9 111225637.058 9     -1243.055 9        55.711 9  21165538.201 6         0.000 6      -968.615 6        37.977 6
G29  24286402.184 9 127625848.720 9     -3118.155 9        54.480 9  24286403.744 6         0.000 6     -2429.734 6        37.977 6
G27  22015408.129 9 115691723.511 9      2504.684 9        55.370 9  22015410.066 6         0.000 6      1951.703 6        37.977 6
G16  20499644.023 9 107726336.119 9       570.710 9        55.976 9  20499643.196 6         0.000 6       444.709 6        37.977 6
G26  20648218.698 9 108507099.384 9     -1470.320 9        55.876 9  20648221.512 6         0.000 6     -1145.705 6        37.977 6
G20  21954885.428 9 115373668.431 9      2575.463 9        55.311 9  21954885.755 6         0.000 6      2006.855 6        37.977 6
> 2019 07 03 12 00 38.0000000  0  8       0.000000000000
G07  25356023.596 9 133246757.161 9      2196.346 9        54.128 9  25356024.271 6         0.000 6      1711.439 6        37.977 6
G10  23823853.740 9 125195141.498 9      3532.277 9        54.664 9  23823857.481 6         0.000 6      2752.426 6        37.977 6
G21  21165775.496 9 111226880.294 9     -1243.417 9        55.711 9  21165774.781 6         0.000 6      -968.897 6        37.977 6
G29  24286995.557 9 127628966.909 9     -3118.242 9        54.479 9  24286997.118 6         0.000 6     -2429.801 6        37.977 6
G27  22014931.526 9 115689218.948 9      2504.448 9        55.370 9  22014933.462 6         0.000 6      1951.519 6        37.977 6
G16  20499535.479 9 107725765.716 9       570.095 9        55.976 9  20499534.652 6         0.000 6       444.230 6        37.977 6
G26  20648498.546 9 108508569.990 9     -1470.896 9        55.876 9  20648501.360 6         0.000 6     -1146.153 6        37.977 6
G20  21954395.375 9 115371093.193 9      2575.022 9        55.311 9  21954395.703 6         0.000 6      2006.512 6        37.977 6
> 2019 07 03 12 00 39.0000000  0  8       0.000000000000
G07  25355605.689 9 133244561.051 9      2195.888 9        54.129 9  25355606.364 6         0.000 6      1711.083 6        37.977 6
G10  23823181.582 9 125191609.295 9      3532.142 9        54.664 9  23823185.322 6         0.000 6      2752.321 6        37.977 6
G21  21166012.145 9 111228123.889 9     -1243.779 9        55.711 9  21166011.430 6         0.000 6      -969.179 6        37.977 6
G29  24287588.947 9 127632085.183 9     -3118.328 9        54.479 9  24287590.508 6         0.000 6     -2429.868 6        37.977 6
G27  22014454.967 9 115686714.618 9      2504.212 9        55.370 9  22014456.904 6         0.000 6      1951.335 6        37.977 6
G16  20499427.051 9 107725195.926 9       569.480 9        55.976 9  20499426.225 6         0.000 6       443.751 6        37.977 6
G26  20648778.502 9 108510041.167 9     -1471.471 9        55.875 9  20648781.316 6         0.000 6     -1146.602 6        37.977 6
G20  21953905.406 9 115368518.393 9      2574.581 9        55.312 9  21953905.733 6         0.000 6      2006.168 6        37.977 6
> 2019 07 03 12 00 40.0000000  0  8       0.000000000000
G07  25355187.869 9 133242365.395 9      2195.430 9        54.129 9  25355188.544 6         0.000 6      1710.726 6        37.977 6
G10  23822509.450 9 125188077.231 9      3532.007 9        54.665 9  23822513.190 6         0.000 6      2752.216 6        37.977 6
G21  21166248.863 9 111229367.849 9     -1244.141 9        55.711 9  21166248.147 6         0.000 6      -969.461 6        37.977 6
G29  24288182.353 9 127635203.544 9     -3118.414 9        54.479 9  24288183.915 6         0.000 6     -2429.935 6        37.977 6
G27  22013978.454 9 115684210.527 9      2503.976 9        55.371 9  22013980.390 6         0.000 6      1951.151 6        37.977 6
G16  20499318.741 9 107724626.753 9       568.865 9        55.976 9  20499317.915 6         0.000 6       443.271 6        37.977 6
G26  20649058.568 9 108511512.925 9     -1472.047 9        55.875 9  20649061.383 6         0.000 6     -1147.050 6        37.977 6
G20  21953415.522 9 115365944.037 9      2574.139 9        55.312 9  21953415.849 6         0.000 6      2005.824 6        37.977 6
> 2019 07 03 12 00 41.0000000  0  8       0.000000000000
G07  25354770.136 9 133240170.197 9      2194.973 9        54.129 9  25354770.810 6         0.000 6      1710.369 6        37.977 6
G10  23821837.345 9 125184545.302 9      3531.872 9        54.665 9  23821841.084 6         0.000 6      2752.111 6        37.977 6
G21  21166485.649 9 111230612.170 9     -1244.503 9        55.711 9  21166484.934 6         0.000 6      -969.743 6        37.977 6
G29  24288775.776 9 127638321.990 9     -3118.500 9        54.479 9  24288777.339 6         0.000 6     -2430.002 6        37.977 6
G27  22013501.986 9 115681706.671 9      2503.740 9        55.371 9  22013503.922 6         0.000 6      1950.967 6        37.977 6
G16  20499210.549 9 107724058.196 9       568.249 9        55.976 9  20499209.722 6         0.000 6       442.792 6        37.977 6
G26  20649338.744 9 108512985.258 9     -1472.622 9        55.875 9  20649341.559 6         0.000 6     -1147.498 6        37.977 6
G20  21952925.721 9 115363370.123 9      2573.698 9        55.312 9  21952926.048 6         0.000 6      2005.480 6        37.977 6
> 2019 07 03 12 00 42.0000000  0  8       0.000000000000
G07  25354352.491 9 133237975.463 9      2194.515 9        54.129 9  25354353.165 6         0.000 6      1710.013 6        37.977 6
G10  23821165.263 9 125181013.502 9      3531.737 9        54.665 9  23821169.002 6         0.000 6      2752.005 6        37.977 6
G21  21166722.504 9 111231856.849 9     -1244.865 9        55.711 9  21166721.789 6         0.000 6      -970.025 6        37.977 6
G29  24289369.214 9 127641440.517 9     -3118.586 9        54.479 9  24289370.777 6         0.000 6     -2430.069 6        37.977 6
G27  22013025.562 9 115679203.053 9      2503.504 9        55.371 9  22013027.498 6         0.000 6      1950.783 6        37.977 6
G16  20499102.473 9 107723490.253 9       567.634 9        55.976 9  20499101.646 6         0.000 6       442.312 6        37.977 6
G26  20649619.029 9 108514458.161 9     -1473.198 9        55.875 9  20649621.843 6         0.000 6     -1147.947 6        37.977 6
G20  21952436.004 9 115360796.643 9      2573.256 9        55.312 9  21952436.330 6         0.000 6      2005.136 6        37.977 6
> 2019 07 03 12 00 43.0000000  0  8       0.000000000000
G07  25353934.933 9 133235781.180 9      2194.057 9        54.129 9  25353935.606 6         0.000 6      1709.656 6        37.977 6
G10  23820493.209 9 125177481.843 9      3531.601 9        54.665 9  23820496.947 6         0.000 6      2751.900 6        37.977 6
G21  21166959.428 9 111233101.895 9     -1245.227 9        55.711 9  21166958.713 6         0.000 6      -970.307 6        37.977 6
G29  24289962.669 9 127644559.136 9     -3118.672 9        54.478 9  24289964.233 6         0.000 6     -2430.136 6        37.977 6
G27  22012549.184 9 115676699.670 9      2503.268 9        55.371 9  22012551.120 6         0.000 6      1950.599 6        37.977 6
G16  20498994.514 9 107722922.926 9       567.019 9        55.976 9  20498993.687 6         0.000 6       441.833 6        37.977 6
G26  20649899.424 9 108515931.645 9     -1473.773 9        55.875 9  20649902.239 6         0.000 6     -1148.395 6        37.977 6
G20  21951946.371 9 115358223.612 9      2572.815 9        55.312 9  21951946.697 6         0.000 6      2004.792 6        37.977 6
> 2019 07 03 12 00 44.0000000  0  8       0.000000000000
G07  25353517.462 9 133233587.358 9      2193.599 9        54.129 9  25353518.135 6         0.000 6      1709.299 6        37.977 6
G10  23819821.180 9 125173950.316 9      3531.466 9        54.666 9  23819824.917 6         0.000 6      2751.794 6        37.977 6
G21  21167196.421 9 111234347.299 9     -1245.589 9        55.711 9  21167195.706 6         0.000 6      -970.589 6        37.977 6
G29  24290556.141 9 127647677.840 9     -3118.758 9        54.478 9  24290557.705 6         0.000 6     -2430.203 6        37.977 6
G27  22012072.850 9 115674196.521 9      2503.032 9        55.371 9  22012074.786 6         0.000 6      1950.415 6        37.977 6
G16  20498886.672 9 107722356.212 9       566.403 9        55.976 9  20498885.845 6         0.000 6       441.353 6        37.977 6
G26  20650179.928 9 108517405.700 9     -1474.349 9        55.875 9  20650182.742 6         0.000 6     -1148.844 6        37.977 6
G20  21951456.822 9 115355651.019 9      2572.373 9        55.313 9  21951457.148 6         0.000 6      2004.448 6        37.977 6
> 2019 07 03 12 00 45.0000000  0  8       0.000000000000
G07  25353100.077 9 133231393.992 9      2193.141 9        54.129 9  25353100.750 6         0.000 6      1708.942 6        37.977 6
G10  23819149.177 9 125170418.928 9      3531.330 9        54.666 9  23819152.913 6         0.000 6      2751.689 6        37.977 6
G21  21167433.483 9 111235593.068 9     -1245.950 9        55.711 9  21167432.768 6         0.000 6      -970.871 6        37.977 6
G29  24291149.629 9 127650796.631 9     -3118.843 9        54.478 9  24291151.194 6         0.000 6     -2430.270 6        37.977 6
G27  22011596.561 9 115671693.610 9      2502.795 9        55.372 9  22011598.497 6         0.000 6      1950.231 6        37.977 6
G16  20498778.947 9 107721790.117 9       565.788 9        55.976 9  20498778.121 6         0.000 6       440.874 6        37.977 6
G26  20650460.541 9 108518880.334 9     -1474.924 9        55.875 9  20650463.356 6         0.000 6     -1149.292 6        37.977 6
G20  21950967.358 9 115353078.871 9      2571.931 9        55.313 9  21950967.683 6         0.000 6      2004.103 6        37.977 6
> 2019 07 03 12 00 46.0000000  0  8       0.000000000000
G07  25352682.780 9 133229201.086 9      2192.683 9        54.130 9  25352683.453 6         0.000 6      1708.585 6        37.977 6
G10  23818477.199 9 125166887.672 9      3531.195 9        54.666 9  23818480.935 6         0.000 6      2751.583 6        37.977 6
G21  21167670.614 9 111236839.196 9     -1246.312 9        55.711 9  21167669.899 6         0.000 6      -971.152 6        37.977 6
G29  24291743.133 9 127653915.507 9     -3118.929 9        54.478 9  24291744.699 6         0.000 6     -2430.337 6        37.977 6
G27  22011120.317 9 115669190.934 9      2502.559 9        55.372 9  22011122.253 6         0.000 6      1950.047 6        37.977 6
G16  20498671.340 9 107721224.633 9       565.172 9        55.976 9  20498670.513 6         0.000 6       440.394 6        37.977 6
G26  20650741.264 9 108520355.540 9     -1475.499 9        55.875 9  20650744.079 6         0.000 6     -1149.740 6        37.977 6
G20  21950477.977 9 115350507.161 9      2571.489 9        55.313 9  21950478.302 6         0.000 6      2003.759 6        37.977 6
> 2019 07 03 12 00 47.0000000  0  8       0.000000000000
G07  25352265.570 9 133227008.636 9      2192.225 9        54.130 9  25352266.243 6         0.000 6      1708.228 6        37.977 6
G10  23817805.248 9 125163356.556 9      3531.059 9        54.666 9  23817808.983 6         0.000 6      2751.477 6        37.977 6
G21  21167907.813 9 111238085.689 9     -1246.674 9        55.710 9  21167907.098 6         0.000 6      -971.434 6        37.977 6
G29  24292336.654 9 127657034.469 9     -3119.015 9        54.478 9  24292338.220 6         0.000 6     -2430.404 6        37.977 6
G27  22010644.119 9 115666688.496 9      2502.323 9        55.372 9  22010646.054 6         0.000 6      1949.863 6        37.977 6
G16  20498563.849 9 107720659.769 9       564.557 9        55.976 9  20498563.023 6         0.000 6       439.914 6        37.977 6
G26  20651022.097 9 108521831.325 9     -1476.075 9        55.875 9  20651024.912 6         0.000 6     -1150.188 6        37.977 6
G20  21949988.681 9 115347935.897 9      2571.047 9        55.313 9  21949989.006 6         0.000 6      2003.415 6        37.977 6
> 2019 07 03 12 00 48.0000000  0  8       0.000000000000
G07  25351848.448 9 133224816.646 9      2191.767 9        54.130 9  25351849.120 6         0.000 6      1707.871 6        37.977 6
G10  23817133.322 9 125159825.571 9      3530.923 9        54.667 9  23817137.056 6         0.000 6      2751.371 6        37.977 6
G21  21168145.081 9 111239332.540 9     -1247.035 9        55.710 9  21168144.367 6         0.000 6      -971.716 6        37.977 6
G29  24292930.191 9 127660153.517 9     -3119.101 9        54.477 9  24292931.758 6         0.000 6     -2430.471 6        37.977 6
G27  22010167.965 9 115664186.292 9      2502.086 9        55.372 9  22010169.900 6         0.000 6      1949.678 6        37.977 6
G16  20498456.476 9 107720095.517 9       563.941 9        55.976 9  20498455.649 6         0.000 6       439.435 6        37.977 6
G26  20651303.038 9 108523307.681 9     -1476.650 9        55.874 9  20651305.854 6         0.000 6     -1150.637 6        37.977 6
G20  21949499.468 9 115345365.071 9      2570.605 9        55.313 9  21949499.793 6         0.000 6      2003.070 6        37.977 6
> 2019 07 03 12 00 49.0000000  0  8       0.000000000000
G07  25351431.412 9 133222625.113 9      2191.308 9        54.130 9  25351432.084 6         0.000 6      1707.514 6        37.977 6
G10  23816461.423 9 125156294.727 9      3530.787 9        54.667 9  23816465.156 6         0.000 6      2751.265 6        37.977 6
G21  21168382.419 9 111240579.755 9     -1247.397 9        55.710 9  21168381.704 6         0.000 6      -971.998 6        37.977 6
G29  24293523.744 9 127663272.651 9     -3119.187 9        54.477 9  24293525.312 6         0.000 6     -2430.538 6        37.977 6
G27  22009691.856 9 115661684.326 9      2501.850 9        55.372 9  22009693.791 6         0.000 6      1949.494 6        37.977 6
G16  20498349.220 9 107719531.883 9       563.326 9        55.976 9  20498348.393 6         0.000 6       438.955 6        37.977 6
G26  20651584.090 9 108524784.616 9     -1477.225 9        55.874 9  20651586.906 6         0.000 6     -1151.085 6        37.977 6
G20  21949010.340 9 115342794.692 9      2570.163 9        55.314 9  21949010.664 6         0.000 6      2002.726 6        37.977 6
> 2019 07 03 12 00 50.0000000  0  8       0.000000000000
G07  25351014.465 9 133220434.043 9      2190.850 9        54.130 9  25351015.137 6         0.000 6      1707.157 6        37.977 6
G10  23815789.548 9 125152764.012 9      3530.651 9        54.667 9  23815793.281 6         0.000 6      2751.159 6        37.977 6
G21  21168619.824 9 111241827.327 9     -1247.758 9        55.710 9  21168619.109 6         0.000 6      -972.279 6        37.977 6
G29  24294117.313 9 127666391.865 9     -3119.273 9        54.477 9  24294118.881 6         0.000 6     -2430.605 6        37.977 6
G27  22009215.793 9 115659182.599 9      2501.614 9        55.372 9  22009217.727 6         0.000 6      1949.310 6        37.977 6
G16  20498242.081 9 107718968.864 9       562.710 9        55.976 9  20498241.254 6         0.000 6       438.475 6        37.977 6
G26  20651865.251 9 108526262.122 9     -1477.800 9        55.874 9  20651868.066 6         0.000 6     -1151.533 6        37.977 6
G20  21948521.295 9 115340224.747 9      2569.721 9        55.314 9  21948521.619 6         0.000 6      2002.381 6        37.977 6
> 2019 07 03 12 00 51.0000000  0  8       0.000000000000
G07  25350597.603 9 133218243.425 9      2190.391 9        54.130 9  25350598.275 6         0.000 6      1706.799 6        37.977 6
G10  23815117.700 9 125149233.440 9      3530.515 9        54.667 9  23815121.433 6         0.000 6      2751.053 6        37.977 6
G21  21168857.299 9 111243075.266 9     -1248.120 9        55.710 9  21168856.584 6         0.000 6      -972.561 6        37.977 6
G29  24294710.899 9 127669511.170 9     -3119.358 9        54.477 9  24294712.468 6         0.000 6     -2430.671 6        37.977 6
G27  22008739.774 9 115656681.106 9      2501.377 9        55.373 9  22008741.708 6         0.000 6      1949.126 6        37.977 6
G16  20498135.059 9 107718406.462 9       562.094 9        55.976 9  20498134.232 6         0.000 6       437.996 6        37.977 6
G26  20652146.521 9 108527740.208 9     -1478.375 9        55.874 9  20652149.337 6         0.000 6     -1151.981 6        37.977 6
G20  21948032.335 9 115337655.251 9      2569.279 9        55.314 9  21948032.659 6         0.000 6      2002.036 6        37.977 6
> 2019 07 03 12 00 52.0000000  0  8       0.000000000000
G07  25350180.829 9 133216053.267 9      2189.933 9        54.130 9  25350181.501 6         0.000 6      1706.442 6        37.977 6
G10  23814445.879 9 125145703.004 9      3530.379 9        54.668 9  23814449.610 6         0.000 6      2750.947 6        37.977 6
G21  21169094.842 9 111244323.565 9     -1248.481 9        55.710 9  21169094.128 6         0.000 6      -972.842 6        37.977 6
G29  24295304.501 9 127672630.561 9     -3119.444 9        54.476 9  24295306.071 6         0.000 6     -2430.738 6        37.977 6
G27  22008263.800 9 115654179.850 9      2501.141 9        55.373 9  22008265.734 6         0.000 6      1948.941 6        37.977 6
G16  20498028.155 9 107717844.675 9       561.479 9        55.976 9  20498027.328 6         0.000 6       437.516 6        37.977 6
G26  20652427.902 9 108529218.870 9     -1478.951 9        55.874 9  20652430.717 6         0.000 6     -1152.429 6        37.977 6
G20  21947543.460 9 115335086.198 9      2568.836 9        55.314 9  21947543.783 6         0.000 6      2001.692 6        37.977 6
> 2019 07 03 12 00 53.0000000  0  8       0.000000000000
G07  25349764.143 9 133213863.570 9      2189.474 9        54.131 9  25349764.815 6         0.000 6      1706.085 6        37.977 6
G10  23813774.082 9 125142172.699 9      3530.242 9        54.668 9  23813777.813 6         0.000 6      2750.841 6        37.977 6
G21  21169332.454 9 111245572.223 9     -1248.842 9        55.710 9  21169331.740 6         0.000 6      -973.124 6        37.977 6
G29  24295898.120 9 127675750.038 9     -3119.530 9        54.476 9  24295899.690 6         0.000 6     -2430.805 6        37.977 6
G27  22007787.871 9 115651678.829 9      2500.904 9        55.373 9  22007789.805 6         0.000 6      1948.757 6        37.977 6
G16  20497921.367 9 107717283.502 9       560.863 9        55.976 9  20497920.540 6         0.000 6       437.036 6        37.977 6
G26  20652709.390 9 108530698.101 9     -1479.526 9        55.874 9  20652712.206 6         0.000 6     -1152.878 6        37.977 6
G20  21947054.668 9 115332517.584 9      2568.394 9        55.314 9  21947054.991 6         0.000 6      2001.347 6        37.977 6
> 2019 07 03 12 00 54.0000000  0  8       0.000000000000
G07  25349347.544 9 133211674.328 9      2189.015 9        54.131 9  25349348.215 6         0.000 6      1705.727 6        37.977 6
G10  23813102.312 9 125138642.536 9      3530.106 9        54.668 9  23813106.043 6         0.000 6      2750.734 6        37.977 6
G21  21169570.135 9 111246821.245 9     -1249.203 9        55.710 9  21169569.421 6         0.000 6      -973.405 6        37.977 6
G29  24296491.755 9 127678869.601 9     -3119.616 9        54.476 9  24296493.326 6         0.000 6     -2430.872 6        37.977 6
G27  22007311.987 9 115649178.046 9      2500.667 9        55.373 9  22007313.921 6         0.000 6      1948.573 6        37.977 6
G16  20497814.697 9 107716722.947 9       560.247 9        55.976 9  20497813.870 6         0.000 6       436.556 6        37.977 6
G26  20652990.989 9 108532177.913 9     -1480.101 9        55.874 9  20652993.805 6         0.000 6     -1153.326 6        37.977 6
G20  21946565.961 9 115329949.416 9      2567.951 9        55.315 9  21946566.284 6         0.000 6      2001.002 6        37.977 6
> 2019 07 03 12 00 55.0000000  0  8       0.000000000000
G07  25348931.032 9 133209485.549 9      2188.557 9        54.131 9  25348931.703 6         0.000 6      1705.370 6        37.977 6
G10  23812430.568 9 125135112.505 9      3529.969 9        54.668 9  23812434.297 6         0.000 6      2750.628 6        37.977 6
G21  21169807.885 9 111248070.626 9     -1249.564 9        55.710 9  21169807.170 6         0.000 6      -973.687 6        37.977 6
G29  24297085.406 9 127681989.249 9     -3119.701 9        54.476 9  24297086.977 6         0.000 6     -2430.939 6        37.977 6
G27  22006836.148 9 115646677.497 9      2500.431 9        55.373 9  22006838.082 6         0.000 6      1948.388 6        37.977 6
G16  20497708.144 9 107716163.005 9       559.631 9        55.976 9  20497707.317 6         0.000 6       436.076 6        37.977 6
G26  20653272.697 9 108533658.294 9     -1480.676 9        55.874 9  20653275.513 6         0.000 6     -1153.774 6        37.977 6
G20  21946077.338 9 115327381.687 9      2567.508 9        55.315 9  21946077.660 6         0.000 6      2000.657 6        37.977 6
> 2019 07 03 12 00 56.0000000  0  8       0.000000000000
G07  25348514.607 9 133207297.225 9      2188.098 9        54.131 9  25348515.278 6         0.000 6      1705.012 6        37.977 6
G10  23811758.850 9 125131582.615 9      3529.832 9        54.669 9  23811762.579 6         0.000 6      2750.521 6        37.977 6
G21  21170045.703 9 111249320.370 9     -1249.926 9        55.710 9  21170044.989 6         0.000 6      -973.968 6        37.977 6
G29  24297679.074 9 127685108.983 9     -3119.787 9        54.476 9  24297680.646 6         0.000 6     -2431.005 6        37.977 6
G27  22006360.355 9 115644177.188 9      2500.194 9        55.374 9  22006362.288 6         0.000 6      1948.204 6        37.977 6
G16  20497601.708 9 107715603.681 9       559.015 9        55.976 9  20497600.881 6         0.000 6       435.596 6        37.977 6
G26  20653554.515 9 108535139.255 9     -1481.251 9        55.873 9  20653557.331 6         0.000 6     -1154.222 6        37.977 6
G20  21945588.799 9 115324814.404 9      2567.066 9        55.315 9  21945589.121 6         0.000 6      2000.312 6        37.977 6
> 2019 07 03 12 00 57.0000000  0  8       0.000000000000
G07  25348098.270 9 133205109.363 9      2187.639 9        54.131 9  25348098.941 6         0.000 6      1704.655 6        37.977 6
G10  23811087.157 9 125128052.857 9      3529.696 9        54.669 9  23811090.886 6         0.000 6      2750.415 6        37.977 6
G21  21170283.590 9 111250570.473 9     -1250.287 9        55.709 9  21170282.876 6         0.000 6      -974.249 6        37.977 6
G29  24298272.757 9 127688228.802 9     -3119.873 9        54.475 9  24298274.330 6         0.000 6     -2431.072 6        37.977 6
G27  22005884.606 9 115641677.113 9      2499.957 9        55.374 9  22005886.539 6         0.000 6      1948.020 6        37.977 6
G16  20497495.389 9 107715044.971 9       558.399 9        55.976 9  20497494.562 6         0.000 6       435.116 6        37.977 6
G26  20653836.441 9 108536620.787 9     -1481.826 9        55.873 9  20653839.258 6         0.000 6     -1154.670 6        37.977 6
G20  21945100.344 9 115322247.560 9      2566.623 9        55.315 9  21945100.666 6         0.000 6      1999.967 6        37.977 6
> 2019 07 03 12 00 58.0000000  0  8       0.000000000000
G07  25347682.021 9 133202921.960 9      2187.180 9        54.131 9  25347682.691 6         0.000 6      1704.297 6        37.977 6
G10  23810415.491 9 125124523.239 9      3529.559 9        54.669 9  23810419.219 6         0.000 6      2750.308 6        37.977 6
G21  21170521.546 9 111251820.938 9     -1250.648 9        55.709 9  21170520.831 6         0.000 6      -974.531 6        37.977 6
G29  24298866.457 9 127691348.703 9     -3119.958 9        54.475 9  24298868.030 6         0.000 6     -2431.139 6        37.977 6
G27  22005408.903 9 115639177.280 9      2499.721 9        55.374 9  22005410.836 6         0.000 6      1947.835 6        37.977 6
G16  20497389.188 9 107714486.881 9       557.783 9        55.977 9  20497388.361 6         0.000 6       434.636 6        37.977 6
G26  20654118.478 9 108538102.898 9     -1482.400 9        55.873 9  20654121.294 6         0.000 6     -1155.118 6        37.977 6
G20  21944611.974 9 115319681.161 9      2566.180 9        55.315 9  21944612.295 6         0.000 6      1999.622 6        37.977 6
> 2019 07 03 12 00 59.0000000  0  8       0.000000000000
G07  25347265.858 9 133200735.016 9      2186.721 9        54.131 9  25347266.528 6         0.000 6      1703.939 6        37.977 6
G10  23809743.851 9 125120993.755 9      3529.422 9        54.669 9  23809747.578 6         0.000 6      2750.201 6        37.977 6
G21  21170759.570 9 111253071.763 9     -1251.008 9        55.709 9  21170758.856 6         0.000 6      -974.812 6        37.977 6
G29  24299460.173 9 127694468.693 9     -3120.044 9        54.475 9  24299461.747 6         0.000 6     -2431.206 6        37.977 6
G27  22004933.244 9 115636677.678 9      2499.484 9        55.374 9  22004935.177 6         0.000 6      1947.651 6        37.977 6
G16  20497283.103 9 107713929.403 9       557.167 9        55.977 9  20497282.276 6         0.000 6       434.156 6        37.977 6
G26  20654400.623 9 108539585.579 9     -1482.975 9        55.873 9  20654403.440 6         0.000 6     -1155.566 6        37.977 6
G20  21944123.687 9 115317115.203 9      2565.737 9        55.316 9  21944124.009 6         0.000 6      1999.276 6        37.977 6
> 2019 07 03 12 01  0.0000000  0  8       0.000000000000
G07  25346849.783 9 133198548.528 9      2186.262 9        54.132 9  25346850.453 6         0.000 6      1703.581 6        37.977 6
G10  23809072.237 9 125117464.412 9      3529.284 9        54.669 9  23809075.964 6         0.000 6      2750.094 6        37.977 6
G21  21170997.663 9 111254322.951 9     -1251.369 9        55.709 9  21170996.949 6         0.000 6      -975.093 6        37.977 6
G29  24300053.906 9 127697588.770 9     -3120.129 9        54.475 9  24300055.480 6         0.000 6     -2431.272 6        37.977 6
G27  22004457.630 9 115634178.315 9      2499.247 9        55.374 9  22004459.563 6         0.000 6      1947.466 6        37.977 6
G16  20497177.136 9 107713372.544 9       556.551 9        55.977 9  20497176.310 6         0.000 6       433.676 6        37.977 6
G26  20654682.879 9 108541068.840 9     -1483.550 9        55.873 9  20654685.695 6         0.000 6     -1156.014 6        37.977 6
G20  21943635.486 9 115314549.693 9      2565.293 9        55.316 9  21943635.807 6         0.000 6      1998.931 6        37.977 6
> 2019 07 03 12 01  1.0000000  0  8       0.000000000000
G07  25346433.795 9 133196362.500 9      2185.802 9        54.132 9  25346434.465 6         0.000 6      1703.224 6        37.977 6
G10  23808400.650 9 125113935.207 9      3529.147 9        54.670 9  23808404.376 6         0.000 6      2749.988 6        37.977 6
G21  21171235.825 9 111255574.500 9     -1251.730 9        55.709 9  21171235.111 6         0.000 6      -975.374 6        37.977 6
G29  24300647.655 9 127700708.932 9     -3120.215 9        54.475 9  24300649.230 6         0.000 6     -2431.339 6        37.977 6
G27  22003982.062 9 115631679.189 9      2499.010 9        55.375 9  22003983.995 6         0.000 6      1947.281 6        37.977 6
G16  20497071.287 9 107712816.301 9       555.935 9        55.977 9  20497070.460 6         0.000 6       433.196 6        37.977 6
G26  20654965.244 9 108542552.676 9     -1484.125 9        55.873 9  20654968.060 6         0.000 6     -1156.461 6        37.977 6
G20  21943147.369 9 115311984.625 9      2564.850 9        55.316 9  21943147.690 6         0.000 6      1998.586 6        37.977 6
> 2019 07 03 12 01  2.0000000  0  8       0.000000000000
G07  25346017.895 9 133194176.933 9      2185.343 9        54.132 9  25346018.564 6         0.000 6      1702.866 6        37.977 6
G10  23807729.088 9 125110406.135 9      3529.010 9        54.670 9  23807732.813 6         0.000 6      2749.881 6        37.977 6
G21  21171474.055 9 111256826.407 9     -1252.091 9        55.709 9  21171473.341 6         0.000 6      -975.655 6        37.977 6
G29  24301241.420 9 127703829.179 9     -3120.300 9        54.474 9  24301242.996 6         0.000 6     -2431.405 6        37.977 6
G27  22003506.538 9 115629180.298 9      2498.773 9        55.375 9  22003508.471 6         0.000 6      1947.097 6        37.977 6
G16  20496965.554 9 107712260.670 9       555.319 9        55.977 9  20496964.727 6         0.000 6       432.716 6        37.977 6
G26  20655247.717 9 108544037.082 9     -1484.700 9        55.873 9  20655250.534 6         0.000 6     -1156.909 6        37.977 6
G20  21942659.336 9 115309419.997 9      2564.407 9        55.316 9  21942659.656 6         0.000 6      1998.240 6        37.977 6
> 2019 07 03 12 01  3.0000000  0  8       0.000000000000
G07  25345602.081 9 133191991.824 9      2184.884 9        54.132 9  25345602.751 6         0.000 6      1702.508 6        37.977 6
G10  23807057.552 9 125106877.204 9      3528.872 9        54.670 9  23807061.277 6         0.000 6      2749.773 6        37.977 6
G21  21171712.355 9 111258078.678 9     -1252.452 9        55.709 9  21171711.641 6         0.000 6      -975.937 6        37.977 6
G29  24301835.202 9 127706949.512 9     -3120.386 9        54.474 9  24301836.778 6         0.000 6     -2431.472 6        37.977 6
G27  22003031.060 9 115626681.646 9      2498.536 9        55.375 9  22003032.992 6         0.000 6      1946.912 6        37.977 6
G16  20496859.939 9 107711705.659 9       554.703 9        55.977 9  20496859.112 6         0.000 6       432.236 6        37.977 6
G26  20655530.301 9 108545522.067 9     -1485.274 9        55.873 9  20655533.117 6         0.000 6     -1157.357 6        37.977 6
G20  21942171.388 9 115306855.817 9      2563.963 9        55.316 9  21942171.708 6         0.000 6      1997.895 6        37.977 6
> 2019 07 03 12 01  4.0000000  0  8       0.000000000000
G07  25345186.356 9 133189807.176 9      2184.424 9        54.132 9  25345187.025 6         0.000 6      1702.150 6        37.977 6
G10  23806386.043 9 125103348.407 9      3528.735 9        54.670 9  23806389.766 6         0.000 6      2749.666 6        37.977 6
G21  21171950.722 9 111259331.307 9     -1252.812 9        55.709 9  21171950.008 6         0.000 6      -976.218 6        37.977 6
G29  24302428.999 9 127710069.930 9     -3120.471 9        54.474 9  24302430.577 6         0.000 6     -2431.539 6        37.977 6
G27  22002555.627 9 115624183.229 9      2498.300 9        55.375 9  22002557.559 6         0.000 6      1946.728 6        37.977 6
G16  20496754.440 9 107711151.262 9       554.087 9        55.977 9  20496753.614 6         0.000 6       431.756 6        37.977 6
G26  20655812.993 9 108547007.622 9     -1485.849 9        55.873 9  20655815.810 6         0.000 6     -1157.805 6        37.977 6
G20  21941683.523 9 115304292.076 9      2563.520 9        55.316 9  21941683.843 6         0.000 6      1997.549 6        37.977 6
> 2019 07 03 12 01  5.0000000  0  8       0.000000000000
G07  25344770.718 9 133187622.988 9      2183.965 9        54.132 9  25344771.387 6         0.000 6      1701.791 6        37.977 6
G10  23805714.559 9 125099819.749 9      3528.597 9        54.671 9  23805718.282 6         0.000 6      2749.559 6        37.977 6
G21  21172189.158 9 111260584.296 9     -1253.173 9        55.709 9  21172188.444 6         0.000 6      -976.499 6        37.977 6
G29  24303022.813 9 127713190.429 9     -3120.557 9        54.474 9  24303024.390 6         0.000 6     -2431.605 6        37.977 6
G27  22002080.239 9 115621685.054 9      2498.063 9        55.375 9  22002082.171 6         0.000 6      1946.543 6        37.977 6
G16  20496649.060 9 107710597.485 9       553.470 9        55.977 9  20496648.233 6         0.000 6       431.276 6        37.977 6
G26  20656095.795 9 108548493.757 9     -1486.424 9        55.872 9  20656098.612 6         0.000 6     -1158.253 6        37.977 6
G20  21941195.743 9 115301728.780 9      2563.076 9        55.317 9  21941196.063 6         0.000 6      1997.203 6        37.977 6
> 2019 07 03 12 01  6.0000000  0  8       0.000000000000
G07  25344355.168 9 133185439.260 9      2183.505 9        54.132 9  25344355.837 6         0.000 6      1701.433 6        37.977 6
G10  23805043.102 9 125096291.227 9      3528.460 9        54.671 9  23805046.824 6         0.000 6      2749.452 6        37.977 6
G21  21172427.663 9 111261837.646 9     -1253.533 9        55.709 9  21172426.949 6         0.000 6      -976.779 6        37.977 6
G29  24303616.643 9 127716311.018 9     -3120.642 9        54.474 9  24303618.221 6         0.000 6     -2431.672 6        37.977 6
G27  22001604.896 9 115619187.111 9      2497.826 9        55.375 9  22001606.828 6         0.000 6      1946.358 6        37.977 6
G16  20496543.796 9 107710044.319 9       552.854 9        55.977 9  20496542.969 6         0.000 6       430.795 6        37.977 6
G26  20656378.706 9 108549980.462 9     -1486.998 9        55.872 9  20656381.523 6         0.000 6     -1158.701 6        37.977 6
G20  21940708.047 9 115299165.926 9      2562.632 9        55.317 9  21940708.367 6         0.000 6      1996.857 6        37.977 6
> 2019 07 03 12 01  7.0000000  0  8       0.000000000000
G07  25343939.704 9 133183255.988 9      2183.045 9        54.133 9  25343940.373 6         0.000 6      1701.075 6        37.977 6
G10  23804371.672 9 125092762.847 9      3528.322 9        54.671 9  23804375.393 6         0.000 6      2749.344 6        37.977 6
G21  21172666.237 9 111263091.359 9     -1253.894 9        55.709 9  21172665.523 6         0.000 6      -977.060 6        37.977 6
G29  24304210.489 9 127719431.693 9     -3120.728 9        54.473 9  24304212.069 6         0.000 6     -2431.738 6        37.977 6
G27  22001129.598 9 115616689.407 9      2497.588 9        55.376 9  22001131.530 6         0.000 6      1946.173 6        37.977 6
G16  20496438.650 9 107709491.773 9       552.238 9        55.977 9  20496437.823 6         0.000 6       430.315 6        37.977 6
G26  20656661.727 9 108551467.745 9     -1487.573 9        55.872 9  20656664.544 6         0.000 6     -1159.148 6        37.977 6
G20  21940220.437 9 115296603.520 9      2562.188 9        55.317 9  21940220.756 6         0.000 6      1996.511 6        37.977 6
> 2019 07 03 12 01  8.0000000  0  8       0.000000000000
G07  25343524.329 9 133181073.179 9      2182.585 9        54.133 9  25343524.997 6         0.000 6      1700.717 6        37.977 6
G10  23803700.267 9 125089234.601 9      3528.184 9        54.671 9  23803703.988 6         0.000 6      2749.237 6        37.977 6
G21  21172904.879 9 111264345.430 9     -1254.254 9        55.708 9  21172904.165 6         0.000 6      -977.341 6        37.977 6
G29  24304804.352 9 127722552.453 9     -3120.813 9        54.473 9  24304805.932 6         0.000 6     -2431.805 6        37.977 6
G27  22000654.345 9 115614191.938 9      2497.351 9        55.376 9  22000656.277 6         0.000 6      1945.989 6        37.977 6
G16  20496333.621 9 107708939.841 9       551.621 9        55.977 9  20496332.794 6         0.000 6       429.835 6        37.977 6
G26  20656944.856 9 108552955.599 9     -1488.148 9        55.872 9  20656947.674 6         0.000 6     -1159.596 6        37.977 6
G20  21939732.910 9 115294041.554 9      2561.744 9        55.317 9  21939733.229 6         0.000 6      1996.166 6        37.977 6
> 2019 07 03 12 01  9.0000000  0  8       0.000000000000
G07  25343109.041 9 133178890.827 9      2182.126 9        54.133 9  25343109.709 6         0.000 6      1700.358 6        37.977 6
G10  23803028.889 9 125085706.497 9      3528.046 9        54.672 9  23803032.609 6         0.000 6      2749.129 6        37.977 6
G21  21173143.590 9 111265599.864 9     -1254.615 9        55.708 9  21173142.876 6         0.000 6      -977.622 6        37.977 6
G29  24305398.231 9 127725673.299 9     -3120.898 9        54.473 9  24305399.812 6         0.000 6     -2431.872 6        37.977 6
G27  22000179.137 9 115611694.708 9      2497.114 9        55.376 9  22000181.069 6         0.000 6      1945.804 6        37.977 6
G16  20496228.710 9 107708388.527 9       551.005 9        55.977 9  20496227.883 6         0.000 6       429.354 6        37.977 6
G26  20657228.096 9 108554444.032 9     -1488.722 9        55.872 9  20657230.914 6         0.000 6     -1160.044 6        37.977 6
G20  21939245.469 9 115291480.036 9      2561.300 9        55.317 9  21939245.787 6         0.000 6      1995.820 6        37.977 6
> 2019 07 03 12 01 10.0000000  0  8       0.000000000000
G07  25342693.840 9 133176708.935 9      2181.666 9        54.133 9  25342694.507 6         0.000 6      1700.000 6        37.977 6
G10  23802357.537 9 125082178.531 9      3527.907 9        54.672 9  23802361.257 6         0.000 6      2749.021 6        37.977 6
G21  21173382.369 9 111266854.658 9     -1254.975 9        55.708 9  21173381.655 6         0.000 6      -977.903 6        37.977 6
G29  24305992.127 9 127728794.230 9     -3120.984 9        54.473 9  24305993.708 6         0.000 6     -2431.938 6        37.977 6
G27  21999703.975 9 115609197.715 9      2496.877 9        55.376 9  21999705.906 6         0.000 6      1945.619 6        37.977 6
G16  20496123.916 9 107707837.831 9       550.388 9        55.977 9  20496123.089 6         0.000 6       428.874 6        37.977 6
G26  20657511.445 9 108555933.040 9     -1489.297 9        55.872 9  20657514.263 6         0.000 6     -1160.491 6        37.977 6
G20  21938758.112 9 115288918.963 9      2560.856 9        55.318 9  21938758.430 6         0.000 6      1995.473 6        37.977 6
> 2019 07 03 12 01 11.0000000  0  8       0.000000000000
G07  25342278.727 9 133174527.506 9      2181.206 9        54.133 9  25342279.394 6         0.000 6      1699.642 6        37.977 6
G10  23801686.211 9 125078650.699 9      3527.769 9        54.672 9  23801689.930 6         0.000 6      2748.914 6        37.977 6
G21  21173621.217 9 111268109.810 9     -1255.335 9        55.708 9  21173620.503 6         0.000 6      -978.183 6        37.977 6
G29  24306586.038 9 127731915.246 9     -3121.069 9        54.472 9  24306587.620 6         0.000 6     -2432.004 6        37.977 6
G27  21999228.857 9 115606700.957 9      2496.640 9        55.376 9  21999230.788 6         0.000 6      1945.434 6        37.977 6
G16  20496019.238 9 107707287.747 9       549.772 9        55.977 9  20496018.411 6         0.000 6       428.394 6        37.977 6
G26  20657794.903 9 108557422.617 9     -1489.871 9        55.872 9  20657797.720 6         0.000 6     -1160.939 6        37.977 6
G20  21938270.838 9 115286358.329 9      2560.412 9        55.318 9  21938271.157 6         0.000 6      1995.127 6        37.977 6
> 2019 07 03 12 01 12.0000000  0  8       0.000000000000
G07  25341863.701 9 133172346.534 9      2180.745 9        54.133 9  25341864.368 6         0.000 6      1699.283 6        37.977 6
G10  23801014.912 9 125075123.010 9      3527.631 9        54.672 9  23801018.630 6         0.000 6      2748.806 6        37.977 6
G21  21173860.133 9 111269365.325 9     -1255.695 9        55.708 9  21173859.420 6         0.000 6      -978.464 6        37.977 6
G29  24307179.966 9 127735036.347 9     -3121.154 9        54.472 9  24307181.548 6         0.000 6     -2432.071 6        37.977 6
G27  21998753.785 9 115604204.439 9      2496.402 9        55.377 9  21998755.716 6         0.000 6      1945.249 6        37.977 6
G16  20495914.679 9 107706738.284 9       549.155 9        55.977 9  20495913.852 6         0.000 6       427.913 6        37.977 6
G26  20658078.470 9 108558912.774 9     -1490.445 9        55.872 9  20658081.288 6         0.000 6     -1161.387 6        37.977 6
G20  21937783.651 9 115283798.144 9      2559.968 9        55.318 9  21937783.968 6         0.000 6      1994.781 6        37.977 6
> 2019 07 03 12 01 13.0000000  0  8       0.000000000000
G07  25341448.764 9 133170166.028 9      2180.285 9        54.133 9  25341449.431 6         0.000 6      1698.925 6        37.977 6
G10  23800343.638 9 125071595.452 9      3527.492 9        54.673 9  23800347.356 6         0.000 6      2748.698 6        37.977 6
G21  21174099.118 9 111270621.195 9     -1256.056 9        55.708 9  21174098.404 6         0.000 6      -978.745 6        37.977 6
G29  24307773.909 9 127738157.529 9     -3121.240 9        54.472 9  24307775.492 6         0.000 6     -2432.137 6        37.977 6
G27  21998278.758 9 115601708.159 9      2496.165 9        55.377 9  21998280.689 6         0.000 6      1945.064 6        37.977 6
G16  20495810.236 9 107706189.435 9       548.539 9        55.977 9  20495809.409 6         0.000 6       427.433 6        37.977 6
G26  20658362.146 9 108560403.499 9     -1491.020 9        55.871 9  20658364.964 6         0.000 6     -1161.834 6        37.977 6
G20  21937296.546 9 115281238.395 9      2559.523 9        55.318 9  21937296.863 6         0.000 6      1994.435 6        37.977 6
> 2019 07 03 12 01 14.0000000  0  8       0.000000000000
G07  25341033.913 9 133167985.976 9      2179.825 9        54.134 9  25341034.580 6         0.000 6      1698.566 6        37.977 6
G10  23799672.392 9 125068068.040 9      3527.354 9        54.673 9  23799676.109 6         0.000 6      2748.590 6        37.977 6
G21  21174338.171 9 111271877.430 9     -1256.416 9        55.708 9  21174337.458 6         0.000 6      -979.025 6        37.977 6
G29  24308367.869 9 127741278.801 9     -3121.325 9        54.472 9  24308369.453 6         0.000 6     -2432.204 6        37.977 6
G27  21997803.777 9 115599212.116 9      2495.928 9        55.377 9  21997805.707 6         0.000 6      1944.880 6        37.977 6
G16  20495705.911 9 107705641.204 9       547.922 9        55.977 9  20495705.084 6         0.000 6       426.952 6        37.977 6
G26  20658645.933 9 108561894.805 9     -1491.594 9        55.871 9  20658648.751 6         0.000 6     -1162.282 6        37.977 6
G20  21936809.527 9 115278679.099 9      2559.079 9        55.318 9  21936809.844 6         0.000 6      1994.088 6        37.977 6
> 2019 07 03 12 01 15.0000000  0  8       0.000000000000
G07  25340619.150 9 133165806.387 9      2179.365 9        54.134 9  25340619.817 6         0.000 6      1698.207 6        37.977 6
G10  23799001.171 9 125064540.762 9      3527.215 9        54.673 9  23799004.888 6         0.000 6      2748.482 6        37.977 6
G21  21174577.293 9 111273134.023 9     -1256.776 9        55.708 9  21174576.580 6         0.000 6      -979.306 6        37.977 6
G29  24308961.846 9 127744400.158 9     -3121.410 9        54.472 9  24308963.430 6         0.000 6     -2432.270 6        37.977 6
G27  21997328.840 9 115596716.307 9      2495.690 9        55.377 9  21997330.770 6         0.000 6      1944.695 6        37.977 6
G16  20495601.703 9 107705093.587 9       547.306 9        55.977 9  20495600.876 6         0.000 6       426.472 6        37.977 6
G26  20658929.827 9 108563386.679 9     -1492.168 9        55.871 9  20658932.645 6         0.000 6     -1162.729 6        37.977 6
G20  21936322.592 9 115276120.243 9      2558.634 9        55.319 9  21936322.909 6         0.000 6      1993.742 6        37.977 6
> 2019 07 03 12 01 16.0000000  0  8       0.000000000000
G07  25340204.475 9 133163627.256 9      2178.904 9        54.134 9  25340205.141 6         0.000 6      1697.848 6        37.977 6
G10  23798329.978 9 125061013.627 9      3527.076 9        54.673 9  23798333.693 6         0.000 6      2748.374 6        37.977 6
G21  21174816.484 9 111274390.977 9     -1257.136 9        55.708 9  21174815.770 6         0.000 6      -979.586 6        37.977 6
G29  24309555.839 9 127747521.601 9     -3121.495 9        54.471 9  24309557.423 6         0.000 6     -2432.337 6        37.977 6
G27  21996853.948 9 115594220.738 9      2495.453 9        55.377 9  21996855.878 6         0.000 6      1944.510 6        37.977 6
G16  20495497.613 9 107704546.590 9       546.689 9        55.977 9  20495496.786 6         0.000 6       425.991 6        37.977 6
G26  20659213.832 9 108564879.133 9     -1492.743 9        55.871 9  20659216.650 6         0.000 6     -1163.177 6        37.977 6
G20  21935835.742 9 115273561.836 9      2558.189 9        55.319 9  21935836.059 6         0.000 6      1993.395 6        37.977 6
> 2019 07 03 12 01 17.0000000  0  8       0.000000000000
G07  25339789.888 9 133161448.589 9      2178.444 9        54.134 9  25339790.554 6         0.000 6      1697.490 6        37.977 6
G10  23797658.810 9 125057486.626 9      3526.937 9        54.674 9  23797662.525 6         0.000 6      2748.265 6        37.977 6
G21  21175055.743 9 111275648.290 9     -1257.496 9        55.708 9  21175055.029 6         0.000 6      -979.867 6        37.977 6
G29  24310149.848 9 127750643.128 9     -3121.580 9        54.471 9  24310151.433 6         0.000 6     -2432.403 6        37.977 6
G27  21996379.101 9 115591725.405 9      2495.216 9        55.378 9  21996381.031 6         0.000 6      1944.325 6        37.977 6
G16  20495393.640 9 107704000.206 9       546.072 9        55.977 9  20495392.813 6         0.000 6       425.511 6        37.977 6
G26  20659497.945 9 108566372.157 9     -1493.317 9        55.871 9  20659500.764 6         0.000 6     -1163.624 6        37.977 6
G20  21935348.977 9 115271003.869 9      2557.745 9        55.319 9  21935349.293 6         0.000 6      1993.049 6        37.977 6
> 2019 07 03 12 01 18.0000000  0  8       0.000000000000
G07  25339375.387 9 133159270.379 9      2177.983 9        54.134 9  25339376.053 6         0.000 6      1697.131 6        37.977 6
G10  23796987.669 9 125053959.769 9      3526.798 9        54.674 9  23796991.384 6         0.000 6      2748.157 6        37.977 6
G21  21175295.070 9 111276905.965 9     -1257.855 9        55.707 9  21175294.357 6         0.000 6      -980.147 6        37.977 6
G29  24310743.873 9 127753764.741 9     -3121.666 9        54.471 9  24310745.459 6         0.000 6     -2432.469 6        37.977 6
G27  21995904.300 9 115589230.311 9      2494.978 9        55.378 9  21995906.230 6         0.000 6      1944.139 6        37.977 6
G16  20495289.784 9 107703454.442 9       545.455 9        55.977 9  20495288.957 6         0.000 6       425.030 6        37.977 6
G26  20659782.169 9 108567865.759 9     -1493.891 9        55.871 9  20659784.987 6         0.000 6     -1164.072 6        37.977 6
G20  21934862.296 9 115268446.351 9      2557.300 9        55.319 9  21934862.613 6         0.000 6      1992.702 6        37.977 6
> 2019 07 03 12 01 19.0000000  0  8       0.000000000000
G07  25338960.975 9 133157092.632 9      2177.523 9        54.134 9  25338961.641 6         0.000 6      1696.772 6        37.977 6
G10  23796316.554 9 125050433.047 9      3526.659 9        54.674 9  23796320.268 6         0.000 6      2748.049 6        37.977 6
G21  21175534.466 9 111278163.997 9     -1258.215 9        55.707 9  21175533.753 6         0.000 6      -980.428 6        37.977 6
G29  24311337.914 9 127756886.439 9     -3121.751 9        54.471 9  24311339.501 6         0.000 6     -2432.536 6        37.977 6
G27  21995429.544 9 115586735.452 9      2494.741 9        55.378 9  21995431.474 6         0.000 6      1943.954 6        37.977 6
G16  20495186.046 9 107702909.292 9       544.839 9        55.977 9  20495185.219 6         0.000 6       424.550 6        37.977 6
G26  20660066.501 9 108569359.931 9     -1494.465 9        55.871 9  20660069.319 6         0.000 6     -1164.519 6        37.977 6
G20  21934375.700 9 115265889.275 9      2556.855 9        55.319 9  21934376.016 6         0.000 6      1992.355 6        37.977 6
> 2019 07 03 12 01 20.0000000  0  8       0.000000000000
G07  25338546.650 9 133154915.343 9      2177.062 9        54.134 9  25338547.316 6         0.000 6      1696.413 6        37.977 6
G10  23795645.466 9 125046906.468 9      3526.520 9        54.674 9  23795649.180 6         0.000 6      2747.940 6        37.977 6
G21  21175773.931 9 111279422.391 9     -1258.575 9        55.707 9  21175773.217 6         0.000 6      -980.708 6        37.977 6
G29  24311931.972 9 127760008.222 9     -3121.836 9        54.471 9  24311933.559 6         0.000 6     -2432.602 6        37.977 6
G27  21994954.833 9 115584240.833 9      2494.503 9        55.378 9  21994956.763 6         0.000 6      1943.769 6        37.977 6
G16  20495082.425 9 107702364.761 9       544.222 9        55.977 9  20495081.598 6         0.000 6       424.069 6        37.977 6
G26  20660350.943 9 108570854.681 9     -1495.040 9        55.871 9  20660353.761 6         0.000 6     -1164.966 6        37.977 6
G20  21933889.189 9 115263332.647 9      2556.410 9        55.320 9  21933889.505 6         0.000 6      1992.009 6        37.977 6
> 2019 07 03 12 01 21.0000000  0  8       0.000000000000
G07  25338132.414 9 133152738.518 9      2176.601 9        54.135 9  25338133.079 6         0.000 6      1696.054 6        37.977 6
G10  23794974.405 9 125043380.026 9      3526.380 9        54.675 9  23794978.117 6         0.000 6      2747.832 6        37.977 6
G21  21176013.463 9 111280681.143 9     -1258.935 9        55.707 9  21176012.750 6         0.000 6      -980.988 6        37.977 6
G29  24312526.044 9 127763130.085 9     -3121.921 9        54.470 9  24312527.632 6         0.000 6     -2432.668 6        37.977 6
G27  21994480.168 9 115581746.455 9      2494.265 9        55.378 9  21994482.098 6         0.000 6      1943.584 6        37.977 6
G16  20494978.922 9 107701820.849 9       543.605 9        55.978 9  20494978.095 6         0.000 6       423.588 6        37.977 6
G26  20660635.494 9 108572350.006 9     -1495.614 9        55.870 9  20660638.312 6         0.000 6     -1165.414 6        37.977 6
G20  21933402.762 9 115260776.461 9      2555.964 9        55.320 9  21933403.078 6         0.000 6      1991.662 6        37.977 6
> 2019 07 03 12 01 22.0000000  0  8       0.000000000000
G07  25337718.264 9 133150562.154 9      2176.140 9        54.135 9  25337718.930 6         0.000 6      1695.695 6        37.977 6
G10  23794303.369 9 125039853.722 9      3526.241 9        54.675 9  23794307.081 6         0.000 6      2747.723 6        37.977 6
G21  21176253.064 9 111281940.255 9     -1259.294 9        55.707 9  21176252.351 6         0.000 6      -981.268 6        37.977 6
G29  24313120.134 9 127766252.039 9     -3122.006 9        54.470 9  24313121.723 6         0.000 6     -2432.735 6        37.977 6
G27  21994005.548 9 115579252.309 9      2494.028 9        55.378 9  21994007.477 6         0.000 6      1943.399 6        37.977 6
G16  20494875.535 9 107701277.550 9       542.988 9        55.978 9  20494874.709 6         0.000 6       423.108 6        37.977 6
G26  20660920.153 9 108573845.900 9     -1496.188 9        55.870 9  20660922.972 6         0.000 6     -1165.861 6        37.977 6
G20  21932916.420 9 115258220.720 9      2555.519 9        55.320 9  21932916.735 6         0.000 6      1991.315 6        37.977 6
> 2019 07 03 12 01 23.0000000  0  8       0.000000000000
G07  25337304.203 9 133148386.248 9      2175.679 9        54.135 9  25337304.867 6         0.000 6      1695.335 6        37.977 6
G10  23793632.361 9 125036327.561 9      3526.101 9        54.675 9  23793636.073 6         0.000 6      2747.614 6        37.977 6
G21  21176492.734 9 111283199.728 9     -1259.654 9        55.707 9  21176492.021 6         0.000 6      -981.549 6        37.977 6
G29  24313714.240 9 127769374.077 9     -3122.091 9        54.470 9  24313715.829 6         0.000 6     -2432.801 6        37.977 6
G27  21993530.972 9 115576758.403 9      2493.790 9        55.379 9  21993532.901 6         0.000 6      1943.214 6        37.977 6
G16  20494772.267 9 107700734.870 9       542.371 9        55.978 9  20494771.440 6         0.000 6       422.627 6        37.977 6
G26  20661204.923 9 108575342.373 9     -1496.762 9        55.870 9  20661207.742 6         0.000 6     -1166.308 6        37.977 6
G20  21932430.163 9 115255665.428 9      2555.074 9        55.320 9  21932430.478 6         0.000 6      1990.968 6        37.977 6
> 2019 07 03 12 01 24.0000000  0  8       0.000000000000
G07  25336890.229 9 133146210.805 9      2175.218 9        54.135 9  25336890.894 6         0.000 6      1694.976 6        37.977 6
G10  23792961.379 9 125032801.535 9      3525.962 9        54.675 9  23792965.090 6         0.000 6      2747.505 6        37.977 6
G21  21176732.472 9 111284459.559 9     -1260.013 9        55.707 9  21176731.759 6         0.000 6      -981.829 6        37.977 6
G29  24314308.362 9 127772496.200 9     -3122.176 9        54.470 9  24314309.952 6         0.000 6     -2432.867 6        37.977 6
G27  21993056.442 9 115574264.732 9      2493.552 9        55.379 9  21993058.371 6         0.000 6      1943.029 6        37.977 6
G16  20494669.115 9 107700192.804 9       541.754 9        55.978 9  20494668.288 6         0.000 6       422.146 6        37.977 6
G26  20661489.801 9 108576839.415 9     -1497.336 9        55.870 9  20661492.620 6         0.000 6     -1166.756 6        37.977 6
G20  21931943.991 9 115253110.577 9      2554.628 9        55.320 9  21931944.305 6         0.000 6      1990.621 6        37.977 6
> 2019 07 03 12 01 25.0000000  0  8       0.000000000000
G07  25336476.343 9 133144035.821 9      2174.757 9        54.135 9  25336477.007 6         0.000 6      1694.617 6        37.977 6
G10  23792290.424 9 125029275.654 9      3525.822 9        54.676 9  23792294.134 6         0.000 6      2747.396 6        37.977 6
G21  21176972.279 9 111285719.751 9     -1260.373 9        55.707 9  21176971.566 6         0.000 6      -982.109 6        37.977 6
G29  24314902.501 9 127775618.408 9     -3122.261 9        54.469 9  24314904.091 6         0.000 6     -2432.933 6        37.977 6
G27  21992581.958 9 115571771.302 9      2493.315 9        55.379 9  21992583.886 6         0.000 6      1942.843 6        37.977 6
G16  20494566.082 9 107699651.359 9       541.137 9        55.978 9  20494565.255 6         0.000 6       421.665 6        37.977 6
G26  20661774.789 9 108578337.036 9     -1497.910 9        55.870 9  20661777.608 6         0.000 6     -1167.203 6        37.977 6
G20  21931457.903 9 115250556.176 9      2554.183 9        55.320 9  21931458.218 6         0.000 6      1990.273 6        37.977 6
> 2019 07 03 12 01 26.0000000  0  8       0.000000000000
G07  25336062.544 9 133141861.301 9      2174.296 9        54.135 9  25336063.209 6         0.000 6      1694.258 6        37.977 6
G10  23791619.495 9 125025749.908 9      3525.682 9        54.676 9  23791623.204 6         0.000 6      2747.288 6        37.977 6
G21  21177212.154 9 111286980.301 9     -1260.732 9        55.707 9  21177211.441 6         0.000 6      -982.389 6        37.977 6
G29  24315496.656 9 127778740.702 9     -3122.346 9        54.469 9  24315498.247 6         0.000 6     -2433.000 6        37.977 6
G27  21992107.518 9 115569278.107 9      2493.077 9        55.379 9  21992109.446 6         0.000 6      1942.658 6        37.977 6
G16  20494463.165 9 107699110.527 9       540.520 9        55.978 9  20494462.338 6         0.000 6       421.184 6        37.977 6
G26  20662059.885 9 108579835.226 9     -1498.484 9        55.870 9  20662062.705 6         0.000 6     -1167.650 6        37.977 6
G20  21930971.900 9 115248002.217 9      2553.737 9        55.321 9  21930972.214 6         0.000 6      1989.926 6        37.977 6
> 2019 07 03 12 01 27.0000000  0  8       0.000000000000
G07  25335648.834 9 133139687.239 9      2173.835 9        54.135 9  25335649.498 6         0.000 6      1693.898 6        37.977 6
G10  23790948.593 9 125022224.306 9      3525.542 9        54.676 9  23790952.302 6         0.000 6      2747.178 6        37.977 6
G21  21177452.097 9 111288241.212 9     -1261.092 9        55.707 9  21177451.384 6         0.000 6      -982.669 6        37.977 6
G29  24316090.826 9 127781863.080 9     -3122.431 9        54.469 9  24316092.418 6         0.000 6     -2433.066 6        37.977 6
G27  21991633.124 9 115566785.151 9      2492.839 9        55.379 9  21991635.052 6         0.000 6      1942.473 6        37.977 6
G16  20494360.366 9 107698570.316 9       539.903 9        55.978 9  20494359.539 6         0.000 6       420.704 6        37.977 6
G26  20662345.092 9 108581333.995 9     -1499.058 9        55.870 9  20662347.911 6         0.000 6     -1168.097 6        37.977 6
G20  21930485.983 9 115245448.707 9      2553.291 9        55.321 9  21930486.296 6         0.000 6      1989.579 6        37.977 6
> 2019 07 03 12 01 28.0000000  0  8       0.000000000000
G07  25335235.211 9 133137513.641 9      2173.373 9        54.136 9  25335235.875 6         0.000 6      1693.539 6        37.977 6
G10  23790277.717 9 125018698.840 9      3525.402 9        54.676 9  23790281.425 6         0.000 6      2747.069 6        37.977 6
G21  21177692.109 9 111289502.480 9     -1261.451 9        55.706 9  21177691.396 6         0.000 6      -982.949 6        37.977 6
G29  24316685.013 9 127784985.543 9     -3122.516 9        54.469 9  24316686.606 6         0.000 6     -2433.132 6        37.977 6
G27  21991158.775 9 115564292.432 9      2492.601 9        55.380 9  21991160.703 6         0.000 6      1942.287 6        37.977 6
G16  20494257.684 9 107698030.718 9       539.286 9        55.978 9  20494256.857 6         0.000 6       420.223 6        37.977 6
G26  20662630.407 9 108582833.333 9     -1499.631 9        55.870 9  20662633.226 6         0.000 6     -1168.544 6        37.977 6
G20  21930000.149 9 115242895.639 9      2552.846 9        55.321 9  21930000.462 6         0.000 6      1989.231 6        37.977 6
> 2019 07 03 12 01 29.0000000  0  8       0.000000000000
G07  25334821.676 9 133135340.505 9      2172.912 9        54.136 9  25334822.340 6         0.000 6      1693.179 6        37.977 6
G10  23789606.868 9 125015173.517 9      3525.262 9        54.677 9  23789610.576 6         0.000 6      2746.960 6        37.977 6
G21  21177932.189 9 111290764.108 9     -1261.810 9        55.706 9  21177931.476 6         0.000 6      -983.229 6        37.977 6
G29  24317279.215 9 127788108.086 9     -3122.601 9        54.469 9  24317280.808 6         0.000 6     -2433.198 6        37.977 6
G27  21990684.472 9 115561799.956 9      2492.363 9        55.380 9  21990686.400 6         0.000 6      1942.102 6        37.977 6
G16  20494155.120 9 107697491.742 9       538.669 9        55.978 9  20494154.293 6         0.000 6       419.742 6        37.977 6
G26  20662915.832 9 108584333.249 9     -1500.205 9        55.870 9  20662918.651 6         0.000 6     -1168.992 6        37.977 6
G20  21929514.400 9 115240343.017 9      2552.400 9        55.321 9  21929514.714 6         0.000 6      1988.884 6        37.977 6
> 2019 07 03 12 01 30.0000000  0  8       0.000000000000
G07  25334408.229 9 133133167.828 9      2172.450 9        54.136 9  25334408.892 6         0.000 6      1692.819 6        37.977 6
G10  23788936.047 9 125011648.335 9      3525.122 9        54.677 9  23788939.753 6         0.000 6      2746.851 6        37.977 6
G21  21178172.337 9 111292026.097 9     -1262.169 9        55.706 9  21178171.624 6         0.000 6      -983.509 6        37.977 6
G29  24317873.435 9 127791230.719 9     -3122.686 9        54.468 9  24317875.028 6         0.000 6     -2433.264 6        37.977 6
G27  21990210.213 9 115559307.715 9      2492.125 9        55.380 9  21990212.141 6         0.000 6      1941.917 6        37.977 6
G16  20494052.674 9 107696953.382 9       538.051 9        55.978 9  20494051.847 6         0.000 6       419.261 6        37.977 6
G26  20663201.366 9 108585833.739 9     -1500.779 9        55.869 9  20663204.186 6         0.000 6     -1169.439 6        37.977 6
G20  21929028.737 9 115237790.845 9      2551.954 9        55.321 9  21929029.050 6         0.000 6      1988.536 6        37.977 6
> 2019 07 03 12 01 31.0000000  0  8       0.000000000000
G07  25333994.870 9 133130995.614 9      2171.989 9        54.136 9  25333995.533 6         0.000 6      1692.460 6        37.977 6
G10  23788265.251 9 125008123.290 9      3524.981 9        54.677 9  23788268.957 6         0.000 6      2746.741 6        37.977 6
G21  21178412.554 9 111293288.443 9     -1262.528 9        55.706 9  21178411.841 6         0.000 6      -983.789 6        37.977 6
G29  24318467.670 9 127794353.437 9     -3122.771 9        54.468 9  24318469.264 6         0.000 6     -2433.330 6        37.977 6
G27  21989736.000 9 115556815.709 9      2491.887 9        55.380 9  21989737.928 6         0.000 6      1941.731 6        37.977 6
G16  20493950.344 9 107696415.636 9       537.434 9        55.978 9  20493949.517 6         0.000 6       418.780 6        37.977 6
G26  20663487.008 9 108587334.799 9     -1501.353 9        55.869 9  20663489.828 6         0.000 6     -1169.886 6        37.977 6
G20  21928543.158 9 115235239.115 9      2551.507 9        55.322 9  21928543.471 6         0.000 6      1988.189 6        37.977 6
> 2019 07 03 12 01 32.0000000  0  8       0.000000000000
G07  25333581.598 9 133128823.860 9      2171.527 9        54.136 9  25333582.261 6         0.000 6      1692.100 6        37.977 6
G10  23787594.483 9 125004598.390 9      3524.841 9        54.677 9  23787598.188 6         0.000 6      2746.632 6        37.977 6
G21  21178652.839 9 111294551.150 9     -1262.888 9        55.706 9  21178652.126 6         0.000 6      -984.068 6        37.977 6
G29  24319061.922 9 127797476.240 9     -3122.855 9        54.468 9  24319063.516 6         0.000 6     -2433.396 6        37.977 6
G27  21989261.832 9 115554323.943 9      2491.649 9        55.380 9  21989263.760 6         0.000 6      1941.546 6        37.977 6
G16  20493848.133 9 107695878.511 9       536.817 9        55.978 9  20493847.306 6         0.000 6       418.299 6        37.977 6
G26  20663772.761 9 108588836.437 9     -1501.926 9        55.869 9  20663775.581 6         0.000 6     -1170.333 6        37.977 6
G20  21928057.665 9 115232687.835 9      2551.061 9        55.322 9  21928057.978 6         0.000 6      1987.841 6        37.977 6
> 2019 07 03 12 01 33.0000000  0  8       0.000000000000
G07  25333168.414 9 133126652.570 9      2171.066 9        54.136 9  25333169.077 6         0.000 6      1691.740 6        37.977 6
G10  23786923.740 9 125001073.625 9      3524.700 9        54.678 9  23786927.445 6         0.000 6      2746.522 6        37.977 6
G21  21178893.193 9 111295814.214 9     -1263.247 9        55.706 9  21178892.480 6         0.000 6      -984.348 6        37.977 6
G29  24319656.189 9 127800599.127 9     -3122.940 9        54.468 9  24319657.785 6         0.000 6     -2433.462 6        37.977 6
G27  21988787.709 9 115551832.414 9      2491.411 9        55.381 9  21988789.637 6         0.000 6      1941.360 6        37.977 6
G16  20493746.038 9 107695342.000 9       536.199 9        55.978 9  20493745.211 6         0.000 6       417.818 6        37.977 6
G26  20664058.622 9 108590338.643 9     -1502.500 9        55.869 9  20664061.442 6         0.000 6     -1170.780 6        37.977 6
G20  21927572.256 9 115230136.998 9      2550.615 9        55.322 9  21927572.568 6         0.000 6      1987.493 6        37.977 6
> 2019 07 03 12 01 34.0000000  0  8       0.000000000000
G07  25332755.318 9 133124481.739 9      2170.604 9        54.136 9  25332755.981 6         0.000 6      1691.380 6        37.977 6
G10  23786253.025 9 124997549.006 9      3524.560 9        54.678 9  23786256.730 6         0.000 6      2746.413 6        37.977 6
G21  21179133.615 9 111297077.639 9     -1263.606 9        55.706 9  21179132.902 6         0.000 6      -984.628 6        37.977 6
G29  24320250.473 9 127803722.099 9     -3123.025 9        54.468 9  24320252.069 6         0.000 6     -2433.529 6        37.977 6
G27  21988313.632 9 115549341.124 9      2491.173 9        55.381 9  21988315.559 6         0.000 6      1941.175 6        37.977 6
G16  20493644.061 9 107694806.109 9       535.582 9        55.978 9  20493643.234 6         0.000 6       417.337 6        37.977 6
G26  20664344.593 9 108591841.428 9     -1503.074 9        55.869 9  20664347.413 6         0.000 6     -1171.227 6        37.977 6
G20  21927086.933 9 115227586.610 9      2550.168 9        55.322 9  21927087.244 6         0.000 6      1987.145 6        37.977 6
> 2019 07 03 12 01 35.0000000  0  8       0.000000000000
G07  25332342.311 9 133122311.372 9      2170.142 9        54.137 9  25332342.973 6         0.000 6      1691.021 6        37.977 6
G10  23785582.337 9 124994024.523 9      3524.419 9        54.678 9  23785586.040 6         0.000 6      2746.303 6        37.977 6
G21  21179374.104 9 111298341.421 9     -1263.964 9        55.706 9  21179373.392 6         0.000 6      -984.908 6        37.977 6
G29  24320844.773 9 127806845.157 9     -3123.110 9        54.467 9  24320846.370 6         0.000 6     -2433.595 6        37.977 6
G27  21987839.600 9 115546850.071 9      2490.935 9        55.381 9  21987841.527 6         0.000 6      1940.989 6        37.977 6
G16  20493542.202 9 107694270.833 9       534.965 9        55.978 9  20493541.375 6         0.000 6       416.856 6        37.977 6
G26  20664630.672 9 108593344.783 9     -1503.647 9        55.869 9  20664633.492 6         0.000 6     -1171.674 6        37.977 6
G20  21926601.693 9 115225036.665 9      2549.722 9        55.322 9  21926602.005 6         0.000 6      1986.797 6        37.977 6
> 2019 07 03 12 01 36.0000000  0  8       0.000000000000
G07  25331929.390 9 133120141.465 9      2169.680 9        54.137 9  25331930.052 6         0.000 6      1690.661 6        37.977 6
G10  23784911.675 9 124990500.185 9      3524.278 9        54.678 9  23784915.378 6         0.000 6      2746.193 6        37.977 6
G21  21179614.663 9 111299605.564 9     -1264.323 9        55.706 9  21179613.950 6         0.000 6      -985.187 6        37.977 6
G29  24321439.089 9 127809968.298 9     -3123.195 9        54.467 9  24321440.687 6         0.000 6     -2433.661 6        37.977 6
G27  21987365.613 9 115544359.258 9      2490.697 9        55.381 9  21987367.540 6         0.000 6      1940.803 6        37.977 6
G16  20493440.460 9 107693736.177 9       534.347 9        55.978 9  20493439.633 6         0.000 6       416.374 6        37.977 6
G26  20664916.861 9 108594848.715 9     -1504.221 9        55.869 9  20664919.681 6         0.000 6     -1172.121 6        37.977 6
G20  21926116.540 9 115222487.171 9      2549.275 9        55.323 9  21926116.851 6         0.000 6      1986.449 6        37.977 6
> 2019 07 03 12 01 37.0000000  0  8       0.000000000000
G07  25331516.559 9 133117972.025 9      2169.218 9        54.137 9  25331517.221 6         0.000 6      1690.301 6        37.977 6
G10  23784241.040 9 124986975.982 9      3524.137 9        54.679 9  23784244.742 6         0.000 6      2746.083 6        37.977 6
G21  21179855.289 9 111300870.062 9     -1264.682 9        55.706 9  21179854.576 6         0.000 6      -985.467 6        37.977 6
G29  24322033.420 9 127813091.520 9     -3123.279 9        54.467 9  24322035.018 6         0.000 6     -2433.727 6        37.977 6
G27  21986891.673 9 115541868.684 9      2490.459 9        55.381 9  21986893.599 6         0.000 6      1940.618 6        37.977 6
G16  20493338.835 9 107693202.137 9       533.730 9        55.978 9  20493338.009 6         0.000 6       415.893 6        37.977 6
G26  20665203.158 9 108596353.216 9     -1504.795 9        55.869 9  20665205.979 6         0.000 6     -1172.568 6        37.977 6
G20  21925631.470 9 115219938.116 9      2548.829 9        55.323 9  21925631.781 6         0.000 6      1986.101 6        37.977 6
> 2019 07 03 12 01 38.0000000  0  8       0.000000000000
G07  25331103.814 9 133115803.042 9      2168.756 9        54.137 9  25331104.476 6         0.000 6      1689.940 6        37.977 6
G10  23783570.432 9 124983451.926 9      3523.996 9        54.679 9  23783574.134 6         0.000 6      2745.973 6        37.977 6
G21  21180095.984 9 111302134.923 9     -1265.041 9        55.705 9  21180095.271 6         0.000 6      -985.746 6        37.977 6
G29  24322627.769 9 127816214.831 9     -3123.364 9        54.467 9  24322629.367 6         0.000 6     -2433.793 6        37.977 6
G27  21986417.777 9 115539378.347 9      2490.220 9        55.381 9  21986419.703 6         0.000 6      1940.432 6        37.977 6
G16  20493237.329 9 107692668.716 9       533.112 9        55.978 9  20493236.502 6         0.000 6       415.412 6        37.977 6
G26  20665489.566 9 108597858.295 9     -1505.368 9        55.868 9  20665492.386 6         0.000 6     -1173.015 6        37.977 6
G20  21925146.487 9 115217389.515 9      2548.382 9        55.323 9  21925146.797 6         0.000 6      1985.753 6        37.977 6
> 2019 07 03 12 01 39.0000000  0  8       0.000000000000
G07  25330691.158 9 133113634.523 9      2168.294 9        54.137 9  25330691.820 6         0.000 6      1689.580 6        37.977 6
G10  23782899.851 9 124979928.007 9      3523.854 9        54.679 9  23782903.552 6         0.000 6      2745.863 6        37.977 6
G21  21180336.747 9 111303400.140 9     -1265.400 9        55.705 9  21180336.034 6         0.000 6      -986.026 6        37.977 6
G29  24323222.133 9 127819338.227 9     -3123.449 9        54.467 9  24323223.732 6         0.000 6     -2433.859 6        37.977 6
G27  21985943.926 9 115536888.247 9      2489.982 9        55.382 9  21985945.852 6         0.000 6      1940.247 6        37.977 6
G16  20493135.939 9 107692135.909 9       532.495 9        55.978 9  20493135.112 6         0.000 6       414.931 6        37.977 6
G26  20665776.081 9 108599363.944 9     -1505.942 9        55.868 9  20665778.902 6         0.000 6     -1173.461 6        37.977 6
G20  21924661.587 9 115214841.357 9      2547.935 9        55.323 9  21924661.898 6         0.000 6      1985.405 6        37.977 6
> 2019 07 03 12 01 40.0000000  0  8       0.000000000000
G07  25330278.590 9 133111466.464 9      2167.831 9        54.137 9  25330279.251 6         0.000 6      1689.220 6        37.977 6
G10  23782229.297 9 124976404.234 9      3523.713 9        54.679 9  23782232.997 6         0.000 6      2745.753 6        37.977 6
G21  21180577.579 9 111304665.718 9     -1265.758 9        55.705 9  21180576.866 6         0.000 6      -986.305 6        37.977 6
G29  24323816.514 9 127822461.708 9     -3123.533 9        54.466 9  24323818.114 6         0.000 6     -2433.925 6        37.977 6
G27  21985470.121 9 115534398.387 9      2489.744 9        55.382 9  21985472.047 6         0.000 6      1940.061 6        37.977 6
G16  20493034.668 9 107691603.723 9       531.877 9        55.978 9  20493033.841 6         0.000 6       414.450 6        37.977 6
G26  20666062.707 9 108600870.170 9     -1506.515 9        55.868 9  20666065.528 6         0.000 6     -1173.908 6        37.977 6
G20  21924176.774 9 115212293.650 9      2547.488 9        55.323 9  21924177.084 6         0.000 6      1985.057 6        37.977 6
> 2019 07 03 12 01 41.0000000  0  8       0.000000000000
G07  25329866.109 9 133109298.868 9      2167.369 9        54.137 9  25329866.770 6         0.000 6      1688.860 6        37.977 6
G10  23781558.770 9 124972880.602 9      3523.572 9        54.680 9  23781562.470 6         0.000 6      2745.643 6        37.977 6
G21  21180818.479 9 111305931.654 9     -1266.117 9        55.705 9  21180817.766 6         0.000 6      -986.585 6        37.977 6
G29  24324410.910 9 127825585.273 9     -3123.618 9        54.466 9  24324412.511 6         0.000 6     -2433.991 6        37.977 6
G27  21984996.361 9 115531908.765 9      2489.506 9        55.382 9  21984998.287 6         0.000 6      1939.875 6        37.977 6
G16  20492933.513 9 107691072.155 9       531.259 9        55.978 9  20492932.687 6         0.000 6       413.968 6        37.977 6
G26  20666349.442 9 108602376.970 9     -1507.088 9        55.868 9  20666352.263 6         0.000 6     -1174.355 6        37.977 6
G20  21923692.046 9 115209746.390 9      2547.041 9        55.324 9  21923692.356 6         0.000 6      1984.708 6        37.977 6
> 2019 07 03 12 01 42.0000000  0  8       0.000000000000
G07  25329453.717 9 133107131.736 9      2166.907 9        54.138 9  25329454.378 6         0.000 6      1688.500 6        37.977 6
G10  23780888.269 9 124969357.107 9      3523.430 9        54.680 9  23780891.968 6         0.000 6      2745.533 6        37.977 6
G21  21181059.446 9 111307197.947 9     -1266.475 9        55.705 9  21181058.734 6         0.000 6      -986.864 6        37.977 6
G29  24325005.323 9 127828708.923 9     -3123.702 9        54.466 9  24325006.924 6         0.000 6     -2434.056 6        37.977 6
G27  21984522.646 9 115529419.379 9      2489.267 9        55.382 9  21984524.572 6         0.000 6      1939.689 6        37.977 6
G16  20492832.476 9 107690541.202 9       530.642 9        55.978 9  20492831.649 6         0.000 6       413.487 6        37.977 6
G26  20666636.285 9 108603884.338 9     -1507.662 9        55.868 9  20666639.106 6         0.000 6     -1174.802 6        37.977 6
G20  21923207.402 9 115207199.573 9      2546.594 9        55.324 9  21923207.711 6         0.000 6      1984.360 6        37.977 6
> 2019 07 03 12 01 43.0000000  0  8       0.000000000000
G07  25329041.413 9 133104965.065 9      2166.444 9        54.138 9  25329042.073 6         0.000 6      1688.139 6        37.977 6
G10  23780217.796 9 124965833.759 9      3523.288 9        54.680 9  23780221.495 6         0.000 6      2745.422 6        37.977 6
G21  21181300.483 9 111308464.601 9     -1266.834 9        55.705 9  21181299.770 6         0.000 6      -987.143 6        37.977 6
G29  24325599.752 9 127831832.657 9     -3123.787 9        54.466 9  24325601.354 6         0.000 6     -2434.122 6        37.977 6
G27  21984048.977 9 115526930.234 9      2489.029 9        55.382 9  21984050.903 6         0.000 6      1939.504 6        37.977 6
G16  20492731.557 9 107690010.869 9       530.024 9        55.978 9  20492730.731 6         0.000 6       413.006 6        37.977 6
G26  20666923.238 9 108605392.285 9     -1508.235 9        55.868 9  20666926.059 6         0.000 6     -1175.249 6        37.977 6
G20  21922722.843 9 115204653.207 9      2546.147 9        55.324 9  21922723.153 6         0.000 6      1984.011 6        37.977 6
> 2019 07 03 12 01 44.0000000  0  8       0.000000000000
G07  25328629.197 9 133102798.861 9      2165.982 9        54.138 9  25328629.857 6         0.000 6      1687.779 6        37.977 6
G10  23779547.349 9 124962310.545 9      3523.147 9        54.680 9  23779551.047 6         0.000 6      2745.312 6        37.977 6
G21  21181541.586 9 111309731.609 9     -1267.192 9        55.705 9  21181540.874 6         0.000 6      -987.423 6        37.977 6
G29  24326194.196 9 127834956.471 9     -3123.872 9        54.465 9  24326195.798 6         0.000 6     -2434.188 6        37.977 6
G27  21983575.354 9 115524441.329 9      2488.790 9        55.383 9  21983577.279 6         0.000 6      1939.318 6        37.977 6
G16  20492630.756 9 107689481.152 9       529.406 9        55.979 9  20492629.929 6         0.000 6       412.524 6        37.977 6
G26  20667210.299 9 108606900.800 9     -1508.808 9        55.868 9  20667213.120 6         0.000 6     -1175.695 6        37.977 6
G20  21922238.369 9 115202107.281 9      2545.699 9        55.324 9  21922238.678 6         0.000 6      1983.663 6        37.977 6
> 2019 07 03 12 01 45.0000000  0  8       0.000000000000
G07  25328217.069 9 133100633.114 9      2165.519 9        54.138 9  25328217.729 6         0.000 6      1687.418 6        37.977 6
G10  23778876.930 9 124958787.480 9      3523.005 9        54.681 9  23778880.627 6         0.000 6      2745.201 6        37.977 6
G21  21181782.759 9 111310998.979 9     -1267.550 9        55.705 9  21181782.047 6         0.000 6      -987.702 6        37.977 6
G29  24326788.657 9 127838080.374 9     -3123.956 9        54.465 9  24326790.260 6         0.000 6     -2434.254 6        37.977 6
G27  21983101.775 9 115521952.660 9      2488.552 9        55.383 9  21983103.701 6         0.000 6      1939.132 6        37.977 6
G16  20492530.072 9 107688952.055 9       528.788 9        55.979 9  20492529.245 6         0.000 6       412.043 6        37.977 6
G26  20667497.470 9 108608409.893 9     -1509.382 9        55.868 9  20667500.292 6         0.000 6     -1176.142 6        37.977 6
G20  21921753.981 9 115199561.810 9      2545.252 9        55.324 9  21921754.290 6         0.000 6      1983.314 6        37.977 6
> 2019 07 03 12 01 46.0000000  0  8       0.000000000000
G07  25327805.029 9 133098467.833 9      2165.056 9        54.138 9  25327805.688 6         0.000 6      1687.058 6        37.977 6
G10  23778206.537 9 124955264.552 9      3522.863 9        54.681 9  23778210.234 6         0.000 6      2745.091 6        37.977 6
G21  21182023.999 9 111312266.706 9     -1267.909 9        55.705 9  21182023.287 6         0.000 6      -987.981 6        37.977 6
G29  24327383.134 9 127841204.363 9     -3124.041 9        54.465 9  24327384.738 6         0.000 6     -2434.320 6        37.977 6
G27  21982628.242 9 115519464.229 9      2488.313 9        55.383 9  21982630.167 6         0.000 6      1938.946 6        37.977 6
G16  20492429.505 9 107688423.573 9       528.170 9        55.979 9  20492428.678 6         0.000 6       411.561 6        37.977 6
G26  20667784.750 9 108609919.555 9     -1509.955 9        55.867 9  20667787.571 6         0.000 6     -1176.589 6        37.977 6
G20  21921269.678 9 115197016.782 9      2544.804 9        55.325 9  21921269.986 6         0.000 6      1982.966 6        37.977 6
> 2019 07 03 12 01 47.0000000  0  8       0.000000000000
G07  25327393.076 9 133096303.012 9      2164.593 9        54.138 9  25327393.736 6         0.000 6      1686.697 6        37.977 6
G10  23777536.172 9 124951741.770 9      3522.721 9        54.681 9  23777539.868 6         0.000 6      2744.980 6        37.977 6
G21  21182265.309 9 111313534.793 9     -1268.267 9        55.705 9  21182264.596 6         0.000 6      -988.260 6        37.977 6
G29  24327977.627 9 127844328.435 9     -3124.125 9        54.465 9  24327979.232 6         0.000 6     -2434.386 6        37.977 6
G27  21982154.754 9 115516976.038 9      2488.075 9        55.383 9  21982156.679 6         0.000 6      1938.760 6        37.977 6
G16  20492329.056 9 107687895.711 9       527.552 9        55.979 9  20492328.229 6         0.000 6       411.080 6        37.977 6
G26  20668072.139 9 108611429.794 9     -1510.528 9        55.867 9  20668074.961 6         0.000 6     -1177.035 6        37.977 6
G20  21920785.460 9 115194472.206 9      2544.357 9        55.325 9  21920785.768 6         0.000 6      1982.617 6        37.977 6
> 2019 07 03 12 01 48.0000000  0  8       0.000000000000
G07  25326981.212 9 133094138.656 9      2164.131 9        54.138 9  25326981.872 6         0.000 6      1686.336 6        37.977 6
G10  23776865.833 9 124948219.127 9      3522.579 9        54.681 9  23776869.529 6         0.000 6      2744.869 6        37.977 6
G21  21182506.685 9 111314803.236 9     -1268.625 9        55.704 9  21182505.973 6         0.000 6      -988.539 6        37.977 6
G29  24328572.137 9 127847452.592 9     -3124.210 9        54.465 9  24328573.742 6         0.000 6     -2434.452 6        37.977 6
G27  21981681.312 9 115514488.083 9      2487.836 9        55.383 9  21981683.237 6         0.000 6      1938.574 6        37.977 6
G16  20492228.724 9 107687368.464 9       526.935 9        55.979 9  20492227.898 6         0.000 6       410.598 6        37.977 6
G26  20668359.637 9 108612940.602 9     -1511.101 9        55.867 9  20668362.458 6         0.000 6     -1177.482 6        37.977 6
G20  21920301.327 9 115191928.074 9      2543.909 9        55.325 9  21920301.635 6         0.000 6      1982.268 6        37.977 6
> 2019 07 03 12 01 49.0000000  0  8       0.000000000000
G07  25326569.436 9 133091974.761 9      2163.667 9        54.139 9  25326570.095 6         0.000 6      1685.976 6        37.977 6
G10  23776195.523 9 124944696.630 9      3522.436 9        54.681 9  23776199.217 6         0.000 6      2744.758 6        37.977 6
G21  21182748.131 9 111316072.039 9     -1268.983 9        55.704 9  21182747.419 6         0.000 6      -988.818 6        37.977 6
G29  24329166.662 9 127850576.834 9     -3124.294 9        54.464 9  24329168.268 6         0.000 6     -2434.517 6        37.977 6
G27  21981207.915 9 115512000.369 9      2487.597 9        55.384 9  21981209.840 6         0.000 6      1938.388 6        37.977 6
G16  20492128.511 9 107686841.839 9       526.317 9        55.979 9  20492127.684 6         0.000 6       410.117 6        37.977 6
G26  20668647.244 9 108614451.988 9     -1511.674 9        55.867 9  20668650.066 6         0.000 6     -1177.928 6        37.977 6
G20  21919817.280 9 115189384.393 9      2543.461 9        55.325 9  21919817.587 6         0.000 6      1981.919 6        37.977 6
> 2019 07 03 12 01 50.0000000  0  8       0.000000000000
G07  25326157.748 9 133089811.328 9      2163.204 9        54.139 9  25326158.407 6         0.000 6      1685.615 6        37.977 6
G10  23775525.239 9 124941174.275 9      3522.294 9        54.682 9  23775528.933 6         0.000 6      2744.647 6        37.977 6
G21  21182989.644 9 111317341.201 9     -1269.341 9        55.704 9  21182988.932 6         0.000 6      -989.097 6        37.977 6
G29  24329761.203 9 127853701.160 9     -3124.379 9        54.464 9  24329762.810 6         0.000 6     -2434.583 6        37.977 6
G27  21980734.564 9 115509512.894 9      2487.359 9        55.384 9  21980736.488 6         0.000 6      1938.202 6        37.977 6
G16  20492028.415 9 107686315.831 9       525.699 9        55.979 9  20492027.588 6         0.000 6       409.635 6        37.977 6
G26  20668934.961 9 108615963.947 9     -1512.247 9        55.867 9  20668937.783 6         0.000 6     -1178.375 6        37.977 6
G20  21919333.318 9 115186841.161 9      2543.013 9        55.325 9  21919333.625 6         0.000 6      1981.570 6        37.977 6
> 2019 07 03 12 01 51.0000000  0  8       0.000000000000
G07  25325746.148 9 133087648.361 9      2162.741 9        54.139 9  25325746.807 6         0.000 6      1685.254 6        37.977 6
G10  23774854.981 9 124937652.059 9      3522.151 9        54.682 9  23774858.674 6         0.000 6      2744.536 6        37.977 6
G21  21183231.226 9 111318610.718 9     -1269.699 9        55.704 9  21183230.514 6         0.000 6      -989.376 6        37.977 6
G29  24330355.761 9 127856825.570 9     -3124.463 9        54.464 9  24330357.368 6         0.000 6     -2434.649 6        37.977 6
G27  21980261.257 9 115507025.655 9      2487.120 9        55.384 9  21980263.182 6         0.000 6      1938.016 6        37.977 6
G16  20491928.436 9 107685790.438 9       525.081 9        55.979 9  20491927.609 6         0.000 6       409.154 6        37.977 6
G26  20669222.785 9 108617476.475 9     -1512.820 9        55.867 9  20669225.607 6         0.000 6     -1178.822 6        37.977 6
G20  21918849.440 9 115184298.372 9      2542.565 9        55.325 9  21918849.747 6         0.000 6      1981.221 6        37.977 6
> 2019 07 03 12 01 52.0000000  0  8       0.000000000000
G07  25325334.637 9 133085485.858 9      2162.278 9        54.139 9  25325335.295 6         0.000 6      1684.893 6        37.977 6
G10  23774184.751 9 124934129.987 9      3522.009 9        54.682 9  23774188.444 6         0.000 6      2744.425 6        37.977 6
G21  21183472.875 9 111319880.594 9     -1270.057 9        55.704 9  21183472.163 6         0.000 6      -989.655 6        37.977 6
G29  24330950.333 9 127859950.060 9     -3124.547 9        54.464 9  24330951.941 6         0.000 6     -2434.715 6        37.977 6
G27  21979787.998 9 115504538.661 9      2486.881 9        55.384 9  21979789.922 6         0.000 6      1937.830 6        37.977 6
G16  20491828.576 9 107685265.668 9       524.462 9        55.979 9  20491827.749 6         0.000 6       408.672 6        37.977 6
G26  20669510.720 9 108618989.579 9     -1513.393 9        55.867 9  20669513.542 6         0.000 6     -1179.268 6        37.977 6
G20  21918365.648 9 115181756.032 9      2542.117 9        55.326 9  21918365.955 6         0.000 6      1980.872 6        37.977 6
> 2019 07 03 12 01 53.0000000  0  8       0.000000000000
G07  25324923.214 9 133083323.818 9      2161.815 9        54.139 9  25324923.872 6         0.000 6      1684.532 6        37.977 6
G10  23773514.548 9 124930608.055 9      3521.866 9        54.682 9  23773518.240 6         0.000 6      2744.314 6        37.977 6
G21  21183714.592 9 111321150.827 9     -1270.415 9        55.704 9  21183713.881 6         0.000 6      -989.934 6        37.977 6
G29  24331544.923 9 127863074.639 9     -3124.632 9        54.464 9  24331546.531 6         0.000 6     -2434.780 6        37.977 6
G27  21979314.782 9 115502051.900 9      2486.642 9        55.384 9  21979316.706 6         0.000 6      1937.644 6        37.977 6
G16  20491728.832 9 107684741.512 9       523.844 9        55.979 9  20491728.005 6         0.000 6       408.190 6        37.977 6
G26  20669798.763 9 108620503.253 9     -1513.966 9        55.867 9  20669801.585 6         0.000 6     -1179.715 6        37.977 6
G20  21917881.941 9 115179214.139 9      2541.669 9        55.326 9  21917882.248 6         0.000 6      1980.522 6        37.977 6
> 2019 07 03 12 01 54.0000000  0  8       0.000000000000
G07  25324511.878 9 133081162.238 9      2161.352 9        54.139 9  25324512.536 6         0.000 6      1684.171 6        37.977 6
G10  23772844.373 9 124927086.271 9      3521.723 9        54.683 9  23772848.064 6         0.000 6      2744.203 6        37.977 6
G21  21183956.378 9 111322421.420 9     -1270.773 9        55.704 9  21183955.667 6         0.000 6      -990.213 6        37.977 6
G29  24332139.529 9 127866199.302 9     -3124.716 9        54.463 9  24332141.137 6         0.000 6     -2434.846 6        37.977 6
G27  21978841.613 9 115499565.380 9      2486.404 9        55.384 9  21978843.537 6         0.000 6      1937.458 6        37.977 6
G16  20491629.207 9 107684217.976 9       523.226 9        55.979 9  20491628.380 6         0.000 6       407.709 6        37.977 6
G26  20670086.916 9 108622017.504 9     -1514.539 9        55.867 9  20670089.738 6         0.000 6     -1180.161 6        37.977 6
G20  21917398.320 9 115176672.699 9      2541.221 9        55.326 9  21917398.627 6         0.000 6      1980.173 6        37.977 6
> 2019 07 03 12 01 55.0000000  0  8       0.000000000000
G07  25324100.631 9 133079001.124 9      2160.888 9        54.139 9  25324101.289 6         0.000 6      1683.810 6        37.977 6
G10  23772174.224 9 124923564.625 9      3521.580 9        54.683 9  23772177.914 6         0.000 6      2744.091 6        37.977 6
G21  21184198.232 9 111323692.369 9     -1271.131 9        55.704 9  21184197.520 6         0.000 6      -990.492 6        37.977 6
G29  24332734.150 9 127869324.050 9     -3124.800 9        54.463 9  24332735.760 6         0.000 6     -2434.912 6        37.977 6
G27  21978368.488 9 115497079.097 9      2486.165 9        55.385 9  21978370.412 6         0.000 6      1937.272 6        37.977 6
G16  20491529.698 9 107683695.056 9       522.608 9        55.979 9  20491528.871 6         0.000 6       407.227 6        37.977 6
G26  20670375.176 9 108623532.323 9     -1515.112 9        55.866 9  20670377.999 6         0.000 6     -1180.607 6        37.977 6
G20  21916914.784 9 115174131.703 9      2540.772 9        55.326 9  21916915.090 6         0.000 6      1979.824 6        37.977 6
> 2019 07 03 12 01 56.0000000  0  8       0.000000000000
G07  25323689.472 9 133076840.471 9      2160.425 9        54.140 9  25323690.129 6         0.000 6      1683.449 6        37.977 6
G10  23771504.103 9 124920043.127 9      3521.437 9        54.683 9  23771507.793 6         0.000 6      2743.980 6        37.977 6
G21  21184440.154 9 111324963.678 9     -1271.489 9        55.704 9  21184439.443 6         0.000 6      -990.770 6        37.977 6
G29  24333328.788 9 127872448.882 9     -3124.885 9        54.463 9  24333330.398 6         0.000 6     -2434.978 6        37.977 6
G27  21977895.410 9 115494593.054 9      2485.926 9        55.385 9  21977897.333 6         0.000 6      1937.086 6        37.977 6
G16  20491430.308 9 107683172.757 9       521.990 9        55.979 9  20491429.481 6         0.000 6       406.745 6        37.977 6
G26  20670663.547 9 108625047.720 9     -1515.685 9        55.866 9  20670666.370 6         0.000 6     -1181.054 6        37.977 6
G20  21916431.334 9 115171591.159 9      2540.324 9        55.326 9  21916431.640 6         0.000 6      1979.474 6        37.977 6
> 2019 07 03 12 01 57.0000000  0  8       0.000000000000
G07  25323278.401 9 133074680.285 9      2159.961 9        54.140 9  25323279.059 6         0.000 6      1683.088 6        37.977 6
G10  23770834.008 9 124916521.767 9      3521.294 9        54.683 9  23770837.698 6         0.000 6      2743.868 6        37.977 6
G21  21184682.144 9 111326235.342 9     -1271.846 9        55.704 9  21184681.432 6         0.000 6      -991.049 6        37.977 6
G29  24333923.442 9 127875573.798 9     -3124.969 9        54.463 9  24333925.053 6         0.000 6     -2435.043 6        37.977 6
G27  21977422.376 9 115492107.249 9      2485.687 9        55.385 9  21977424.299 6         0.000 6      1936.899 6        37.977 6
G16  20491331.035 9 107682651.073 9       521.372 9        55.979 9  20491330.208 6         0.000 6       406.264 6        37.977 6
G26  20670952.026 9 108626563.685 9     -1516.258 9        55.866 9  20670954.849 6         0.000 6     -1181.500 6        37.977 6
G20  21915947.968 9 115169051.060 9      2539.875 9        55.327 9  21915948.274 6         0.000 6      1979.125 6        37.977 6
> 2019 07 03 12 01 58.0000000  0  8       0.000000000000
G07  25322867.418 9 133072520.559 9      2159.497 9        54.140 9  25322868.076 6         0.000 6      1682.726 6        37.977 6
G10  23770163.942 9 124913000.555 9      3521.151 9        54.684 9  23770167.631 6         0.000 6      2743.757 6        37.977 6
G21  21184924.202 9 111327507.367 9     -1272.204 9        55.703 9  21184923.491 6         0.000 6      -991.328 6        37.977 6
G29  24334518.112 9 127878698.799 9     -3125.053 9        54.463 9  24334519.723 6         0.000 6     -2435.109 6        37.977 6
G27  21976949.388 9 115489621.684 9      2485.448 9        55.385 9  21976951.311 6         0.000 6      1936.713 6        37.977 6
G16  20491231.880 9 107682130.011 9       520.753 9        55.979 9  20491231.053 6         0.000 6       405.782 6        37.977 6
G26  20671240.615 9 108628080.227 9     -1516.831 9        55.866 9  20671243.438 6         0.000 6     -1181.947 6        37.977 6
G20  21915464.689 9 115166511.413 9      2539.427 9        55.327 9  21915464.994 6         0.000 6      1978.775 6        37.977 6
> 2019 07 03 12 01 59.0000000  0  8       0.000000000000
G07  25322456.524 9 133070361.297 9      2159.034 9        54.140 9  25322457.181 6         0.000 6      1682.365 6        37.977 6
G10  23769493.903 9 124909479.486 9      3521.008 9        54.684 9  23769497.591 6         0.000 6      2743.645 6        37.977 6
G21  21185166.329 9 111328779.749 9     -1272.561 9        55.703 9  21185165.617 6         0.000 6      -991.606 6        37.977 6
G29  24335112.797 9 127881823.883 9     -3125.137 9        54.462 9  24335114.409 6         0.000 6     -2435.175 6        37.977 6
G27  21976476.446 9 115487136.358 9      2485.209 9        55.385 9  21976478.369 6         0.000 6      1936.527 6        37.977 6
G16  20491132.843 9 107681609.567 9       520.135 9        55.979 9  20491132.016 6         0.000 6       405.300 6        37.977 6
G26  20671529.313 9 108629597.343 9     -1517.404 9        55.866 9  20671532.136 6         0.000 6     -1182.393 6        37.977 6
G20  21914981.495 9 115163972.216 9      2538.978 9        55.327 9  21914981.800 6         0.000 6      1978.425 6        37.977 6
> 2019 07 03 12 02  0.0000000  0  8       0.000000000000
G07  25322045.718 9 133068202.502 9      2158.570 9        54.140 9  25322046.375 6         0.000 6      1682.004 6        37.977 6
G10  23768823.890 9 124905958.554 9      3520.864 9        54.684 9  23768827.577 6         0.000 6      2743.533 6        37.977 6
G21  21185408.523 9 111330052.485 9     -1272.919 9        55.703 9  21185407.811 6         0.000 6      -991.885 6        37.977 6
G29  24335707.499 9 127884949.051 9     -3125.221 9        54.462 9  24335709.112 6         0.000 6     -2435.240 6        37.977 6
G27  21976003.549 9 115484651.271 9      2484.970 9        55.386 9  21976005.472 6         0.000 6      1936.341 6        37.977 6
G16  20491033.922 9 107681089.738 9       519.516 9        55.979 9  20491033.096 6         0.000 6       404.818 6        37.977 6
G26  20671818.118 9 108631115.025 9     -1517.976 9        55.866 9  20671820.941 6         0.000 6     -1182.839 6        37.977 6
G20  21914498.385 9 115161433.461 9      2538.529 9        55.327 9  21914498.690 6         0.000 6      1978.076 6        37.977 6
