     3.00           Observation Data    M (Mixed)           RINEX VERSION / TYPE
SimGEN V6.06.00     Spirent             03-Jul-19 18:00     PGM / RUN BY / DATE 
                                                            MARKER NAME         
1                                                           MARKER NUMBER       
GROUND_CRAFT                                                MARKER TYPE         
liy4hi              Spirent                                 OBSERVER / AGENCY   
rec_num             rec_type            rec_vers            REC # / TYPE / VERS 
1                   ant_type                                ANT # / TYPE        
  1000.000                                                  INTERVAL            
  2019     7     3    18     0   12.0000000     GPS         TIME OF FIRST OBS   
 -5610388.6686    10399.0898  3023652.1471                  APPROX POSITION XYZ 
        0.0000        0.0000        0.0000                  ANTENNA: DELTA H/E/N
G    8 C1C L1C D1C S1C C2C L2C D2C S2C                      SYS / # / OBS TYPES 
        0.0000        0.0000        0.0000                  ANTENNA: DELTA X/Y/Z
DBHZ                                                        SIGNAL STRENGTH UNIT
                                                            END OF HEADER       
> 2019 07 03 18 00 12.0000000  0 11       0.000000000000
G06  24992244.234 7 131335084.170 7       484.426 7        43.459 7  24992247.861 6         0.000 6       377.475 6        37.977 6
G10  24493109.433 7 128712117.055 7     -1425.383 7        44.939 7  24493112.364 6         0.000 6     -1110.688 6        37.977 6
G12  20547675.606 9 107978746.574 9     -1066.314 9        57.201 9  20547674.337 6         0.000 6      -830.894 6        37.977 6
G15  23128354.970 8 121540298.060 8     -3332.629 8        50.962 8  23128354.504 6         0.000 6     -2596.854 6        37.977 6
G20  24829634.058 7 130480561.705 7     -1938.474 7        43.478 7  24829635.170 6         0.000 6     -1510.499 6        37.977 6
G29  22808463.264 8 119859255.219 8      3489.125 8        50.794 8  22808463.104 6         0.000 6      2718.798 6        37.977 6
G19  24535905.682 7 128937011.985 7     -3309.501 7        44.955 7  24535905.326 6         0.000 6     -2578.832 6        37.977 6
G24  20889341.461 9 109774212.701 9      -629.576 9        57.095 9  20889343.086 6         0.000 6      -490.579 6        37.977 6
G32  23544595.780 8 123727653.171 8      2927.296 8        48.768 8  23544597.886 6         0.000 6      2281.010 6        37.977 6
G02  24225022.004 7 127303312.681 7      1336.281 7        46.875 7  24225020.319 6         0.000 6      1041.258 6        37.977 6
G25  21498805.762 9 112976966.435 9      1107.614 9        55.082 9  21498808.190 6         0.000 6       863.076 6        37.977 6
> 2019 07 03 18 00 13.0000000  0 11       0.000000000000
G06  24992146.647 7 131334571.346 7       513.081 7        43.459 7  24992150.274 6         0.000 6       399.804 6        37.977 6
G10  24493386.474 7 128713572.914 7     -1456.521 7        44.939 7  24493389.405 6         0.000 6     -1134.952 6        37.977 6
G12  20547878.710 9 107979813.889 9     -1067.470 9        57.201 9  20547877.441 6         0.000 6      -831.795 6        37.977 6
G15  23128988.194 8 121543625.672 8     -3327.611 8        50.962 8  23128987.728 6         0.000 6     -2592.945 6        37.977 6
G20  24830007.971 7 130482526.629 7     -1965.372 7        43.478 7  24830009.083 6         0.000 6     -1531.459 6        37.977 6
G29  22807800.468 8 119855772.208 8      3482.799 8        50.794 8  22807800.308 6         0.000 6      2713.871 6        37.977 6
G19  24536531.956 7 128940303.069 7     -3290.927 7        44.955 7  24536531.600 6         0.000 6     -2564.360 6        37.977 6
G24  20889458.620 9 109774828.371 9      -615.588 9        57.095 9  20889460.244 6         0.000 6      -479.679 6        37.977 6
G32  23544042.531 8 123724745.832 8      2906.836 8        48.768 8  23544044.636 6         0.000 6      2265.068 6        37.977 6
G02  24224762.283 7 127301947.841 7      1365.209 7        46.875 7  24224760.597 6         0.000 6      1063.800 6        37.977 6
G25  21498598.897 9 112975879.355 9      1086.573 9        55.082 9  21498601.326 6         0.000 6       846.681 6        37.977 6
> 2019 07 03 18 00 14.0000000  0 11       0.000000000000
G06  24992049.054 7 131334058.495 7       512.623 7        43.459 7  24992052.681 6         0.000 6       399.447 6        37.977 6
G10  24493663.669 7 128715029.579 7     -1456.814 7        44.939 7  24493666.600 6         0.000 6     -1135.180 6        37.977 6
G12  20548081.869 9 107980881.498 9     -1067.748 9        57.201 9  20548080.600 6         0.000 6      -832.012 6        37.977 6
G15  23129621.433 8 121546953.361 8     -3327.774 8        50.962 8  23129620.967 6         0.000 6     -2593.072 6        37.977 6
G20  24830381.968 7 130484491.994 7     -1965.365 7        43.477 7  24830383.080 6         0.000 6     -1531.454 6        37.977 6
G29  22807137.735 8 119852289.528 8      3482.570 8        50.794 8  22807137.575 6         0.000 6      2713.692 6        37.977 6
G19  24537158.227 7 128943594.143 7     -3291.233 7        44.955 7  24537157.872 6         0.000 6     -2564.598 6        37.977 6
G24  20889575.792 9 109775444.116 9      -615.901 9        57.095 9  20889577.417 6         0.000 6      -479.923 6        37.977 6
G32  23543489.411 8 123721839.171 8      2906.494 8        48.768 8  23543491.516 6         0.000 6      2264.802 6        37.977 6
G02  24224502.515 7 127300582.754 7      1364.970 7        46.875 7  24224500.829 6         0.000 6      1063.614 6        37.977 6
G25  21498392.160 9 112974792.945 9      1086.250 9        55.082 9  21498394.588 6         0.000 6       846.428 6        37.977 6
> 2019 07 03 18 00 15.0000000  0 11       0.000000000000
G06  24991951.549 7 131333546.102 7       512.166 7        43.459 7  24991955.176 6         0.000 6       399.091 6        37.977 6
G10  24493940.919 7 128716486.536 7     -1457.106 7        44.939 7  24493943.851 6         0.000 6     -1135.408 6        37.977 6
G12  20548285.081 9 107981949.385 9     -1068.027 9        57.200 9  20548283.812 6         0.000 6      -832.229 6        37.977 6
G15  23130254.703 8 121550281.213 8     -3327.937 8        50.962 8  23130254.238 6         0.000 6     -2593.199 6        37.977 6
G20  24830755.964 7 130486457.351 7     -1965.358 7        43.477 7  24830757.076 6         0.000 6     -1531.448 6        37.977 6
G29  22806475.046 8 119848807.076 8      3482.342 8        50.795 8  22806474.885 6         0.000 6      2713.514 6        37.977 6
G19  24537784.557 7 128946885.523 7     -3291.538 7        44.955 7  24537784.202 6         0.000 6     -2564.836 6        37.977 6
G24  20889693.024 9 109776060.173 9      -616.215 9        57.095 9  20889694.649 6         0.000 6      -480.167 6        37.977 6
G32  23542936.356 8 123718932.852 8      2906.152 8        48.768 8  23542938.461 6         0.000 6      2264.535 6        37.977 6
G02  24224242.793 7 127299217.906 7      1364.731 7        46.875 7  24224241.107 6         0.000 6      1063.427 6        37.977 6
G25  21498185.485 9 112973706.858 9      1085.926 9        55.082 9  21498187.913 6         0.000 6       846.176 6        37.977 6
> 2019 07 03 18 00 16.0000000  0 11       0.000000000000
G06  24991854.130 7 131333034.165 7       511.708 7        43.459 7  24991857.757 6         0.000 6       398.734 6        37.977 6
G10  24494218.225 7 128717943.785 7     -1457.398 7        44.939 7  24494221.157 6         0.000 6     -1135.635 6        37.977 6
G12  20548488.346 9 107983017.550 9     -1068.305 9        57.200 9  20548487.078 6         0.000 6      -832.446 6        37.977 6
G15  23130888.004 8 121553609.227 8     -3328.100 8        50.961 8  23130887.539 6         0.000 6     -2593.325 6        37.977 6
G20  24831129.958 7 130488422.702 7     -1965.351 7        43.477 7  24831131.071 6         0.000 6     -1531.443 6        37.977 6
G29  22805812.400 8 119845324.853 8      3482.112 8        50.795 8  22805812.239 6         0.000 6      2713.335 6        37.977 6
G19  24538410.945 7 128950177.208 7     -3291.843 7        44.954 7  24538410.590 6         0.000 6     -2565.074 6        37.977 6
G24  20889810.315 9 109776676.544 9      -616.528 9        57.095 9  20889811.940 6         0.000 6      -480.411 6        37.977 6
G32  23542383.366 8 123716026.875 8      2905.810 8        48.769 8  23542385.471 6         0.000 6      2264.268 6        37.977 6
G02  24223983.116 7 127297853.298 7      1364.491 7        46.875 7  24223981.430 6         0.000 6      1063.241 6        37.977 6
G25  21497978.871 9 112972621.095 9      1085.602 9        55.082 9  21497981.299 6         0.000 6       845.924 6        37.977 6
> 2019 07 03 18 00 17.0000000  0 11       0.000000000000
G06  24991756.799 7 131332522.687 7       511.251 7        43.459 7  24991760.426 6         0.000 6       398.378 6        37.977 6
G10  24494495.586 7 128719401.327 7     -1457.690 7        44.939 7  24494498.518 6         0.000 6     -1135.863 6        37.977 6
G12  20548691.665 9 107984085.994 9     -1068.584 9        57.200 9  20548690.396 6         0.000 6      -832.663 6        37.977 6
G15  23131521.336 8 121556937.404 8     -3328.262 8        50.961 8  23131520.871 6         0.000 6     -2593.452 6        37.977 6
G20  24831503.951 7 130490388.046 7     -1965.343 7        43.477 7  24831505.064 6         0.000 6     -1531.437 6        37.977 6
G29  22805149.798 8 119841842.860 8      3481.883 8        50.795 8  22805149.637 6         0.000 6      2713.157 6        37.977 6
G19  24539037.391 7 128953469.198 7     -3292.148 7        44.954 7  24539037.036 6         0.000 6     -2565.311 6        37.977 6
G24  20889927.667 9 109777293.228 9      -616.841 9        57.095 9  20889929.291 6         0.000 6      -480.655 6        37.977 6
G32  23541830.441 8 123713121.240 8      2905.468 8        48.769 8  23541832.546 6         0.000 6      2264.002 6        37.977 6
G02  24223723.485 7 127296488.929 7      1364.252 7        46.875 7  24223721.798 6         0.000 6      1063.054 6        37.977 6
G25  21497772.318 9 112971535.655 9      1085.279 9        55.082 9  21497774.746 6         0.000 6       845.672 6        37.977 6
> 2019 07 03 18 00 18.0000000  0 11       0.000000000000
G06  24991659.555 7 131332011.666 7       510.793 7        43.459 7  24991663.181 6         0.000 6       398.021 6        37.977 6
G10  24494773.003 7 128720859.160 7     -1457.982 7        44.938 7  24494775.935 6         0.000 6     -1136.091 6        37.977 6
G12  20548895.036 9 107985154.716 9     -1068.862 9        57.200 9  20548893.767 6         0.000 6      -832.880 6        37.977 6
G15  23132154.698 8 121560265.743 8     -3328.424 8        50.961 8  23132154.234 6         0.000 6     -2593.579 6        37.977 6
G20  24831877.943 7 130492353.382 7     -1965.336 7        43.477 7  24831879.056 6         0.000 6     -1531.432 6        37.977 6
G29  22804487.239 8 119838361.095 8      3481.654 8        50.795 8  22804487.078 6         0.000 6      2712.978 6        37.977 6
G19  24539663.895 7 128956761.492 7     -3292.453 7        44.954 7  24539663.541 6         0.000 6     -2565.549 6        37.977 6
G24  20890045.077 9 109777910.226 9      -617.154 9        57.095 9  20890046.702 6         0.000 6      -480.899 6        37.977 6
G32  23541277.582 8 123710215.948 8      2905.125 8        48.769 8  23541279.686 6         0.000 6      2263.735 6        37.977 6
G02  24223463.899 7 127295124.800 7      1364.012 7        46.875 7  24223462.213 6         0.000 6      1062.867 6        37.977 6
G25  21497565.827 9 112970450.539 9      1084.956 9        55.082 9  21497568.255 6         0.000 6       845.420 6        37.977 6
> 2019 07 03 18 00 19.0000000  0 11       0.000000000000
G06  24991562.398 7 131331501.102 7       510.335 7        43.459 7  24991566.024 6         0.000 6       397.664 6        37.977 6
G10  24495050.476 7 128722317.286 7     -1458.274 7        44.938 7  24495053.408 6         0.000 6     -1136.318 6        37.977 6
G12  20549098.460 9 107986223.717 9     -1069.140 9        57.200 9  20549097.192 6         0.000 6      -833.097 6        37.977 6
G15  23132788.092 8 121563594.245 8     -3328.587 8        50.961 8  23132787.627 6         0.000 6     -2593.705 6        37.977 6
G20  24832251.934 7 130494318.711 7     -1965.329 7        43.477 7  24832253.047 6         0.000 6     -1531.426 6        37.977 6
G29  22803824.724 8 119834879.560 8      3481.425 8        50.796 8  22803824.563 6         0.000 6      2712.800 6        37.977 6
G19  24540290.457 7 128960054.092 7     -3292.757 7        44.954 7  24540290.103 6         0.000 6     -2565.786 6        37.977 6
G24  20890162.548 9 109778527.536 9      -617.467 9        57.095 9  20890164.173 6         0.000 6      -481.144 6        37.977 6
G32  23540724.788 8 123707310.998 8      2904.783 8        48.769 8  23540726.892 6         0.000 6      2263.468 6        37.977 6
G02  24223204.359 7 127293760.911 7      1363.772 7        46.876 7  24223202.672 6         0.000 6      1062.680 6        37.977 6
G25  21497359.398 9 112969365.746 9      1084.632 9        55.082 9  21497361.826 6         0.000 6       845.168 6        37.977 6
> 2019 07 03 18 00 20.0000000  0 11       0.000000000000
G06  24991465.328 7 131330990.997 7       509.878 7        43.459 7  24991468.954 6         0.000 6       397.308 6        37.977 6
G10  24495328.004 7 128723775.703 7     -1458.566 7        44.938 7  24495330.936 6         0.000 6     -1136.545 6        37.977 6
G12  20549301.937 9 107987292.996 9     -1069.419 9        57.200 9  20549300.669 6         0.000 6      -833.313 6        37.977 6
G15  23133421.516 8 121566922.909 8     -3328.749 8        50.960 8  23133421.052 6         0.000 6     -2593.831 6        37.977 6
G20  24832625.922 7 130496284.033 7     -1965.321 7        43.477 7  24832627.036 6         0.000 6     -1531.420 6        37.977 6
G29  22803162.253 8 119831398.255 8      3481.195 8        50.796 8  22803162.091 6         0.000 6      2712.621 6        37.977 6
G19  24540917.077 7 128963346.996 7     -3293.062 7        44.953 7  24540916.723 6         0.000 6     -2566.024 6        37.977 6
G24  20890280.078 9 109779145.160 9      -617.781 9        57.095 9  20890281.703 6         0.000 6      -481.388 6        37.977 6
G32  23540172.058 8 123704406.391 8      2904.440 8        48.769 8  23540174.162 6         0.000 6      2263.201 6        37.977 6
G02  24222944.865 7 127292397.261 7      1363.532 7        46.876 7  24222943.178 6         0.000 6      1062.494 6        37.977 6
G25  21497153.030 9 112968281.277 9      1084.309 9        55.082 9  21497155.458 6         0.000 6       844.916 6        37.977 6
> 2019 07 03 18 00 21.0000000  0 11       0.000000000000
G06  24991368.345 7 131330481.349 7       509.420 7        43.459 7  24991371.971 6         0.000 6       396.951 6        37.977 6
G10  24495605.587 7 128725234.412 7     -1458.857 7        44.938 7  24495608.520 6         0.000 6     -1136.773 6        37.977 6
G12  20549505.467 9 107988362.553 9     -1069.697 9        57.200 9  20549504.199 6         0.000 6      -833.530 6        37.977 6
G15  23134054.972 8 121570251.735 8     -3328.911 8        50.960 8  23134054.508 6         0.000 6     -2593.958 6        37.977 6
G20  24832999.910 7 130498249.347 7     -1965.314 7        43.477 7  24833001.024 6         0.000 6     -1531.414 6        37.977 6
G29  22802499.825 8 119827917.179 8      3480.966 8        50.796 8  22802499.663 6         0.000 6      2712.442 6        37.977 6
G19  24541543.755 7 128966640.204 7     -3293.367 7        44.637 7  24541543.401 6         0.000 6     -2566.261 6        37.977 6
G24  20890397.667 9 109779763.097 9      -618.094 9        57.095 9  20890399.292 6         0.000 6      -481.632 6        37.977 6
G32  23539619.394 8 123701502.126 8      2904.097 8        48.770 8  23539621.498 6         0.000 6      2262.934 6        37.977 6
G02  24222685.416 7 127291033.851 7      1363.293 7        46.876 7  24222683.729 6         0.000 6      1062.307 6        37.977 6
G25  21496946.724 9 112967197.131 9      1083.985 9        55.082 9  21496949.151 6         0.000 6       844.664 6        37.977 6
> 2019 07 03 18 00 22.0000000  0 11       0.000000000000
G06  24991271.449 7 131329972.159 7       508.962 7        43.459 7  24991275.075 6         0.000 6       396.594 6        37.977 6
G10  24495883.226 7 128726693.413 7     -1459.149 7        44.938 7  24495886.159 6         0.000 6     -1137.000 6        37.977 6
G12  20549709.050 9 107989432.388 9     -1069.975 9        57.200 9  20549707.782 6         0.000 6      -833.747 6        37.977 6
G15  23134688.458 8 121573580.723 8     -3329.073 8        50.960 8  23134687.994 6         0.000 6     -2594.084 6        37.977 6
G20  24833373.896 7 130500214.653 7     -1965.306 7        43.476 7  24833375.010 6         0.000 6     -1531.408 6        37.977 6
G29  22801837.442 8 119824436.332 8      3480.736 8        50.796 8  22801837.279 6         0.000 6      2712.263 6        37.977 6
G19  24542170.490 7 128969933.718 7     -3293.671 7        44.637 7  24542170.137 6         0.000 6     -2566.498 6        37.977 6
G24  20890515.316 9 109780381.348 9      -618.407 9        57.095 9  20890516.941 6         0.000 6      -481.876 6        37.977 6
G32  23539066.796 8 123698598.204 8      2903.755 8        48.770 8  23539068.899 6         0.000 6      2262.667 6        37.977 6
G02  24222426.013 7 127289670.681 7      1363.053 7        46.876 7  24222424.326 6         0.000 6      1062.120 6        37.977 6
G25  21496740.479 9 112966113.308 9      1083.662 9        55.083 9  21496742.907 6         0.000 6       844.412 6        37.977 6
> 2019 07 03 18 00 23.0000000  0 11       0.000000000000
G06  24991174.640 7 131329463.427 7       508.504 7        43.459 7  24991178.267 6         0.000 6       396.237 6        37.977 6
G10  24496160.921 7 128728152.705 7     -1459.441 7        44.938 7  24496163.854 6         0.000 6     -1137.227 6        37.977 6
G12  20549912.686 9 107990502.501 9     -1070.253 9        57.200 9  20549911.418 6         0.000 6      -833.963 6        37.977 6
G15  23135321.975 8 121576909.873 8     -3329.235 8        50.960 8  23135321.511 6         0.000 6     -2594.210 6        37.977 6
G20  24833747.881 7 130502179.952 7     -1965.298 7        43.476 7  24833748.995 6         0.000 6     -1531.402 6        37.977 6
G29  22801175.101 8 119820955.715 8      3480.506 8        50.797 8  22801174.939 6         0.000 6      2712.084 6        37.977 6
G19  24542797.284 7 128973227.535 7     -3293.975 7        44.637 7  24542796.931 6         0.000 6     -2566.735 6        37.977 6
G24  20890633.025 9 109780999.912 9      -618.721 9        57.095 9  20890634.650 6         0.000 6      -482.120 6        37.977 6
G32  23538514.262 8 123695694.625 8      2903.412 8        48.770 8  23538516.365 6         0.000 6      2262.400 6        37.977 6
G02  24222166.655 7 127288307.752 7      1362.812 7        46.876 7  24222164.968 6         0.000 6      1061.932 6        37.977 6
G25  21496534.295 9 112965029.809 9      1083.339 9        55.083 9  21496536.723 6         0.000 6       844.160 6        37.977 6
> 2019 07 03 18 00 24.0000000  0 11       0.000000000000
G06  24991077.919 7 131328955.153 7       508.046 7        43.459 7  24991081.545 6         0.000 6       395.880 6        37.977 6
G10  24496438.671 7 128729612.289 7     -1459.732 7        44.938 7  24496441.604 6         0.000 6     -1137.454 6        37.977 6
G12  20550116.375 9 107991572.892 9     -1070.531 9        57.200 9  20550115.107 6         0.000 6      -834.180 6        37.977 6
G15  23135955.523 8 121580239.185 8     -3329.397 8        50.959 8  23135955.059 6         0.000 6     -2594.336 6        37.977 6
G20  24834121.864 7 130504145.243 7     -1965.290 7        43.476 7  24834122.978 6         0.000 6     -1531.396 6        37.977 6
G29  22800512.805 8 119817475.329 8      3480.276 8        50.797 8  22800512.642 6         0.000 6      2711.905 6        37.977 6
G19  24543424.136 7 128976521.657 7     -3294.279 7        44.636 7  24543423.783 6         0.000 6     -2566.972 6        37.977 6
G24  20890750.794 9 109781618.789 9      -619.034 9        57.095 9  20890752.419 6         0.000 6      -482.364 6        37.977 6
G32  23537961.794 8 123692791.389 8      2903.069 8        48.770 8  23537963.897 6         0.000 6      2262.132 6        37.977 6
G02  24221907.343 7 127286945.062 7      1362.572 7        46.876 7  24221905.656 6         0.000 6      1061.745 6        37.977 6
G25  21496328.174 9 112963946.632 9      1083.015 9        55.083 9  21496330.601 6         0.000 6       843.908 6        37.977 6
> 2019 07 03 18 00 25.0000000  0 11       0.000000000000
G06  24990981.284 7 131328447.337 7       507.588 7        43.459 7  24990984.911 6         0.000 6       395.523 6        37.977 6
G10  24496716.476 7 128731072.164 7     -1460.023 7        44.938 7  24496719.410 6         0.000 6     -1137.681 6        37.977 6
G12  20550320.117 9 107992643.561 9     -1070.809 9        57.200 9  20550318.848 6         0.000 6      -834.397 6        37.977 6
G15  23136589.101 8 121583568.659 8     -3329.559 8        50.959 8  23136588.638 6         0.000 6     -2594.462 6        37.977 6
G20  24834495.845 7 130506110.526 7     -1965.282 7        43.476 7  24834496.960 6         0.000 6     -1531.390 6        37.977 6
G29  22799850.552 8 119813995.171 8      3480.046 8        50.797 8  22799850.389 6         0.000 6      2711.726 6        37.977 6
G19  24544051.045 7 128979816.083 7     -3294.583 7        44.636 7  24544050.693 6         0.000 6     -2567.209 6        37.977 6
G24  20890868.622 9 109782237.979 9      -619.348 9        57.094 9  20890870.247 6         0.000 6      -482.609 6        37.977 6
G32  23537409.391 8 123689888.496 8      2902.726 8        48.770 8  23537411.494 6         0.000 6      2261.865 6        37.977 6
G02  24221648.077 7 127285582.613 7      1362.332 7        46.876 7  24221646.390 6         0.000 6      1061.558 6        37.977 6
G25  21496122.114 9 112962863.780 9      1082.692 9        55.083 9  21496124.541 6         0.000 6       843.656 6        37.977 6
> 2019 07 03 18 00 26.0000000  0 11       0.000000000000
G06  24990884.737 7 131327939.979 7       507.130 7        43.459 7  24990888.363 6         0.000 6       395.166 6        37.977 6
G10  24496994.337 7 128732532.330 7     -1460.314 7        44.938 7  24496997.271 6         0.000 6     -1137.908 6        37.977 6
G12  20550523.911 9 107993714.508 9     -1071.087 9        57.200 9  20550522.643 6         0.000 6      -834.613 6        37.977 6
G15  23137222.710 8 121586898.294 8     -3329.720 8        50.959 8  23137222.248 6         0.000 6     -2594.588 6        37.977 6
G20  24834869.825 7 130508075.801 7     -1965.274 7        43.476 7  24834870.940 6         0.000 6     -1531.384 6        37.977 6
G29  22799188.343 8 119810515.244 8      3479.816 8        50.797 8  22799188.180 6         0.000 6      2711.546 6        37.977 6
G19  24544678.012 7 128983110.812 7     -3294.887 7        44.636 7  24544677.661 6         0.000 6     -2567.446 6        37.977 6
G24  20890986.510 9 109782857.484 9      -619.661 9        57.094 9  20890988.135 6         0.000 6      -482.853 6        37.977 6
G32  23536857.053 8 123686985.945 8      2902.382 8        48.771 8  23536859.156 6         0.000 6      2261.598 6        37.977 6
G02  24221388.857 7 127284220.404 7      1362.092 7        46.876 7  24221387.169 6         0.000 6      1061.371 6        37.977 6
G25  21495916.115 9 112961781.250 9      1082.369 9        55.083 9  21495918.542 6         0.000 6       843.405 6        37.977 6
> 2019 07 03 18 00 27.0000000  0 11       0.000000000000
G06  24990788.277 7 131327433.080 7       506.672 7        43.459 7  24990791.903 6         0.000 6       394.809 6        37.977 6
G10  24497272.254 7 128733992.787 7     -1460.605 7        44.938 7  24497275.187 6         0.000 6     -1138.135 6        37.977 6
G12  20550727.759 9 107994785.733 9     -1071.364 9        57.199 9  20550726.490 6         0.000 6      -834.830 6        37.977 6
G15  23137856.351 8 121590228.091 8     -3329.882 8        50.959 8  23137855.888 6         0.000 6     -2594.714 6        37.977 6
G20  24835243.804 7 130510041.068 7     -1965.266 7        43.476 7  24835244.919 6         0.000 6     -1531.377 6        37.977 6
G29  22798526.178 8 119807035.548 8      3479.586 8        50.798 8  22798526.014 6         0.000 6      2711.367 6        37.977 6
G19  24545305.038 7 128986405.846 7     -3295.191 7        44.636 7  24545304.686 6         0.000 6     -2567.683 6        37.977 6
G24  20891104.457 9 109783477.301 9      -619.975 9        57.094 9  20891106.082 6         0.000 6      -483.097 6        37.977 6
G32  23536304.781 8 123684083.739 8      2902.039 8        48.771 8  23536306.883 6         0.000 6      2261.330 6        37.977 6
G02  24221129.683 7 127282858.435 7      1361.851 7        46.876 7  24221127.995 6         0.000 6      1061.183 6        37.977 6
G25  21495710.178 9 112960699.044 9      1082.046 9        55.083 9  21495712.605 6         0.000 6       843.153 6        37.977 6
> 2019 07 03 18 00 28.0000000  0 11       0.000000000000
G06  24990691.904 7 131326926.638 7       506.213 7        43.460 7  24990695.530 6         0.000 6       394.452 6        37.977 6
G10  24497550.225 7 128735453.536 7     -1460.896 7        44.937 7  24497553.159 6         0.000 6     -1138.362 6        37.977 6
G12  20550931.659 9 107995857.235 9     -1071.642 9        57.199 9  20550930.391 6         0.000 6      -835.046 6        37.977 6
G15  23138490.021 8 121593558.050 8     -3330.043 8        50.958 8  23138489.559 6         0.000 6     -2594.840 6        37.977 6
G20  24835617.781 7 130512006.327 7     -1965.258 7        43.476 7  24835618.896 6         0.000 6     -1531.371 6        37.977 6
G29  22797864.057 8 119803556.081 8      3479.356 8        50.798 8  22797863.893 6         0.000 6      2711.187 6        37.977 6
G19  24545932.120 7 128989701.184 7     -3295.495 7        44.636 7  24545931.770 6         0.000 6     -2567.920 6        37.977 6
G24  20891222.464 9 109784097.432 9      -620.288 9        57.094 9  20891224.089 6         0.000 6      -483.342 6        37.977 6
G32  23535752.574 8 123681181.875 8      2901.696 8        48.771 8  23535754.676 6         0.000 6      2261.063 6        37.977 6
G02  24220870.554 7 127281496.707 7      1361.611 7        46.876 7  24220868.866 6         0.000 6      1060.996 6        37.977 6
G25  21495504.302 9 112959617.161 9      1081.722 9        55.083 9  21495506.729 6         0.000 6       842.901 6        37.977 6
> 2019 07 03 18 00 29.0000000  0 11       0.000000000000
G06  24990595.619 7 131326420.655 7       505.755 7        43.460 7  24990599.245 6         0.000 6       394.095 6        37.977 6
G10  24497828.252 7 128736914.575 7     -1461.187 7        44.937 7  24497831.186 6         0.000 6     -1138.588 6        37.977 6
G12  20551135.612 9 107996929.015 9     -1071.920 9        57.199 9  20551134.344 6         0.000 6      -835.262 6        37.977 6
G15  23139123.723 8 121596888.170 8     -3330.205 8        50.958 8  23139123.261 6         0.000 6     -2594.966 6        37.977 6
G20  24835991.756 7 130513971.577 7     -1965.250 7        43.475 7  24835992.872 6         0.000 6     -1531.364 6        37.977 6
G29  22797201.979 8 119800076.845 8      3479.125 8        50.798 8  22797201.815 6         0.000 6      2711.008 6        37.977 6
G19  24546559.261 7 128992996.825 7     -3295.799 7        44.635 7  24546558.911 6         0.000 6     -2568.156 6        37.977 6
G24  20891340.531 9 109784717.877 9      -620.602 9        57.094 9  20891342.156 6         0.000 6      -483.586 6        37.977 6
G32  23535200.432 8 123678280.355 8      2901.352 8        48.771 8  23535202.534 6         0.000 6      2260.795 6        37.977 6
G02  24220611.471 7 127280135.219 7      1361.370 7        46.876 7  24220609.783 6         0.000 6      1060.808 6        37.977 6
G25  21495298.488 9 112958535.601 9      1081.399 9        55.083 9  21495300.915 6         0.000 6       842.649 6        37.977 6
> 2019 07 03 18 00 30.0000000  0 11       0.000000000000
G06  24990499.420 7 131325915.130 7       505.297 7        43.460 7  24990503.046 6         0.000 6       393.738 6        37.977 6
G10  24498106.335 7 128738375.905 7     -1461.478 7        44.937 7  24498109.269 6         0.000 6     -1138.815 6        37.977 6
G12  20551339.618 9 107998001.073 9     -1072.197 9        57.199 9  20551338.350 6         0.000 6      -835.479 6        37.977 6
G15  23139757.455 8 121600218.451 8     -3330.366 8        50.958 8  23139756.993 6         0.000 6     -2595.091 6        37.977 6
G20  24836365.730 7 130515936.819 7     -1965.241 7        43.475 7  24836366.846 6         0.000 6     -1531.358 6        37.977 6
G29  22796539.946 8 119796597.839 8      3478.895 8        50.798 8  22796539.781 6         0.000 6      2710.828 6        37.977 6
G19  24547186.460 7 128996292.770 7     -3296.102 7        44.635 7  24547186.110 6         0.000 6     -2568.393 6        37.977 6
G24  20891458.657 9 109785338.635 9      -620.915 9        57.094 9  20891460.283 6         0.000 6      -483.830 6        37.977 6
G32  23534648.356 8 123675379.178 8      2901.009 8        48.772 8  23534650.457 6         0.000 6      2260.527 6        37.977 6
G02  24220352.434 7 127278773.973 7      1361.129 7        46.877 7  24220350.745 6         0.000 6      1060.621 6        37.977 6
G25  21495092.735 9 112957454.364 9      1081.076 9        55.083 9  21495095.162 6         0.000 6       842.397 6        37.977 6
> 2019 07 03 18 00 31.0000000  0 11       0.000000000000
G06  24990403.309 7 131325410.064 7       504.838 7        43.460 7  24990406.935 6         0.000 6       393.381 6        37.977 6
G10  24498384.472 7 128739837.526 7     -1461.769 7        44.937 7  24498387.407 6         0.000 6     -1139.041 6        37.977 6
G12  20551543.677 9 107999073.408 9     -1072.475 9        57.199 9  20551542.409 6         0.000 6      -835.695 6        37.977 6
G15  23140391.218 8 121603548.894 8     -3330.527 8        50.958 8  23140390.757 6         0.000 6     -2595.217 6        37.977 6
G20  24836739.702 7 130517902.052 7     -1965.232 7        43.475 7  24836740.818 6         0.000 6     -1531.351 6        37.977 6
G29  22795877.956 8 119793119.064 8      3478.664 8        50.799 8  22795877.791 6         0.000 6      2710.649 6        37.977 6
G19  24547813.716 7 128999589.018 7     -3296.406 7        44.635 7  24547813.366 6         0.000 6     -2568.629 6        37.977 6
G24  20891576.843 9 109785959.707 9      -621.229 9        57.094 9  20891578.469 6         0.000 6      -484.075 6        37.977 6
G32  23534096.345 8 123672478.345 8      2900.665 8        48.772 8  23534098.446 6         0.000 6      2260.260 6        37.977 6
G02  24220093.442 7 127277412.967 7      1360.888 7        46.877 7  24220091.754 6         0.000 6      1060.433 6        37.977 6
G25  21494887.044 9 112956373.450 9      1080.753 9        55.083 9  21494889.471 6         0.000 6       842.145 6        37.977 6
> 2019 07 03 18 00 32.0000000  0 11       0.000000000000
G06  24990307.285 7 131324905.456 7       504.380 7        43.460 7  24990310.911 6         0.000 6       393.023 6        37.977 6
G10  24498662.665 7 128741299.438 7     -1462.059 7        44.937 7  24498665.600 6         0.000 6     -1139.268 6        37.977 6
G12  20551747.788 9 108000146.021 9     -1072.752 9        57.199 9  20551746.520 6         0.000 6      -835.911 6        37.977 6
G15  23141025.012 8 121606879.498 8     -3330.688 8        50.957 8  23141024.550 6         0.000 6     -2595.343 6        37.977 6
G20  24837113.672 7 130519867.277 7     -1965.224 7        43.475 7  24837114.789 6         0.000 6     -1531.344 6        37.977 6
G29  22795216.010 8 119789640.519 8      3478.434 8        50.799 8  22795215.845 6         0.000 6      2710.469 6        37.977 6
G19  24548441.030 7 129002885.570 7     -3296.709 7        44.635 7  24548440.681 6         0.000 6     -2568.866 6        37.977 6
G24  20891695.089 9 109786581.092 9      -621.543 9        57.094 9  20891696.714 6         0.000 6      -484.319 6        37.977 6
G32  23533544.399 8 123669577.856 8      2900.321 8        48.772 8  23533546.500 6         0.000 6      2259.992 6        37.977 6
G02  24219834.497 7 127276052.201 7      1360.647 7        46.877 7  24219832.808 6         0.000 6      1060.245 6        37.977 6
G25  21494681.414 9 112955292.860 9      1080.430 9        55.249 9  21494683.841 6         0.000 6       841.894 6        37.977 6
> 2019 07 03 18 00 33.0000000  0 11       0.000000000000
G06  24990211.349 7 131324401.307 7       503.921 7        43.460 7  24990214.975 6         0.000 6       392.666 6        37.977 6
G10  24498940.914 7 128742761.640 7     -1462.350 7        44.937 7  24498943.848 6         0.000 6     -1139.494 6        37.977 6
G12  20551951.953 9 108001218.911 9     -1073.030 9        57.199 9  20551950.685 6         0.000 6      -836.127 6        37.977 6
G15  23141658.836 8 121610210.263 8     -3330.849 8        50.957 8  23141658.375 6         0.000 6     -2595.468 6        37.977 6
G20  24837487.641 7 130521832.493 7     -1965.215 7        43.475 7  24837488.758 6         0.000 6     -1531.337 6        37.977 6
G29  22794554.108 8 119786162.205 8      3478.203 8        50.799 8  22794553.943 6         0.000 6      2710.289 6        37.977 6
G19  24549068.402 7 129006182.425 7     -3297.012 7        44.634 7  24549068.053 6         0.000 6     -2569.102 6        37.977 6
G24  20891813.395 9 109787202.792 9      -621.856 9        57.094 9  20891815.020 6         0.000 6      -484.563 6        37.977 6
G32  23532992.519 8 123666677.711 8      2899.978 8        48.772 8  23532994.620 6         0.000 6      2259.724 6        37.977 6
G02  24219575.597 7 127274691.677 7      1360.406 7        46.877 7  24219573.908 6         0.000 6      1060.058 6        37.977 6
G25  21494475.846 9 112954212.592 9      1080.107 9        55.249 9  21494478.273 6         0.000 6       841.642 6        37.977 6
> 2019 07 03 18 00 34.0000000  0 11       0.000000000000
G06  24990115.500 7 131323897.616 7       503.462 7        43.460 7  24990119.125 6         0.000 6       392.309 6        37.977 6
G10  24499219.217 7 128744224.132 7     -1462.640 7        44.937 7  24499222.152 6         0.000 6     -1139.720 6        37.977 6
G12  20552156.170 9 108002292.079 9     -1073.307 9        57.199 9  20552154.902 6         0.000 6      -836.343 6        37.977 6
G15  23142292.691 8 121613541.188 8     -3331.010 8        50.957 8  23142292.230 6         0.000 6     -2595.593 6        37.977 6
G20  24837861.608 7 130523797.700 7     -1965.206 7        43.475 7  24837862.725 6         0.000 6     -1531.330 6        37.977 6
G29  22793892.250 8 119782684.122 8      3477.972 8        50.799 8  22793892.084 6         0.000 6      2710.109 6        37.977 6
G19  24549695.831 7 129009479.583 7     -3297.315 7        44.634 7  24549695.482 6         0.000 6     -2569.338 6        37.977 6
G24  20891931.760 9 109787824.804 9      -622.170 9        57.094 9  20891933.385 6         0.000 6      -484.808 6        37.977 6
G32  23532440.705 8 123663777.909 8      2899.634 8        48.772 8  23532442.805 6         0.000 6      2259.456 6        37.977 6
G02  24219316.743 7 127273331.394 7      1360.165 7        46.877 7  24219315.054 6         0.000 6      1059.870 6        37.977 6
G25  21494270.339 9 112953132.648 9      1079.784 9        55.249 9  21494272.766 6         0.000 6       841.390 6        37.977 6
> 2019 07 03 18 00 35.0000000  0 11       0.000000000000
G06  24990019.737 7 131323394.384 7       503.004 7        43.460 7  24990023.363 6         0.000 6       391.951 6        37.977 6
G10  24499497.576 7 128745686.915 7     -1462.931 7        44.937 7  24499500.511 6         0.000 6     -1139.947 6        37.977 6
G12  20552360.440 9 108003365.523 9     -1073.584 9        57.199 9  20552359.172 6         0.000 6      -836.559 6        37.977 6
G15  23142926.576 8 121616872.275 8     -3331.171 8        50.957 8  23142926.116 6         0.000 6     -2595.719 6        37.977 6
G20  24838235.574 7 130525762.898 7     -1965.197 7        43.475 7  24838236.691 6         0.000 6     -1531.323 6        37.977 6
G29  22793230.436 8 119779206.270 8      3477.741 8        50.800 8  22793230.270 6         0.000 6      2709.929 6        37.977 6
G19  24550323.318 7 129012777.045 7     -3297.618 7        44.634 7  24550322.970 6         0.000 6     -2569.574 6        37.977 6
G24  20892050.185 9 109788447.131 9      -622.484 9        57.094 9  20892051.810 6         0.000 6      -485.052 6        37.977 6
G32  23531888.955 8 123660878.451 8      2899.290 8        48.773 8  23531891.056 6         0.000 6      2259.188 6        37.977 6
G02  24219057.935 7 127271971.352 7      1359.924 7        46.877 7  24219056.246 6         0.000 6      1059.682 6        37.977 6
G25  21494064.894 9 112952053.027 9      1079.461 9        55.250 9  21494067.321 6         0.000 6       841.139 6        37.977 6
> 2019 07 03 18 00 36.0000000  0 11       0.000000000000
G06  24989924.063 7 131322891.611 7       502.545 7        43.460 7  24989927.688 6         0.000 6       391.594 6        37.977 6
G10  24499775.990 7 128747149.988 7     -1463.221 7        44.937 7  24499778.925 6         0.000 6     -1140.173 6        37.977 6
G12  20552564.762 9 108004439.245 9     -1073.861 9        57.199 9  20552563.494 6         0.000 6      -836.775 6        37.977 6
G15  23143560.492 8 121620203.523 8     -3331.332 8        50.957 8  23143560.032 6         0.000 6     -2595.844 6        37.977 6
G20  24838609.538 7 130527728.088 7     -1965.188 7        43.475 7  24838610.655 6         0.000 6     -1531.316 6        37.977 6
G29  22792568.666 8 119775728.649 8      3477.510 8        50.800 8  22792568.500 6         0.000 6      2709.749 6        37.977 6
G19  24550950.863 7 129016074.809 7     -3297.921 7        44.634 7  24550950.515 6         0.000 6     -2569.810 6        37.977 6
G24  20892168.669 9 109789069.771 9      -622.798 9        57.094 9  20892170.295 6         0.000 6      -485.297 6        37.977 6
G32  23531337.272 8 123657979.338 8      2898.945 8        48.773 8  23531339.372 6         0.000 6      2258.920 6        37.977 6
G02  24218799.173 7 127270611.551 7      1359.683 7        46.877 7  24218797.484 6         0.000 6      1059.494 6        37.977 6
G25  21493859.510 9 112950973.728 9      1079.138 9        55.250 9  21493861.937 6         0.000 6       840.887 6        37.977 6
> 2019 07 03 18 00 37.0000000  0 11       0.000000000000
G06  24989828.475 7 131322389.296 7       502.086 7        43.460 7  24989832.101 6         0.000 6       391.236 6        37.977 6
G10  24500054.459 7 128748613.351 7     -1463.511 7        44.937 7  24500057.395 6         0.000 6     -1140.399 6        37.977 6
G12  20552769.138 9 108005513.244 9     -1074.138 9        57.199 9  20552767.870 6         0.000 6      -836.991 6        37.977 6
G15  23144194.439 8 121623534.931 8     -3331.493 8        50.956 8  23144193.979 6         0.000 6     -2595.969 6        37.977 6
G20  24838983.500 7 130529693.268 7     -1965.179 7        43.474 7  24838984.617 6         0.000 6     -1531.309 6        37.977 6
G29  22791906.940 8 119772251.259 8      3477.279 8        50.800 8  22791906.773 6         0.000 6      2709.569 6        37.977 6
G19  24551578.465 7 129019372.876 7     -3298.224 7        44.634 7  24551578.118 6         0.000 6     -2570.046 6        37.977 6
G24  20892287.214 9 109789692.726 9      -623.111 9        57.094 9  20892288.839 6         0.000 6      -485.541 6        37.977 6
G32  23530785.654 8 123655080.568 8      2898.601 8        48.773 8  23530787.753 6         0.000 6      2258.651 6        37.977 6
G02  24218540.457 7 127269251.992 7      1359.441 7        46.877 7  24218538.768 6         0.000 6      1059.306 6        37.977 6
G25  21493654.188 9 112949894.753 9      1078.815 9        55.250 9  21493656.614 6         0.000 6       840.635 6        37.977 6
> 2019 07 03 18 00 38.0000000  0 11       0.000000000000
G06  24989732.975 7 131321887.441 7       501.627 7        43.460 7  24989736.601 6         0.000 6       390.879 6        37.977 6
G10  24500332.984 7 128750077.004 7     -1463.801 7        44.936 7  24500335.919 6         0.000 6     -1140.625 6        37.977 6
G12  20552973.566 9 108006587.520 9     -1074.415 9        57.199 9  20552972.298 6         0.000 6      -837.207 6        37.977 6
G15  23144828.416 8 121626866.500 8     -3331.653 8        50.956 8  23144827.956 6         0.000 6     -2596.094 6        37.977 6
G20  24839357.460 7 130531658.438 7     -1965.170 7        43.474 7  24839358.577 6         0.000 6     -1531.302 6        37.977 6
G29  22791245.258 8 119768774.100 8      3477.047 8        50.800 8  22791245.091 6         0.000 6      2709.389 6        37.977 6
G19  24552206.125 7 129022671.246 7     -3298.527 7        44.633 7  24552205.778 6         0.000 6     -2570.282 6        37.977 6
G24  20892405.818 9 109790315.993 9      -623.425 9        57.094 9  20892407.443 6         0.000 6      -485.786 6        37.977 6
G32  23530234.101 8 123652182.143 8      2898.257 8        48.773 8  23530236.200 6         0.000 6      2258.383 6        37.977 6
G02  24218281.787 7 127267892.674 7      1359.200 7        46.877 7  24218280.097 6         0.000 6      1059.118 6        37.977 6
G25  21493448.927 9 112948816.100 9      1078.492 9        55.250 9  21493451.353 6         0.000 6       840.384 6        37.977 6
> 2019 07 03 18 00 39.0000000  0 11       0.000000000000
G06  24989637.562 7 131321386.044 7       501.168 7        43.460 7  24989641.188 6         0.000 6       390.521 6        37.977 6
G10  24500611.563 7 128751540.947 7     -1464.091 7        44.936 7  24500614.499 6         0.000 6     -1140.851 6        37.977 6
G12  20553178.047 9 108007662.074 9     -1074.692 9        57.198 9  20553176.779 6         0.000 6      -837.423 6        37.977 6
G15  23145462.424 8 121630198.229 8     -3331.814 8        50.956 8  23145461.964 6         0.000 6     -2596.219 6        37.977 6
G20  24839731.418 7 130533623.600 7     -1965.160 7        43.474 7  24839732.536 6         0.000 6     -1531.294 6        37.977 6
G29  22790583.620 8 119765297.173 8      3476.816 8        50.801 8  22790583.453 6         0.000 6      2709.208 6        37.977 6
G19  24552833.843 7 129025969.918 7     -3298.829 7        44.633 7  24552833.496 6         0.000 6     -2570.518 6        37.977 6
G24  20892524.481 9 109790939.575 9      -623.739 9        57.094 9  20892526.107 6         0.000 6      -486.031 6        37.977 6
G32  23529682.614 8 123649284.063 8      2897.912 8        48.773 8  23529684.713 6         0.000 6      2258.115 6        37.977 6
G02  24218023.163 7 127266533.597 7      1358.958 7        46.877 7  24218021.473 6         0.000 6      1058.929 6        37.977 6
G25  21493243.727 9 112947737.770 9      1078.169 9        55.250 9  21493246.154 6         0.000 6       840.132 6        37.977 6
> 2019 07 03 18 00 40.0000000  0 11       0.000000000000
G06  24989542.237 7 131320885.106 7       500.709 7        43.460 7  24989545.862 6         0.000 6       390.163 6        37.977 6
G10  24500890.198 7 128753005.180 7     -1464.380 7        44.936 7  24500893.134 6         0.000 6     -1141.076 6        37.977 6
G12  20553382.580 9 108008736.904 9     -1074.969 9        57.198 9  20553381.312 6         0.000 6      -837.639 6        37.977 6
G15  23146096.462 8 121633530.118 8     -3331.974 8        50.956 8  23146096.003 6         0.000 6     -2596.344 6        37.977 6
G20  24840105.375 7 130535588.752 7     -1965.151 7        43.474 7  24840106.493 6         0.000 6     -1531.287 6        37.977 6
G29  22789922.026 8 119761820.477 8      3476.584 8        50.801 8  22789921.858 6         0.000 6      2709.028 6        37.977 6
G19  24553461.618 7 129029268.893 7     -3299.132 7        44.633 7  24553461.271 6         0.000 6     -2570.753 6        37.977 6
G24  20892643.205 9 109791563.471 9      -624.053 9        57.094 9  20892644.830 6         0.000 6      -486.275 6        37.977 6
G32  23529131.192 8 123646386.326 8      2897.568 8        48.774 8  23529133.291 6         0.000 6      2257.846 6        37.977 6
G02  24217764.585 7 127265174.763 7      1358.717 7        46.878 7  24217762.895 6         0.000 6      1058.741 6        37.977 6
G25  21493038.589 9 112946659.763 9      1077.846 9        55.250 9  21493041.016 6         0.000 6       839.881 6        37.977 6
> 2019 07 03 18 00 41.0000000  0 11       0.000000000000
G06  24989446.999 7 131320384.627 7       500.250 7        43.460 7  24989450.624 6         0.000 6       389.806 6        37.977 6
G10  24501168.888 7 128754469.703 7     -1464.670 7        44.936 7  24501171.824 6         0.000 6     -1141.302 6        37.977 6
G12  20553587.166 9 108009812.011 9     -1075.246 9        57.198 9  20553585.899 6         0.000 6      -837.854 6        37.977 6
G15  23146730.531 8 121636862.168 8     -3332.134 8        50.955 8  23146730.072 6         0.000 6     -2596.469 6        37.977 6
G20  24840479.330 7 130537553.894 7     -1965.141 7        43.474 7  24840480.448 6         0.000 6     -1531.280 6        37.977 6
G29  22789260.476 8 119758344.013 8      3476.353 8        50.801 8  22789260.308 6         0.000 6      2708.847 6        37.977 6
G19  24554089.451 7 129032568.170 7     -3299.434 7        44.633 7  24554089.104 6         0.000 6     -2570.989 6        37.977 6
G24  20892761.988 9 109792187.681 9      -624.367 9        57.094 9  20892763.613 6         0.000 6      -486.520 6        37.977 6
G32  23528579.836 8 123643488.935 8      2897.223 8        48.774 8  23528581.935 6         0.000 6      2257.578 6        37.977 6
G02  24217506.053 7 127263816.169 7      1358.475 7        46.878 7  24217504.362 6         0.000 6      1058.553 6        37.977 6
G25  21492833.512 9 112945582.079 9      1077.524 9        55.250 9  21492835.939 6         0.000 6       839.629 6        37.977 6
> 2019 07 03 18 00 42.0000000  0 11       0.000000000000
G06  24989351.848 7 131319884.607 7       499.791 7        43.460 7  24989355.473 6         0.000 6       389.448 6        37.977 6
G10  24501447.633 7 128755934.515 7     -1464.960 7        44.936 7  24501450.569 6         0.000 6     -1141.528 6        37.977 6
G12  20553791.805 9 108010887.394 9     -1075.523 9        57.198 9  20553790.537 6         0.000 6      -838.070 6        37.977 6
G15  23147364.630 8 121640194.379 8     -3332.294 8        50.955 8  23147364.172 6         0.000 6     -2596.594 6        37.977 6
G20  24840853.283 7 130539519.027 7     -1965.131 7        43.474 7  24840854.401 6         0.000 6     -1531.272 6        37.977 6
G29  22788598.970 8 119754867.780 8      3476.121 8        50.801 8  22788598.802 6         0.000 6      2708.667 6        37.977 6
G19  24554717.341 7 129035867.750 7     -3299.736 7        44.632 7  24554716.995 6         0.000 6     -2571.225 6        37.977 6
G24  20892880.831 9 109792812.204 9      -624.681 9        57.094 9  20892882.456 6         0.000 6      -486.764 6        37.977 6
G32  23528028.545 8 123640591.888 8      2896.879 8        48.774 8  23528030.644 6         0.000 6      2257.309 6        37.977 6
G02  24217247.566 7 127262457.818 7      1358.233 7        46.878 7  24217245.876 6         0.000 6      1058.364 6        37.977 6
G25  21492628.497 9 112944504.718 9      1077.201 9        55.250 9  21492630.924 6         0.000 6       839.377 6        37.977 6
> 2019 07 03 18 00 43.0000000  0 11       0.000000000000
G06  24989256.784 7 131319385.047 7       499.332 7        43.460 7  24989260.410 6         0.000 6       389.090 6        37.977 6
G10  24501726.433 7 128757399.617 7     -1465.249 7        44.936 7  24501729.369 6         0.000 6     -1141.753 6        37.977 6
G12  20553996.497 9 108011963.055 9     -1075.800 9        57.198 9  20553995.229 6         0.000 6      -838.286 6        37.977 6
G15  23147998.760 8 121643526.749 8     -3332.454 8        50.955 8  23147998.302 6         0.000 6     -2596.719 6        37.977 6
G20  24841227.234 7 130541484.150 7     -1965.122 7        43.474 7  24841228.352 6         0.000 6     -1531.264 6        37.977 6
G29  22787937.508 8 119751391.780 8      3475.889 8        50.802 8  22787937.340 6         0.000 6      2708.486 6        37.977 6
G19  24555345.289 7 129039167.632 7     -3300.039 7        44.632 7  24555344.943 6         0.000 6     -2571.460 6        37.977 6
G24  20892999.734 9 109793437.041 9      -624.995 9        57.094 9  20893001.359 6         0.000 6      -487.009 6        37.977 6
G32  23527477.321 8 123637695.186 8      2896.534 8        48.774 8  23527479.419 6         0.000 6      2257.040 6        37.977 6
G02  24216989.126 7 127261099.708 7      1357.991 7        46.878 7  24216987.436 6         0.000 6      1058.176 6        37.977 6
G25  21492423.543 9 112943427.680 9      1076.878 9        55.250 9  21492425.970 6         0.000 6       839.126 6        37.977 6
> 2019 07 03 18 00 44.0000000  0 11       0.000000000000
G06  24989161.808 7 131318885.945 7       498.873 7        43.460 7  24989165.434 6         0.000 6       388.732 6        37.977 6
G10  24502005.288 7 128758865.008 7     -1465.539 7        44.936 7  24502008.225 6         0.000 6     -1141.979 6        37.977 6
G12  20554201.241 9 108013038.992 9     -1076.076 9        57.198 9  20554199.973 6         0.000 6      -838.501 6        37.977 6
G15  23148632.920 8 121646859.279 8     -3332.614 8        50.955 8  23148632.462 6         0.000 6     -2596.843 6        37.977 6
G20  24841601.183 7 130543449.263 7     -1965.112 7        43.474 7  24841602.302 6         0.000 6     -1531.257 6        37.977 6
G29  22787276.090 8 119747916.011 8      3475.657 8        50.802 8  22787275.922 6         0.000 6      2708.305 6        37.977 6
G19  24555973.294 7 129042467.815 7     -3300.341 7        44.632 7  24555972.948 6         0.000 6     -2571.695 6        37.977 6
G24  20893118.696 9 109794062.193 9      -625.309 9        57.094 9  20893120.322 6         0.000 6      -487.254 6        37.977 6
G32  23526926.161 8 123634798.828 8      2896.189 8        48.774 8  23526928.259 6         0.000 6      2256.772 6        37.977 6
G02  24216730.732 7 127259741.841 7      1357.749 7        46.878 7  24216729.041 6         0.000 6      1057.987 6        37.977 6
G25  21492218.651 9 112942350.964 9      1076.555 9        55.250 9  21492221.078 6         0.000 6       838.874 6        37.977 6
> 2019 07 03 18 00 45.0000000  0 11       0.000000000000
G06  24989066.920 7 131318387.303 7       498.413 7        43.460 7  24989070.545 6         0.000 6       388.374 6        37.977 6
G10  24502284.199 7 128760330.689 7     -1465.828 7        44.936 7  24502287.135 6         0.000 6     -1142.204 6        37.977 6
G12  20554406.038 9 108014115.206 9     -1076.353 9        57.198 9  20554404.770 6         0.000 6      -838.717 6        37.977 6
G15  23149267.111 8 121650191.970 8     -3332.774 8        50.954 8  23149266.653 6         0.000 6     -2596.968 6        37.977 6
G20  24841975.130 7 130545414.366 7     -1965.102 7        43.473 7  24841976.249 6         0.000 6     -1531.249 6        37.977 6
G29  22786614.717 8 119744440.474 8      3475.425 8        50.802 8  22786614.548 6         0.000 6      2708.125 6        37.977 6
G19  24556601.356 7 129045768.301 7     -3300.642 7        44.632 7  24556601.011 6         0.000 6     -2571.931 6        37.977 6
G24  20893237.718 9 109794687.658 9      -625.623 9        57.093 9  20893239.344 6         0.000 6      -487.498 6        37.977 6
G32  23526375.068 8 123631902.816 8      2895.844 8        48.775 8  23526377.166 6         0.000 6      2256.503 6        37.977 6
G02  24216472.384 7 127258384.215 7      1357.507 7        46.878 7  24216470.693 6         0.000 6      1057.798 6        37.977 6
G25  21492013.820 9 112941274.571 9      1076.232 9        55.250 9  21492016.247 6         0.000 6       838.623 6        37.977 6
> 2019 07 03 18 00 46.0000000  0 11       0.000000000000
G06  24988972.119 7 131317889.121 7       497.954 7        43.460 7  24988975.744 6         0.000 6       388.016 6        37.977 6
G10  24502563.164 7 128761796.659 7     -1466.117 7        44.936 7  24502566.100 6         0.000 6     -1142.429 6        37.977 6
G12  20554610.887 9 108015191.696 9     -1076.629 9        57.198 9  20554609.620 6         0.000 6      -838.932 6        37.977 6
G15  23149901.332 8 121653524.820 8     -3332.934 8        50.954 8  23149900.874 6         0.000 6     -2597.093 6        37.977 6
G20  24842349.076 7 130547379.460 7     -1965.092 7        43.473 7  24842350.195 6         0.000 6     -1531.241 6        37.977 6
G29  22785953.387 8 119740965.169 8      3475.193 8        50.802 8  22785953.219 6         0.000 6      2707.944 6        37.977 6
G19  24557229.477 7 129049069.089 7     -3300.944 7        44.632 7  24557229.132 6         0.000 6     -2572.166 6        37.977 6
G24  20893356.800 9 109795313.438 9      -625.937 9        57.093 9  20893358.426 6         0.000 6      -487.743 6        37.977 6
G32  23525824.040 8 123629007.149 8      2895.499 8        48.775 8  23525826.137 6         0.000 6      2256.234 6        37.977 6
G02  24216214.082 7 127257026.832 7      1357.265 7        46.878 7  24216212.391 6         0.000 6      1057.610 6        37.977 6
G25  21491809.051 9 112940198.501 9      1075.910 9        55.250 9  21491811.477 6         0.000 6       838.372 6        37.977 6
> 2019 07 03 18 00 47.0000000  0 11       0.000000000000
G06  24988877.405 7 131317391.397 7       497.495 7        43.460 7  24988881.030 6         0.000 6       387.658 6        37.977 6
G10  24502842.184 7 128763262.918 7     -1466.406 7        44.936 7  24502845.121 6         0.000 6     -1142.655 6        37.977 6
G12  20554815.789 9 108016268.463 9     -1076.906 9        57.198 9  20554814.522 6         0.000 6      -839.148 6        37.977 6
G15  23150535.584 8 121656857.830 8     -3333.094 8        50.954 8  23150535.126 6         0.000 6     -2597.217 6        37.977 6
G20  24842723.019 7 130549344.543 7     -1965.081 7        43.473 7  24842724.139 6         0.000 6     -1531.233 6        37.977 6
G29  22785292.102 8 119737490.097 8      3474.961 8        50.803 8  22785291.933 6         0.000 6      2707.763 6        37.977 6
G19  24557857.654 7 129052370.179 7     -3301.246 7        44.631 7  24557857.310 6         0.000 6     -2572.401 6        37.977 6
G24  20893475.942 9 109795939.532 9      -626.251 9        57.093 9  20893477.567 6         0.000 6      -487.988 6        37.977 6
G32  23525273.078 8 123626111.826 8      2895.154 8        48.775 8  23525275.175 6         0.000 6      2255.965 6        37.977 6
G02  24215955.826 7 127255669.691 7      1357.023 7        46.878 7  24215954.135 6         0.000 6      1057.421 6        37.977 6
G25  21491604.343 9 112939122.754 9      1075.587 9        55.251 9  21491606.769 6         0.000 6       838.120 6        37.977 6
> 2019 07 03 18 00 48.0000000  0 11       0.000000000000
G06  24988782.778 7 131316894.133 7       497.035 7        43.460 7  24988786.403 6         0.000 6       387.300 6        37.977 6
G10  24503121.259 7 128764729.466 7     -1466.695 7        44.935 7  24503124.196 6         0.000 6     -1142.880 6        37.977 6
G12  20555020.744 9 108017345.506 9     -1077.182 9        57.198 9  20555019.476 6         0.000 6      -839.363 6        37.977 6
G15  23151169.865 8 121660190.999 8     -3333.253 8        50.954 8  23151169.408 6         0.000 6     -2597.341 6        37.977 6
G20  24843096.961 7 130551309.615 7     -1965.071 7        43.473 7  24843098.080 6         0.000 6     -1531.225 6        37.977 6
G29  22784630.861 8 119734015.256 8      3474.728 8        50.803 8  22784630.692 6         0.000 6      2707.582 6        37.977 6
G19  24558485.889 7 129055671.570 7     -3301.548 7        44.631 7  24558485.545 6         0.000 6     -2572.636 6        37.977 6
G24  20893595.143 9 109796565.939 9      -626.565 9        57.093 9  20893596.769 6         0.000 6      -488.233 6        37.977 6
G32  23524722.181 8 123623216.849 8      2894.808 8        48.775 8  23524724.278 6         0.000 6      2255.696 6        37.977 6
G02  24215697.617 7 127254312.792 7      1356.780 7        46.878 7  24215695.925 6         0.000 6      1057.232 6        37.977 6
G25  21491399.696 9 112938047.329 9      1075.264 9        55.251 9  21491402.122 6         0.000 6       837.869 6        37.977 6
> 2019 07 03 18 00 49.0000000  0 11       0.000000000000
G06  24988688.240 7 131316397.329 7       496.576 7        43.460 7  24988691.864 6         0.000 6       386.942 6        37.977 6
G10  24503400.390 7 128766196.302 7     -1466.984 7        44.935 7  24503403.327 6         0.000 6     -1143.105 6        37.977 6
G12  20555225.751 9 108018422.826 9     -1077.458 9        57.198 9  20555224.484 6         0.000 6      -839.578 6        37.977 6
G15  23151804.178 8 121663524.328 8     -3333.413 8        50.953 8  23151803.721 6         0.000 6     -2597.466 6        37.977 6
G20  24843470.901 7 130553274.678 7     -1965.061 7        43.473 7  24843472.020 6         0.000 6     -1531.217 6        37.977 6
G29  22783969.665 8 119730540.649 8      3474.496 8        50.803 8  22783969.495 6         0.000 6      2707.401 6        37.977 6
G19  24559114.181 7 129058973.262 7     -3301.849 7        44.631 7  24559113.838 6         0.000 6     -2572.871 6        37.977 6
G24  20893714.405 9 109797192.661 9      -626.879 9        57.093 9  20893716.030 6         0.000 6      -488.477 6        37.977 6
G32  23524171.350 8 123620322.218 8      2894.463 8        48.775 8  23524173.447 6         0.000 6      2255.427 6        37.977 6
G02  24215439.453 7 127252956.136 7      1356.538 7        46.878 7  24215437.761 6         0.000 6      1057.043 6        37.977 6
G25  21491195.110 9 112936972.227 9      1074.942 9        55.251 9  21491197.537 6         0.000 6       837.617 6        37.977 6
> 2019 07 03 18 00 50.0000000  0 11       0.000000000000
G06  24988593.788 7 131315900.984 7       496.116 7        43.460 7  24988597.413 6         0.000 6       386.584 6        37.977 6
G10  24503679.575 7 128767663.428 7     -1467.273 7        44.935 7  24503682.512 6         0.000 6     -1143.330 6        37.977 6
G12  20555430.811 9 108019500.422 9     -1077.735 9        57.197 9  20555429.544 6         0.000 6      -839.793 6        37.977 6
G15  23152438.520 8 121666857.817 8     -3333.572 8        50.953 8  23152438.063 6         0.000 6     -2597.590 6        37.977 6
G20  24843844.838 7 130555239.730 7     -1965.050 7        43.473 7  24843845.958 6         0.000 6     -1531.209 6        37.977 6
G29  22783308.512 8 119727066.273 8      3474.263 8        50.803 8  22783308.342 6         0.000 6      2707.219 6        37.977 6
G19  24559742.531 7 129062275.257 7     -3302.150 7        44.631 7  24559742.188 6         0.000 6     -2573.106 6        37.977 6
G24  20893833.726 9 109797819.697 9      -627.194 9        57.093 9  20893835.351 6         0.000 6      -488.722 6        37.977 6
G32  23523620.585 8 123617427.932 8      2894.117 8        48.776 8  23523622.682 6         0.000 6      2255.157 6        37.977 6
G02  24215181.335 7 127251599.722 7      1356.295 7        46.878 7  24215179.644 6         0.000 6      1056.854 6        37.977 6
G25  21490990.587 9 112935897.447 9      1074.619 9        55.251 9  21490993.013 6         0.000 6       837.366 6        37.977 6
> 2019 07 03 18 00 51.0000000  0 11       0.000000000000
G06  24988499.424 7 131315405.099 7       495.656 7        43.460 7  24988503.049 6         0.000 6       386.226 6        37.977 6
G10  24503958.815 7 128769130.842 7     -1467.561 7        44.935 7  24503961.752 6         0.000 6     -1143.555 6        37.977 6
G12  20555635.923 9 108020578.294 9     -1078.011 9        57.197 9  20555634.656 6         0.000 6      -840.009 6        37.977 6
G15  23153072.893 8 121670191.465 8     -3333.732 8        50.953 8  23153072.437 6         0.000 6     -2597.714 6        37.977 6
G20  24844218.774 7 130557204.771 7     -1965.040 7        43.473 7  24844219.894 6         0.000 6     -1531.201 6        37.977 6
G29  22782647.404 8 119723592.131 8      3474.031 8        50.804 8  22782647.234 6         0.000 6      2707.038 6        37.977 6
G19  24560370.938 7 129065577.552 7     -3302.452 7        44.630 7  24560370.595 6         0.000 6     -2573.340 6        37.977 6
G24  20893953.107 9 109798447.048 9      -627.508 9        57.093 9  20893954.732 6         0.000 6      -488.967 6        37.977 6
G32  23523069.886 8 123614533.991 8      2893.772 8        48.776 8  23523071.982 6         0.000 6      2254.888 6        37.977 6
G02  24214923.264 7 127250243.551 7      1356.053 7        46.879 7  24214921.572 6         0.000 6      1056.665 6        37.977 6
G25  21490786.124 9 112934822.990 9      1074.297 9        55.251 9  21490788.550 6         0.000 6       837.115 6        37.977 6
> 2019 07 03 18 00 52.0000000  0 11       0.000000000000
G06  24988405.148 7 131314909.673 7       495.197 7        43.460 7  24988408.772 6         0.000 6       385.868 6        37.977 6
G10  24504238.110 7 128770598.545 7     -1467.850 7        44.935 7  24504241.048 6         0.000 6     -1143.780 6        37.977 6
G12  20555841.088 9 108021656.442 9     -1078.287 9        57.197 9  20555839.821 6         0.000 6      -840.224 6        37.977 6
G15  23153707.296 8 121673525.272 8     -3333.891 8        50.953 8  23153706.840 6         0.000 6     -2597.838 6        37.977 6
G20  24844592.707 7 130559169.802 7     -1965.029 7        43.472 7  24844593.828 6         0.000 6     -1531.192 6        37.977 6
G29  22781986.340 8 119720118.220 8      3473.798 8        50.804 8  22781986.169 6         0.000 6      2706.857 6        37.977 6
G19  24560999.402 7 129068880.149 7     -3302.753 7        44.630 7  24560999.060 6         0.000 6     -2573.575 6        37.977 6
G24  20894072.547 9 109799074.712 9      -627.822 9        57.093 9  20894074.173 6         0.000 6      -489.212 6        37.977 6
G32  23522519.252 8 123611640.396 8      2893.426 8        48.776 8  23522521.348 6         0.000 6      2254.619 6        37.977 6
G02  24214665.239 7 127248887.622 7      1355.810 7        46.879 7  24214663.547 6         0.000 6      1056.476 6        37.977 6
G25  21490581.723 9 112933748.855 9      1073.974 9        55.251 9  21490584.149 6         0.000 6       836.863 6        37.977 6
> 2019 07 03 18 00 53.0000000  0 11       0.000000000000
G06  24988310.958 7 131314414.708 7       494.737 7        43.460 7  24988314.583 6         0.000 6       385.509 6        37.977 6
G10  24504517.460 7 128772066.537 7     -1468.138 7        44.935 7  24504520.398 6         0.000 6     -1144.005 6        37.977 6
G12  20556046.306 9 108022734.866 9     -1078.563 9        57.197 9  20556045.038 6         0.000 6      -840.439 6        37.977 6
G15  23154341.730 8 121676859.239 8     -3334.050 8        50.952 8  23154341.274 6         0.000 6     -2597.962 6        37.977 6
G20  24844966.639 7 130561134.822 7     -1965.018 7        43.472 7  24844967.759 6         0.000 6     -1531.184 6        37.977 6
G29  22781325.320 8 119716644.543 8      3473.565 8        50.804 8  22781325.150 6         0.000 6      2706.675 6        37.977 6
G19  24561627.924 7 129072183.047 7     -3303.054 7        44.630 7  24561627.582 6         0.000 6     -2573.810 6        37.977 6
G24  20894192.048 9 109799702.691 9      -628.136 9        57.093 9  20894193.673 6         0.000 6      -489.457 6        37.977 6
G32  23521968.684 8 123608747.147 8      2893.080 8        48.776 8  23521970.780 6         0.000 6      2254.349 6        37.977 6
G02  24214407.260 7 127247531.937 7      1355.567 7        46.879 7  24214405.568 6         0.000 6      1056.287 6        37.977 6
G25  21490377.383 9 112932675.043 9      1073.652 9        55.251 9  21490379.809 6         0.000 6       836.612 6        37.977 6
> 2019 07 03 18 00 54.0000000  0 11       0.000000000000
G06  24988216.857 7 131313920.202 7       494.277 7        43.460 7  24988220.481 6         0.000 6       385.151 6        37.977 6
G10  24504796.865 7 128773534.817 7     -1468.427 7        44.935 7  24504799.803 6         0.000 6     -1144.229 6        37.977 6
G12  20556251.576 9 108023813.567 9     -1078.839 9        57.197 9  20556250.309 6         0.000 6      -840.654 6        37.977 6
G15  23154976.194 8 121680193.364 8     -3334.209 8        50.952 8  23154975.738 6         0.000 6     -2598.086 6        37.977 6
G20  24845340.568 7 130563099.831 7     -1965.007 7        43.472 7  24845341.689 6         0.000 6     -1531.175 6        37.977 6
G29  22780664.345 8 119713171.099 8      3473.332 8        50.804 8  22780664.174 6         0.000 6      2706.494 6        37.977 6
G19  24562256.503 7 129075486.245 7     -3303.355 7        44.630 7  24562256.161 6         0.000 6     -2574.044 6        37.977 6
G24  20894311.608 9 109800330.984 9      -628.451 9        57.093 9  20894313.234 6         0.000 6      -489.702 6        37.977 6
G32  23521418.182 8 123605854.243 8      2892.734 8        48.776 8  23521420.278 6         0.000 6      2254.080 6        37.977 6
G02  24214149.327 7 127246176.494 7      1355.324 7        46.879 7  24214147.635 6         0.000 6      1056.097 6        37.977 6
G25  21490173.105 9 112931601.554 9      1073.329 9        55.251 9  21490175.530 6         0.000 6       836.361 6        37.977 6
> 2019 07 03 18 00 55.0000000  0 11       0.000000000000
G06  24988122.843 7 131313426.156 7       493.817 7        43.460 7  24988126.467 6         0.000 6       384.793 6        37.977 6
G10  24505076.325 7 128775003.385 7     -1468.715 7        44.935 7  24505079.263 6         0.000 6     -1144.454 6        37.977 6
G12  20556456.898 9 108024892.543 9     -1079.115 9        57.197 9  20556455.631 6         0.000 6      -840.869 6        37.977 6
G15  23155610.688 8 121683527.649 8     -3334.368 8        50.952 8  23155610.232 6         0.000 6     -2598.210 6        37.977 6
G20  24845714.496 7 130565064.829 7     -1964.996 7        43.472 7  24845715.617 6         0.000 6     -1531.167 6        37.977 6
G29  22780003.414 8 119709697.888 8      3473.099 8        50.805 8  22780003.243 6         0.000 6      2706.312 6        37.977 6
G19  24562885.139 7 129078789.745 7     -3303.656 7        44.630 7  24562884.798 6         0.000 6     -2574.279 6        37.977 6
G24  20894431.228 9 109800959.591 9      -628.765 9        57.093 9  20894432.854 6         0.000 6      -489.947 6        37.977 6
G32  23520867.746 8 123602961.686 8      2892.389 8        48.777 8  23520869.842 6         0.000 6      2253.810 6        37.977 6
G02  24213891.441 7 127244821.294 7      1355.081 7        46.879 7  24213889.748 6         0.000 6      1055.908 6        37.977 6
G25  21489968.887 9 112930528.387 9      1073.007 9        55.251 9  21489971.313 6         0.000 6       836.109 6        37.977 6
> 2019 07 03 18 00 56.0000000  0 11       0.000000000000
G06  24988028.916 7 131312932.569 7       493.357 7        43.460 7  24988032.541 6         0.000 6       384.434 6        37.977 6
G10  24505355.839 7 128776472.241 7     -1469.003 7        44.935 7  24505358.778 6         0.000 6     -1144.678 6        37.977 6
G12  20556662.273 9 108025971.795 9     -1079.391 9        57.197 9  20556661.006 6         0.000 6      -841.084 6        37.977 6
G15  23156245.212 8 121686862.092 8     -3334.527 8        50.952 8  23156244.757 6         0.000 6     -2598.334 6        37.977 6
G20  24846088.421 7 130567029.817 7     -1964.985 7        43.472 7  24846089.542 6         0.000 6     -1531.158 6        37.977 6
G29  22779342.528 8 119706224.910 8      3472.866 8        50.805 8  22779342.356 6         0.000 6      2706.130 6        37.977 6
G19  24563513.832 7 129082093.546 7     -3303.957 7        44.629 7  24563513.491 6         0.000 6     -2574.513 6        37.977 6
G24  20894550.908 9 109801588.513 9      -629.079 9        57.093 9  20894552.534 6         0.000 6      -490.192 6        37.977 6
G32  23520317.376 8 123600069.474 8      2892.042 8        48.777 8  23520319.471 6         0.000 6      2253.541 6        37.977 6
G02  24213633.601 7 127243466.337 7      1354.838 7        46.879 7  24213631.908 6         0.000 6      1055.719 6        37.977 6
G25  21489764.732 9 112929455.542 9      1072.684 9        55.251 9  21489767.157 6         0.000 6       835.858 6        37.977 6
> 2019 07 03 18 00 57.0000000  0 11       0.000000000000
G06  24987935.077 7 131312439.443 7       492.897 7        43.460 7  24987938.702 6         0.000 6       384.076 6        37.977 6
G10  24505635.409 7 128777941.386 7     -1469.291 7        44.935 7  24505638.347 6         0.000 6     -1144.903 6        37.977 6
G12  20556867.701 9 108027051.323 9     -1079.667 9        57.197 9  20556866.434 6         0.000 6      -841.299 6        37.977 6
G15  23156879.766 8 121690196.695 8     -3334.686 8        50.952 8  23156879.311 6         0.000 6     -2598.457 6        37.977 6
G20  24846462.344 7 130568994.793 7     -1964.974 7        43.472 7  24846463.465 6         0.000 6     -1531.149 6        37.977 6
G29  22778681.685 8 119702752.165 8      3472.633 8        50.805 8  22778681.513 6         0.000 6      2705.949 6        37.977 6
G19  24564142.583 7 129085397.647 7     -3304.257 7        44.629 7  24564142.242 6         0.000 6     -2574.747 6        37.977 6
G24  20894670.648 9 109802217.749 9      -629.394 9        57.093 9  20894672.273 6         0.000 6      -490.437 6        37.977 6
G32  23519767.072 8 123597177.609 8      2891.696 8        48.777 8  23519769.166 6         0.000 6      2253.271 6        37.977 6
G02  24213375.807 7 127242111.623 7      1354.595 7        46.879 7  24213374.114 6         0.000 6      1055.529 6        37.977 6
G25  21489560.637 9 112928383.020 9      1072.362 9        55.251 9  21489563.063 6         0.000 6       835.607 6        37.977 6
> 2019 07 03 18 00 58.0000000  0 11       0.000000000000
G06  24987841.326 7 131311946.777 7       492.437 7        43.460 7  24987844.950 6         0.000 6       383.717 6        37.977 6
G10  24505915.033 7 128779410.819 7     -1469.579 7        44.935 7  24505917.971 6         0.000 6     -1145.127 6        37.977 6
G12  20557073.181 9 108028131.127 9     -1079.942 9        57.197 9  20557071.914 6         0.000 6      -841.514 6        37.977 6
G15  23157514.351 8 121693531.456 8     -3334.844 8        50.951 8  23157513.896 6         0.000 6     -2598.581 6        37.977 6
G20  24846836.265 7 130570959.757 7     -1964.962 7        43.472 7  24846837.387 6         0.000 6     -1531.140 6        37.977 6
G29  22778020.888 8 119699279.653 8      3472.399 8        50.805 8  22778020.715 6         0.000 6      2705.767 6        37.977 6
G19  24564771.391 7 129088702.049 7     -3304.558 7        44.629 7  24564771.050 6         0.000 6     -2574.981 6        37.977 6
G24  20894790.447 9 109802847.300 9      -629.708 9        57.093 9  20894792.073 6         0.000 6      -490.682 6        37.977 6
G32  23519216.833 8 123594286.090 8      2891.350 8        48.777 8  23519218.928 6         0.000 6      2253.001 6        37.977 6
G02  24213118.059 7 127240757.153 7      1354.351 7        46.879 7  24213116.366 6         0.000 6      1055.340 6        37.977 6
G25  21489356.604 9 112927310.820 9      1072.040 9        55.252 9  21489359.030 6         0.000 6       835.356 6        37.977 6
> 2019 07 03 18 00 59.0000000  0 11       0.000000000000
G06  24987747.662 7 131311454.571 7       491.977 7        43.461 7  24987751.286 6         0.000 6       383.359 6        37.977 6
G10  24506194.712 7 128780880.539 7     -1469.867 7        44.934 7  24506197.651 6         0.000 6     -1145.352 6        37.977 6
G12  20557278.713 9 108029211.207 9     -1080.218 9        57.197 9  20557277.446 6         0.000 6      -841.729 6        37.977 6
G15  23158148.966 8 121696866.376 8     -3335.003 8        50.951 8  23158148.511 6         0.000 6     -2598.705 6        37.977 6
G20  24847210.184 7 130572924.711 7     -1964.951 7        43.472 7  24847211.306 6         0.000 6     -1531.132 6        37.977 6
G29  22777360.134 8 119695807.375 8      3472.166 8        50.806 8  22777359.962 6         0.000 6      2705.585 6        37.977 6
G19  24565400.256 7 129092006.751 7     -3304.858 7        44.629 7  24565399.916 6         0.000 6     -2575.216 6        37.977 6
G24  20894910.307 9 109803477.165 9      -630.023 9        57.093 9  20894911.932 6         0.000 6      -490.927 6        37.977 6
G32  23518666.660 8 123591394.917 8      2891.004 8        48.777 8  23518668.755 6         0.000 6      2252.731 6        37.977 6
G02  24212860.358 7 127239402.926 7      1354.108 7        46.879 7  24212858.664 6         0.000 6      1055.150 6        37.977 6
G25  21489152.633 9 112926238.942 9      1071.717 9        55.252 9  21489155.058 6         0.000 6       835.105 6        37.977 6
> 2019 07 03 18 01  0.0000000  0 11       0.000000000000
G06  24987654.086 7 131310962.825 7       491.517 7        43.461 7  24987657.710 6         0.000 6       383.000 6        37.977 6
G10  24506474.446 7 128782350.547 7     -1470.155 7        44.934 7  24506477.385 6         0.000 6     -1145.576 6        37.977 6
G12  20557484.298 9 108030291.562 9     -1080.494 9        57.197 9  20557483.031 6         0.000 6      -841.943 6        37.977 6
G15  23158783.611 8 121700201.454 8     -3335.162 8        50.951 8  23158783.157 6         0.000 6     -2598.828 6        37.977 6
G20  24847584.101 7 130574889.652 7     -1964.940 7        43.471 7  24847585.223 6         0.000 6     -1531.123 6        37.977 6
G29  22776699.425 8 119692335.330 8      3471.932 8        50.806 8  22776699.253 6         0.000 6      2705.403 6        37.977 6
G19  24566029.178 7 129095311.753 7     -3305.158 7        44.628 7  24566028.838 6         0.000 6     -2575.450 6        37.977 6
G24  20895030.226 9 109804107.344 9      -630.337 9        57.093 9  20895031.852 6         0.000 6      -491.172 6        37.977 6
G32  23518116.554 8 123588504.090 8      2890.657 8        48.778 8  23518118.648 6         0.000 6      2252.461 6        37.977 6
G02  24212602.703 7 127238048.942 7      1353.865 7        46.879 7  24212601.009 6         0.000 6      1054.960 6        37.977 6
G25  21488948.722 9 112925167.387 9      1071.395 9        55.252 9  21488951.148 6         0.000 6       834.853 6        37.977 6
> 2019 07 03 18 01  1.0000000  0 11       0.000000000000
G06  24987560.597 7 131310471.540 7       491.056 7        43.461 7  24987564.221 6         0.000 6       382.642 6        37.977 6
G10  24506754.234 7 128783820.843 7     -1470.442 7        44.934 7  24506757.173 6         0.000 6     -1145.800 6        37.977 6
G12  20557689.935 9 108031372.192 9     -1080.769 9        57.197 9  20557688.668 6         0.000 6      -842.158 6        37.977 6
G15  23159418.286 8 121703536.691 8     -3335.320 8        50.951 8  23159417.832 6         0.000 6     -2598.952 6        37.977 6
G20  24847958.015 7 130576854.583 7     -1964.928 7        43.471 7  24847959.137 6         0.000 6     -1531.114 6        37.977 6
G29  22776038.761 8 119688863.519 8      3471.698 8        50.806 8  22776038.588 6         0.000 6      2705.221 6        37.977 6
G19  24566658.157 7 129098617.056 7     -3305.459 7        44.628 7  24566657.818 6         0.000 6     -2575.683 6        37.977 6
G24  20895150.205 9 109804737.838 9      -630.652 9        57.093 9  20895151.831 6         0.000 6      -491.417 6        37.977 6
G32  23517566.513 8 123585613.610 8      2890.311 8        48.778 8  23517568.607 6         0.000 6      2252.191 6        37.977 6
G02  24212345.094 7 127236695.202 7      1353.621 7        46.879 7  24212343.400 6         0.000 6      1054.770 6        37.977 6
G25  21488744.873 9 112924096.154 9      1071.073 9        55.252 9  21488747.299 6         0.000 6       834.602 6        37.977 6
> 2019 07 03 18 01  2.0000000  0 11       0.000000000000
G06  24987467.196 7 131309980.714 7       490.596 7        43.461 7  24987470.820 6         0.000 6       382.283 6        37.977 6
G10  24507034.077 7 128785291.427 7     -1470.730 7        44.934 7  24507037.017 6         0.000 6     -1146.024 6        37.977 6
G12  20557895.625 9 108032453.099 9     -1081.045 9        57.196 9  20557894.358 6         0.000 6      -842.373 6        37.977 6
G15  23160052.992 8 121706872.086 8     -3335.478 8        50.950 8  23160052.538 6         0.000 6     -2599.075 6        37.977 6
G20  24848331.927 7 130578819.501 7     -1964.916 7        43.471 7  24848333.050 6         0.000 6     -1531.104 6        37.977 6
G29  22775378.141 8 119685391.942 8      3471.465 8        50.806 8  22775377.967 6         0.000 6      2705.038 6        37.977 6
G19  24567287.194 7 129101922.659 7     -3305.759 7        44.628 7  24567286.855 6         0.000 6     -2575.917 6        37.977 6
G24  20895270.244 9 109805368.647 9      -630.966 9        57.093 9  20895271.870 6         0.000 6      -491.662 6        37.977 6
G32  23517016.538 8 123582723.477 8      2889.964 8        48.778 8  23517018.631 6         0.000 6      2251.921 6        37.977 6
G02  24212087.531 7 127235341.705 7      1353.377 7        46.880 7  24212085.838 6         0.000 6      1054.580 6        37.977 6
G25  21488541.086 9 112923025.243 9      1070.750 9        55.252 9  21488543.511 6         0.000 6       834.351 6        37.977 6
> 2019 07 03 18 01  3.0000000  0 11       0.000000000000
G06  24987373.882 7 131309490.350 7       490.136 7        43.461 7  24987377.506 6         0.000 6       381.924 6        37.977 6
G10  24507313.975 7 128786762.298 7     -1471.017 7        44.934 7  24507316.915 6         0.000 6     -1146.248 6        37.977 6
G12  20558101.367 9 108033534.280 9     -1081.320 9        57.196 9  20558100.100 6         0.000 6      -842.587 6        37.977 6
G15  23160687.727 8 121710207.639 8     -3335.637 8        50.950 8  23160687.273 6         0.000 6     -2599.198 6        37.977 6
G20  24848705.837 7 130580784.408 7     -1964.904 7        43.471 7  24848706.960 6         0.000 6     -1531.095 6        37.977 6
G29  22774717.565 8 119681920.599 8      3471.231 8        50.807 8  22774717.392 6         0.000 6      2704.856 6        37.977 6
G19  24567916.287 7 129105228.562 7     -3306.059 7        44.628 7  24567915.949 6         0.000 6     -2576.151 6        37.977 6
G24  20895390.343 9 109805999.770 9      -631.281 9        57.093 9  20895391.968 6         0.000 6      -491.907 6        37.977 6
G32  23516466.629 8 123579833.690 8      2889.617 8        48.778 8  23516468.722 6         0.000 6      2251.651 6        37.977 6
G02  24211830.016 7 127233988.453 7      1353.134 7        46.880 7  24211828.322 6         0.000 6      1054.391 6        37.977 6
G25  21488337.359 9 112921954.655 9      1070.428 9        55.252 9  21488339.784 6         0.000 6       834.100 6        37.977 6
> 2019 07 03 18 01  4.0000000  0 11       0.000000000000
G06  24987280.657 7 131309000.445 7       489.675 7        43.461 7  24987284.281 6         0.000 6       381.565 6        37.977 6
G10  24507593.928 7 128788233.456 7     -1471.305 7        44.934 7  24507596.868 6         0.000 6     -1146.472 6        37.977 6
G12  20558307.162 9 108034615.737 9     -1081.595 9        57.196 9  20558305.895 6         0.000 6      -842.802 6        37.977 6
G15  23161322.493 8 121713543.351 8     -3335.795 8        50.713 8  23161322.039 6         0.000 6     -2599.322 6        37.977 6
G20  24849079.745 7 130582749.303 7     -1964.892 7        43.471 7  24849080.868 6         0.000 6     -1531.086 6        37.977 6
G29  22774057.034 8 119678449.489 8      3470.997 8        50.807 8  22774056.860 6         0.000 6      2704.674 6        37.977 6
G19  24568545.438 7 129108534.765 7     -3306.359 7        44.627 7  24568545.100 6         0.000 6     -2576.385 6        37.977 6
G24  20895510.501 9 109806631.208 9      -631.595 9        57.093 9  20895512.127 6         0.000 6      -492.152 6        37.977 6
G32  23515916.786 8 123576944.251 8      2889.270 8        48.778 8  23515918.879 6         0.000 6      2251.381 6        37.977 6
G02  24211572.546 7 127232635.444 7      1352.890 7        46.880 7  24211570.852 6         0.000 6      1054.201 6        37.977 6
G25  21488133.694 9 112920884.389 9      1070.106 9        55.252 9  21488136.119 6         0.000 6       833.849 6        37.977 6
> 2019 07 03 18 01  5.0000000  0 11       0.000000000000
G06  24987187.518 7 131308511.001 7       489.215 7        43.461 7  24987191.142 6         0.000 6       381.207 6        37.977 6
G10  24507873.935 7 128789704.902 7     -1471.592 7        44.934 7  24507876.875 6         0.000 6     -1146.696 6        37.977 6
G12  20558513.009 9 108035697.470 9     -1081.871 9        57.196 9  20558511.742 6         0.000 6      -843.016 6        37.977 6
G15  23161957.288 8 121716879.220 8     -3335.953 8        50.713 8  23161956.835 6         0.000 6     -2599.445 6        37.977 6
G20  24849453.651 7 130584714.186 7     -1964.880 7        43.471 7  24849454.774 6         0.000 6     -1531.077 6        37.977 6
G29  22773396.548 8 119674978.614 8      3470.763 8        50.807 8  22773396.374 6         0.000 6      2704.491 6        37.977 6
G19  24569174.645 7 129111841.268 7     -3306.658 7        44.627 7  24569174.307 6         0.000 6     -2576.618 6        37.977 6
G24  20895630.720 9 109807262.960 9      -631.910 9        57.092 9  20895632.346 6         0.000 6      -492.397 6        37.977 6
G32  23515367.009 8 123574055.158 8      2888.923 8        48.779 8  23515369.102 6         0.000 6      2251.110 6        37.977 6
G02  24211315.123 7 127231282.678 7      1352.646 7        46.880 7  24211313.428 6         0.000 6      1054.010 6        37.977 6
G25  21487930.090 9 112919814.445 9      1069.784 9        55.252 9  21487932.516 6         0.000 6       833.598 6        37.977 6
> 2019 07 03 18 01  6.0000000  0 11       0.000000000000
G06  24987094.468 7 131308022.018 7       488.754 7        43.461 7  24987098.091 6         0.000 6       380.848 6        37.977 6
G10  24508153.997 7 128791176.635 7     -1471.879 7        44.934 7  24508156.937 6         0.000 6     -1146.919 6        37.977 6
G12  20558718.908 9 108036779.477 9     -1082.146 9        57.196 9  20558717.641 6         0.000 6      -843.231 6        37.977 6
G15  23162592.114 8 121720215.248 8     -3336.111 8        50.712 8  23162591.661 6         0.000 6     -2599.568 6        37.977 6
G20  24849827.554 7 130586679.057 7     -1964.868 7        43.471 7  24849828.677 6         0.000 6     -1531.067 6        37.977 6
G29  22772736.106 8 119671507.973 8      3470.528 8        50.807 8  22772735.932 6         0.000 6      2704.309 6        37.977 6
G19  24569803.910 7 129115148.071 7     -3306.958 7        44.627 7  24569803.573 6         0.000 6     -2576.852 6        37.977 6
G24  20895750.998 9 109807895.027 9      -632.225 9        57.092 9  20895752.624 6         0.000 6      -492.643 6        37.977 6
G32  23514817.298 8 123571166.412 8      2888.576 8        48.779 8  23514819.391 6         0.000 6      2250.840 6        37.977 6
G02  24211057.746 7 127229930.157 7      1352.402 7        46.880 7  24211056.052 6         0.000 6      1053.820 6        37.977 6
G25  21487726.548 9 112918744.823 9      1069.462 9        55.252 9  21487728.973 6         0.000 6       833.347 6        37.977 6
> 2019 07 03 18 01  7.0000000  0 11       0.000000000000
G06  24987001.505 7 131307533.495 7       488.294 7        43.461 7  24987005.128 6         0.000 6       380.489 6        37.977 6
G10  24508434.114 7 128792648.655 7     -1472.166 7        44.934 7  24508437.054 6         0.000 6     -1147.143 6        37.977 6
G12  20558924.860 9 108037861.760 9     -1082.421 9        57.196 9  20558923.593 6         0.000 6      -843.445 6        37.977 6
G15  23163226.970 8 121723551.433 8     -3336.268 8        50.712 8  23163226.517 6         0.000 6     -2599.691 6        37.977 6
G20  24850201.455 7 130588643.916 7     -1964.856 7        43.471 7  24850202.578 6         0.000 6     -1531.058 6        37.977 6
G29  22772075.709 8 119668037.566 8      3470.294 8        50.808 8  22772075.534 6         0.000 6      2704.126 6        37.977 6
G19  24570433.232 7 129118455.173 7     -3307.258 7        44.627 7  24570432.895 6         0.000 6     -2577.085 6        37.977 6
G24  20895871.337 9 109808527.409 9      -632.539 9        57.092 9  20895872.962 6         0.000 6      -492.888 6        37.977 6
G32  23514267.654 8 123568278.013 8      2888.229 8        48.779 8  23514269.746 6         0.000 6      2250.569 6        37.977 6
G02  24210800.416 7 127228577.880 7      1352.158 7        46.880 7  24210798.721 6         0.000 6      1053.630 6        37.977 6
G25  21487523.067 9 112917675.523 9      1069.140 9        55.252 9  21487525.492 6         0.000 6       833.096 6        37.977 6
> 2019 07 03 18 01  8.0000000  0 11       0.000000000000
G06  24986908.629 7 131307045.432 7       487.833 7        43.461 7  24986912.253 6         0.000 6       380.130 6        37.977 6
G10  24508714.285 7 128794120.962 7     -1472.453 7        44.934 7  24508717.225 6         0.000 6     -1147.367 6        37.977 6
G12  20559130.864 9 108038944.318 9     -1082.696 9        57.196 9  20559129.597 6         0.000 6      -843.660 6        37.977 6
G15  23163861.856 8 121726887.777 8     -3336.426 8        50.712 8  23163861.403 6         0.000 6     -2599.814 6        37.977 6
G20  24850575.353 7 130590608.763 7     -1964.844 7        43.470 7  24850576.477 6         0.000 6     -1531.048 6        37.977 6
G29  22771415.356 8 119664567.393 8      3470.060 8        50.808 8  22771415.181 6         0.000 6      2703.944 6        37.977 6
G19  24571062.611 7 129121762.574 7     -3307.557 7        44.627 7  24571062.274 6         0.000 6     -2577.319 6        37.977 6
G24  20895991.735 9 109809160.105 9      -632.854 9        57.092 9  20895993.361 6         0.000 6      -493.133 6        37.977 6
G32  23513718.075 8 123565389.961 8      2887.882 8        48.779 8  23513720.167 6         0.000 6      2250.299 6        37.977 6
G02  24210543.132 7 127227225.847 7      1351.914 7        46.880 7  24210541.437 6         0.000 6      1053.440 6        37.977 6
G25  21487319.647 9 112916606.545 9      1068.818 9        55.252 9  21487322.072 6         0.000 6       832.845 6        37.977 6
> 2019 07 03 18 01  9.0000000  0 11       0.000000000000
G06  24986815.842 7 131306557.831 7       487.372 7        43.461 7  24986819.465 6         0.000 6       379.771 6        37.977 6
G10  24508994.511 7 128795593.556 7     -1472.740 7        44.933 7  24508997.451 6         0.000 6     -1147.590 6        37.977 6
G12  20559336.920 9 108040027.151 9     -1082.971 9        57.196 9  20559335.654 6         0.000 6      -843.874 6        37.977 6
G15  23164496.771 8 121730224.278 8     -3336.584 8        50.712 8  23164496.319 6         0.000 6     -2599.937 6        37.977 6
G20  24850949.249 7 130592573.597 7     -1964.831 7        43.470 7  24850950.373 6         0.000 6     -1531.038 6        37.977 6
G29  22770755.048 8 119661097.455 8      3469.825 8        50.808 8  22770754.873 6         0.000 6      2703.761 6        37.977 6
G19  24571692.046 7 129125070.275 7     -3307.856 7        44.626 7  24571691.710 6         0.000 6     -2577.552 6        37.977 6
G24  20896112.193 9 109809793.116 9      -633.169 9        57.092 9  20896113.819 6         0.000 6      -493.378 6        37.977 6
G32  23513168.562 8 123562502.256 8      2887.535 8        48.779 8  23513170.654 6         0.000 6      2250.028 6        37.977 6
G02  24210285.895 7 127225874.058 7      1351.669 7        46.880 7  24210284.200 6         0.000 6      1053.249 6        37.977 6
G25  21487116.288 9 112915537.890 9      1068.496 9        55.252 9  21487118.713 6         0.000 6       832.594 6        37.977 6
> 2019 07 03 18 01 10.0000000  0 11       0.000000000000
G06  24986723.142 7 131306070.690 7       486.911 7        43.461 7  24986726.765 6         0.000 6       379.412 6        37.977 6
G10  24509274.791 7 128797066.437 7     -1473.027 7        44.933 7  24509277.732 6         0.000 6     -1147.814 6        37.977 6
G12  20559543.029 9 108041110.259 9     -1083.246 9        57.196 9  20559541.763 6         0.000 6      -844.088 6        37.977 6
G15  23165131.717 8 121733560.936 8     -3336.741 8        50.711 8  23165131.265 6         0.000 6     -2600.059 6        37.977 6
G20  24851323.143 7 130594538.418 7     -1964.819 7        43.470 7  24851324.267 6         0.000 6     -1531.029 6        37.977 6
G29  22770094.784 8 119657627.752 8      3469.591 8        50.808 8  22770094.609 6         0.000 6      2703.578 6        37.977 6
G19  24572321.539 7 129128378.276 7     -3308.156 7        44.626 7  24572321.203 6         0.000 6     -2577.785 6        37.977 6
G24  20896232.711 9 109810426.442 9      -633.484 9        57.092 9  20896234.337 6         0.000 6      -493.624 6        37.977 6
G32  23512619.116 8 123559614.899 8      2887.187 8        48.780 8  23512621.207 6         0.000 6      2249.757 6        37.977 6
G02  24210028.704 7 127224522.514 7      1351.425 7        46.880 7  24210027.009 6         0.000 6      1053.059 6        37.977 6
G25  21486912.991 9 112914469.556 9      1068.173 9        55.252 9  21486915.416 6         0.000 6       832.343 6        37.977 6
> 2019 07 03 18 01 11.0000000  0 11       0.000000000000
G06  24986630.529 7 131305584.010 7       486.450 7        43.461 7  24986634.153 6         0.000 6       379.053 6        37.977 6
G10  24509555.126 7 128798539.605 7     -1473.313 7        44.933 7  24509558.067 6         0.000 6     -1148.037 6        37.977 6
G12  20559749.190 9 108042193.641 9     -1083.521 9        57.196 9  20559747.924 6         0.000 6      -844.302 6        37.977 6
G15  23165766.693 8 121736897.752 8     -3336.899 8        50.711 8  23165766.241 6         0.000 6     -2600.182 6        37.977 6
G20  24851697.034 7 130596503.227 7     -1964.806 7        43.470 7  24851698.159 6         0.000 6     -1531.019 6        37.977 6
G29  22769434.566 8 119654158.283 8      3469.356 8        50.809 8  22769434.390 6         0.000 6      2703.395 6        37.977 6
G19  24572951.088 7 129131686.575 7     -3308.455 7        44.626 7  24572950.752 6         0.000 6     -2578.018 6        37.977 6
G24  20896353.289 9 109811060.083 9      -633.798 9        57.092 9  20896354.915 6         0.000 6      -493.869 6        37.977 6
G32  23512069.735 8 123556727.890 8      2886.840 8        48.780 8  23512071.827 6         0.000 6      2249.487 6        37.977 6
G02  24209771.559 7 127223171.214 7      1351.180 7        46.880 7  24209769.864 6         0.000 6      1052.869 6        37.977 6
G25  21486709.755 9 112913401.545 9      1067.851 9        55.253 9  21486712.180 6         0.000 6       832.092 6        37.977 6
> 2019 07 03 18 01 12.0000000  0 11       0.000000000000
G06  24986538.005 7 131305097.791 7       485.990 7        43.461 7  24986541.628 6         0.000 6       378.693 6        37.977 6
G10  24509835.516 7 128800013.059 7     -1473.600 7        44.933 7  24509838.457 6         0.000 6     -1148.260 6        37.977 6
G12  20559955.403 9 108043277.299 9     -1083.796 9        57.196 9  20559954.137 6         0.000 6      -844.516 6        37.977 6
G15  23166401.699 8 121740234.726 8     -3337.056 8        50.711 8  23166401.247 6         0.000 6     -2600.305 6        37.977 6
G20  24852070.923 7 130598468.024 7     -1964.793 7        43.470 7  24852072.048 6         0.000 6     -1531.009 6        37.977 6
G29  22768774.391 8 119650689.049 8      3469.121 8        50.809 8  22768774.216 6         0.000 6      2703.212 6        37.977 6
G19  24573580.695 7 129134995.174 7     -3308.754 7        44.626 7  24573580.359 6         0.000 6     -2578.251 6        37.977 6
G24  20896473.926 9 109811694.038 9      -634.113 9        57.092 9  20896475.552 6         0.000 6      -494.114 6        37.977 6
G32  23511520.421 8 123553841.228 8      2886.492 8        48.780 8  23511522.512 6         0.000 6      2249.216 6        37.977 6
G02  24209514.461 7 127221820.158 7      1350.936 7        46.880 7  24209512.766 6         0.000 6      1052.678 6        37.977 6
G25  21486506.580 9 112912333.855 9      1067.530 9        55.253 9  21486509.005 6         0.000 6       831.841 6        37.977 6
> 2019 07 03 18 01 13.0000000  0 11       0.000000000000
G06  24986445.568 7 131304612.033 7       485.529 7        43.461 7  24986449.191 6         0.000 6       378.334 6        37.977 6
G10  24510115.960 7 128801486.799 7     -1473.886 7        44.933 7  24510118.901 6         0.000 6     -1148.484 6        37.977 6
G12  20560161.669 9 108044361.232 9     -1084.071 9        57.195 9  20560160.403 6         0.000 6      -844.730 6        37.977 6
G15  23167036.734 8 121743571.857 8     -3337.214 8        50.711 8  23167036.283 6         0.000 6     -2600.427 6        37.977 6
G20  24852444.810 7 130600432.807 7     -1964.781 7        43.470 7  24852445.935 6         0.000 6     -1530.999 6        37.977 6
G29  22768114.262 8 119647220.049 8      3468.886 8        50.809 8  22768114.086 6         0.000 6      2703.029 6        37.977 6
G19  24574210.358 7 129138304.071 7     -3309.053 7        44.625 7  24574210.023 6         0.000 6     -2578.484 6        37.977 6
G24  20896594.624 9 109812328.309 9      -634.428 9        57.092 9  20896596.250 6         0.000 6      -494.360 6        37.977 6
G32  23510971.173 8 123550954.913 8      2886.145 8        48.780 8  23510973.264 6         0.000 6      2248.945 6        37.977 6
G02  24209257.410 7 127220469.348 7      1350.691 7        46.881 7  24209255.715 6         0.000 6      1052.487 6        37.977 6
G25  21486303.467 9 112911266.488 9      1067.208 9        55.253 9  21486305.891 6         0.000 6       831.591 6        37.977 6
> 2019 07 03 18 01 14.0000000  0 11       0.000000000000
G06  24986353.219 7 131304126.736 7       485.067 7        43.461 7  24986356.842 6         0.000 6       377.975 6        37.977 6
G10  24510396.458 7 128802960.826 7     -1474.173 7        44.933 7  24510399.399 6         0.000 6     -1148.707 6        37.977 6
G12  20560367.987 9 108045445.439 9     -1084.345 9        57.195 9  20560366.721 6         0.000 6      -844.945 6        37.977 6
G15  23167671.800 8 121746909.145 8     -3337.371 8        50.710 8  23167671.349 6         0.000 6     -2600.550 6        37.977 6
G20  24852818.694 7 130602397.578 7     -1964.768 7        43.470 7  24852819.819 6         0.000 6     -1530.989 6        37.977 6
G29  22767454.177 8 119643751.285 8      3468.651 8        50.809 8  22767454.001 6         0.000 6      2702.846 6        37.977 6
G19  24574840.078 7 129141613.267 7     -3309.351 7        44.625 7  24574839.743 6         0.000 6     -2578.717 6        37.977 6
G24  20896715.382 9 109812962.894 9      -634.743 9        57.092 9  20896717.008 6         0.000 6      -494.605 6        37.977 6
G32  23510421.991 8 123548068.947 8      2885.797 8        48.780 8  23510424.082 6         0.000 6      2248.674 6        37.977 6
G02  24209000.406 7 127219118.782 7      1350.446 7        46.881 7  24208998.710 6         0.000 6      1052.297 6        37.977 6
G25  21486100.414 9 112910199.442 9      1066.886 9        55.253 9  21486102.839 6         0.000 6       831.340 6        37.977 6
> 2019 07 03 18 01 15.0000000  0 11       0.000000000000
G06  24986260.957 7 131303641.900 7       484.606 7        43.461 7  24986264.581 6         0.000 6       377.616 6        37.977 6
G10  24510677.011 7 128804435.140 7     -1474.459 7        44.933 7  24510679.953 6         0.000 6     -1148.930 6        37.977 6
G12  20560574.357 9 108046529.921 9     -1084.620 9        57.195 9  20560573.091 6         0.000 6      -845.159 6        37.977 6
G15  23168306.896 8 121750246.590 8     -3337.528 8        50.710 8  23168306.445 6         0.000 6     -2600.672 6        37.977 6
G20  24853192.576 7 130604362.336 7     -1964.755 7        43.470 7  24853193.701 6         0.000 6     -1530.979 6        37.977 6
G29  22766794.137 8 119640282.756 8      3468.416 8        50.810 8  22766793.961 6         0.000 6      2702.663 6        37.977 6
G19  24575469.855 7 129144922.762 7     -3309.650 7        44.625 7  24575469.521 6         0.000 6     -2578.950 6        37.977 6
G24  20896836.199 9 109813597.794 9      -635.058 9        57.092 9  20896837.825 6         0.000 6      -494.850 6        37.977 6
G32  23509872.875 8 123545183.328 8      2885.449 8        48.781 8  23509874.966 6         0.000 6      2248.403 6        37.977 6
G02  24208743.447 7 127217768.460 7      1350.202 7        46.881 7  24208741.751 6         0.000 6      1052.106 6        37.977 6
G25  21485897.424 9 112909132.718 9      1066.564 9        55.253 9  21485899.848 6         0.000 6       831.089 6        37.977 6
> 2019 07 03 18 01 16.0000000  0 11       0.000000000000
G06  24986168.784 7 131303157.525 7       484.145 7        43.461 7  24986172.407 6         0.000 6       377.256 6        37.977 6
G10  24510957.619 7 128805909.739 7     -1474.745 7        44.933 7  24510960.560 6         0.000 6     -1149.153 6        37.977 6
G12  20560780.779 9 108047614.677 9     -1084.894 9        57.195 9  20560779.513 6         0.000 6      -845.372 6        37.977 6
G15  23168942.021 8 121753584.193 8     -3337.685 8        50.710 8  23168941.571 6         0.000 6     -2600.794 6        37.977 6
G20  24853566.455 7 130606327.081 7     -1964.742 7        43.469 7  24853567.580 6         0.000 6     -1530.968 6        37.977 6
G29  22766134.142 8 119636814.462 8      3468.181 8        50.810 8  22766133.965 6         0.000 6      2702.480 6        37.977 6
G19  24576099.689 7 129148232.556 7     -3309.949 7        44.625 7  24576099.355 6         0.000 6     -2579.182 6        37.977 6
G24  20896957.077 9 109814233.009 9      -635.373 9        57.092 9  20896958.703 6         0.000 6      -495.096 6        37.977 6
G32  23509323.826 8 123542298.057 8      2885.101 8        48.781 8  23509325.916 6         0.000 6      2248.132 6        37.977 6
G02  24208486.536 7 127216418.384 7      1349.957 7        46.881 7  24208484.840 6         0.000 6      1051.915 6        37.977 6
G25  21485694.494 9 112908066.316 9      1066.242 9        55.253 9  21485696.918 6         0.000 6       830.838 6        37.977 6
> 2019 07 03 18 01 17.0000000  0 11       0.000000000000
G06  24986076.698 7 131302673.611 7       483.684 7        43.461 7  24986080.321 6         0.000 6       376.897 6        37.977 6
G10  24511238.281 7 128807384.625 7     -1475.031 7        44.933 7  24511241.222 6         0.000 6     -1149.376 6        37.977 6
G12  20560987.254 9 108048699.708 9     -1085.169 9        57.195 9  20560985.988 6         0.000 6      -845.586 6        37.977 6
G15  23169577.176 8 121756921.952 8     -3337.842 8        50.710 8  23169576.726 6         0.000 6     -2600.917 6        37.977 6
G20  24853940.331 7 130608291.812 7     -1964.728 7        43.469 7  24853941.457 6         0.000 6     -1530.958 6        37.977 6
G29  22765474.192 8 119633346.403 8      3467.945 8        50.810 8  22765474.014 6         0.000 6      2702.296 6        37.977 6
G19  24576729.580 7 129151542.648 7     -3310.247 7        44.625 7  24576729.246 6         0.000 6     -2579.415 6        37.977 6
G24  20897078.014 9 109814868.539 9      -635.688 9        57.092 9  20897079.640 6         0.000 6      -495.341 6        37.977 6
G32  23508774.842 8 123539413.134 8      2884.753 8        48.781 8  23508776.932 6         0.000 6      2247.860 6        37.977 6
G02  24208229.671 7 127215068.552 7      1349.712 7        46.881 7  24208227.975 6         0.000 6      1051.724 6        37.977 6
G25  21485491.625 9 112907000.236 9      1065.920 9        55.253 9  21485494.050 6         0.000 6       830.587 6        37.977 6
> 2019 07 03 18 01 18.0000000  0 11       0.000000000000
G06  24985984.700 7 131302190.159 7       483.223 7        43.461 7  24985988.323 6         0.000 6       376.537 6        37.977 6
G10  24511518.997 7 128808859.796 7     -1475.317 7        44.933 7  24511521.939 6         0.000 6     -1149.598 6        37.977 6
G12  20561193.781 9 108049785.013 9     -1085.443 9        57.195 9  20561192.515 6         0.000 6      -845.800 6        37.977 6
G15  23170212.361 8 121760259.868 8     -3337.999 8        50.710 8  23170211.911 6         0.000 6     -2601.039 6        37.977 6
G20  24854314.206 7 130610256.530 7     -1964.715 7        43.469 7  24854315.331 6         0.000 6     -1530.948 6        37.977 6
G29  22764814.286 8 119629878.580 8      3467.710 8        50.810 8  22764814.109 6         0.000 6      2702.113 6        37.977 6
G19  24577359.527 7 129154853.039 7     -3310.546 7        44.624 7  24577359.194 6         0.000 6     -2579.647 6        37.977 6
G24  20897199.012 9 109815504.385 9      -636.003 9        57.092 9  20897200.638 6         0.000 6      -495.587 6        37.977 6
G32  23508225.925 8 123536528.559 8      2884.405 8        48.781 8  23508228.015 6         0.000 6      2247.589 6        37.977 6
G02  24207972.853 7 127213718.966 7      1349.467 7        46.881 7  24207971.156 6         0.000 6      1051.533 6        37.977 6
G25  21485288.818 9 112905934.478 9      1065.598 9        55.253 9  21485291.243 6         0.000 6       830.337 6        37.977 6
> 2019 07 03 18 01 19.0000000  0 11       0.000000000000
G06  24985892.789 7 131301707.168 7       482.761 7        43.461 7  24985896.412 6         0.000 6       376.178 6        37.977 6
G10  24511799.768 7 128810335.254 7     -1475.603 7        44.932 7  24511802.710 6         0.000 6     -1149.821 6        37.977 6
G12  20561400.360 9 108050870.593 9     -1085.718 9        57.195 9  20561399.094 6         0.000 6      -846.014 6        37.977 6
G15  23170847.576 8 121763597.941 8     -3338.155 8        50.709 8  23170847.127 6         0.000 6     -2601.161 6        37.977 6
G20  24854688.077 7 130612221.235 7     -1964.702 7        43.469 7  24854689.203 6         0.000 6     -1530.937 6        37.977 6
G29  22764154.425 8 119626410.992 8      3467.474 8        50.811 8  22764154.247 6         0.000 6      2701.929 6        37.977 6
G19  24577989.532 7 129158163.728 7     -3310.844 7        44.624 7  24577989.199 6         0.000 6     -2579.880 6        37.977 6
G24  20897320.069 9 109816140.545 9      -636.318 9        57.092 9  20897321.695 6         0.000 6      -495.832 6        37.977 6
G32  23507677.074 8 123533644.333 8      2884.056 8        48.781 8  23507679.164 6         0.000 6      2247.318 6        37.977 6
G02  24207716.081 7 127212369.624 7      1349.221 7        46.881 7  24207714.384 6         0.000 6      1051.342 6        37.977 6
G25  21485086.072 9 112904869.042 9      1065.276 9        55.253 9  21485088.497 6         0.000 6       830.086 6        37.977 6
> 2019 07 03 18 01 20.0000000  0 11       0.000000000000
G06  24985800.967 7 131301224.638 7       482.300 7        43.461 7  24985804.590 6         0.000 6       375.818 6        37.977 6
G10  24512080.593 7 128811810.997 7     -1475.889 7        44.932 7  24512083.535 6         0.000 6     -1150.044 6        37.977 6
G12  20561606.991 9 108051956.447 9     -1085.992 9        57.195 9  20561605.725 6         0.000 6      -846.228 6        37.977 6
G15  23171482.821 8 121766936.171 8     -3338.312 8        50.709 8  23171482.372 6         0.000 6     -2601.283 6        37.977 6
G20  24855061.946 7 130614185.927 7     -1964.688 7        43.469 7  24855063.072 6         0.000 6     -1530.927 6        37.977 6
G29  22763494.609 8 119622943.640 8      3467.239 8        50.811 8  22763494.431 6         0.000 6      2701.745 6        37.977 6
G19  24578619.593 7 129161474.715 7     -3311.142 7        44.624 7  24578619.260 6         0.000 6     -2580.112 6        37.977 6
G24  20897441.186 9 109816777.020 9      -636.633 9        57.092 9  20897442.812 6         0.000 6      -496.078 6        37.977 6
G32  23507128.290 8 123530760.455 8      2883.708 8        48.782 8  23507130.379 6         0.000 6      2247.046 6        37.977 6
G02  24207459.356 7 127211020.528 7      1348.976 7        46.881 7  24207457.659 6         0.000 6      1051.151 6        37.977 6
G25  21484883.387 9 112903803.927 9      1064.955 9        55.253 9  21484885.812 6         0.000 6       829.835 6        37.977 6
> 2019 07 03 18 01 21.0000000  0 11       0.000000000000
G06  24985709.232 7 131300742.570 7       481.838 7        43.461 7  24985712.855 6         0.000 6       375.459 6        37.977 6
G10  24512361.472 7 128813287.026 7     -1476.174 7        44.932 7  24512364.414 6         0.000 6     -1150.266 6        37.977 6
G12  20561813.675 9 108053042.575 9     -1086.266 9        57.195 9  20561812.409 6         0.000 6      -846.441 6        37.977 6
G15  23172118.096 8 121770274.557 8     -3338.469 8        50.709 8  23172117.646 6         0.000 6     -2601.405 6        37.977 6
G20  24855435.812 7 130616150.604 7     -1964.674 7        43.469 7  24855436.939 6         0.000 6     -1530.916 6        37.977 6
G29  22762834.838 8 119619476.524 8      3467.003 8        50.811 8  22762834.660 6         0.000 6      2701.562 6        37.977 6
G19  24579249.710 7 129164786.001 7     -3311.440 7        44.624 7  24579249.378 6         0.000 6     -2580.344 6        37.977 6
G24  20897562.363 9 109817413.810 9      -636.948 9        57.092 9  20897563.990 6         0.000 6      -496.323 6        37.977 6
G32  23506579.572 8 123527876.925 8      2883.359 8        48.782 8  23506581.661 6         0.000 6      2246.775 6        37.977 6
G02  24207202.678 7 127209671.678 7      1348.731 7        46.881 7  24207200.981 6         0.000 6      1050.960 6        37.977 6
G25  21484680.764 9 112902739.134 9      1064.633 9        55.253 9  21484683.188 6         0.000 6       829.584 6        37.977 6
> 2019 07 03 18 01 22.0000000  0 11       0.000000000000
G06  24985617.585 7 131300260.963 7       481.377 7        43.461 7  24985621.208 6         0.000 6       375.099 6        37.977 6
G10  24512642.406 7 128814763.340 7     -1476.460 7        44.932 7  24512645.348 6         0.000 6     -1150.489 6        37.977 6
G12  20562020.410 9 108054128.978 9     -1086.540 9        57.195 9  20562019.145 6         0.000 6      -846.655 6        37.977 6
G15  23172753.400 8 121773613.100 8     -3338.625 8        50.709 8  23172752.951 6         0.000 6     -2601.527 6        37.977 6
G20  24855809.676 7 130618115.269 7     -1964.661 7        43.469 7  24855810.803 6         0.000 6     -1530.905 6        37.977 6
G29  22762175.112 8 119616009.643 8      3466.767 8        50.811 8  22762174.933 6         0.000 6      2701.378 6        37.977 6
G19  24579879.885 7 129168097.584 7     -3311.738 7        44.623 7  24579879.553 6         0.000 6     -2580.576 6        37.977 6
G24  20897683.601 9 109818050.916 9      -637.263 9        57.092 9  20897685.227 6         0.000 6      -496.569 6        37.977 6
G32  23506030.920 8 123524993.744 8      2883.011 8        48.782 8  23506033.009 6         0.000 6      2246.503 6        37.977 6
G02  24206946.046 7 127208323.072 7      1348.485 7        46.881 7  24206944.349 6         0.000 6      1050.768 6        37.977 6
G25  21484478.201 9 112901674.663 9      1064.311 9        55.253 9  21484480.626 6         0.000 6       829.334 6        37.977 6
> 2019 07 03 18 01 23.0000000  0 11       0.000000000000
G06  24985526.026 7 131299779.818 7       480.915 7        43.461 7  24985529.649 6         0.000 6       374.739 6        37.977 6
G10  24512923.394 7 128816239.940 7     -1476.745 7        44.932 7  24512926.337 6         0.000 6     -1150.711 6        37.977 6
G12  20562227.198 9 108055215.655 9     -1086.814 9        57.195 9  20562225.933 6         0.000 6      -846.869 6        37.977 6
G15  23173388.734 8 121776951.799 8     -3338.781 8        50.708 8  23173388.285 6         0.000 6     -2601.649 6        37.977 6
G20  24856183.537 7 130620079.919 7     -1964.647 7        43.468 7  24856184.664 6         0.000 6     -1530.894 6        37.977 6
G29  22761515.430 8 119612542.999 8      3466.531 8        50.812 8  22761515.252 6         0.000 6      2701.194 6        37.977 6
G19  24580510.116 7 129171409.465 7     -3312.036 7        44.623 7  24580509.784 6         0.000 6     -2580.809 6        37.977 6
G24  20897804.898 9 109818688.336 9      -637.579 9        57.092 9  20897806.524 6         0.000 6      -496.815 6        37.977 6
G32  23505482.334 8 123522110.912 8      2882.662 8        48.782 8  23505484.423 6         0.000 6      2246.231 6        37.977 6
G02  24206689.461 7 127206974.713 7      1348.240 7        46.882 7  24206687.764 6         0.000 6      1050.577 6        37.977 6
G25  21484275.700 9 112900610.513 9      1063.990 9        55.254 9  21484278.125 6         0.000 6       829.083 6        37.977 6
> 2019 07 03 18 01 24.0000000  0 11       0.000000000000
G06  24985434.555 7 131299299.134 7       480.454 7        43.461 7  24985438.178 6         0.000 6       374.380 6        37.977 6
G10  24513204.437 7 128817716.825 7     -1477.031 7        44.932 7  24513207.379 6         0.000 6     -1150.934 6        37.977 6
G12  20562434.038 9 108056302.605 9     -1087.089 9        57.195 9  20562432.773 6         0.000 6      -847.082 6        37.977 6
G15  23174024.098 8 121780290.655 8     -3338.938 8        50.708 8  23174023.649 6         0.000 6     -2601.771 6        37.977 6
G20  24856557.396 7 130622044.555 7     -1964.633 7        43.468 7  24856558.523 6         0.000 6     -1530.884 6        37.977 6
G29  22760855.794 8 119609076.590 8      3466.295 8        50.812 8  22760855.615 6         0.000 6      2701.010 6        37.977 6
G19  24581140.404 7 129174721.644 7     -3312.333 7        44.623 7  24581140.072 6         0.000 6     -2581.040 6        37.977 6
G24  20897926.255 9 109819326.072 9      -637.894 9        57.092 9  20897927.881 6         0.000 6      -497.060 6        37.977 6
G32  23504933.815 8 123519228.428 8      2882.313 8        48.782 8  23504935.903 6         0.000 6      2245.959 6        37.977 6
G02  24206432.923 7 127205626.599 7      1347.994 7        46.882 7  24206431.226 6         0.000 6      1050.386 6        37.977 6
G25  21484073.260 9 112899546.685 9      1063.668 9        55.254 9  21484075.685 6         0.000 6       828.832 6        37.977 6
> 2019 07 03 18 01 25.0000000  0 11       0.000000000000
G06  24985343.172 7 131298818.912 7       479.992 7        43.461 7  24985346.794 6         0.000 6       374.020 6        37.977 6
G10  24513485.533 7 128819193.996 7     -1477.316 7        44.932 7  24513488.476 6         0.000 6     -1151.156 6        37.977 6
G12  20562640.930 9 108057389.830 9     -1087.362 9        57.194 9  20562639.665 6         0.000 6      -847.296 6        37.977 6
G15  23174659.491 8 121783629.666 8     -3339.094 8        50.708 8  23174659.043 6         0.000 6     -2601.892 6        37.977 6
G20  24856931.252 7 130624009.178 7     -1964.619 7        43.468 7  24856932.379 6         0.000 6     -1530.873 6        37.977 6
G29  22760196.202 8 119605610.417 8      3466.059 8        50.812 8  22760196.023 6         0.000 6      2700.826 6        37.977 6
G19  24581770.748 7 129178034.120 7     -3312.631 7        44.623 7  24581770.417 6         0.000 6     -2581.272 6        37.977 6
G24  20898047.672 9 109819964.123 9      -638.209 9        57.091 9  20898049.298 6         0.000 6      -497.306 6        37.977 6
G32  23504385.362 8 123516346.293 8      2881.965 8        48.783 8  23504387.450 6         0.000 6      2245.688 6        37.977 6
G02  24206176.432 7 127204278.730 7      1347.748 7        46.882 7  24206174.734 6         0.000 6      1050.194 6        37.977 6
G25  21483870.882 9 112898483.179 9      1063.346 9        55.254 9  21483873.306 6         0.000 6       828.582 6        37.977 6
> 2019 07 03 18 01 26.0000000  0 11       0.000000000000
G06  24985251.876 7 131298339.152 7       479.530 7        43.461 7  24985255.499 6         0.000 6       373.660 6        37.977 6
G10  24513766.684 7 128820671.452 7     -1477.601 7        44.932 7  24513769.627 6         0.000 6     -1151.378 6        37.977 6
G12  20562847.875 9 108058477.329 9     -1087.636 9        57.194 9  20562846.609 6         0.000 6      -847.509 6        37.977 6
G15  23175294.915 8 121786968.834 8     -3339.250 8        50.708 8  23175294.467 6         0.000 6     -2602.014 6        37.977 6
G20  24857305.105 7 130625973.786 7     -1964.605 7        43.468 7  24857306.233 6         0.000 6     -1530.862 6        37.977 6
G29  22759536.656 8 119602144.481 8      3465.823 8        50.812 8  22759536.476 6         0.000 6      2700.642 6        37.977 6
G19  24582401.149 7 129181346.895 7     -3312.929 7        44.623 7  24582400.818 6         0.000 6     -2581.504 6        37.977 6
G24  20898169.149 9 109820602.490 9      -638.524 9        57.091 9  20898170.776 6         0.000 6      -497.551 6        37.977 6
G32  23503836.976 8 123513464.507 8      2881.616 8        48.783 8  23503839.064 6         0.000 6      2245.416 6        37.977 6
G02  24205919.987 7 127202931.108 7      1347.502 7        46.882 7  24205918.290 6         0.000 6      1050.003 6        37.977 6
G25  21483668.564 9 112897419.994 9      1063.025 9        55.254 9  21483670.988 6         0.000 6       828.331 6        37.977 6
> 2019 07 03 18 01 27.0000000  0 11       0.000000000000
G06  24985160.668 7 131297859.854 7       479.068 7        43.461 7  24985164.291 6         0.000 6       373.300 6        37.977 6
G10  24514047.890 7 128822149.193 7     -1477.886 7        44.932 7  24514050.833 6         0.000 6     -1151.600 6        37.977 6
G12  20563054.871 9 108059565.101 9     -1087.910 9        57.194 9  20563053.606 6         0.000 6      -847.722 6        37.977 6
G15  23175930.368 8 121790308.158 8     -3339.406 8        50.707 8  23175929.920 6         0.000 6     -2602.136 6        37.977 6
G20  24857678.956 7 130627938.380 7     -1964.590 7        43.468 7  24857680.083 6         0.000 6     -1530.851 6        37.977 6
G29  22758877.154 8 119598678.781 8      3465.586 8        50.813 8  22758876.974 6         0.000 6      2700.458 6        37.977 6
G19  24583031.607 7 129184659.966 7     -3313.226 7        44.622 7  24583031.276 6         0.000 6     -2581.736 6        37.977 6
G24  20898290.686 9 109821241.171 9      -638.840 9        57.091 9  20898292.313 6         0.000 6      -497.797 6        37.977 6
G32  23503288.656 8 123510583.070 8      2881.266 8        48.783 8  23503290.743 6         0.000 6      2245.144 6        37.977 6
G02  24205663.590 7 127201583.731 7      1347.256 7        46.882 7  24205661.892 6         0.000 6      1049.811 6        37.977 6
G25  21483466.308 9 112896357.131 9      1062.703 9        55.254 9  21483468.732 6         0.000 6       828.081 6        37.977 6
> 2019 07 03 18 01 28.0000000  0 11       0.000000000000
G06  24985069.549 7 131297381.017 7       478.607 7        43.461 7  24985073.171 6         0.000 6       372.940 6        37.977 6
G10  24514329.149 7 128823627.219 7     -1478.171 7        44.932 7  24514332.092 6         0.000 6     -1151.822 6        37.977 6
G12  20563261.920 9 108060653.148 9     -1088.184 9        57.194 9  20563260.654 6         0.000 6      -847.936 6        37.977 6
G15  23176565.850 8 121793647.638 8     -3339.562 8        50.707 8  23176565.403 6         0.000 6     -2602.257 6        37.977 6
G20  24858052.803 7 130629902.960 7     -1964.576 7        43.468 7  24858053.931 6         0.000 6     -1530.839 6        37.977 6
G29  22758217.698 8 119595213.317 8      3465.350 8        50.813 8  22758217.517 6         0.000 6      2700.274 6        37.977 6
G19  24583662.121 7 129187973.335 7     -3313.523 7        44.622 7  24583661.791 6         0.000 6     -2581.968 6        37.977 6
G24  20898412.283 9 109821880.168 9      -639.155 9        57.091 9  20898413.910 6         0.000 6      -498.043 6        37.977 6
G32  23502740.402 8 123507701.982 8      2880.917 8        48.783 8  23502742.490 6         0.000 6      2244.872 6        37.977 6
G02  24205407.239 7 127200236.600 7      1347.010 7        46.882 7  24205405.540 6         0.000 6      1049.619 6        37.977 6
G25  21483264.113 9 112895294.590 9      1062.382 9        55.254 9  21483266.537 6         0.000 6       827.830 6        37.977 6
> 2019 07 03 18 01 29.0000000  0 11       0.000000000000
G06  24984978.517 7 131296902.643 7       478.145 7        43.461 7  24984982.139 6         0.000 6       372.580 6        37.977 6
G10  24514610.463 7 128825105.529 7     -1478.456 7        44.931 7  24514613.406 6         0.000 6     -1152.044 6        37.977 6
G12  20563469.020 9 108061741.468 9     -1088.458 9        57.194 9  20563467.755 6         0.000 6      -848.149 6        37.977 6
G15  23177201.363 8 121796987.274 8     -3339.718 8        50.707 8  23177200.916 6         0.000 6     -2602.378 6        37.977 6
G20  24858426.648 7 130631867.526 7     -1964.562 7        43.468 7  24858427.776 6         0.000 6     -1530.828 6        37.977 6
G29  22757558.286 8 119591748.090 8      3465.113 8        50.813 8  22757558.106 6         0.000 6      2700.089 6        37.977 6
G19  24584292.692 7 129191287.001 7     -3313.820 7        44.622 7  24584292.362 6         0.000 6     -2582.199 6        37.977 6
G24  20898533.941 9 109822519.480 9      -639.470 9        57.091 9  20898535.567 6         0.000 6      -498.289 6        37.977 6
G32  23502192.215 8 123504821.243 8      2880.568 8        48.783 8  23502194.302 6         0.000 6      2244.600 6        37.977 6
G02  24205150.934 7 127198889.715 7      1346.764 7        46.882 7  24205149.236 6         0.000 6      1049.427 6        37.977 6
G25  21483061.979 9 112894232.369 9      1062.060 9        55.254 9  21483064.403 6         0.000 6       827.580 6        37.977 6
> 2019 07 03 18 01 30.0000000  0 11       0.000000000000
G06  24984887.573 7 131296424.730 7       477.683 7        43.462 7  24984891.195 6         0.000 6       372.220 6        37.977 6
G10  24514891.831 7 128826584.125 7     -1478.740 7        44.931 7  24514894.774 6         0.000 6     -1152.266 6        37.977 6
G12  20563676.173 9 108062830.062 9     -1088.731 9        57.194 9  20563674.907 6         0.000 6      -848.362 6        37.977 6
G15  23177836.905 8 121800327.065 8     -3339.873 8        50.707 8  23177836.458 6         0.000 6     -2602.500 6        37.977 6
G20  24858800.491 7 130633832.077 7     -1964.547 7        43.468 7  24858801.619 6         0.000 6     -1530.817 6        37.977 6
G29  22756898.919 8 119588283.100 8      3464.876 8        50.813 8  22756898.739 6         0.000 6      2699.905 6        37.977 6
G19  24584923.319 7 129194600.965 7     -3314.118 7        44.622 7  24584922.990 6         0.000 6     -2582.431 6        37.977 6
G24  20898655.658 9 109823159.108 9      -639.786 9        57.091 9  20898657.284 6         0.000 6      -498.534 6        37.977 6
G32  23501644.095 8 123501940.853 8      2880.219 8        48.784 8  23501646.181 6         0.000 6      2244.327 6        37.977 6
G02  24204894.677 7 127197543.077 7      1346.518 7        46.882 7  24204892.979 6         0.000 6      1049.236 6        37.977 6
G25  21482859.906 9 112893170.471 9      1061.739 9        55.254 9  21482862.330 6         0.000 6       827.329 6        37.977 6
> 2019 07 03 18 01 31.0000000  0 11       0.000000000000
G06  24984796.717 7 131295947.279 7       477.221 7        43.462 7  24984800.339 6         0.000 6       371.860 6        37.977 6
G10  24515173.253 7 128828063.005 7     -1479.025 7        44.931 7  24515176.196 6         0.000 6     -1152.488 6        37.977 6
G12  20563883.377 9 108063918.929 9     -1089.005 9        57.194 9  20563882.112 6         0.000 6      -848.575 6        37.977 6
G15  23178472.476 8 121803667.012 8     -3340.029 8        50.706 8  23178472.030 6         0.000 6     -2602.621 6        37.977 6
G20  24859174.330 7 130635796.613 7     -1964.533 7        43.467 7  24859175.459 6         0.000 6     -1530.805 6        37.977 6
G29  22756239.598 8 119584818.346 8      3464.640 8        50.814 8  22756239.417 6         0.000 6      2699.720 6        37.977 6
G19  24585554.003 7 129197915.225 7     -3314.414 7        44.621 7  24585553.674 6         0.000 6     -2582.662 6        37.977 6
G24  20898777.435 9 109823799.051 9      -640.101 9        57.091 9  20898779.061 6         0.000 6      -498.780 6        37.977 6
G32  23501096.040 8 123499060.813 8      2879.869 8        48.784 8  23501098.127 6         0.000 6      2244.055 6        37.977 6
G02  24204638.467 7 127196196.684 7      1346.272 7        46.882 7  24204636.768 6         0.000 6      1049.044 6        37.977 6
G25  21482657.895 9 112892108.894 9      1061.417 9        55.254 9  21482660.318 6         0.000 6       827.079 6        37.977 6
> 2019 07 03 18 01 32.0000000  0 11       0.000000000000
G06  24984705.949 7 131295470.291 7       476.758 7        43.462 7  24984709.571 6         0.000 6       371.500 6        37.977 6
G10  24515454.729 7 128829542.170 7     -1479.310 7        44.931 7  24515457.673 6         0.000 6     -1152.709 6        37.977 6
G12  20564090.634 9 108065008.070 9     -1089.278 9        57.194 9  20564089.369 6         0.000 6      -848.789 6        37.977 6
G15  23179108.077 8 121807007.115 8     -3340.185 8        50.706 8  23179107.631 6         0.000 6     -2602.742 6        37.977 6
G20  24859548.167 7 130637761.135 7     -1964.518 7        43.467 7  24859549.296 6         0.000 6     -1530.794 6        37.977 6
G29  22755580.321 8 119581353.829 8      3464.403 8        50.814 8  22755580.140 6         0.000 6      2699.536 6        37.977 6
G19  24586184.743 7 129201229.782 7     -3314.711 7        44.621 7  24586184.415 6         0.000 6     -2582.893 6        37.977 6
G24  20898899.272 9 109824439.309 9      -640.416 9        57.091 9  20898900.899 6         0.000 6      -499.026 6        37.977 6
G32  23500548.053 8 123496181.123 8      2879.520 8        48.784 8  23500550.139 6         0.000 6      2243.783 6        37.977 6
G02  24204382.303 7 127194850.538 7      1346.025 7        46.882 7  24204380.604 6         0.000 6      1048.852 6        37.977 6
G25  21482455.944 9 112891047.638 9      1061.096 9        55.254 9  21482458.368 6         0.000 6       826.828 6        37.977 6
> 2019 07 03 18 01 33.0000000  0 11       0.000000000000
G06  24984615.269 7 131294993.764 7       476.296 7        43.462 7  24984618.891 6         0.000 6       371.140 6        37.977 6
G10  24515736.259 7 128831021.619 7     -1479.594 7        44.931 7  24515739.203 6         0.000 6     -1152.931 6        37.977 6
G12  20564297.943 9 108066097.484 9     -1089.552 9        57.194 9  20564296.678 6         0.000 6      -849.002 6        37.977 6
G15  23179743.708 8 121810347.373 8     -3340.340 8        50.706 8  23179743.262 6         0.000 6     -2602.863 6        37.977 6
G20  24859922.001 7 130639725.642 7     -1964.503 7        43.467 7  24859923.130 6         0.000 6     -1530.782 6        37.977 6
G29  22754921.090 8 119577889.549 8      3464.166 8        50.814 8  22754920.909 6         0.000 6      2699.351 6        37.977 6
G19  24586815.540 7 129204544.636 7     -3315.008 7        44.621 7  24586815.212 6         0.000 6     -2583.125 6        37.977 6
G24  20899021.169 9 109825079.883 9      -640.732 9        57.091 9  20899022.796 6         0.000 6      -499.272 6        37.977 6
G32  23500000.132 8 123493301.782 8      2879.170 8        48.784 8  23500002.218 6         0.000 6      2243.510 6        37.977 6
G02  24204126.186 7 127193504.639 7      1345.779 7        46.882 7  24204124.487 6         0.000 6      1048.660 6        37.977 6
G25  21482254.055 9 112889986.704 9      1060.775 9        55.254 9  21482256.479 6         0.000 6       826.578 6        37.977 6
> 2019 07 03 18 01 34.0000000  0 11       0.000000000000
G06  24984524.676 7 131294517.700 7       475.834 7        43.462 7  24984528.299 6         0.000 6       370.780 6        37.977 6
G10  24516017.844 7 128832501.353 7     -1479.878 7        44.931 7  24516020.788 6         0.000 6     -1153.153 6        37.977 6
G12  20564505.304 9 108067187.172 9     -1089.825 9        57.194 9  20564504.039 6         0.000 6      -849.215 6        37.977 6
G15  23180379.369 8 121813687.787 8     -3340.495 8        50.706 8  23180378.923 6         0.000 6     -2602.984 6        37.977 6
G20  24860295.832 7 130641690.134 7     -1964.488 7        43.467 7  24860296.961 6         0.000 6     -1530.771 6        37.977 6
G29  22754261.904 8 119574425.506 8      3463.929 8        50.814 8  22754261.722 6         0.000 6      2699.166 6        37.977 6
G19  24587446.393 7 129207859.787 7     -3315.305 7        44.621 7  24587446.066 6         0.000 6     -2583.356 6        37.977 6
G24  20899143.127 9 109825720.773 9      -641.047 9        57.091 9  20899144.753 6         0.000 6      -499.518 6        37.977 6
G32  23499452.277 8 123490422.790 8      2878.820 8        48.785 8  23499454.363 6         0.000 6      2243.238 6        37.977 6
G02  24203870.117 7 127192158.986 7      1345.532 7        46.883 7  24203868.418 6         0.000 6      1048.468 6        37.977 6
G25  21482052.227 9 112888926.091 9      1060.453 9        55.254 9  21482054.650 6         0.000 6       826.327 6        37.977 6
> 2019 07 03 18 01 35.0000000  0 11       0.000000000000
G06  24984434.172 7 131294042.098 7       475.372 7        43.462 7  24984437.794 6         0.000 6       370.420 6        37.977 6
G10  24516299.482 7 128833981.370 7     -1480.163 7        44.931 7  24516302.427 6         0.000 6     -1153.374 6        37.977 6
G12  20564712.717 9 108068277.133 9     -1090.099 9        57.194 9  20564711.452 6         0.000 6      -849.428 6        37.977 6
G15  23181015.058 8 121817028.356 8     -3340.651 8        50.705 8  23181014.613 6         0.000 6     -2603.105 6        37.977 6
G20  24860669.660 7 130643654.611 7     -1964.473 7        43.467 7  24860670.789 6         0.000 6     -1530.759 6        37.977 6
G29  22753602.763 8 119570961.701 8      3463.691 8        50.815 8  22753602.581 6         0.000 6      2698.981 6        37.977 6
G19  24588077.303 7 129211175.234 7     -3315.601 7        44.621 7  24588076.976 6         0.000 6     -2583.587 6        37.977 6
G24  20899265.144 9 109826361.977 9      -641.363 9        57.091 9  20899266.770 6         0.000 6      -499.763 6        37.977 6
G32  23498904.489 8 123487544.149 8      2878.471 8        48.785 8  23498906.575 6         0.000 6      2242.965 6        37.977 6
G02  24203614.094 7 127190813.579 7      1345.286 7        46.883 7  24203612.395 6         0.000 6      1048.275 6        37.977 6
G25  21481850.460 9 112887865.799 9      1060.132 9        55.255 9  21481852.883 6         0.000 6       826.077 6        37.977 6
> 2019 07 03 18 01 36.0000000  0 11       0.000000000000
G06  24984343.756 7 131293566.958 7       474.909 7        43.462 7  24984347.378 6         0.000 6       370.059 6        37.977 6
G10  24516581.175 7 128835461.672 7     -1480.447 7        44.931 7  24516584.119 6         0.000 6     -1153.595 6        37.977 6
G12  20564920.182 9 108069367.368 9     -1090.372 9        57.193 9  20564918.916 6         0.000 6      -849.641 6        37.977 6
G15  23181650.778 8 121820369.080 8     -3340.806 8        50.705 8  23181650.332 6         0.000 6     -2603.226 6        37.977 6
G20  24861043.485 7 130645619.073 7     -1964.458 7        43.467 7  24861044.615 6         0.000 6     -1530.747 6        37.977 6
G29  22752943.667 8 119567498.132 8      3463.454 8        50.815 8  22752943.484 6         0.000 6      2698.796 6        37.977 6
G19  24588708.269 7 129214490.978 7     -3315.898 7        44.620 7  24588707.942 6         0.000 6     -2583.818 6        37.977 6
G24  20899387.221 9 109827003.498 9      -641.679 9        57.091 9  20899388.848 6         0.000 6      -500.009 6        37.977 6
G32  23498356.768 8 123484665.857 8      2878.121 8        48.785 8  23498358.853 6         0.000 6      2242.692 6        37.977 6
G02  24203358.118 7 127189468.420 7      1345.039 7        46.883 7  24203356.418 6         0.000 6      1048.083 6        37.977 6
G25  21481648.754 9 112886805.829 9      1059.811 9        55.255 9  21481651.178 6         0.000 6       825.827 6        37.977 6
> 2019 07 03 18 01 37.0000000  0 11       0.000000000000
G06  24984253.428 7 131293092.281 7       474.447 7        43.462 7  24984257.050 6         0.000 6       369.699 6        37.977 6
G10  24516862.921 7 128836942.259 7     -1480.731 7        44.931 7  24516865.866 6         0.000 6     -1153.817 6        37.977 6
G12  20565127.698 9 108070457.876 9     -1090.645 9        57.193 9  20565126.433 6         0.000 6      -849.853 6        37.977 6
G15  23182286.527 8 121823709.959 8     -3340.961 8        50.705 8  23182286.082 6         0.000 6     -2603.347 6        37.977 6
G20  24861417.308 7 130647583.519 7     -1964.443 7        43.467 7  24861418.438 6         0.000 6     -1530.735 6        37.977 6
G29  22752284.616 8 119564034.801 8      3463.217 8        50.815 8  22752284.433 6         0.000 6      2698.612 6        37.977 6
G19  24589339.292 7 129217807.018 7     -3316.194 7        44.620 7  24589338.965 6         0.000 6     -2584.049 6        37.977 6
G24  20899509.359 9 109827645.334 9      -641.994 9        57.091 9  20899510.985 6         0.000 6      -500.255 6        37.977 6
G32  23497809.113 8 123481787.915 8      2877.771 8        48.785 8  23497811.198 6         0.000 6      2242.420 6        37.977 6
G02  24203102.189 7 127188123.507 7      1344.792 7        46.883 7  24203100.489 6         0.000 6      1047.891 6        37.977 6
G25  21481447.109 9 112885746.180 9      1059.489 9        55.255 9  21481449.533 6         0.000 6       825.576 6        37.977 6
> 2019 07 03 18 01 38.0000000  0 11       0.000000000000
G06  24984163.187 7 131292618.066 7       473.984 7        43.462 7  24984166.809 6         0.000 6       369.339 6        37.977 6
G10  24517144.722 7 128838423.129 7     -1481.015 7        44.931 7  24517147.667 6         0.000 6     -1154.038 6        37.977 6
G12  20565335.267 9 108071548.656 9     -1090.918 9        57.193 9  20565334.002 6         0.000 6      -850.066 6        37.977 6
G15  23182922.305 8 121827050.993 8     -3341.116 8        50.705 8  23182921.860 6         0.000 6     -2603.468 6        37.977 6
G20  24861791.127 7 130649547.951 7     -1964.427 7        43.467 7  24861792.257 6         0.000 6     -1530.723 6        37.977 6
G29  22751625.610 8 119560571.707 8      3462.979 8        51.052 8  22751625.427 6         0.000 6      2698.426 6        37.977 6
G19  24589970.371 7 129221123.355 7     -3316.490 7        44.620 7  24589970.044 6         0.000 6     -2584.280 6        37.977 6
G24  20899631.556 9 109828287.485 9      -642.310 9        57.091 9  20899633.183 6         0.000 6      -500.501 6        37.977 6
G32  23497261.525 8 123478910.324 8      2877.421 8        48.785 8  23497263.609 6         0.000 6      2242.147 6        37.977 6
G02  24202846.307 7 127186778.840 7      1344.545 7        46.883 7  24202844.607 6         0.000 6      1047.698 6        37.977 6
G25  21481245.526 9 112884686.852 9      1059.168 9        55.255 9  21481247.949 6         0.000 6       825.326 6        37.977 6
> 2019 07 03 18 01 39.0000000  0 11       0.000000000000
G06  24984073.035 7 131292144.314 7       473.522 7        43.462 7  24984076.657 6         0.000 6       368.978 6        37.977 6
G10  24517426.577 7 128839904.283 7     -1481.298 7        44.930 7  24517429.522 6         0.000 6     -1154.259 6        37.977 6
G12  20565542.888 9 108072639.710 9     -1091.191 9        57.193 9  20565541.623 6         0.000 6      -850.279 6        37.977 6
G15  23183558.113 8 121830392.182 8     -3341.271 8        50.704 8  23183557.669 6         0.000 6     -2603.589 6        37.977 6
G20  24862164.944 7 130651512.367 7     -1964.412 7        43.466 7  24862166.074 6         0.000 6     -1530.711 6        37.977 6
G29  22750966.650 8 119557108.851 8      3462.742 8        51.053 8  22750966.467 6         0.000 6      2698.241 6        37.977 6
G19  24590601.506 7 129224439.987 7     -3316.786 7        44.620 7  24590601.180 6         0.000 6     -2584.510 6        37.977 6
G24  20899753.814 9 109828929.953 9      -642.625 9        57.091 9  20899755.440 6         0.000 6      -500.747 6        37.977 6
G32  23496714.003 8 123476033.082 8      2877.070 8        48.786 8  23496716.087 6         0.000 6      2241.874 6        37.977 6
G02  24202590.472 7 127185434.421 7      1344.298 7        46.883 7  24202588.772 6         0.000 6      1047.506 6        37.977 6
G25  21481044.003 9 112883627.846 9      1058.847 9        55.255 9  21481046.427 6         0.000 6       825.076 6        37.977 6
> 2019 07 03 18 01 40.0000000  0 11       0.000000000000
G06  24983982.971 7 131291671.024 7       473.059 7        43.462 7  24983986.593 6         0.000 6       368.618 6        37.977 6
G10  24517708.485 7 128841385.720 7     -1481.582 7        44.930 7  24517711.431 6         0.000 6     -1154.480 6        37.977 6
G12  20565750.561 9 108073731.037 9     -1091.464 9        57.193 9  20565749.296 6         0.000 6      -850.492 6        37.977 6
G15  23184193.951 8 121833733.526 8     -3341.425 8        50.704 8  23184193.506 6         0.000 6     -2603.709 6        37.977 6
G20  24862538.758 7 130653476.767 7     -1964.396 7        43.466 7  24862539.888 6         0.000 6     -1530.699 6        37.977 6
G29  22750307.735 8 119553646.233 8      3462.504 8        51.053 8  22750307.551 6         0.000 6      2698.056 6        37.977 6
G19  24591232.698 7 129227756.916 7     -3317.082 7        44.619 7  24591232.372 6         0.000 6     -2584.741 6        37.977 6
G24  20899876.131 9 109829572.736 9      -642.941 9        57.091 9  20899877.758 6         0.000 6      -500.993 6        37.977 6
G32  23496166.548 8 123473156.191 8      2876.720 8        48.786 8  23496168.632 6         0.000 6      2241.601 6        37.977 6
G02  24202334.684 7 127184090.249 7      1344.051 7        46.883 7  24202332.984 6         0.000 6      1047.313 6        37.977 6
G25  21480842.542 9 112882569.161 9      1058.526 9        55.255 9  21480844.965 6         0.000 6       824.825 6        37.977 6
> 2019 07 03 18 01 41.0000000  0 11       0.000000000000
G06  24983892.995 7 131291198.197 7       472.597 7        43.462 7  24983896.617 6         0.000 6       368.257 6        37.977 6
G10  24517990.448 7 128842867.442 7     -1481.866 7        44.930 7  24517993.394 6         0.000 6     -1154.701 6        37.977 6
G12  20565958.286 9 108074822.637 9     -1091.737 9        57.193 9  20565957.021 6         0.000 6      -850.704 6        37.977 6
G15  23184829.817 8 121837075.024 8     -3341.580 8        50.704 8  23184829.373 6         0.000 6     -2603.830 6        37.977 6
G20  24862912.568 7 130655441.152 7     -1964.381 7        43.466 7  24862913.699 6         0.000 6     -1530.687 6        37.977 6
G29  22749648.865 8 119550183.852 8      3462.266 8        51.053 8  22749648.681 6         0.000 6      2697.871 6        37.977 6
G19  24591863.946 7 129231074.141 7     -3317.378 7        44.619 7  24591863.620 6         0.000 6     -2584.971 6        37.977 6
G24  20899998.509 9 109830215.834 9      -643.257 9        57.091 9  20900000.135 6         0.000 6      -501.239 6        37.977 6
G32  23495619.160 8 123470279.650 8      2876.370 8        48.786 8  23495621.244 6         0.000 6      2241.328 6        37.977 6
G02  24202078.943 7 127182746.324 7      1343.804 7        46.883 7  24202077.243 6         0.000 6      1047.121 6        37.977 6
G25  21480641.142 9 112881510.797 9      1058.204 9        55.255 9  21480643.565 6         0.000 6       824.575 6        37.977 6
> 2019 07 03 18 01 42.0000000  0 11       0.000000000000
G06  24983803.107 7 131290725.833 7       472.134 7        43.462 7  24983806.728 6         0.000 6       367.897 6        37.977 6
G10  24518272.465 7 128844349.447 7     -1482.149 7        44.930 7  24518275.410 6         0.000 6     -1154.922 6        37.977 6
G12  20566166.062 9 108075914.510 9     -1092.010 9        57.193 9  20566164.797 6         0.000 6      -850.917 6        37.977 6
G15  23185465.714 8 121840416.678 8     -3341.735 8        50.704 8  23185465.270 6         0.000 6     -2603.950 6        37.977 6
G20  24863286.376 7 130657405.521 7     -1964.365 7        43.466 7  24863287.507 6         0.000 6     -1530.675 6        37.977 6
G29  22748990.040 8 119546721.710 8      3462.028 8        51.053 8  22748989.856 6         0.000 6      2697.685 6        37.977 6
G19  24592495.250 7 129234391.661 7     -3317.674 7        44.619 7  24592494.925 6         0.000 6     -2585.202 6        37.977 6
G24  20900120.947 9 109830859.249 9      -643.573 9        57.091 9  20900122.573 6         0.000 6      -501.485 6        37.977 6
G32  23495071.838 8 123467403.460 8      2876.019 8        48.786 8  23495073.922 6         0.000 6      2241.055 6        37.977 6
G02  24201823.249 7 127181402.647 7      1343.557 7        46.883 7  24201821.549 6         0.000 6      1046.928 6        37.977 6
G25  21480439.803 9 112880452.754 9      1057.883 9        55.255 9  21480442.226 6         0.000 6       824.325 6        37.977 6
> 2019 07 03 18 01 43.0000000  0 11       0.000000000000
G06  24983713.307 7 131290253.931 7       471.671 7        43.462 7  24983716.928 6         0.000 6       367.536 6        37.977 6
G10  24518554.535 7 128845831.735 7     -1482.433 7        44.930 7  24518557.481 6         0.000 6     -1155.143 6        37.977 6
G12  20566373.891 9 108077006.656 9     -1092.283 9        57.193 9  20566372.626 6         0.000 6      -851.130 6        37.977 6
G15  23186101.639 8 121843758.486 8     -3341.889 8        50.704 8  23186101.196 6         0.000 6     -2604.071 6        37.977 6
G20  24863660.181 7 130659369.875 7     -1964.349 7        43.466 7  24863661.312 6         0.000 6     -1530.662 6        37.977 6
G29  22748331.261 8 119543259.805 8      3461.790 8        51.054 8  22748331.076 6         0.000 6      2697.500 6        37.977 6
G19  24593126.610 7 129237709.477 7     -3317.970 7        44.619 7  24593126.286 6         0.000 6     -2585.432 6        37.977 6
G24  20900243.444 9 109831502.979 9      -643.888 9        57.091 9  20900245.071 6         0.000 6      -501.731 6        37.977 6
G32  23494524.583 8 123464527.620 8      2875.668 8        48.786 8  23494526.667 6         0.000 6      2240.782 6        37.977 6
G02  24201567.603 7 127180059.216 7      1343.309 7        46.883 7  24201565.902 6         0.000 6      1046.735 6        37.977 6
G25  21480238.525 9 112879395.032 9      1057.562 9        55.255 9  21480240.948 6         0.000 6       824.075 6        37.977 6
> 2019 07 03 18 01 44.0000000  0 11       0.000000000000
G06  24983623.595 7 131289782.492 7       471.208 7        43.462 7  24983627.216 6         0.000 6       367.176 6        37.977 6
G10  24518836.660 7 128847314.307 7     -1482.716 7        44.930 7  24518839.606 6         0.000 6     -1155.364 6        37.977 6
G12  20566581.771 9 108078099.074 9     -1092.555 9        57.193 9  20566580.506 6         0.000 6      -851.342 6        37.977 6
G15  23186737.594 8 121847100.448 8     -3342.044 8        50.703 8  23186737.151 6         0.000 6     -2604.191 6        37.977 6
G20  24864033.982 7 130661334.212 7     -1964.333 7        43.466 7  24864035.114 6         0.000 6     -1530.650 6        37.977 6
G29  22747672.526 8 119539798.138 8      3461.552 8        51.054 8  22747672.342 6         0.000 6      2697.314 6        37.977 6
G19  24593758.027 7 129241027.589 7     -3318.265 7        44.619 7  24593757.703 6         0.000 6     -2585.663 6        37.977 6
G24  20900366.002 9 109832147.024 9      -644.204 9        57.091 9  20900367.629 6         0.000 6      -501.977 6        37.977 6
G32  23493977.395 8 123461652.131 8      2875.318 8        48.787 8  23493979.478 6         0.000 6      2240.508 6        37.977 6
G02  24201312.003 7 127178716.034 7      1343.062 7        46.883 7  24201310.302 6         0.000 6      1046.542 6        37.977 6
G25  21480037.308 9 112878337.631 9      1057.241 9        55.255 9  21480039.731 6         0.000 6       823.824 6        37.977 6
> 2019 07 03 18 01 45.0000000  0 11       0.000000000000
G06  24983533.971 7 131289311.516 7       470.745 7        43.462 7  24983537.592 6         0.000 6       366.815 6        37.977 6
G10  24519118.838 7 128848797.162 7     -1482.999 7        44.930 7  24519121.784 6         0.000 6     -1155.584 6        37.977 6
G12  20566789.703 9 108079191.765 9     -1092.828 9        57.193 9  20566788.439 6         0.000 6      -851.555 6        37.977 6
G15  23187373.579 8 121850442.565 8     -3342.198 8        50.703 8  23187373.136 6         0.000 6     -2604.311 6        37.977 6
G20  24864407.781 7 130663298.534 7     -1964.317 7        43.466 7  24864408.912 6         0.000 6     -1530.637 6        37.977 6
G29  22747013.838 8 119536336.710 8      3461.314 8        51.054 8  22747013.653 6         0.000 6      2697.129 6        37.977 6
G19  24594389.500 7 129244345.996 7     -3318.561 7        44.618 7  24594389.176 6         0.000 6     -2585.893 6        37.977 6
G24  20900488.620 9 109832791.386 9      -644.520 9        57.090 9  20900490.247 6         0.000 6      -502.223 6        37.977 6
G32  23493430.274 8 123458776.992 8      2874.967 8        48.787 8  23493432.357 6         0.000 6      2240.235 6        37.977 6
G02  24201056.450 7 127177373.098 7      1342.814 7        46.884 7  24201054.749 6         0.000 6      1046.349 6        37.977 6
G25  21479836.152 9 112877280.551 9      1056.920 9        55.255 9  21479838.575 6         0.000 6       823.574 6        37.977 6
> 2019 07 03 18 01 46.0000000  0 11       0.000000000000
G06  24983444.435 7 131288841.003 7       470.283 7        43.462 7  24983448.056 6         0.000 6       366.454 6        37.977 6
G10  24519401.071 7 128850280.300 7     -1483.282 7        44.930 7  24519404.017 6         0.000 6     -1155.805 6        37.977 6
G12  20566997.688 9 108080284.729 9     -1093.101 9        57.193 9  20566996.423 6         0.000 6      -851.767 6        37.977 6
G15  23188009.593 8 121853784.835 8     -3342.352 8        50.703 8  23188009.150 6         0.000 6     -2604.431 6        37.977 6
G20  24864781.576 7 130665262.839 7     -1964.301 7        43.465 7  24864782.708 6         0.000 6     -1530.625 6        37.977 6
G29  22746355.194 8 119532875.519 8      3461.075 8        51.054 8  22746355.009 6         0.000 6      2696.943 6        37.977 6
G19  24595021.029 7 129247664.699 7     -3318.856 7        44.618 7  24595020.706 6         0.000 6     -2586.123 6        37.977 6
G24  20900611.298 9 109833436.064 9      -644.836 9        57.090 9  20900612.925 6         0.000 6      -502.470 6        37.977 6
G32  23492883.219 8 123455902.205 8      2874.616 8        48.787 8  23492885.302 6         0.000 6      2239.962 6        37.977 6
G02  24200800.945 7 127176030.410 7      1342.567 7        46.884 7  24200799.244 6         0.000 6      1046.156 6        37.977 6
G25  21479635.058 9 112876223.793 9      1056.599 9        55.255 9  21479637.481 6         0.000 6       823.324 6        37.977 6
> 2019 07 03 18 01 47.0000000  0 11       0.000000000000
G06  24983354.987 7 131288370.953 7       469.820 7        43.462 7  24983358.609 6         0.000 6       366.093 6        37.977 6
G10  24519683.357 7 128851763.721 7     -1483.565 7        44.930 7  24519686.303 6         0.000 6     -1156.026 6        37.977 6
G12  20567205.724 9 108081377.965 9     -1093.373 9        57.193 9  20567204.459 6         0.000 6      -851.979 6        37.977 6
G15  23188645.636 8 121857127.261 8     -3342.506 8        50.703 8  23188645.193 6         0.000 6     -2604.551 6        37.977 6
G20  24865155.369 7 130667227.129 7     -1964.285 7        43.465 7  24865156.501 6         0.000 6     -1530.612 6        37.977 6
G29  22745696.596 8 119529414.567 8      3460.837 8        51.055 8  22745696.411 6         0.000 6      2696.757 6        37.977 6
G19  24595652.615 7 129250983.697 7     -3319.151 7        44.618 7  24595652.291 6         0.000 6     -2586.353 6        37.977 6
G24  20900734.037 9 109834081.057 9      -645.152 9        57.090 9  20900735.663 6         0.000 6      -502.716 6        37.977 6
G32  23492336.231 8 123453027.768 8      2874.265 8        48.787 8  23492338.314 6         0.000 6      2239.688 6        37.977 6
G02  24200545.486 7 127174687.970 7      1342.319 7        46.884 7  24200543.785 6         0.000 6      1045.963 6        37.977 6
G25  21479434.024 9 112875167.355 9      1056.278 9        55.256 9  21479436.447 6         0.000 6       823.074 6        37.977 6
> 2019 07 03 18 01 48.0000000  0 11       0.000000000000
G06  24983265.628 7 131287901.366 7       469.356 7        43.462 7  24983269.249 6         0.000 6       365.733 6        37.977 6
G10  24519965.697 7 128853247.425 7     -1483.848 7        44.930 7  24519968.643 6         0.000 6     -1156.246 6        37.977 6
G12  20567413.812 9 108082471.474 9     -1093.646 9        57.192 9  20567412.547 6         0.000 6      -852.192 6        37.977 6
G15  23189281.708 8 121860469.840 8     -3342.660 8        50.702 8  23189281.266 6         0.000 6     -2604.671 6        37.977 6
G20  24865529.158 7 130669191.402 7     -1964.268 7        43.465 7  24865530.290 6         0.000 6     -1530.599 6        37.977 6
G29  22745038.044 8 119525953.854 8      3460.598 8        51.055 8  22745037.858 6         0.000 6      2696.571 6        37.977 6
G19  24596284.256 7 129254302.990 7     -3319.446 7        44.618 7  24596283.933 6         0.000 6     -2586.583 6        37.977 6
G24  20900856.835 9 109834726.366 9      -645.468 9        57.090 9  20900858.462 6         0.000 6      -502.962 6        37.977 6
G32  23491789.310 8 123450153.682 8      2873.914 8        48.787 8  23491791.392 6         0.000 6      2239.415 6        37.977 6
G02  24200290.075 7 127173345.778 7      1342.071 7        46.884 7  24200288.374 6         0.000 6      1045.770 6        37.977 6
G25  21479233.052 9 112874111.239 9      1055.957 9        55.256 9  21479235.474 6         0.000 6       822.824 6        37.977 6
> 2019 07 03 18 01 49.0000000  0 11       0.000000000000
G06  24983176.356 7 131287432.242 7       468.893 7        43.462 7  24983179.977 6         0.000 6       365.372 6        37.977 6
G10  24520248.091 7 128854731.412 7     -1484.131 7        44.929 7  24520251.037 6         0.000 6     -1156.466 6        37.977 6
G12  20567621.952 9 108083565.255 9     -1093.918 9        57.192 9  20567620.687 6         0.000 6      -852.404 6        37.977 6
G15  23189917.810 8 121863812.573 8     -3342.814 8        50.702 8  23189917.368 6         0.000 6     -2604.791 6        37.977 6
G20  24865902.944 7 130671155.658 7     -1964.252 7        43.465 7  24865904.077 6         0.000 6     -1530.587 6        37.977 6
G29  22744379.536 8 119522493.379 8      3460.360 8        51.055 8  22744379.351 6         0.000 6      2696.385 6        37.977 6
G19  24596915.954 7 129257622.578 7     -3319.741 7        44.617 7  24596915.631 6         0.000 6     -2586.813 6        37.977 6
G24  20900979.693 9 109835371.992 9      -645.784 9        57.090 9  20900981.320 6         0.000 6      -503.208 6        37.977 6
G32  23491242.456 8 123447279.948 8      2873.563 8        48.788 8  23491244.538 6         0.000 6      2239.141 6        37.977 6
G02  24200034.711 7 127172003.834 7      1341.823 7        46.884 7  24200033.009 6         0.000 6      1045.577 6        37.977 6
G25  21479032.140 9 112873055.443 9      1055.636 9        55.256 9  21479034.563 6         0.000 6       822.574 6        37.977 6
> 2019 07 03 18 01 50.0000000  0 11       0.000000000000
G06  24983087.173 7 131286963.581 7       468.430 7        43.462 7  24983090.794 6         0.000 6       365.011 6        37.977 6
G10  24520530.538 7 128856215.682 7     -1484.414 7        44.929 7  24520533.485 6         0.000 6     -1156.687 6        37.977 6
G12  20567830.143 9 108084659.309 9     -1094.190 9        57.192 9  20567828.879 6         0.000 6      -852.616 6        37.977 6
G15  23190553.941 8 121867155.460 8     -3342.968 8        50.702 8  23190553.499 6         0.000 6     -2604.911 6        37.977 6
G20  24866276.728 7 130673119.898 7     -1964.235 7        43.465 7  24866277.860 6         0.000 6     -1530.574 6        37.977 6
G29  22743721.074 8 119519033.143 8      3460.121 8        51.055 8  22743720.888 6         0.000 6      2696.199 6        37.977 6
G19  24597547.708 7 129260942.461 7     -3320.036 7        44.617 7  24597547.386 6         0.000 6     -2587.043 6        37.977 6
G24  20901102.612 9 109836017.933 9      -646.100 9        57.090 9  20901104.239 6         0.000 6      -503.454 6        37.977 6
G32  23490695.668 8 123444406.564 8      2873.212 8        48.788 8  23490697.750 6         0.000 6      2238.867 6        37.977 6
G02  24199779.394 7 127170662.137 7      1341.575 7        46.884 7  24199777.692 6         0.000 6      1045.384 6        37.977 6
G25  21478831.290 9 112871999.968 9      1055.315 9        55.256 9  21478833.713 6         0.000 6       822.324 6        37.977 6
> 2019 07 03 18 01 51.0000000  0 11       0.000000000000
G06  24982998.077 7 131286495.384 7       467.967 7        43.462 7  24983001.699 6         0.000 6       364.650 6        37.977 6
G10  24520813.040 7 128857700.234 7     -1484.696 7        44.929 7  24520815.987 6         0.000 6     -1156.907 6        37.977 6
G12  20568038.387 9 108085753.634 9     -1094.463 9        57.192 9  20568037.122 6         0.000 6      -852.828 6        37.977 6
G15  23191190.101 8 121870498.501 8     -3343.122 8        50.702 8  23191189.660 6         0.000 6     -2605.031 6        37.977 6
G20  24866650.507 7 130675084.122 7     -1964.219 7        43.465 7  24866651.640 6         0.000 6     -1530.561 6        37.977 6
G29  22743062.658 8 119515573.146 8      3459.882 8        51.056 8  22743062.472 6         0.000 6      2696.013 6        37.977 6
G19  24598179.518 7 129264262.639 7     -3320.331 7        44.617 7  24598179.196 6         0.000 6     -2587.272 6        37.977 6
G24  20901225.591 9 109836664.190 9      -646.416 9        57.090 9  20901227.218 6         0.000 6      -503.700 6        37.977 6
G32  23490148.948 8 123441533.532 8      2872.860 8        48.788 8  23490151.029 6         0.000 6      2238.593 6        37.977 6
G02  24199524.125 7 127169320.689 7      1341.327 7        46.884 7  24199522.423 6         0.000 6      1045.191 6        37.977 6
G25  21478630.501 9 112870944.814 9      1054.994 9        55.256 9  21478632.923 6         0.000 6       822.074 6        37.977 6
> 2019 07 03 18 01 52.0000000  0 11       0.000000000000
G06  24982909.070 7 131286027.649 7       467.504 7        43.462 7  24982912.692 6         0.000 6       364.289 6        37.977 6
G10  24521095.595 7 128859185.069 7     -1484.979 7        44.929 7  24521098.542 6         0.000 6     -1157.127 6        37.977 6
G12  20568246.682 9 108086848.233 9     -1094.735 9        57.192 9  20568245.417 6         0.000 6      -853.040 6        37.977 6
G15  23191826.291 8 121873841.695 8     -3343.276 8        50.701 8  23191825.849 6         0.000 6     -2605.151 6        37.977 6
G20  24867024.284 7 130677048.328 7     -1964.202 7        43.465 7  24867025.417 6         0.000 6     -1530.548 6        37.977 6
G29  22742404.287 8 119512113.388 8      3459.643 8        51.056 8  22742404.101 6         0.000 6      2695.827 6        37.977 6
G19  24598811.384 7 129267583.112 7     -3320.626 7        44.617 7  24598811.062 6         0.000 6     -2587.502 6        37.977 6
G24  20901348.630 9 109837310.763 9      -646.732 9        57.090 9  20901350.256 6         0.000 6      -503.947 6        37.977 6
G32  23489602.294 8 123438660.852 8      2872.509 8        48.788 8  23489604.376 6         0.000 6      2238.320 6        37.977 6
G02  24199268.902 7 127167979.489 7      1341.079 7        46.884 7  24199267.200 6         0.000 6      1044.997 6        37.977 6
G25  21478429.772 9 112869889.981 9      1054.673 9        55.256 9  21478432.195 6         0.000 6       821.824 6        37.977 6
> 2019 07 03 18 01 53.0000000  0 11       0.000000000000
G06  24982820.151 7 131285560.378 7       467.040 7        43.462 7  24982823.773 6         0.000 6       363.928 6        37.977 6
G10  24521378.204 7 128860670.187 7     -1485.261 7        44.929 7  24521381.151 6         0.000 6     -1157.347 6        37.977 6
G12  20568455.029 9 108087943.103 9     -1095.007 9        57.192 9  20568453.764 6         0.000 6      -853.252 6        37.977 6
G15  23192462.510 8 121877185.044 8     -3343.429 8        50.701 8  23192462.068 6         0.000 6     -2605.270 6        37.977 6
G20  24867398.058 7 130679012.518 7     -1964.185 7        43.465 7  24867399.191 6         0.000 6     -1530.535 6        37.977 6
G29  22741745.962 8 119508653.868 8      3459.404 8        51.056 8  22741745.775 6         0.000 6      2695.641 6        37.977 6
G19  24599443.306 7 129270903.880 7     -3320.920 7        44.617 7  24599442.985 6         0.000 6     -2587.732 6        37.977 6
G24  20901471.729 9 109837957.652 9      -647.048 9        57.090 9  20901473.355 6         0.000 6      -504.193 6        37.977 6
G32  23489055.707 8 123435788.523 8      2872.157 8        48.788 8  23489057.789 6         0.000 6      2238.046 6        37.977 6
G02  24199013.727 7 127166638.537 7      1340.831 7        46.884 7  24199012.025 6         0.000 6      1044.804 6        37.977 6
G25  21478229.105 9 112868835.469 9      1054.353 9        55.256 9  21478231.528 6         0.000 6       821.574 6        37.977 6
> 2019 07 03 18 01 54.0000000  0 12       0.000000000000
G06  24982731.321 7 131285093.571 7       466.577 7        43.462 7  24982734.942 6         0.000 6       363.567 6        37.977 6
G10  24521660.867 7 128862155.586 7     -1485.543 7        44.929 7  24521663.814 6         0.000 6     -1157.567 6        37.977 6
G12  20568663.428 9 108089038.245 9     -1095.279 9        57.192 9  20568662.163 6         0.000 6      -853.464 6        37.977 6
G15  23193098.758 8 121880528.545 8     -3343.583 8        50.701 8  23193098.317 6         0.000 6     -2605.390 6        37.977 6
G20  24867771.828 7 130680976.691 7     -1964.168 7        43.464 7  24867772.962 6         0.000 6     -1530.521 6        37.977 6
G29  22741087.682 8 119505194.588 8      3459.165 8        51.056 8  22741087.495 6         0.000 6      2695.454 6        37.977 6
G19  24600075.284 7 129274224.942 7     -3321.215 7        44.616 7  24600074.963 6         0.000 6     -2587.961 6        37.977 6
G24  20901594.888 9 109838604.858 9      -647.364 9        57.090 9  20901596.515 6         0.000 6      -504.439 6        37.977 6
G32  23488509.187 8 123432916.545 8      2871.806 8        48.789 8  23488511.268 6         0.000 6      2237.772 6        37.977 6
G02  24198758.599 7 127165297.833 7      1340.582 7        46.884 7  24198756.897 6         0.000 6      1044.610 6        37.977 6
G25  21478028.499 9 112867781.278 9      1054.032 9        55.256 9  21478030.922 6         0.000 6       821.324 6        37.977 6
G14  25544634.396 7 134237912.208 7      3368.153 7        42.962 7  25544635.428 6         0.000 6      2624.535 6        37.977 6
> 2019 07 03 18 01 55.0000000  0 12       0.000000000000
G06  24982642.578 7 131284627.227 7       466.113 7        43.462 7  24982646.199 6         0.000 6       363.205 6        37.977 6
G10  24521943.583 7 128863641.268 7     -1485.826 7        44.929 7  24521946.531 6         0.000 6     -1157.787 6        37.977 6
G12  20568871.878 9 108090133.660 9     -1095.551 9        57.192 9  20568870.614 6         0.000 6      -853.676 6        37.977 6
G15  23193735.035 8 121883872.200 8     -3343.736 8        50.701 8  23193734.594 6         0.000 6     -2605.510 6        37.977 6
G20  24868145.595 7 130682940.847 7     -1964.151 7        43.464 7  24868146.729 6         0.000 6     -1530.508 6        37.977 6
G29  22740429.447 8 119501735.547 8      3458.926 8        51.057 8  22740429.260 6         0.000 6      2695.268 6        37.977 6
G19  24600707.318 7 129277546.298 7     -3321.509 7        44.616 7  24600706.998 6         0.000 6     -2588.191 6        37.977 6
G24  20901718.107 9 109839252.379 9      -647.680 9        57.090 9  20901719.734 6         0.000 6      -504.686 6        37.977 6
G32  23487962.735 8 123430044.920 8      2871.454 8        48.789 8  23487964.815 6         0.000 6      2237.497 6        37.977 6
G02  24198503.518 7 127163957.378 7      1340.334 7        46.884 7  24198501.816 6         0.000 6      1044.417 6        37.977 6
G25  21477827.954 9 112866727.407 9      1053.711 9        55.256 9  21477830.376 6         0.000 6       821.074 6        37.977 6
G14  25543993.444 7 134234543.988 7      3368.173 7        42.962 7  25543994.476 6         0.000 6      2624.552 6        37.977 6
> 2019 07 03 18 01 56.0000000  0 12       0.000000000000
G06  24982553.924 7 131284161.346 7       465.650 7        43.462 7  24982557.545 6         0.000 6       362.844 6        37.977 6
G10  24522226.353 7 128865127.232 7     -1486.108 7        44.929 7  24522229.301 6         0.000 6     -1158.007 6        37.977 6
G12  20569080.381 9 108091229.346 9     -1095.823 9        57.192 9  20569079.116 6         0.000 6      -853.888 6        37.977 6
G15  23194371.341 8 121887216.009 8     -3343.889 8        50.700 8  23194370.901 6         0.000 6     -2605.629 6        37.977 6
G20  24868519.359 7 130684904.986 7     -1964.134 7        43.464 7  24868520.493 6         0.000 6     -1530.495 6        37.977 6
G29  22739771.258 8 119498276.745 8      3458.686 8        51.057 8  22739771.071 6         0.000 6      2695.081 6        37.977 6
G19  24601339.409 7 129280867.949 7     -3321.804 7        44.616 7  24601339.088 6         0.000 6     -2588.420 6        37.977 6
G24  20901841.386 9 109839900.217 9      -647.996 9        57.090 9  20901843.013 6         0.000 6      -504.932 6        37.977 6
G32  23487416.348 8 123427173.646 8      2871.102 8        48.789 8  23487418.429 6         0.000 6      2237.223 6        37.977 6
G02  24198248.485 7 127162617.171 7      1340.085 7        46.885 7  24198246.782 6         0.000 6      1044.223 6        37.977 6
G25  21477627.470 9 112865673.858 9      1053.390 9        55.256 9  21477629.892 6         0.000 6       820.824 6        37.977 6
G14  25543352.512 7 134231175.873 7      3368.069 7        42.962 7  25543353.543 6         0.000 6      2624.471 6        37.977 6
> 2019 07 03 18 01 57.0000000  0 12       0.000000000000
G06  24982465.358 7 131283695.929 7       465.186 7        43.462 7  24982468.979 6         0.000 6       362.483 6        37.977 6
G10  24522509.177 7 128866613.478 7     -1486.390 7        44.929 7  24522512.125 6         0.000 6     -1158.226 6        37.977 6
G12  20569288.935 9 108092325.304 9     -1096.095 9        57.192 9  20569287.670 6         0.000 6      -854.100 6        37.977 6
G15  23195007.677 8 121890559.971 8     -3344.042 8        50.700 8  23195007.237 6         0.000 6     -2605.748 6        37.977 6
G20  24868893.120 7 130686869.108 7     -1964.116 7        43.464 7  24868894.254 6         0.000 6     -1530.481 6        37.977 6
G29  22739113.115 8 119494818.183 8      3458.447 8        51.057 8  22739112.927 6         0.000 6      2694.895 6        37.977 6
G19  24601971.555 7 129284189.894 7     -3322.098 7        44.616 7  24601971.235 6         0.000 6     -2588.649 6        37.977 6
G24  20901964.726 9 109840548.370 9      -648.312 9        57.090 9  20901966.353 6         0.000 6      -505.178 6        37.977 6
G32  23486870.029 8 123424302.724 8      2870.750 8        48.789 8  23486872.110 6         0.000 6      2236.949 6        37.977 6
G02  24197993.499 7 127161277.213 7      1339.836 7        46.885 7  24197991.796 6         0.000 6      1044.029 6        37.977 6
G25  21477427.047 9 112864620.629 9      1053.070 9        55.256 9  21477429.469 6         0.000 6       820.574 6        37.977 6
G14  25542711.600 7 134227807.862 7      3367.965 7        42.962 7  25542712.630 6         0.000 6      2624.390 6        37.977 6
> 2019 07 03 18 01 58.0000000  0 12       0.000000000000
G06  24982376.880 7 131283230.976 7       464.723 7        43.462 7  24982380.501 6         0.000 6       362.122 6        37.977 6
G10  24522792.054 7 128868100.007 7     -1486.672 7        44.929 7  24522795.002 6         0.000 6     -1158.446 6        37.977 6
G12  20569497.540 9 108093421.535 9     -1096.367 9        57.192 9  20569496.276 6         0.000 6      -854.312 6        37.977 6
G15  23195644.041 8 121893904.086 8     -3344.196 8        50.700 8  23195643.602 6         0.000 6     -2605.868 6        37.977 6
G20  24869266.877 7 130688833.212 7     -1964.099 7        43.464 7  24869268.011 6         0.000 6     -1530.468 6        37.977 6
G29  22738455.017 8 119491359.860 8      3458.207 8        51.057 8  22738454.829 6         0.000 6      2694.708 6        37.977 6
G19  24602603.757 7 129287512.133 7     -3322.392 7        44.615 7  24602603.438 6         0.000 6     -2588.878 6        37.977 6
G24  20902088.126 9 109841196.840 9      -648.628 9        57.090 9  20902089.753 6         0.000 6      -505.425 6        37.977 6
G32  23486323.777 8 123421432.153 8      2870.398 8        48.789 8  23486325.857 6         0.000 6      2236.675 6        37.977 6
G02  24197738.560 7 127159937.504 7      1339.588 7        46.885 7  24197736.857 6         0.000 6      1043.835 6        37.977 6
G25  21477226.685 9 112863567.720 9      1052.749 9        55.256 9  21477229.107 6         0.000 6       820.324 6        37.977 6
G14  25542070.707 7 134224439.956 7      3367.860 7        42.962 7  25542071.738 6         0.000 6      2624.308 6        37.977 6
> 2019 07 03 18 01 59.0000000  0 12       0.000000000000
G06  24982288.490 7 131282766.486 7       464.259 7        43.462 7  24982292.111 6         0.000 6       361.760 6        37.977 6
G10  24523074.985 7 128869586.816 7     -1486.953 7        44.928 7  24523077.933 6         0.000 6     -1158.666 6        37.977 6
G12  20569706.198 9 108094518.037 9     -1096.639 9        57.191 9  20569704.934 6         0.000 6      -854.524 6        37.977 6
G15  23196280.435 8 121897248.354 8     -3344.349 8        50.700 8  23196279.996 6         0.000 6     -2605.987 6        37.977 6
G20  24869640.631 7 130690797.299 7     -1964.082 7        43.464 7  24869641.765 6         0.000 6     -1530.454 6        37.977 6
G29  22737796.965 8 119487901.777 8      3457.968 8        51.058 8  22737796.777 6         0.000 6      2694.521 6        37.977 6
G19  24603236.015 7 129290834.666 7     -3322.686 7        44.615 7  24603235.696 6         0.000 6     -2589.107 6        37.977 6
G24  20902211.586 9 109841845.626 9      -648.945 9        57.090 9  20902213.213 6         0.000 6      -505.671 6        37.977 6
G32  23485777.592 8 123418561.935 8      2870.046 8        48.790 8  23485779.672 6         0.000 6      2236.400 6        37.977 6
G02  24197483.669 7 127158598.043 7      1339.339 7        46.885 7  24197481.966 6         0.000 6      1043.641 6        37.977 6
G25  21477026.384 9 112862515.132 9      1052.428 9        55.257 9  21477028.806 6         0.000 6       820.074 6        37.977 6
G14  25541429.835 7 134221072.155 7      3367.755 7        42.963 7  25541430.865 6         0.000 6      2624.226 6        37.977 6
> 2019 07 03 18 02  0.0000000  0 12       0.000000000000
G06  24982200.189 7 131282302.460 7       463.795 7        43.462 7  24982203.810 6         0.000 6       361.399 6        37.977 6
G10  24523357.970 7 128871073.908 7     -1487.235 7        44.928 7  24523360.918 6         0.000 6     -1158.885 6        37.977 6
G12  20569914.907 9 108095614.810 9     -1096.910 9        57.191 9  20569913.643 6         0.000 6      -854.735 6        37.977 6
G15  23196916.858 8 121900592.775 8     -3344.501 8        50.699 8  23196916.419 6         0.000 6     -2606.106 6        37.977 6
G20  24870014.382 7 130692761.368 7     -1964.064 7        43.464 7  24870015.516 6         0.000 6     -1530.440 6        37.977 6
G29  22737138.958 8 119484443.933 8      3457.728 8        51.058 8  22737138.770 6         0.000 6      2694.334 6        37.977 6
G19  24603868.329 7 129294157.493 7     -3322.980 7        44.615 7  24603868.010 6         0.000 6     -2589.336 6        37.977 6
G24  20902335.106 9 109842494.729 9      -649.261 9        57.090 9  20902336.733 6         0.000 6      -505.918 6        37.977 6
G32  23485231.474 8 123415692.070 8      2869.694 8        48.790 8  23485233.554 6         0.000 6      2236.126 6        37.977 6
G02  24197228.825 7 127157258.831 7      1339.090 7        46.885 7  24197227.121 6         0.000 6      1043.447 6        37.977 6
G25  21476826.144 9 112861462.865 9      1052.108 9        55.257 9  21476828.566 6         0.000 6       819.824 6        37.977 6
G14  25540788.982 7 134217704.458 7      3367.651 7        42.963 7  25540790.012 6         0.000 6      2624.145 6        37.977 6
> 2019 07 03 18 02  1.0000000  0 12       0.000000000000
G06  24982111.976 7 131281838.898 7       463.331 7        43.462 7  24982115.597 6         0.000 6       361.038 6        37.977 6
G10  24523641.008 7 128872561.281 7     -1487.517 7        44.928 7  24523643.957 6         0.000 6     -1159.105 6        37.977 6
G12  20570123.668 9 108096711.856 9     -1097.182 9        57.191 9  20570122.404 6         0.000 6      -854.947 6        37.977 6
G15  23197553.310 8 121903937.348 8     -3344.654 8        50.699 8  23197552.871 6         0.000 6     -2606.225 6        37.977 6
G20  24870388.129 7 130694725.420 7     -1964.046 7        43.464 7  24870389.264 6         0.000 6     -1530.427 6        37.977 6
G29  22736480.998 8 119480986.330 8      3457.488 8        51.058 8  22736480.809 6         0.000 6      2694.148 6        37.977 6
G19  24604500.699 7 129297480.614 7     -3323.273 7        44.615 7  24604500.381 6         0.000 6     -2589.565 6        37.977 6
G24  20902458.686 9 109843144.147 9      -649.577 9        57.090 9  20902460.313 6         0.000 6      -506.164 6        37.977 6
G32  23484685.423 8 123412822.556 8      2869.341 8        48.790 8  23484687.502 6         0.000 6      2235.851 6        37.977 6
G02  24196974.028 7 127155919.868 7      1338.841 7        46.885 7  24196972.324 6         0.000 6      1043.253 6        37.977 6
G25  21476625.965 9 112860410.919 9      1051.787 9        55.257 9  21476628.387 6         0.000 6       819.575 6        37.977 6
G14  25540148.150 7 134214336.866 7      3367.546 7        42.963 7  25540149.179 6         0.000 6      2624.063 6        37.977 6
> 2019 07 03 18 02  2.0000000  0 12       0.000000000000
G06  24982023.851 7 131281375.799 7       462.867 7        43.463 7  24982027.472 6         0.000 6       360.676 6        37.977 6
G10  24523924.100 7 128874048.936 7     -1487.798 7        44.928 7  24523927.049 6         0.000 6     -1159.324 6        37.977 6
G12  20570332.481 9 108097809.173 9     -1097.453 9        57.191 9  20570331.217 6         0.000 6      -855.159 6        37.977 6
G15  23198189.791 8 121907282.075 8     -3344.807 8        50.699 8  23198189.352 6         0.000 6     -2606.344 6        37.977 6
G20  24870761.873 7 130696689.454 7     -1964.029 7        43.463 7  24870763.008 6         0.000 6     -1530.413 6        37.977 6
G29  22735823.082 8 119477528.966 8      3457.248 8        51.058 8  22735822.893 6         0.000 6      2693.961 6        37.977 6
G19  24605133.125 7 129300804.028 7     -3323.567 7        44.615 7  24605132.807 6         0.000 6     -2589.794 6        37.977 6
G24  20902582.327 9 109843793.883 9      -649.894 9        57.090 9  20902583.954 6         0.000 6      -506.411 6        37.977 6
G32  23484139.439 8 123409953.395 8      2868.989 8        48.790 8  23484141.518 6         0.000 6      2235.577 6        37.977 6
G02  24196719.279 7 127154581.155 7      1338.592 7        46.885 7  24196717.575 6         0.000 6      1043.059 6        37.977 6
G25  21476425.847 9 112859359.293 9      1051.466 9        55.257 9  21476428.269 6         0.000 6       819.325 6        37.977 6
G14  25539507.337 7 134210969.379 7      3367.441 7        42.963 7  25539508.366 6         0.000 6      2623.981 6        37.977 6
> 2019 07 03 18 02  3.0000000  0 12       0.000000000000
G06  24981935.814 7 131280913.165 7       462.403 7        43.463 7  24981939.435 6         0.000 6       360.315 6        37.977 6
G10  24524207.245 7 128875536.873 7     -1488.080 7        44.928 7  24524210.194 6         0.000 6     -1159.543 6        37.977 6
G12  20570541.345 9 108098906.761 9     -1097.725 9        57.191 9  20570540.081 6         0.000 6      -855.370 6        37.977 6
G15  23198826.301 8 121910626.954 8     -3344.960 8        50.699 8  23198825.863 6         0.000 6     -2606.463 6        37.977 6
G20  24871135.613 7 130698653.471 7     -1964.011 7        43.463 7  24871136.749 6         0.000 6     -1530.399 6        37.977 6
G29  22735165.213 8 119474071.843 8      3457.008 8        51.059 8  22735165.023 6         0.000 6      2693.773 6        37.977 6
G19  24605765.607 7 129304127.736 7     -3323.860 7        44.614 7  24605765.289 6         0.000 6     -2590.023 6        37.977 6
G24  20902706.028 9 109844443.934 9      -650.210 9        57.090 9  20902707.655 6         0.000 6      -506.657 6        37.977 6
G32  23483593.522 8 123407084.586 8      2868.636 8        48.790 8  23483595.601 6         0.000 6      2235.302 6        37.977 6
G02  24196464.577 7 127153242.690 7      1338.343 7        46.885 7  24196462.873 6         0.000 6      1042.865 6        37.977 6
G25  21476225.790 9 112858307.988 9      1051.146 9        55.257 9  21476228.212 6         0.000 6       819.075 6        37.977 6
G14  25538866.544 7 134207601.997 7      3367.336 7        42.964 7  25538867.573 6         0.000 6      2623.899 6        37.977 6
> 2019 07 03 18 02  4.0000000  0 12       0.000000000000
G06  24981847.866 7 131280450.994 7       461.939 7        43.463 7  24981851.487 6         0.000 6       359.953 6        37.977 6
G10  24524490.444 7 128877025.090 7     -1488.361 7        44.928 7  24524493.393 6         0.000 6     -1159.762 6        37.977 6
G12  20570750.261 9 108100004.621 9     -1097.996 9        57.191 9  20570748.997 6         0.000 6      -855.582 6        37.977 6
G15  23199462.841 8 121913971.986 8     -3345.112 8        50.699 8  23199462.402 6         0.000 6     -2606.582 6        37.977 6
G20  24871509.350 7 130700617.469 7     -1963.993 7        43.463 7  24871510.486 6         0.000 6     -1530.385 6        37.977 6
G29  22734507.389 8 119470614.959 8      3456.768 8        51.059 8  22734507.199 6         0.000 6      2693.586 6        37.977 6
G19  24606398.144 7 129307451.738 7     -3324.154 7        44.614 7  24606397.827 6         0.000 6     -2590.251 6        37.977 6
G24  20902829.788 9 109845094.302 9      -650.526 9        57.089 9  20902831.416 6         0.000 6      -506.904 6        37.977 6
G32  23483047.673 8 123404216.130 8      2868.284 8        48.791 8  23483049.751 6         0.000 6      2235.027 6        37.977 6
G02  24196209.923 7 127151904.475 7      1338.093 7        46.885 7  24196208.218 6         0.000 6      1042.671 6        37.977 6
G25  21476025.795 9 112857257.003 9      1050.825 9        55.257 9  21476028.216 6         0.000 6       818.825 6        37.977 6
G14  25538225.772 7 134204234.720 7      3367.231 7        42.964 7  25538226.800 6         0.000 6      2623.818 6        37.977 6
> 2019 07 03 18 02  5.0000000  0 12       0.000000000000
G06  24981760.006 7 131279989.288 7       461.475 7        43.791 7  24981763.627 6         0.000 6       359.591 6        37.977 6
G10  24524773.696 7 128878513.589 7     -1488.642 7        44.928 7  24524776.646 6         0.000 6     -1159.981 6        37.977 6
G12  20570959.229 9 108101102.752 9     -1098.268 9        57.191 9  20570957.965 6         0.000 6      -855.793 6        37.977 6
G15  23200099.409 8 121917317.170 8     -3345.265 8        50.698 8  23200098.971 6         0.000 6     -2606.701 6        37.977 6
G20  24871883.084 7 130702581.449 7     -1963.975 7        43.463 7  24871884.220 6         0.000 6     -1530.371 6        37.977 6
G29  22733849.611 8 119467158.316 8      3456.527 8        51.059 8  22733849.421 6         0.000 6      2693.399 6        37.977 6
G19  24607030.737 7 129310776.032 7     -3324.447 7        44.614 7  24607030.421 6         0.000 6     -2590.480 6        37.977 6
G24  20902953.610 9 109845744.986 9      -650.843 9        57.089 9  20902955.237 6         0.000 6      -507.150 6        37.977 6
G32  23482501.890 8 123401348.027 8      2867.931 8        48.791 8  23482503.968 6         0.000 6      2234.752 6        37.977 6
G02  24195955.316 7 127150566.509 7      1337.844 7        46.885 7  24195953.611 6         0.000 6      1042.477 6        37.977 6
G25  21475825.860 9 112856206.339 9      1050.505 9        55.257 9  21475828.281 6         0.000 6       818.575 6        37.977 6
G14  25537585.019 7 134200867.548 7      3367.125 7        42.964 7  25537586.047 6         0.000 6      2623.736 6        37.977 6
> 2019 07 03 18 02  6.0000000  0 12       0.000000000000
G06  24981672.235 7 131279528.046 7       461.011 7        43.791 7  24981675.855 6         0.000 6       359.230 6        37.977 6
G10  24525057.002 7 128880002.369 7     -1488.923 7        44.928 7  24525059.952 6         0.000 6     -1160.200 6        37.977 6
G12  20571168.248 9 108102201.155 9     -1098.539 9        57.191 9  20571166.984 6         0.000 6      -856.005 6        37.977 6
G15  23200736.006 8 121920662.507 8     -3345.417 8        50.698 8  23200735.568 6         0.000 6     -2606.820 6        37.977 6
G20  24872256.814 7 130704545.412 7     -1963.957 7        43.463 7  24872257.950 6         0.000 6     -1530.357 6        37.977 6
G29  22733191.878 8 119463701.913 8      3456.287 8        51.059 8  22733191.688 6         0.000 6      2693.212 6        37.977 6
G19  24607663.387 7 129314100.620 7     -3324.740 7        44.614 7  24607663.070 6         0.000 6     -2590.708 6        37.977 6
G24  20903077.491 9 109846395.986 9      -651.159 9        57.089 9  20903079.118 6         0.000 6      -507.397 6        37.977 6
G32  23481956.174 8 123398480.276 8      2867.578 8        48.791 8  23481958.252 6         0.000 6      2234.477 6        37.977 6
G02  24195700.756 7 127149228.792 7      1337.595 7        46.885 7  24195699.052 6         0.000 6      1042.282 6        37.977 6
G25  21475625.986 9 112855155.995 9      1050.184 9        55.257 9  21475628.407 6         0.000 6       818.326 6        37.977 6
G14  25536944.286 7 134197500.482 7      3367.020 7        42.964 7  25536945.314 6         0.000 6      2623.654 6        37.977 6
> 2019 07 03 18 02  7.0000000  0 12       0.000000000000
G06  24981584.551 7 131279067.268 7       460.547 7        43.791 7  24981588.172 6         0.000 6       358.868 6        37.977 6
G10  24525340.362 7 128881491.430 7     -1489.204 7        44.928 7  24525343.311 6         0.000 6     -1160.419 6        37.977 6
G12  20571377.319 9 108103299.829 9     -1098.810 9        57.191 9  20571376.055 6         0.000 6      -856.216 6        37.977 6
G15  23201372.632 8 121924007.996 8     -3345.569 8        50.698 8  23201372.195 6         0.000 6     -2606.938 6        37.977 6
G20  24872630.541 7 130706509.356 7     -1963.938 7        43.463 7  24872631.677 6         0.000 6     -1530.342 6        37.977 6
G29  22732534.192 8 119460245.750 8      3456.046 8        51.060 8  22732534.001 6         0.000 6      2693.024 6        37.977 6
G19  24608296.092 7 129317425.502 7     -3325.033 7        44.613 7  24608295.775 6         0.000 6     -2590.937 6        37.977 6
G24  20903201.433 9 109847047.303 9      -651.476 9        57.089 9  20903203.060 6         0.000 6      -507.643 6        37.977 6
G32  23481410.526 8 123395612.878 8      2867.225 8        48.791 8  23481412.604 6         0.000 6      2234.203 6        37.977 6
G02  24195446.244 7 127147891.325 7      1337.345 7        46.886 7  24195444.539 6         0.000 6      1042.088 6        37.977 6
G25  21475426.173 9 112854105.972 9      1049.864 9        55.257 9  21475428.594 6         0.000 6       818.076 6        37.977 6
G14  25536303.574 7 134194133.520 7      3366.915 7        42.964 7  25536304.601 6         0.000 6      2623.571 6        37.977 6
> 2019 07 03 18 02  8.0000000  0 12       0.000000000000
G06  24981496.956 7 131278606.954 7       460.083 7        43.791 7  24981500.576 6         0.000 6       358.506 6        37.977 6
G10  24525623.775 7 128882980.772 7     -1489.485 7        44.928 7  24525626.724 6         0.000 6     -1160.638 6        37.977 6
G12  20571586.441 9 108104398.774 9     -1099.081 9        57.191 9  20571585.177 6         0.000 6      -856.427 6        37.977 6
G15  23202009.287 8 121927353.638 8     -3345.722 8        50.698 8  23202008.850 6         0.000 6     -2607.057 6        37.977 6
G20  24873004.264 7 130708473.282 7     -1963.920 7        43.463 7  24873005.401 6         0.000 6     -1530.328 6        37.977 6
G29  22731876.551 8 119456789.829 8      3455.806 8        51.060 8  22731876.360 6         0.000 6      2692.837 6        37.977 6
G19  24608928.852 7 129320750.676 7     -3325.326 7        44.613 7  24608928.536 6         0.000 6     -2591.165 6        37.977 6
G24  20903325.434 9 109847698.937 9      -651.792 9        57.089 9  20903327.062 6         0.000 6      -507.890 6        37.977 6
G32  23480864.945 8 123392745.833 8      2866.872 8        48.791 8  23480867.022 6         0.000 6      2233.927 6        37.977 6
G02  24195191.779 7 127146554.107 7      1337.095 7        46.886 7  24195190.075 6         0.000 6      1041.893 6        37.977 6
G25  21475226.421 9 112853056.269 9      1049.544 9        55.257 9  21475228.842 6         0.000 6       817.826 6        37.977 6
G14  25535662.881 7 134190766.664 7      3366.809 7        42.965 7  25535663.908 6         0.000 6      2623.489 6        37.977 6
> 2019 07 03 18 02  9.0000000  0 12       0.000000000000
G06  24981409.450 7 131278147.104 7       459.618 7        43.791 7  24981413.070 6         0.000 6       358.144 6        37.977 6
G10  24525907.241 7 128884470.394 7     -1489.766 7        44.927 7  24525910.191 6         0.000 6     -1160.857 6        37.977 6
G12  20571795.615 9 108105497.990 9     -1099.353 9        57.191 9  20571794.352 6         0.000 6      -856.639 6        37.977 6
G15  23202645.971 8 121930699.431 8     -3345.874 8        50.697 8  23202645.534 6         0.000 6     -2607.175 6        37.977 6
G20  24873377.984 7 130710437.189 7     -1963.902 7        43.462 7  24873379.121 6         0.000 6     -1530.314 6        37.977 6
G29  22731218.956 8 119453334.147 8      3455.565 8        51.060 8  22731218.765 6         0.000 6      2692.649 6        37.977 6
G19  24609561.669 7 129324076.143 7     -3325.619 7        44.613 7  24609561.353 6         0.000 6     -2591.393 6        37.977 6
G24  20903449.496 9 109848350.887 9      -652.109 9        57.089 9  20903451.124 6         0.000 6      -508.137 6        37.977 6
G32  23480319.431 8 123389879.142 8      2866.519 8        48.792 8  23480321.508 6         0.000 6      2233.652 6        37.977 6
G02  24194937.362 7 127145217.140 7      1336.846 7        46.886 7  24194935.658 6         0.000 6      1041.699 6        37.977 6
G25  21475026.730 9 112852006.886 9      1049.223 9        55.257 9  21475029.151 6         0.000 6       817.577 6        37.977 6
G14  25535022.209 7 134187399.914 7      3366.704 7        42.965 7  25535023.235 6         0.000 6      2623.407 6        37.977 6
> 2019 07 03 18 02 10.0000000  0 12       0.000000000000
G06  24981322.031 7 131277687.719 7       459.154 7        43.791 7  24981325.651 6         0.000 6       357.783 6        37.977 6
G10  24526190.761 7 128885960.298 7     -1490.046 7        44.927 7  24526193.711 6         0.000 6     -1161.076 6        37.977 6
G12  20572004.841 9 108106597.478 9     -1099.624 9        57.191 9  20572003.577 6         0.000 6      -856.850 6        37.977 6
G15  23203282.684 8 121934045.377 8     -3346.026 8        50.697 8  23203282.248 6         0.000 6     -2607.294 6        37.977 6
G20  24873751.701 7 130712401.078 7     -1963.883 7        43.462 7  24873752.837 6         0.000 6     -1530.299 6        37.977 6
G29  22730561.406 8 119449878.707 8      3455.324 8        51.060 8  22730561.215 6         0.000 6      2692.462 6        37.977 6
G19  24610194.541 7 129327401.903 7     -3325.912 7        44.613 7  24610194.226 6         0.000 6     -2591.621 6        37.977 6
G24  20903573.619 9 109849003.153 9      -652.425 9        57.089 9  20903575.246 6         0.000 6      -508.383 6        37.977 6
G32  23479773.984 8 123387012.803 8      2866.166 8        48.792 8  23479776.061 6         0.000 6      2233.377 6        37.977 6
G02  24194682.993 7 127143880.421 7      1336.596 7        46.886 7  24194681.288 6         0.000 6      1041.504 6        37.977 6
G25  21474827.100 9 112850957.824 9      1048.903 9        55.257 9  21474829.521 6         0.000 6       817.327 6        37.977 6
G14  25534381.556 7 134184033.269 7      3366.598 7        42.965 7  25534382.582 6         0.000 6      2623.325 6        37.977 6
> 2019 07 03 18 02 11.0000000  0 12       0.000000000000
G06  24981234.701 7 131277228.798 7       458.690 7        43.791 7  24981238.321 6         0.000 6       357.421 6        37.977 6
G10  24526474.334 7 128887450.482 7     -1490.327 7        44.927 7  24526477.284 6         0.000 6     -1161.294 6        37.977 6
G12  20572214.118 9 108107697.236 9     -1099.895 9        57.190 9  20572212.854 6         0.000 6      -857.061 6        37.977 6
G15  23203919.426 8 121937391.474 8     -3346.177 8        50.697 8  23203918.990 6         0.000 6     -2607.412 6        37.977 6
G20  24874125.413 7 130714364.948 7     -1963.864 7        43.462 7  24874126.550 6         0.000 6     -1530.285 6        37.977 6
G29  22729903.903 8 119446423.507 8      3455.083 8        51.061 8  22729903.711 6         0.000 6      2692.274 6        37.977 6
G19  24610827.469 7 129330727.956 7     -3326.205 7        44.613 7  24610827.154 6         0.000 6     -2591.849 6        37.977 6
G24  20903697.801 9 109849655.737 9      -652.742 9        57.089 9  20903699.428 6         0.000 6      -508.630 6        37.977 6
G32  23479228.604 8 123384146.818 8      2865.813 8        48.792 8  23479230.681 6         0.000 6      2233.102 6        37.977 6
G02  24194428.671 7 127142543.953 7      1336.346 7        46.886 7  24194426.966 6         0.000 6      1041.309 6        37.977 6
G25  21474627.530 9 112849909.083 9      1048.583 9        55.258 9  21474629.952 6         0.000 6       817.078 6        37.977 6
G14  25533740.924 7 134180666.730 7      3366.492 7        42.965 7  25533741.950 6         0.000 6      2623.242 6        37.977 6
> 2019 07 03 18 02 12.0000000  0 12       0.000000000000
G06  24981147.460 7 131276770.342 7       458.225 7        43.791 7  24981151.080 6         0.000 6       357.059 6        37.977 6
G10  24526757.960 7 128888940.946 7     -1490.607 7        44.927 7  24526760.911 6         0.000 6     -1161.513 6        37.977 6
G12  20572423.447 9 108108797.265 9     -1100.165 9        57.190 9  20572422.183 6         0.000 6      -857.272 6        37.977 6
G15  23204556.197 8 121940737.723 8     -3346.329 8        50.697 8  23204555.761 6         0.000 6     -2607.530 6        37.977 6
G20  24874499.122 7 130716328.799 7     -1963.846 7        43.462 7  24874500.260 6         0.000 6     -1530.270 6        37.977 6
G29  22729246.445 8 119442968.549 8      3454.842 8        51.061 8  22729246.254 6         0.000 6      2692.086 6        37.977 6
G19  24611460.452 7 129334054.301 7     -3326.497 7        44.612 7  24611460.138 6         0.000 6     -2592.077 6        37.977 6
G24  20903822.044 9 109850308.636 9      -653.058 9        57.089 9  20903823.671 6         0.000 6      -508.877 6        37.977 6
G32  23478683.292 8 123381281.185 8      2865.459 8        48.792 8  23478685.368 6         0.000 6      2232.826 6        37.977 6
G02  24194174.397 7 127141207.735 7      1336.096 7        46.886 7  24194172.691 6         0.000 6      1041.114 6        37.977 6
G25  21474428.022 9 112848860.661 9      1048.262 9        55.258 9  21474430.444 6         0.000 6       816.828 6        37.977 6
G14  25533100.312 7 134177300.297 7      3366.386 7        42.965 7  25533101.337 6         0.000 6      2623.160 6        37.977 6
> 2019 07 03 18 02 13.0000000  0 12       0.000000000000
G06  24981060.307 7 131276312.350 7       457.761 7        43.791 7  24981063.927 6         0.000 6       356.697 6        37.977 6
G10  24527041.640 7 128890431.691 7     -1490.888 7        44.927 7  24527044.591 6         0.000 6     -1161.731 6        37.977 6
G12  20572632.827 9 108109897.565 9     -1100.436 9        57.190 9  20572631.564 6         0.000 6      -857.483 6        37.977 6
G15  23205192.997 8 121944084.124 8     -3346.481 8        50.696 8  23205192.561 6         0.000 6     -2607.649 6        37.977 6
G20  24874872.828 7 130718292.632 7     -1963.827 7        43.462 7  24874873.965 6         0.000 6     -1530.255 6        37.977 6
G29  22728589.034 8 119439513.831 8      3454.601 8        51.061 8  22728588.842 6         0.000 6      2691.898 6        37.977 6
G19  24612093.492 7 129337380.939 7     -3326.790 7        44.612 7  24612093.177 6         0.000 6     -2592.305 6        37.977 6
G24  20903946.347 9 109850961.853 9      -653.375 9        57.089 9  20903947.974 6         0.000 6      -509.124 6        37.977 6
G32  23478138.047 8 123378415.907 8      2865.106 8        48.792 8  23478140.123 6         0.000 6      2232.551 6        37.977 6
G02  24193920.170 7 127139871.767 7      1335.846 7        46.886 7  24193918.464 6         0.000 6      1040.919 6        37.977 6
G25  21474228.575 9 112847812.560 9      1047.942 9        55.258 9  21474230.996 6         0.000 6       816.578 6        37.977 6
G14  25532459.720 7 134173933.970 7      3366.281 7        42.966 7  25532460.745 6         0.000 6      2623.077 6        37.977 6
> 2019 07 03 18 02 14.0000000  0 12       0.000000000000
G06  24980973.242 7 131275854.822 7       457.296 7        43.791 7  24980976.862 6         0.000 6       356.335 6        37.977 6
G10  24527325.373 7 128891922.717 7     -1491.168 7        44.927 7  24527328.324 6         0.000 6     -1161.950 6        37.977 6
G12  20572842.259 9 108110998.136 9     -1100.707 9        57.190 9  20572840.995 6         0.000 6      -857.694 6        37.977 6
G15  23205829.826 8 121947430.677 8     -3346.633 8        50.696 8  23205829.390 6         0.000 6     -2607.767 6        37.977 6
G20  24875246.530 7 130720256.446 7     -1963.808 7        43.462 7  24875247.668 6         0.000 6     -1530.241 6        37.977 6
G29  22727931.668 8 119436059.355 8      3454.360 8        51.061 8  22727931.476 6         0.000 6      2691.710 6        37.977 6
G19  24612726.586 7 129340707.869 7     -3327.082 7        44.612 7  24612726.273 6         0.000 6     -2592.533 6        37.977 6
G24  20904070.710 9 109851615.386 9      -653.692 9        57.089 9  20904072.338 6         0.000 6      -509.370 6        37.977 6
G32  23477592.869 8 123375550.982 8      2864.752 8        48.793 8  23477594.945 6         0.000 6      2232.275 6        37.977 6
G02  24193665.991 7 127138536.049 7      1335.596 7        46.886 7  24193664.285 6         0.000 6      1040.725 6        37.977 6
G25  21474029.189 9 112846764.779 9      1047.622 9        55.258 9  21474031.610 6         0.000 6       816.329 6        37.977 6
G14  25531819.148 7 134170567.748 7      3366.175 7        42.966 7  25531820.173 6         0.000 6      2622.995 6        37.977 6
> 2019 07 03 18 02 15.0000000  0 12       0.000000000000
G06  24980886.266 7 131275397.760 7       456.831 7        43.791 7  24980889.886 6         0.000 6       355.973 6        37.977 6
G10  24527609.160 7 128893414.022 7     -1491.448 7        44.927 7  24527612.111 6         0.000 6     -1162.168 6        37.977 6
G12  20573051.742 9 108112098.978 9     -1100.978 9        57.190 9  20573050.479 6         0.000 6      -857.905 6        37.977 6
G15  23206466.683 8 121950777.381 8     -3346.784 8        50.696 8  23206466.247 6         0.000 6     -2607.885 6        37.977 6
G20  24875620.228 7 130722220.240 7     -1963.789 7        43.462 7  24875621.366 6         0.000 6     -1530.226 6        37.977 6
G29  22727274.348 8 119432605.119 8      3454.119 8        51.062 8  22727274.155 6         0.000 6      2691.522 6        37.977 6
G19  24613359.737 7 129344035.091 7     -3327.374 7        44.612 7  24613359.423 6         0.000 6     -2592.761 6        37.977 6
G24  20904195.134 9 109852269.236 9      -654.008 9        57.089 9  20904196.761 6         0.000 6      -509.617 6        37.977 6
G32  23477047.758 8 123372686.410 8      2864.399 8        48.793 8  23477049.834 6         0.000 6      2232.000 6        37.977 6
G02  24193411.859 7 127137200.581 7      1335.345 7        46.886 7  24193410.153 6         0.000 6      1040.529 6        37.977 6
G25  21473829.864 9 112845717.318 9      1047.302 9        55.258 9  21473832.285 6         0.000 6       816.079 6        37.977 6
G14  25531178.597 7 134167201.633 7      3366.069 7        42.966 7  25531179.621 6         0.000 6      2622.912 6        37.977 6
> 2019 07 03 18 02 16.0000000  0 12       0.000000000000
G06  24980799.378 7 131274941.161 7       456.367 7        43.791 7  24980802.998 6         0.000 6       355.611 6        37.977 6
G10  24527892.999 7 128894905.608 7     -1491.728 7        44.927 7  24527895.951 6         0.000 6     -1162.386 6        37.977 6
G12  20573261.277 9 108113200.090 9     -1101.248 9        57.190 9  20573260.014 6         0.000 6      -858.116 6        37.977 6
G15  23207103.569 8 121954124.237 8     -3346.936 8        50.696 8  23207103.134 6         0.000 6     -2608.003 6        37.977 6
G20  24875993.923 7 130724184.016 7     -1963.769 7        43.462 7  24875995.061 6         0.000 6     -1530.211 6        37.977 6
G29  22726617.074 8 119429151.126 8      3453.877 8        51.062 8  22726616.881 6         0.000 6      2691.334 6        37.977 6
G19  24613992.943 7 129347362.606 7     -3327.666 7        44.611 7  24613992.630 6         0.000 6     -2592.988 6        37.977 6
G24  20904319.618 9 109852923.402 9      -654.325 9        57.089 9  20904321.245 6         0.000 6      -509.864 6        37.977 6
G32  23476502.715 8 123369822.192 8      2864.045 8        48.793 8  23476504.790 6         0.000 6      2231.724 6        37.977 6
G02  24193157.775 7 127135865.364 7      1335.095 7        46.886 7  24193156.069 6         0.000 6      1040.334 6        37.977 6
G25  21473630.599 9 112844670.178 9      1046.981 9        55.258 9  21473633.020 6         0.000 6       815.830 6        37.977 6
G14  25530538.065 7 134163835.624 7      3365.962 7        42.966 7  25530539.089 6         0.000 6      2622.829 6        37.977 6
> 2019 07 03 18 02 17.0000000  0 12       0.000000000000
G06  24980712.578 7 131274485.028 7       455.902 7        43.791 7  24980716.198 6         0.000 6       355.248 6        37.977 6
G10  24528176.893 7 128896397.473 7     -1492.008 7        44.927 7  24528179.844 6         0.000 6     -1162.604 6        37.977 6
G12  20573470.863 9 108114301.473 9     -1101.519 9        57.190 9  20573469.600 6         0.000 6      -858.327 6        37.977 6
G15  23207740.484 8 121957471.244 8     -3347.087 8        50.695 8  23207740.049 6         0.000 6     -2608.121 6        37.977 6
G20  24876367.614 7 130726147.772 7     -1963.750 7        43.461 7  24876368.752 6         0.000 6     -1530.196 6        37.977 6
G29  22725959.846 8 119425697.373 8      3453.636 8        51.062 8  22725959.653 6         0.000 6      2691.146 6        37.977 6
G19  24614626.205 7 129350690.412 7     -3327.958 7        44.611 7  24614625.892 6         0.000 6     -2593.216 6        37.977 6
G24  20904444.162 9 109853577.885 9      -654.642 9        57.089 9  20904445.789 6         0.000 6      -510.111 6        37.977 6
G32  23475957.739 8 123366958.328 8      2863.691 8        48.793 8  23475959.814 6         0.000 6      2231.448 6        37.977 6
G02  24192903.739 7 127134530.397 7      1334.844 7        46.886 7  24192902.033 6         0.000 6      1040.139 6        37.977 6
G25  21473431.396 9 112843623.357 9      1046.661 9        55.258 9  21473433.817 6         0.000 6       815.580 6        37.977 6
G14  25529897.554 7 134160469.720 7      3365.856 7        42.967 7  25529898.577 6         0.000 6      2622.747 6        37.977 6
> 2019 07 03 18 02 18.0000000  0 12       0.000000000000
G06  24980625.867 7 131274029.360 7       455.437 7        43.791 7  24980629.487 6         0.000 6       354.886 6        37.977 6
G10  24528460.839 7 128897889.619 7     -1492.288 7        44.927 7  24528463.790 6         0.000 6     -1162.823 6        37.977 6
G12  20573680.501 9 108115403.127 9     -1101.790 9        57.190 9  20573679.238 6         0.000 6      -858.537 6        37.977 6
G15  23208377.428 8 121960818.403 8     -3347.238 8        50.695 8  23208376.993 6         0.000 6     -2608.239 6        37.977 6
G20  24876741.302 7 130728111.509 7     -1963.731 7        43.461 7  24876742.440 6         0.000 6     -1530.181 6        37.977 6
G29  22725302.664 8 119422243.863 8      3453.394 8        51.062 8  22725302.471 6         0.000 6      2690.958 6        37.977 6
G19  24615259.522 7 129354018.511 7     -3328.250 7        44.611 7  24615259.209 6         0.000 6     -2593.443 6        37.977 6
G24  20904568.766 9 109854232.685 9      -654.959 9        57.089 9  20904570.393 6         0.000 6      -510.358 6        37.977 6
G32  23475412.830 8 123364094.818 8      2863.337 8        48.793 8  23475414.905 6         0.000 6      2231.173 6        37.977 6
G02  24192649.750 7 127133195.680 7      1334.594 7        46.887 7  24192648.044 6         0.000 6      1039.944 6        37.977 6
G25  21473232.253 9 112842576.857 9      1046.341 9        55.258 9  21473234.674 6         0.000 6       815.331 6        37.977 6
G14  25529257.063 7 134157103.924 7      3365.750 7        42.967 7  25529258.086 6         0.000 6      2622.664 6        37.977 6
> 2019 07 03 18 02 19.0000000  0 12       0.000000000000
G06  24980539.245 7 131273574.156 7       454.972 7        43.791 7  24980542.864 6         0.000 6       354.524 6        37.977 6
G10  24528744.839 7 128899382.044 7     -1492.568 7        44.926 7  24528747.790 6         0.000 6     -1163.041 6        37.977 6
G12  20573890.190 9 108116505.051 9     -1102.060 9        57.190 9  20573888.927 6         0.000 6      -858.748 6        37.977 6
G15  23209014.401 8 121964165.712 8     -3347.389 8        50.695 8  23209013.966 6         0.000 6     -2608.356 6        37.977 6
G20  24877114.985 7 130730075.227 7     -1963.711 7        43.461 7  24877116.124 6         0.000 6     -1530.166 6        37.977 6
G29  22724645.528 8 119418790.594 8      3453.152 8        51.063 8  22724645.334 6         0.000 6      2690.769 6        37.977 6
G19  24615892.894 7 129357346.901 7     -3328.542 7        44.611 7  24615892.582 6         0.000 6     -2593.671 6        37.977 6
G24  20904693.431 9 109854887.802 9      -655.276 9        57.089 9  20904695.058 6         0.000 6      -510.604 6        37.977 6
G32  23474867.989 8 123361231.662 8      2862.983 8        48.794 8  23474870.064 6         0.000 6      2230.897 6        37.977 6
G02  24192395.809 7 127131861.214 7      1334.343 7        46.887 7  24192394.103 6         0.000 6      1039.749 6        37.977 6
G25  21473033.171 9 112841530.677 9      1046.021 9        55.258 9  21473035.592 6         0.000 6       815.082 6        37.977 6
G14  25528616.592 7 134153738.233 7      3365.643 7        42.967 7  25528617.615 6         0.000 6      2622.581 6        37.977 6
> 2019 07 03 18 02 20.0000000  0 12       0.000000000000
G06  24980452.711 7 131273119.417 7       454.507 7        43.791 7  24980456.330 6         0.000 6       354.162 6        37.977 6
G10  24529028.891 7 128900874.749 7     -1492.847 7        44.926 7  24529031.843 6         0.000 6     -1163.258 6        37.977 6
G12  20574099.931 9 108117607.245 9     -1102.330 9        57.190 9  20574098.668 6         0.000 6      -858.959 6        37.977 6
G15  23209651.402 8 121967513.173 8     -3347.540 8        50.695 8  23209650.968 6         0.000 6     -2608.474 6        37.977 6
G20  24877488.665 7 130732038.925 7     -1963.692 7        43.461 7  24877489.804 6         0.000 6     -1530.150 6        37.977 6
G29  22723988.438 8 119415337.566 8      3452.911 8        51.063 8  22723988.244 6         0.000 6      2690.581 6        37.977 6
G19  24616526.323 7 129360675.584 7     -3328.834 7        44.610 7  24616526.011 6         0.000 6     -2593.898 6        37.977 6
G24  20904818.156 9 109855543.236 9      -655.592 9        57.089 9  20904819.783 6         0.000 6      -510.851 6        37.977 6
G32  23474323.215 8 123358368.860 8      2862.629 8        48.794 8  23474325.290 6         0.000 6      2230.621 6        37.977 6
G02  24192141.916 7 127130526.999 7      1334.093 7        46.887 7  24192140.209 6         0.000 6      1039.553 6        37.977 6
G25  21472834.151 9 112840484.817 9      1045.701 9        55.258 9  21472836.572 6         0.000 6       814.832 6        37.977 6
G14  25527976.142 7 134150372.649 7      3365.537 7        42.967 7  25527977.164 6         0.000 6      2622.498 6        37.977 6
> 2019 07 03 18 02 21.0000000  0 12       0.000000000000
G06  24980366.265 7 131272665.144 7       454.042 7        43.791 7  24980369.885 6         0.000 6       353.799 6        37.977 6
G10  24529312.997 7 128902367.734 7     -1493.127 7        44.926 7  24529315.949 6         0.000 6     -1163.476 6        37.977 6
G12  20574309.723 9 108118709.710 9     -1102.601 9        57.190 9  20574308.460 6         0.000 6      -859.170 6        37.977 6
G15  23210288.432 8 121970860.785 8     -3347.691 8        50.694 8  23210287.998 6         0.000 6     -2608.592 6        37.977 6
G20  24877862.341 7 130734002.604 7     -1963.672 7        43.461 7  24877863.481 6         0.000 6     -1530.135 6        37.977 6
G29  22723331.394 8 119411884.781 8      3452.669 8        51.063 8  22723331.200 6         0.000 6      2690.392 6        37.977 6
G19  24617159.806 7 129364004.557 7     -3329.125 7        44.610 7  24617159.495 6         0.000 6     -2594.125 6        37.977 6
G24  20904942.941 9 109856198.987 9      -655.909 9        57.089 9  20904944.568 6         0.000 6      -511.098 6        37.977 6
G32  23473778.509 8 123355506.413 8      2862.274 8        48.794 8  23473780.583 6         0.000 6      2230.345 6        37.977 6
G02  24191888.071 7 127129193.034 7      1333.842 7        46.887 7  24191886.364 6         0.000 6      1039.358 6        37.977 6
G25  21472635.191 9 112839439.277 9      1045.381 9        55.258 9  21472637.612 6         0.000 6       814.583 6        37.977 6
G14  25527335.711 7 134147007.172 7      3365.430 7        42.967 7  25527336.733 6         0.000 6      2622.415 6        37.977 6
> 2019 07 03 18 02 22.0000000  0 12       0.000000000000
G06  24980279.908 7 131272211.335 7       453.577 7        43.791 7  24980283.528 6         0.000 6       353.437 6        37.977 6
G10  24529597.157 7 128903860.998 7     -1493.406 7        44.926 7  24529600.109 6         0.000 6     -1163.694 6        37.977 6
G12  20574519.567 9 108119812.445 9     -1102.871 9        57.189 9  20574518.304 6         0.000 6      -859.380 6        37.977 6
G15  23210925.491 8 121974208.548 8     -3347.842 8        50.694 8  23210925.057 6         0.000 6     -2608.709 6        37.977 6
G20  24878236.014 7 130735966.262 7     -1963.652 7        43.461 7  24878237.153 6         0.000 6     -1530.120 6        37.977 6
G29  22722674.396 8 119408432.238 8      3452.427 8        51.063 8  22722674.201 6         0.000 6      2690.204 6        37.977 6
G19  24617793.346 7 129367333.823 7     -3329.417 7        44.610 7  24617793.035 6         0.000 6     -2594.352 6        37.977 6
G24  20905067.786 9 109856855.054 9      -656.226 9        57.089 9  20905069.414 6         0.000 6      -511.345 6        37.977 6
G32  23473233.870 8 123352644.319 8      2861.920 8        48.794 8  23473235.944 6         0.000 6      2230.069 6        37.977 6
G02  24191634.273 7 127127859.321 7      1333.591 7        46.887 7  24191632.566 6         0.000 6      1039.162 6        37.977 6
G25  21472436.292 9 112838394.057 9      1045.061 9        55.258 9  21472438.713 6         0.000 6       814.333 6        37.977 6
G14  25526695.302 7 134143641.801 7      3365.324 7        42.968 7  25526696.323 6         0.000 6      2622.332 6        37.977 6
> 2019 07 03 18 02 23.0000000  0 12       0.000000000000
G06  24980193.639 7 131271757.991 7       453.112 7        43.791 7  24980197.259 6         0.000 6       353.074 6        37.977 6
G10  24529881.369 7 128905354.542 7     -1493.686 7        44.926 7  24529884.321 6         0.000 6     -1163.912 6        37.977 6
G12  20574729.462 9 108120915.450 9     -1103.141 9        57.189 9  20574728.199 6         0.000 6      -859.591 6        37.977 6
G15  23211562.579 8 121977556.461 8     -3347.993 8        50.694 8  23211562.145 6         0.000 6     -2608.827 6        37.977 6
G20  24878609.683 7 130737929.901 7     -1963.632 7        43.461 7  24878610.822 6         0.000 6     -1530.104 6        37.977 6
G29  22722017.444 8 119404979.936 8      3452.184 8        51.064 8  22722017.249 6         0.000 6      2690.015 6        37.977 6
G19  24618426.940 7 129370663.379 7     -3329.708 7        44.610 7  24618426.630 6         0.000 6     -2594.579 6        37.977 6
G24  20905192.692 9 109857511.438 9      -656.543 9        57.089 9  20905194.320 6         0.000 6      -511.592 6        37.977 6
G32  23472689.298 8 123349782.580 8      2861.566 8        48.794 8  23472691.372 6         0.000 6      2229.792 6        37.977 6
G02  24191380.523 7 127126525.858 7      1333.340 7        46.887 7  24191378.816 6         0.000 6      1038.967 6        37.977 6
G25  21472237.454 9 112837349.157 9      1044.741 9        55.258 9  21472239.875 6         0.000 6       814.084 6        37.977 6
G14  25526054.912 7 134140276.537 7      3365.217 7        42.968 7  25526055.933 6         0.000 6      2622.248 6        37.977 6
> 2019 07 03 18 02 24.0000000  0 12       0.000000000000
G06  24980107.459 7 131271305.113 7       452.647 7        43.791 7  24980111.079 6         0.000 6       352.712 6        37.977 6
G10  24530165.635 7 128906848.364 7     -1493.965 7        44.926 7  24530168.587 6         0.000 6     -1164.129 6        37.977 6
G12  20574939.409 9 108122018.725 9     -1103.411 9        57.189 9  20574938.146 6         0.000 6      -859.801 6        37.977 6
G15  23212199.695 8 121980904.525 8     -3348.144 8        50.694 8  23212199.262 6         0.000 6     -2608.944 6        37.977 6
G20  24878983.348 7 130739893.520 7     -1963.612 7        43.461 7  24878984.487 6         0.000 6     -1530.089 6        37.977 6
G29  22721360.538 8 119401527.877 8      3451.942 8        51.064 8  22721360.343 6         0.000 6      2689.826 6        37.977 6
G19  24619060.590 7 129373993.227 7     -3329.999 7        44.610 7  24619060.280 6         0.000 6     -2594.806 6        37.977 6
G24  20905317.659 9 109858168.140 9      -656.860 9        57.088 9  20905319.286 6         0.000 6      -511.839 6        37.977 6
G32  23472144.794 8 123346921.196 8      2861.211 8        48.795 8  23472146.868 6         0.000 6      2229.516 6        37.977 6
G02  24191126.820 7 127125192.646 7      1333.089 7        46.887 7  24191125.113 6         0.000 6      1038.771 6        37.977 6
G25  21472038.677 9 112836304.577 9      1044.421 9        55.259 9  21472041.098 6         0.000 6       813.835 6        37.977 6
G14  25525414.543 7 134136911.380 7      3365.110 7        42.968 7  25525415.563 6         0.000 6      2622.165 6        37.977 6
> 2019 07 03 18 02 25.0000000  0 12       0.000000000000
G06  24980021.368 7 131270852.700 7       452.182 7        43.791 7  24980024.987 6         0.000 6       352.349 6        37.977 6
G10  24530449.953 7 128908342.466 7     -1494.244 7        44.926 7  24530452.906 6         0.000 6     -1164.347 6        37.977 6
G12  20575149.407 9 108123122.271 9     -1103.681 9        57.189 9  20575148.144 6         0.000 6      -860.012 6        37.977 6
G15  23212836.840 8 121984252.740 8     -3348.294 8        50.693 8  23212836.407 6         0.000 6     -2609.062 6        37.977 6
G20  24879357.009 7 130741857.119 7     -1963.592 7        43.460 7  24879358.149 6         0.000 6     -1530.073 6        37.977 6
G29  22720703.678 8 119398076.061 8      3451.700 8        51.064 8  22720703.483 6         0.000 6      2689.637 6        37.977 6
G19  24619694.296 7 129377323.367 7     -3330.291 7        44.609 7  24619693.986 6         0.000 6     -2595.033 6        37.977 6
G24  20905442.685 9 109858825.158 9      -657.177 9        57.088 9  20905444.313 6         0.000 6      -512.086 6        37.977 6
G32  23471600.358 8 123344060.166 8      2860.857 8        48.795 8  23471602.431 6         0.000 6      2229.240 6        37.977 6
G02  24190873.166 7 127123859.686 7      1332.838 7        46.887 7  24190871.458 6         0.000 6      1038.575 6        37.977 6
G25  21471839.961 9 112835260.317 9      1044.101 9        55.259 9  21471842.381 6         0.000 6       813.585 6        37.977 6
G14  25524774.194 7 134133546.330 7      3365.003 7        42.968 7  25524775.214 6         0.000 6      2622.082 6        37.977 6
> 2019 07 03 18 02 26.0000000  0 12       0.000000000000
G06  24979935.365 7 131270400.752 7       451.716 7        43.791 7  24979938.984 6         0.000 6       351.987 6        37.977 6
G10  24530734.325 7 128909836.848 7     -1494.523 7        44.926 7  24530737.278 6         0.000 6     -1164.564 6        37.977 6
G12  20575359.456 9 108124226.086 9     -1103.951 9        57.189 9  20575358.193 6         0.000 6      -860.222 6        37.977 6
G15  23213474.013 8 121987601.106 8     -3348.445 8        50.693 8  23213473.581 6         0.000 6     -2609.179 6        37.977 6
G20  24879730.666 7 130743820.698 7     -1963.572 7        43.460 7  24879731.806 6         0.000 6     -1530.057 6        37.977 6
G29  22720046.865 8 119394624.486 8      3451.457 8        51.064 8  22720046.669 6         0.000 6      2689.448 6        37.977 6
G19  24620328.057 7 129380653.797 7     -3330.582 7        44.609 7  24620327.747 6         0.000 6     -2595.260 6        37.977 6
G24  20905567.772 9 109859482.494 9      -657.494 9        57.088 9  20905569.399 6         0.000 6      -512.333 6        37.977 6
G32  23471055.988 8 123341199.491 8      2860.502 8        48.795 8  23471058.062 6         0.000 6      2228.963 6        37.977 6
G02  24190619.559 7 127122526.977 7      1332.586 7        46.887 7  24190617.852 6         0.000 6      1038.380 6        37.977 6
G25  21471641.305 9 112834216.376 9      1043.781 9        55.259 9  21471643.726 6         0.000 6       813.336 6        37.977 6
G14  25524133.865 7 134130181.386 7      3364.896 7        42.969 7  25524134.885 6         0.000 6      2621.998 6        37.977 6
> 2019 07 03 18 02 27.0000000  0 12       0.000000000000
G06  24979849.450 7 131269949.269 7       451.251 7        43.791 7  24979853.070 6         0.000 6       351.624 6        37.977 6
G10  24531018.750 7 128911331.508 7     -1494.802 7        44.926 7  24531021.703 6         0.000 6     -1164.782 6        37.977 6
G12  20575569.556 9 108125330.172 9     -1104.221 9        57.189 9  20575568.294 6         0.000 6      -860.432 6        37.977 6
G15  23214111.216 8 121990949.622 8     -3348.595 8        50.693 8  23214110.783 6         0.000 6     -2609.296 6        37.977 6
G20  24880104.320 7 130745784.257 7     -1963.552 7        43.460 7  24880105.460 6         0.000 6     -1530.041 6        37.977 6
G29  22719390.097 8 119391173.154 8      3451.215 8        51.065 8  22719389.902 6         0.000 6      2689.259 6        37.977 6
G19  24620961.873 7 129383984.518 7     -3330.872 7        44.609 7  24620961.564 6         0.000 6     -2595.487 6        37.977 6
G24  20905692.919 9 109860140.146 9      -657.811 9        57.088 9  20905694.547 6         0.000 6      -512.580 6        37.977 6
G32  23470511.687 8 123338339.170 8      2860.147 8        48.795 8  23470513.760 6         0.000 6      2228.687 6        37.977 6
G02  24190366.001 7 127121194.519 7      1332.335 7        46.887 7  24190364.293 6         0.000 6      1038.184 6        37.977 6
G25  21471442.711 9 112833172.756 9      1043.461 9        55.259 9  21471445.131 6         0.000 6       813.087 6        37.977 6
G14  25523493.557 7 134126816.550 7      3364.789 7        42.969 7  25523494.576 6         0.000 6      2621.915 6        37.977 6
> 2019 07 03 18 02 28.0000000  0 12       0.000000000000
G06  24979763.624 7 131269498.252 7       450.785 7        43.791 7  24979767.244 6         0.000 6       351.262 6        37.977 6
G10  24531303.228 7 128912826.447 7     -1495.081 7        44.926 7  24531306.181 6         0.000 6     -1164.999 6        37.977 6
G12  20575779.708 9 108126434.527 9     -1104.491 9        57.189 9  20575778.446 6         0.000 6      -860.643 6        37.977 6
G15  23214748.446 8 121994298.288 8     -3348.746 8        50.693 8  23214748.014 6         0.000 6     -2609.413 6        37.977 6
G20  24880477.969 7 130747747.795 7     -1963.532 7        43.460 7  24880479.110 6         0.000 6     -1530.025 6        37.977 6
G29  22718733.376 8 119387722.065 8      3450.972 8        51.065 8  22718733.180 6         0.000 6      2689.070 6        37.977 6
G19  24621595.745 7 129387315.530 7     -3331.163 7        44.609 7  24621595.436 6         0.000 6     -2595.713 6        37.977 6
G24  20905818.127 9 109860798.116 9      -658.128 9        57.088 9  20905819.754 6         0.000 6      -512.827 6        37.977 6
G32  23469967.453 8 123335479.205 8      2859.792 8        48.795 8  23469969.525 6         0.000 6      2228.410 6        37.977 6
G02  24190112.490 7 127119862.312 7      1332.083 7        46.887 7  24190110.782 6         0.000 6      1037.988 6        37.977 6
G25  21471244.177 9 112832129.456 9      1043.141 9        55.259 9  21471246.598 6         0.000 6       812.838 6        37.977 6
G14  25522853.269 7 134123451.821 7      3364.682 7        42.969 7  25522854.288 6         0.000 6      2621.831 6        37.977 6
> 2019 07 03 18 02 29.0000000  0 12       0.000000000000
G06  24979677.887 7 131269047.700 7       450.320 7        43.791 7  24979681.506 6         0.000 6       350.899 6        37.977 6
G10  24531587.759 7 128914321.664 7     -1495.360 7        44.925 7  24531590.712 6         0.000 6     -1165.216 6        37.977 6
G12  20575989.912 9 108127539.152 9     -1104.761 9        57.189 9  20575988.649 6         0.000 6      -860.853 6        37.977 6
G15  23215385.706 8 121997647.104 8     -3348.896 8        50.693 8  23215385.274 6         0.000 6     -2609.530 6        37.977 6
G20  24880851.615 7 130749711.313 7     -1963.511 7        43.460 7  24880852.756 6         0.000 6     -1530.010 6        37.977 6
G29  22718076.701 8 119384271.219 8      3450.729 8        51.065 8  22718076.505 6         0.000 6      2688.881 6        37.977 6
G19  24622229.672 7 129390646.833 7     -3331.454 7        44.608 7  24622229.363 6         0.000 6     -2595.940 6        37.977 6
G24  20905943.394 9 109861456.402 9      -658.446 9        57.088 9  20905945.022 6         0.000 6      -513.075 6        37.977 6
G32  23469423.286 8 123332619.594 8      2859.437 8        48.796 8  23469425.359 6         0.000 6      2228.134 6        37.977 6
G02  24189859.026 7 127118530.357 7      1331.832 7        46.888 7  24189857.318 6         0.000 6      1037.792 6        37.977 6
G25  21471045.704 9 112831086.475 9      1042.822 9        55.259 9  21471048.125 6         0.000 6       812.589 6        37.977 6
G14  25522213.002 7 134120087.200 7      3364.574 7        42.969 7  25522214.020 6         0.000 6      2621.748 6        37.977 6
> 2019 07 03 18 02 30.0000000  0 12       0.000000000000
G06  24979592.238 7 131268597.613 7       449.854 7        43.791 7  24979595.857 6         0.000 6       350.536 6        37.977 6
G10  24531872.343 7 128915817.161 7     -1495.638 7        44.925 7  24531875.296 6         0.000 6     -1165.433 6        37.977 6
G12  20576200.166 9 108128644.047 9     -1105.031 9        57.189 9  20576198.904 6         0.000 6      -861.063 6        37.977 6
G15  23216022.994 8 122000996.071 8     -3349.046 8        50.692 8  23216022.562 6         0.000 6     -2609.647 6        37.977 6
G20  24881225.257 7 130751674.811 7     -1963.491 7        43.460 7  24881226.398 6         0.000 6     -1529.993 6        37.977 6
G29  22717420.072 8 119380820.615 8      3450.487 8        51.065 8  22717419.876 6         0.000 6      2688.692 6        37.977 6
G19  24622863.654 7 129393978.427 7     -3331.745 7        44.608 7  24622863.346 6         0.000 6     -2596.166 6        37.977 6
G24  20906068.723 9 109862115.006 9      -658.763 9        57.088 9  20906070.350 6         0.000 6      -513.322 6        37.977 6
G32  23468879.187 8 123329760.338 8      2859.082 8        48.796 8  23468881.259 6         0.000 6      2227.857 6        37.977 6
G02  24189605.611 7 127117198.654 7      1331.580 7        46.888 7  24189603.903 6         0.000 6      1037.596 6        37.977 6
G25  21470847.292 9 112830043.814 9      1042.502 9        55.259 9  21470849.713 6         0.000 6       812.339 6        37.977 6
G14  25521572.755 7 134116722.685 7      3364.467 7        42.969 7  25521573.773 6         0.000 6      2621.664 6        37.977 6
> 2019 07 03 18 02 31.0000000  0 12       0.000000000000
G06  24979506.678 7 131268147.993 7       449.389 7        43.791 7  24979510.297 6         0.000 6       350.173 6        37.977 6
G10  24532156.980 7 128917312.936 7     -1495.917 7        44.925 7  24532159.933 6         0.000 6     -1165.650 6        37.977 6
G12  20576410.472 9 108129749.212 9     -1105.300 9        57.189 9  20576409.210 6         0.000 6      -861.273 6        37.977 6
G15  23216660.310 8 122004345.188 8     -3349.196 8        50.692 8  23216659.879 6         0.000 6     -2609.764 6        37.977 6
G20  24881598.894 7 130753638.287 7     -1963.470 7        43.460 7  24881600.036 6         0.000 6     -1529.977 6        37.977 6
G29  22716763.490 8 119377370.254 8      3450.244 8        51.066 8  22716763.293 6         0.000 6      2688.503 6        37.977 6
G19  24623497.692 7 129397310.311 7     -3332.035 7        44.608 7  24623497.384 6         0.000 6     -2596.392 6        37.977 6
G24  20906194.111 9 109862773.927 9      -659.080 9        57.088 9  20906195.739 6         0.000 6      -513.569 6        37.977 6
G32  23468335.156 8 123326901.438 8      2858.727 8        48.796 8  23468337.228 6         0.000 6      2227.580 6        37.977 6
G02  24189352.244 7 127115867.202 7      1331.329 7        46.888 7  24189350.535 6         0.000 6      1037.400 6        37.977 6
G25  21470648.941 9 112829001.473 9      1042.182 9        55.259 9  21470651.362 6         0.000 6       812.090 6        37.977 6
G14  25520932.528 7 134113358.278 7      3364.359 7        42.970 7  25520933.546 6         0.000 6      2621.580 6        37.977 6
> 2019 07 03 18 02 32.0000000  0 12       0.000000000000
G06  24979421.207 7 131267698.838 7       448.923 7        43.791 7  24979424.826 6         0.000 6       349.810 6        37.977 6
G10  24532441.670 7 128918808.990 7     -1496.195 7        44.925 7  24532444.624 6         0.000 6     -1165.867 6        37.977 6
G12  20576620.830 9 108130854.646 9     -1105.570 9        57.189 9  20576619.567 6         0.000 6      -861.483 6        37.977 6
G15  23217297.655 8 122007694.455 8     -3349.346 8        50.692 8  23217297.224 6         0.000 6     -2609.881 6        37.977 6
G20  24881972.528 7 130755601.744 7     -1963.449 7        43.460 7  24881973.670 6         0.000 6     -1529.961 6        37.977 6
G29  22716106.953 8 119373920.136 8      3450.000 8        51.066 8  22716106.756 6         0.000 6      2688.313 6        37.977 6
G19  24624131.784 7 129400642.486 7     -3332.326 7        44.608 7  24624131.477 6         0.000 6     -2596.619 6        37.977 6
G24  20906319.560 9 109863433.165 9      -659.397 9        57.088 9  20906321.188 6         0.000 6      -513.816 6        37.977 6
G32  23467791.192 8 123324042.893 8      2858.371 8        48.796 8  23467793.264 6         0.000 6      2227.303 6        37.977 6
G02  24189098.924 7 127114536.002 7      1331.077 7        46.888 7  24189097.216 6         0.000 6      1037.203 6        37.977 6
G25  21470450.651 9 112827959.452 9      1041.862 9        55.259 9  21470453.071 6         0.000 6       811.841 6        37.977 6
G14  25520292.322 7 134109993.979 7      3364.252 7        42.970 7  25520293.340 6         0.000 6      2621.496 6        37.977 6
> 2019 07 03 18 02 33.0000000  0 12       0.000000000000
G06  24979335.824 7 131267250.148 7       448.457 7        43.791 7  24979339.443 6         0.000 6       349.448 6        37.977 6
G10  24532726.413 7 128920305.321 7     -1496.474 7        44.925 7  24532729.367 6         0.000 6     -1166.084 6        37.977 6
G12  20576831.238 9 108131960.350 9     -1105.839 9        57.188 9  20576829.976 6         0.000 6      -861.693 6        37.977 6
G15  23217935.029 8 122011043.871 8     -3349.496 8        50.692 8  23217934.598 6         0.000 6     -2609.998 6        37.977 6
G20  24882346.158 7 130757565.179 7     -1963.428 7        43.459 7  24882347.300 6         0.000 6     -1529.945 6        37.977 6
G29  22715450.463 8 119370470.262 8      3449.757 8        51.066 8  22715450.266 6         0.000 6      2688.124 6        37.977 6
G19  24624765.932 7 129403974.951 7     -3332.616 7        44.608 7  24624765.625 6         0.000 6     -2596.845 6        37.977 6
G24  20906445.069 9 109864092.720 9      -659.714 9        57.088 9  20906446.697 6         0.000 6      -514.063 6        37.977 6
G32  23467247.296 8 123321184.703 8      2858.016 8        48.796 8  23467249.367 6         0.000 6      2227.026 6        37.977 6
G02  24188845.653 7 127113205.054 7      1330.825 7        46.888 7  24188843.944 6         0.000 6      1037.007 6        37.977 6
G25  21470252.422 9 112826917.750 9      1041.543 9        55.259 9  21470254.842 6         0.000 6       811.592 6        37.977 6
G14  25519652.137 7 134106629.787 7      3364.144 7        42.970 7  25519653.154 6         0.000 6      2621.413 6        37.977 6
> 2019 07 03 18 02 34.0000000  0 12       0.000000000000
G06  24979250.529 7 131266801.924 7       447.992 7        43.791 7  24979254.148 6         0.000 6       349.085 6        37.977 6
G10  24533011.209 7 128921801.932 7     -1496.752 7        44.925 7  24533014.163 6         0.000 6     -1166.301 6        37.977 6
G12  20577041.698 9 108133066.324 9     -1106.109 9        57.188 9  20577040.436 6         0.000 6      -861.903 6        37.977 6
G15  23218572.431 8 122014393.438 8     -3349.645 8        50.691 8  23218572.000 6         0.000 6     -2610.114 6        37.977 6
G20  24882719.784 7 130759528.593 7     -1963.407 7        43.459 7  24882720.926 6         0.000 6     -1529.929 6        37.977 6
G29  22714794.019 8 119367020.630 8      3449.514 8        51.066 8  22714793.822 6         0.000 6      2687.934 6        37.977 6
G19  24625400.136 7 129407307.706 7     -3332.906 7        44.607 7  24625399.829 6         0.000 6     -2597.071 6        37.977 6
G24  20906570.639 9 109864752.593 9      -660.032 9        57.088 9  20906572.267 6         0.000 6      -514.310 6        37.977 6
G32  23466703.467 8 123318326.869 8      2857.660 8        48.797 8  23466705.539 6         0.000 6      2226.749 6        37.977 6
G02  24188592.429 7 127111874.358 7      1330.573 7        46.888 7  24188590.720 6         0.000 6      1036.811 6        37.977 6
G25  21470054.253 9 112825876.368 9      1041.223 9        55.259 9  21470056.673 6         0.000 6       811.343 6        37.977 6
G14  25519011.971 7 134103265.703 7      3364.036 7        42.970 7  25519012.988 6         0.000 6      2621.329 6        37.977 6
> 2019 07 03 18 02 35.0000000  0 12       0.000000000000
G06  24979165.324 7 131266354.167 7       447.526 7        43.792 7  24979168.943 6         0.000 6       348.722 6        37.977 6
G10  24533296.058 7 128923298.820 7     -1497.030 7        44.925 7  24533299.012 6         0.000 6     -1166.518 6        37.977 6
G12  20577252.209 9 108134172.567 9     -1106.378 9        57.188 9  20577250.947 6         0.000 6      -862.113 6        37.977 6
G15  23219209.862 8 122017743.154 8     -3349.795 8        50.691 8  23219209.431 6         0.000 6     -2610.231 6        37.977 6
G20  24883093.406 7 130761491.986 7     -1963.386 7        43.459 7  24883094.548 6         0.000 6     -1529.912 6        37.977 6
G29  22714137.622 8 119363571.242 8      3449.271 8        51.067 8  22714137.424 6         0.000 6      2687.744 6        37.977 6
G19  24626034.394 7 129410640.751 7     -3333.196 7        44.607 7  24626034.088 6         0.000 6     -2597.297 6        37.977 6
G24  20906696.269 9 109865412.783 9      -660.349 9        57.088 9  20906697.897 6         0.000 6      -514.558 6        37.977 6
G32  23466159.706 8 123315469.390 8      2857.305 8        48.797 8  23466161.777 6         0.000 6      2226.472 6        37.977 6
G02  24188339.254 7 127110543.913 7      1330.321 7        46.888 7  24188337.545 6         0.000 6      1036.614 6        37.977 6
G25  21469856.145 9 112824835.306 9      1040.903 9        55.259 9  21469858.565 6         0.000 6       811.094 6        37.977 6
G14  25518371.827 7 134099901.726 7      3363.929 7        42.970 7  25518372.843 6         0.000 6      2621.245 6        37.977 6
> 2019 07 03 18 02 36.0000000  0 12       0.000000000000
G06  24979080.207 7 131265906.874 7       447.060 7        43.792 7  24979083.825 6         0.000 6       348.359 6        37.977 6
G10  24533580.959 7 128924795.987 7     -1497.308 7        44.925 7  24533583.914 6         0.000 6     -1166.734 6        37.977 6
G12  20577462.772 9 108135279.079 9     -1106.648 9        57.188 9  20577461.509 6         0.000 6      -862.323 6        37.977 6
G15  23219847.321 8 122021093.020 8     -3349.945 8        50.691 8  23219846.890 6         0.000 6     -2610.348 6        37.977 6
G20  24883467.024 7 130763455.358 7     -1963.365 7        43.459 7  24883468.166 6         0.000 6     -1529.896 6        37.977 6
G29  22713481.270 8 119360122.098 8      3449.027 8        51.067 8  22713481.072 6         0.000 6      2687.555 6        37.977 6
G19  24626668.708 7 129413974.086 7     -3333.486 7        44.607 7  24626668.402 6         0.000 6     -2597.523 6        37.977 6
G24  20906821.959 9 109866073.290 9      -660.666 9        57.088 9  20906823.587 6         0.000 6      -514.805 6        37.977 6
G32  23465616.013 8 123312612.267 8      2856.949 8        48.797 8  23465618.084 6         0.000 6      2226.195 6        37.977 6
G02  24188086.126 7 127109213.721 7      1330.069 7        46.888 7  24188084.417 6         0.000 6      1036.418 6        37.977 6
G25  21469658.098 9 112823794.564 9      1040.584 9        55.260 9  21469660.518 6         0.000 6       810.845 6        37.977 6
G14  25517731.703 7 134096537.858 7      3363.821 7        42.971 7  25517732.719 6         0.000 6      2621.160 6        37.977 6
> 2019 07 03 18 02 37.0000000  0 12       0.000000000000
G06  24978995.178 7 131265460.048 7       446.594 7        43.792 7  24978998.797 6         0.000 6       347.996 6        37.977 6
G10  24533865.914 7 128926293.431 7     -1497.586 7        44.925 7  24533868.869 6         0.000 6     -1166.951 6        37.977 6
G12  20577673.385 9 108136385.860 9     -1106.917 9        57.188 9  20577672.123 6         0.000 6      -862.533 6        37.977 6
G15  23220484.808 8 122024443.035 8     -3350.094 8        50.691 8  23220484.378 6         0.000 6     -2610.464 6        37.977 6
G20  24883840.638 7 130765418.709 7     -1963.344 7        43.459 7  24883841.781 6         0.000 6     -1529.879 6        37.977 6
G29  22712824.966 8 119356673.197 8      3448.784 8        51.067 8  22712824.767 6         0.000 6      2687.365 6        37.977 6
G19  24627303.077 7 129417307.711 7     -3333.776 7        44.607 7  24627302.771 6         0.000 6     -2597.749 6        37.977 6
G24  20906947.710 9 109866734.115 9      -660.984 9        57.088 9  20906949.338 6         0.000 6      -515.052 6        37.977 6
G32  23465072.388 8 123309755.499 8      2856.593 8        48.797 8  23465074.458 6         0.000 6      2225.918 6        37.977 6
G02  24187833.046 7 127107883.782 7      1329.816 7        46.888 7  24187831.337 6         0.000 6      1036.221 6        37.977 6
G25  21469460.112 9 112822754.141 9      1040.264 9        55.260 9  21469462.532 6         0.000 6       810.596 6        37.977 6
G14  25517091.599 7 134093174.097 7      3363.713 7        42.971 7  25517092.615 6         0.000 6      2621.076 6        37.977 6
> 2019 07 03 18 02 38.0000000  0 12       0.000000000000
G06  24978910.239 7 131265013.688 7       446.128 7        43.792 7  24978913.857 6         0.000 6       347.632 6        37.977 6
G10  24534150.922 7 128927791.153 7     -1497.864 7        44.925 7  24534153.876 6         0.000 6     -1167.167 6        37.977 6
G12  20577884.050 9 108137492.911 9     -1107.186 9        57.188 9  20577882.788 6         0.000 6      -862.743 6        37.977 6
G15  23221122.324 8 122027793.200 8     -3350.244 8        50.690 8  23221121.894 6         0.000 6     -2610.580 6        37.977 6
G20  24884214.248 7 130767382.039 7     -1963.322 7        43.459 7  24884215.391 6         0.000 6     -1529.862 6        37.977 6
G29  22712168.707 8 119353224.539 8      3448.540 8        51.067 8  22712168.508 6         0.000 6      2687.175 6        37.977 6
G19  24627937.501 7 129420641.626 7     -3334.066 7        44.606 7  24627937.196 6         0.000 6     -2597.975 6        37.977 6
G24  20907073.521 9 109867395.257 9      -661.301 9        57.088 9  20907075.149 6         0.000 6      -515.300 6        37.977 6
G32  23464528.830 8 123306899.088 8      2856.238 8        48.797 8  23464530.900 6         0.000 6      2225.641 6        37.977 6
G02  24187580.015 7 127106554.094 7      1329.564 7        46.888 7  24187578.305 6         0.000 6      1036.025 6        37.977 6
G25  21469262.187 9 112821714.037 9      1039.945 9        55.260 9  21469264.607 6         0.000 6       810.347 6        37.977 6
G14  25516451.516 7 134089810.445 7      3363.605 7        42.971 7  25516452.532 6         0.000 6      2620.992 6        37.977 6
> 2019 07 03 18 02 39.0000000  0 12       0.000000000000
G06  24978825.388 7 131264567.794 7       445.662 7        43.792 7  24978829.006 6         0.000 6       347.269 6        37.977 6
G10  24534435.982 7 128929289.153 7     -1498.142 7        44.924 7  24534438.937 6         0.000 6     -1167.384 6        37.977 6
G12  20578094.766 9 108138600.231 9     -1107.455 9        57.188 9  20578093.504 6         0.000 6      -862.952 6        37.977 6
G15  23221759.868 8 122031143.514 8     -3350.393 8        50.690 8  23221759.439 6         0.000 6     -2610.697 6        37.977 6
G20  24884587.854 7 130769345.347 7     -1963.301 7        43.459 7  24884588.997 6         0.000 6     -1529.846 6        37.977 6
G29  22711512.495 8 119349776.126 8      3448.296 8        51.068 8  22711512.296 6         0.000 6      2686.985 6        37.977 6
G19  24628571.980 7 129423975.831 7     -3334.355 7        44.606 7  24628571.675 6         0.000 6     -2598.200 6        37.977 6
G24  20907199.393 9 109868056.716 9      -661.618 9        57.088 9  20907201.021 6         0.000 6      -515.547 6        37.977 6
G32  23463985.340 8 123304043.032 8      2855.882 8        48.798 8  23463987.410 6         0.000 6      2225.363 6        37.977 6
G02  24187327.031 7 127105224.659 7      1329.312 7        46.888 7  24187325.321 6         0.000 6      1035.828 6        37.977 6
G25  21469064.323 9 112820674.253 9      1039.625 9        55.260 9  21469066.742 6         0.000 6       810.098 6        37.977 6
G14  25515811.454 7 134086446.901 7      3363.496 7        42.971 7  25515812.469 6         0.000 6      2620.908 6        37.977 6
> 2019 07 03 18 02 40.0000000  0 12       0.000000000000
G06  24978740.625 7 131264122.366 7       445.196 7        43.792 7  24978744.244 6         0.000 6       346.906 6        37.977 6
G10  24534721.096 7 128930787.431 7     -1498.419 7        44.924 7  24534724.051 6         0.000 6     -1167.600 6        37.977 6
G12  20578305.534 9 108139707.820 9     -1107.724 9        57.188 9  20578304.272 6         0.000 6      -863.162 6        37.977 6
G15  23222397.441 8 122034493.977 8     -3350.542 8        50.690 8  23222397.012 6         0.000 6     -2610.813 6        37.977 6
G20  24884961.455 7 130771308.634 7     -1963.279 7        43.458 7  24884962.599 6         0.000 6     -1529.829 6        37.977 6
G29  22710856.329 8 119346327.956 8      3448.052 8        51.068 8  22710856.130 6         0.000 6      2686.795 6        37.977 6
G19  24629206.514 7 129427310.325 7     -3334.645 7        44.606 7  24629206.210 6         0.000 6     -2598.426 6        37.977 6
G24  20907325.325 9 109868718.493 9      -661.936 9        57.088 9  20907326.953 6         0.000 6      -515.794 6        37.977 6
G32  23463441.918 8 123301187.333 8      2855.525 8        48.798 8  23463443.987 6         0.000 6      2225.086 6        37.977 6
G02  24187074.096 7 127103895.476 7      1329.059 7        46.889 7  24187072.386 6         0.000 6      1035.631 6        37.977 6
G25  21468866.519 9 112819634.789 9      1039.306 9        55.260 9  21468868.939 6         0.000 6       809.849 6        37.977 6
G14  25515171.412 7 134083083.464 7      3363.388 7        42.972 7  25515172.427 6         0.000 6      2620.823 6        37.977 6
> 2019 07 03 18 02 41.0000000  0 12       0.000000000000
G06  24978655.952 7 131263677.404 7       444.730 7        43.792 7  24978659.570 6         0.000 6       346.543 6        37.977 6
G10  24535006.262 7 128932285.986 7     -1498.697 7        44.924 7  24535009.217 6         0.000 6     -1167.816 6        37.977 6
G12  20578516.352 9 108140815.678 9     -1107.993 9        57.188 9  20578515.090 6         0.000 6      -863.372 6        37.977 6
G15  23223035.042 8 122037844.590 8     -3350.691 8        50.690 8  23223034.613 6         0.000 6     -2610.929 6        37.977 6
G20  24885335.053 7 130773271.899 7     -1963.258 7        43.458 7  24885336.196 6         0.000 6     -1529.812 6        37.977 6
G29  22710200.210 8 119342880.030 8      3447.808 8        51.068 8  22710200.011 6         0.000 6      2686.605 6        37.977 6
G19  24629841.104 7 129430645.109 7     -3334.934 7        44.606 7  24629840.799 6         0.000 6     -2598.651 6        37.977 6
G24  20907451.317 9 109869380.587 9      -662.253 9        57.088 9  20907452.945 6         0.000 6      -516.042 6        37.977 6
G32  23462898.563 8 123298331.989 8      2855.169 8        49.063 8  23462900.633 6         0.000 6      2224.808 6        37.977 6
G02  24186821.208 7 127102566.546 7      1328.806 7        46.889 7  24186819.498 6         0.000 6      1035.434 6        37.977 6
G25  21468668.776 9 112818595.644 9      1038.986 9        55.260 9  21468671.196 6         0.000 6       809.600 6        37.977 6
G14  25514531.391 7 134079720.137 7      3363.280 7        42.972 7  25514532.405 6         0.000 6      2620.739 6        37.977 6
> 2019 07 03 18 02 42.0000000  0 12       0.000000000000
G06  24978571.367 7 131263232.908 7       444.264 7        43.792 7  24978574.985 6         0.000 6       346.180 6        37.977 6
G10  24535291.481 7 128933784.819 7     -1498.974 7        44.924 7  24535294.436 6         0.000 6     -1168.032 6        37.977 6
G12  20578727.222 9 108141923.805 9     -1108.262 9        57.188 9  20578725.960 6         0.000 6      -863.581 6        37.977 6
G15  23223672.672 8 122041195.352 8     -3350.840 8        50.689 8  23223672.243 6         0.000 6     -2611.045 6        37.977 6
G20  24885708.646 7 130775235.142 7     -1963.236 7        43.458 7  24885709.790 6         0.000 6     -1529.795 6        37.977 6
G29  22709544.137 8 119339432.348 8      3447.564 8        51.068 8  22709543.937 6         0.000 6      2686.415 6        37.977 6
G19  24630475.748 7 129433980.182 7     -3335.223 7        44.606 7  24630475.444 6         0.000 6     -2598.877 6        37.977 6
G24  20907577.370 9 109870042.999 9      -662.571 9        57.088 9  20907578.998 6         0.000 6      -516.289 6        37.977 6
G32  23462355.276 8 123295477.002 8      2854.813 8        49.063 8  23462357.346 6         0.000 6      2224.531 6        37.977 6
G02  24186568.369 7 127101237.869 7      1328.554 7        46.889 7  24186566.658 6         0.000 6      1035.237 6        37.977 6
G25  21468471.094 9 112817556.818 9      1038.667 9        55.260 9  21468473.514 6         0.000 6       809.351 6        37.977 6
G14  25513891.391 7 134076356.917 7      3363.171 7        42.972 7  25513892.404 6         0.000 6      2620.654 6        37.977 6
> 2019 07 03 18 02 43.0000000  0 12       0.000000000000
G06  24978486.871 7 131262788.879 7       443.797 7        43.792 7  24978490.489 6         0.000 6       345.816 6        37.977 6
G10  24535576.752 7 128935283.929 7     -1499.251 7        44.924 7  24535579.708 6         0.000 6     -1168.249 6        37.977 6
G12  20578938.143 9 108143032.201 9     -1108.531 9        57.188 9  20578936.881 6         0.000 6      -863.791 6        37.977 6
G15  23224310.330 8 122044546.262 8     -3350.989 8        50.689 8  23224309.901 6         0.000 6     -2611.161 6        37.977 6
G20  24886082.236 7 130777198.364 7     -1963.214 7        43.458 7  24886083.379 6         0.000 6     -1529.778 6        37.977 6
G29  22708888.111 8 119335984.910 8      3447.320 8        51.069 8  22708887.911 6         0.000 6      2686.224 6        37.977 6
G19  24631110.447 7 129437315.544 7     -3335.513 7        44.605 7  24631110.144 6         0.000 6     -2599.102 6        37.977 6
G24  20907703.483 9 109870705.728 9      -662.888 9        57.087 9  20907705.111 6         0.000 6      -516.536 6        37.977 6
G32  23461812.057 8 123292622.371 8      2854.457 8        49.063 8  23461814.126 6         0.000 6      2224.253 6        37.977 6
G02  24186315.577 7 127099909.444 7      1328.301 7        46.889 7  24186313.867 6         0.000 6      1035.040 6        37.977 6
G25  21468273.473 9 112816518.312 9      1038.347 9        55.260 9  21468275.892 6         0.000 6       809.102 6        37.977 6
G14  25513251.411 7 134072993.806 7      3363.063 7        42.972 7  25513252.424 6         0.000 6      2620.570 6        37.977 6
> 2019 07 03 18 02 44.0000000  0 12       0.000000000000
G06  24978402.463 7 131262345.315 7       443.331 7        43.792 7  24978406.082 6         0.000 6       345.453 6        37.977 6
G10  24535862.077 7 128936783.317 7     -1499.529 7        44.924 7  24535865.032 6         0.000 6     -1168.465 6        37.977 6
G12  20579149.115 9 108144140.866 9     -1108.800 9        57.188 9  20579147.853 6         0.000 6      -864.000 6        37.977 6
G15  23224948.016 8 122047897.322 8     -3351.138 8        50.689 8  23224947.588 6         0.000 6     -2611.277 6        37.977 6
G20  24886455.821 7 130779161.563 7     -1963.192 7        43.458 7  24886456.965 6         0.000 6     -1529.761 6        37.977 6
G29  22708232.131 8 119332537.717 8      3447.076 8        51.069 8  22708231.931 6         0.000 6      2686.034 6        37.977 6
G19  24631745.202 7 129440651.196 7     -3335.802 7        44.605 7  24631744.899 6         0.000 6     -2599.327 6        37.977 6
G24  20907829.657 9 109871368.774 9      -663.206 9        57.087 9  20907831.285 6         0.000 6      -516.784 6        37.977 6
G32  23461268.906 8 123289768.096 8      2854.100 8        49.063 8  23461270.975 6         0.000 6      2223.975 6        37.977 6
G02  24186062.834 7 127098581.273 7      1328.048 7        46.889 7  24186061.124 6         0.000 6      1034.843 6        37.977 6
G25  21468075.912 9 112815480.126 9      1038.028 9        55.260 9  21468078.332 6         0.000 6       808.853 6        37.977 6
G14  25512611.451 7 134069630.804 7      3362.954 7        42.972 7  25512612.464 6         0.000 6      2620.485 6        37.977 6
> 2019 07 03 18 02 45.0000000  0 12       0.000000000000
G06  24978318.145 7 131261902.219 7       442.864 7        43.792 7  24978321.763 6         0.000 6       345.089 6        37.977 6
G10  24536147.454 7 128938282.981 7     -1499.806 7        44.924 7  24536150.410 6         0.000 6     -1168.680 6        37.977 6
G12  20579360.138 9 108145249.800 9     -1109.069 9        57.187 9  20579358.876 6         0.000 6      -864.210 6        37.977 6
G15  23225585.730 8 122051248.530 8     -3351.287 8        50.689 8  23225585.302 6         0.000 6     -2611.393 6        37.977 6
G20  24886829.402 7 130781124.741 7     -1963.170 7        43.458 7  24886830.546 6         0.000 6     -1529.744 6        37.977 6
G29  22707576.197 8 119329090.768 8      3446.831 8        51.069 8  22707575.997 6         0.000 6      2685.843 6        37.977 6
G19  24632380.011 7 129443987.136 7     -3336.091 7        44.605 7  24632379.709 6         0.000 6     -2599.553 6        37.977 6
G24  20907955.891 9 109872032.139 9      -663.523 9        57.087 9  20907957.519 6         0.000 6      -517.031 6        37.977 6
G32  23460725.823 8 123286914.178 8      2853.744 8        49.064 8  23460727.892 6         0.000 6      2223.697 6        37.977 6
G02  24185810.139 7 127097253.354 7      1327.795 7        46.889 7  24185808.428 6         0.000 6      1034.646 6        37.977 6
G25  21467878.412 9 112814442.259 9      1037.708 9        55.260 9  21467880.832 6         0.000 6       808.604 6        37.977 6
G14  25511971.513 7 134066267.910 7      3362.845 7        42.973 7  25511972.526 6         0.000 6      2620.401 6        37.977 6
> 2019 07 03 18 02 46.0000000  0 12       0.000000000000
G06  24978233.915 7 131261459.588 7       442.398 7        43.792 7  24978237.533 6         0.000 6       344.726 6        37.977 6
G10  24536432.884 7 128939782.923 7     -1500.083 7        44.924 7  24536435.840 6         0.000 6     -1168.896 6        37.977 6
G12  20579571.213 9 108146359.002 9     -1109.337 9        57.187 9  20579569.951 6         0.000 6      -864.419 6        37.977 6
G15  23226223.473 8 122054599.887 8     -3351.435 8        50.688 8  23226223.046 6         0.000 6     -2611.509 6        37.977 6
G20  24887202.978 7 130783087.896 7     -1963.148 7        43.458 7  24887204.123 6         0.000 6     -1529.726 6        37.977 6
G29  22706920.311 8 119325644.063 8      3446.587 8        51.069 8  22706920.110 6         0.000 6      2685.653 6        37.977 6
G19  24633014.876 7 129447323.366 7     -3336.380 7        44.605 7  24633014.573 6         0.000 6     -2599.778 6        37.977 6
G24  20908082.186 9 109872695.821 9      -663.841 9        57.087 9  20908083.814 6         0.000 6      -517.279 6        37.977 6
G32  23460182.807 8 123284060.617 8      2853.387 8        49.064 8  23460184.876 6         0.000 6      2223.419 6        37.977 6
G02  24185557.492 7 127095925.688 7      1327.542 7        46.889 7  24185555.781 6         0.000 6      1034.449 6        37.977 6
G25  21467680.973 9 112813404.711 9      1037.389 9        55.260 9  21467683.393 6         0.000 6       808.355 6        37.977 6
G14  25511331.595 7 134062905.125 7      3362.737 7        42.973 7  25511332.607 6         0.000 6      2620.316 6        37.977 6
> 2019 07 03 18 02 47.0000000  0 12       0.000000000000
G06  24978149.773 7 131261017.424 7       441.931 7        43.792 7  24978153.392 6         0.000 6       344.362 6        37.977 6
G10  24536718.366 7 128941283.142 7     -1500.360 7        44.924 7  24536721.323 6         0.000 6     -1169.112 6        37.977 6
G12  20579782.338 9 108147468.473 9     -1109.606 9        57.187 9  20579781.076 6         0.000 6      -864.628 6        37.977 6
G15  23226861.244 8 122057951.392 8     -3351.584 8        50.688 8  23226860.817 6         0.000 6     -2611.625 6        37.977 6
G20  24887576.551 7 130785051.029 7     -1963.125 7        43.458 7  24887577.696 6         0.000 6     -1529.709 6        37.977 6
G29  22706264.470 8 119322197.603 8      3446.342 8        51.070 8  22706264.269 6         0.000 6      2685.462 6        37.977 6
G19  24633649.795 7 129450659.884 7     -3336.668 7        44.604 7  24633649.493 6         0.000 6     -2600.003 6        37.977 6
G24  20908208.541 9 109873359.820 9      -664.159 9        57.087 9  20908210.169 6         0.000 6      -517.526 6        37.977 6
G32  23459639.860 8 123281207.412 8      2853.030 8        49.064 8  23459641.928 6         0.000 6      2223.141 6        37.977 6
G02  24185304.894 7 127094598.275 7      1327.289 7        46.889 7  24185303.182 6         0.000 6      1034.252 6        37.977 6
G25  21467483.595 9 112812367.482 9      1037.070 9        55.260 9  21467486.015 6         0.000 6       808.107 6        37.977 6
G14  25510691.698 7 134059542.449 7      3362.628 7        42.973 7  25510692.710 6         0.000 6      2620.231 6        37.977 6
> 2019 07 03 18 02 48.0000000  0 12       0.000000000000
G06  24978065.721 7 131260575.727 7       441.465 7        43.792 7  24978069.339 6         0.000 6       343.999 6        37.977 6
G10  24537003.902 7 128942783.637 7     -1500.636 7        44.923 7  24537006.858 6         0.000 6     -1169.328 6        37.977 6
G12  20579993.515 9 108148578.213 9     -1109.875 9        57.187 9  20579992.253 6         0.000 6      -864.838 6        37.977 6
G15  23227499.044 8 122061303.046 8     -3351.732 8        50.688 8  23227498.616 6         0.000 6     -2611.741 6        37.977 6
G20  24887950.119 7 130787014.140 7     -1963.103 7        43.457 7  24887951.264 6         0.000 6     -1529.692 6        37.977 6
G29  22705608.676 8 119318751.388 8      3446.097 8        51.070 8  22705608.475 6         0.000 6      2685.272 6        37.977 6
G19  24634284.770 7 129453996.691 7     -3336.957 7        44.604 7  24634284.468 6         0.000 6     -2600.228 6        37.977 6
G24  20908334.956 9 109874024.138 9      -664.476 9        57.087 9  20908336.584 6         0.000 6      -517.774 6        37.977 6
G32  23459096.980 8 123278354.564 8      2852.673 8        49.064 8  23459099.048 6         0.000 6      2222.863 6        37.977 6
G02  24185052.343 7 127093271.116 7      1327.035 7        46.889 7  24185050.632 6         0.000 6      1034.054 6        37.977 6
G25  21467286.278 9 112811330.573 9      1036.751 9        55.261 9  21467288.697 6         0.000 6       807.858 6        37.977 6
G14  25510051.821 7 134056179.882 7      3362.519 7        42.973 7  25510052.833 6         0.000 6      2620.146 6        37.977 6
> 2019 07 03 18 02 49.0000000  0 12       0.000000000000
G06  24977981.758 7 131260134.496 7       440.998 7        43.792 7  24977985.376 6         0.000 6       343.635 6        37.977 6
G10  24537289.490 7 128944284.409 7     -1500.913 7        44.923 7  24537292.446 6         0.000 6     -1169.543 6        37.977 6
G12  20580204.742 9 108149688.221 9     -1110.143 9        57.187 9  20580203.480 6         0.000 6      -865.047 6        37.977 6
G15  23228136.871 8 122064654.849 8     -3351.881 8        50.688 8  23228136.444 6         0.000 6     -2611.856 6        37.977 6
G20  24888323.683 7 130788977.228 7     -1963.081 7        43.457 7  24888324.828 6         0.000 6     -1529.674 6        37.977 6
G29  22704952.929 8 119315305.417 8      3445.852 8        51.070 8  22704952.728 6         0.000 6      2685.081 6        37.977 6
G19  24634919.799 7 129457333.786 7     -3337.246 7        44.604 7  24634919.497 6         0.000 6     -2600.453 6        37.977 6
G24  20908461.432 9 109874688.773 9      -664.794 9        57.087 9  20908463.060 6         0.000 6      -518.022 6        37.977 6
G32  23458554.169 8 123275502.073 8      2852.316 8        49.064 8  23458556.236 6         0.000 6      2222.585 6        37.977 6
G02  24184799.841 7 127091944.210 7      1326.782 7        46.889 7  24184798.129 6         0.000 6      1033.857 6        37.977 6
G25  21467089.021 9 112810293.983 9      1036.431 9        55.261 9  21467091.440 6         0.000 6       807.609 6        37.977 6
G14  25509411.966 7 134052817.424 7      3362.410 7        42.974 7  25509412.977 6         0.000 6      2620.061 6        37.977 6
> 2019 07 03 18 02 50.0000000  0 12       0.000000000000
G06  24977897.883 7 131259693.732 7       440.532 7        43.792 7  24977901.501 6         0.000 6       343.272 6        37.977 6
G10  24537575.130 7 128945785.458 7     -1501.190 7        44.923 7  24537578.087 6         0.000 6     -1169.759 6        37.977 6
G12  20580416.021 9 108150798.498 9     -1110.412 9        57.187 9  20580414.759 6         0.000 6      -865.256 6        37.977 6
G15  23228774.727 8 122068006.799 8     -3352.029 8        50.687 8  23228774.300 6         0.000 6     -2611.972 6        37.977 6
G20  24888697.243 7 130790940.294 7     -1963.058 7        43.457 7  24888698.388 6         0.000 6     -1529.656 6        37.977 6
G29  22704297.229 8 119311859.691 8      3445.607 8        51.070 8  22704297.027 6         0.000 6      2684.890 6        37.977 6
G19  24635554.883 7 129460671.170 7     -3337.534 7        44.604 7  24635554.582 6         0.000 6     -2600.677 6        37.977 6
G24  20908587.968 9 109875353.725 9      -665.112 9        57.087 9  20908589.597 6         0.000 6      -518.269 6        37.977 6
G32  23458011.425 8 123272649.939 8      2851.959 8        49.065 8  23458013.492 6         0.000 6      2222.307 6        37.977 6
G02  24184547.387 7 127090617.557 7      1326.529 7        46.889 7  24184545.675 6         0.000 6      1033.659 6        37.977 6
G25  21466891.825 9 112809257.712 9      1036.112 9        55.261 9  21466894.244 6         0.000 6       807.360 6        37.977 6
G14  25508772.131 7 134049455.075 7      3362.301 7        42.974 7  25508773.142 6         0.000 6      2619.976 6        37.977 6
> 2019 07 03 18 02 51.0000000  0 12       0.000000000000
G06  24977814.097 7 131259253.435 7       440.065 7        43.792 7  24977817.715 6         0.000 6       342.908 6        37.977 6
G10  24537860.823 7 128947286.784 7     -1501.466 7        44.923 7  24537863.780 6         0.000 6     -1169.974 6        37.977 6
G12  20580627.351 9 108151909.043 9     -1110.680 9        57.187 9  20580626.089 6         0.000 6      -865.465 6        37.977 6
G15  23229412.611 8 122071358.898 8     -3352.177 8        50.687 8  23229412.185 6         0.000 6     -2612.087 6        37.977 6
G20  24889070.798 7 130792903.337 7     -1963.035 7        43.457 7  24889071.944 6         0.000 6     -1529.639 6        37.977 6
G29  22703641.575 8 119308414.211 8      3445.362 8        51.071 8  22703641.373 6         0.000 6      2684.699 6        37.977 6
G19  24636190.022 7 129464008.843 7     -3337.822 7        44.604 7  24636189.721 6         0.000 6     -2600.902 6        37.977 6
G24  20908714.565 9 109876018.996 9      -665.430 9        57.087 9  20908716.193 6         0.000 6      -518.517 6        37.977 6
G32  23457468.749 8 123269798.162 8      2851.602 8        49.065 8  23457470.816 6         0.000 6      2222.029 6        37.977 6
G02  24184294.981 7 127089291.158 7      1326.275 7        46.890 7  24184293.269 6         0.000 6      1033.462 6        37.977 6
G25  21466694.690 9 112808221.760 9      1035.793 9        55.261 9  21466697.109 6         0.000 6       807.112 6        37.977 6
G14  25508132.317 7 134046092.835 7      3362.191 7        42.974 7  25508133.327 6         0.000 6      2619.891 6        37.977 6
> 2019 07 03 18 02 52.0000000  0 12       0.000000000000
G06  24977730.400 7 131258813.604 7       439.598 7        43.792 7  24977734.018 6         0.000 6       342.544 6        37.977 6
G10  24538146.569 7 128948788.385 7     -1501.743 7        44.923 7  24538149.526 6         0.000 6     -1170.190 6        37.977 6
G12  20580838.732 9 108153019.856 9     -1110.948 9        57.187 9  20580837.470 6         0.000 6      -865.674 6        37.977 6
G15  23230050.523 8 122074711.145 8     -3352.325 8        50.687 8  23230050.097 6         0.000 6     -2612.203 6        37.977 6
G20  24889444.349 7 130794866.358 7     -1963.013 7        43.457 7  24889445.495 6         0.000 6     -1529.621 6        37.977 6
G29  22702985.967 8 119304968.975 8      3445.117 8        51.071 8  22702985.765 6         0.000 6      2684.508 6        37.977 6
G19  24636825.216 7 129467346.804 7     -3338.111 7        44.603 7  24636824.916 6         0.000 6     -2601.127 6        37.977 6
G24  20908841.223 9 109876684.584 9      -665.747 9        57.087 9  20908842.851 6         0.000 6      -518.764 6        37.977 6
G32  23456926.141 8 123266946.743 8      2851.245 8        49.065 8  23456928.208 6         0.000 6      2221.750 6        37.977 6
G02  24184042.623 7 127087965.012 7      1326.022 7        46.890 7  24184040.911 6         0.000 6      1033.264 6        37.977 6
G25  21466497.615 9 112807186.128 9      1035.474 9        55.261 9  21466500.035 6         0.000 6       806.863 6        37.977 6
G14  25507492.523 7 134042730.704 7      3362.082 7        42.974 7  25507493.533 6         0.000 6      2619.806 6        37.977 6
> 2019 07 03 18 02 53.0000000  0 12       0.000000000000
G06  24977646.791 7 131258374.241 7       439.131 7        43.792 7  24977650.409 6         0.000 6       342.180 6        37.977 6
G10  24538432.368 7 128950290.264 7     -1502.019 7        44.923 7  24538435.325 6         0.000 6     -1170.405 6        37.977 6
G12  20581050.164 9 108154130.938 9     -1111.217 9        57.187 9  20581048.902 6         0.000 6      -865.883 6        37.977 6
G15  23230688.464 8 122078063.540 8     -3352.473 8        50.687 8  23230688.038 6         0.000 6     -2612.318 6        37.977 6
G20  24889817.896 7 130796829.356 7     -1962.990 7        43.457 7  24889819.042 6         0.000 6     -1529.603 6        37.977 6
G29  22702330.407 8 119301523.985 8      3444.872 8        51.071 8  22702330.204 6         0.000 6      2684.317 6        37.977 6
G19  24637460.465 7 129470685.053 7     -3338.399 7        44.603 7  24637460.165 6         0.000 6     -2601.351 6        37.977 6
G24  20908967.940 9 109877350.490 9      -666.065 9        57.087 9  20908969.568 6         0.000 6      -519.012 6        37.977 6
G32  23456383.601 8 123264095.680 8      2850.888 8        49.065 8  23456385.668 6         0.000 6      2221.472 6        37.977 6
G02  24183790.314 7 127086639.120 7      1325.768 7        46.890 7  24183788.602 6         0.000 6      1033.066 6        37.977 6
G25  21466300.602 9 112806150.815 9      1035.155 9        55.261 9  21466303.021 6         0.000 6       806.614 6        37.977 6
G14  25506852.751 7 134039368.683 7      3361.973 7        42.974 7  25506853.761 6         0.000 6      2619.720 6        37.977 6
> 2019 07 03 18 02 54.0000000  0 12       0.000000000000
G06  24977563.272 7 131257935.344 7       438.664 7        43.792 7  24977566.890 6         0.000 6       341.817 6        37.977 6
G10  24538718.219 7 128951792.418 7     -1502.295 7        44.923 7  24538721.176 6         0.000 6     -1170.620 6        37.977 6
G12  20581261.647 9 108155242.288 9     -1111.485 9        57.187 9  20581260.385 6         0.000 6      -866.092 6        37.977 6
G15  23231326.432 8 122081416.084 8     -3352.621 8        50.687 8  23231326.006 6         0.000 6     -2612.433 6        37.977 6
G20  24890191.438 7 130798792.330 7     -1962.967 7        43.457 7  24890192.584 6         0.000 6     -1529.585 6        37.977 6
G29  22701674.893 8 119298079.239 8      3444.627 8        51.071 8  22701674.690 6         0.000 6      2684.126 6        37.977 6
G19  24638095.768 7 129474023.590 7     -3338.687 7        44.603 7  24638095.469 6         0.000 6     -2601.576 6        37.977 6
G24  20909094.719 9 109878016.714 9      -666.383 9        57.087 9  20909096.347 6         0.000 6      -519.260 6        37.977 6
G32  23455841.129 8 123261244.975 8      2850.530 8        49.065 8  23455843.196 6         0.000 6      2221.193 6        37.977 6
G02  24183538.053 7 127085313.482 7      1325.514 7        46.890 7  24183536.340 6         0.000 6      1032.869 6        37.977 6
G25  21466103.649 9 112805115.820 9      1034.836 9        55.261 9  21466106.068 6         0.000 6       806.366 6        37.977 6
G14  25506212.999 7 134036006.771 7      3361.863 7        42.975 7  25506214.008 6         0.000 6      2619.635 6        37.977 6
> 2019 07 03 18 02 55.0000000  0 12       0.000000000000
G06  24977479.841 7 131257496.914 7       438.197 7        43.792 7  24977483.459 6         0.000 6       341.453 6        37.977 6
G10  24539004.122 7 128953294.849 7     -1502.571 7        44.923 7  24539007.080 6         0.000 6     -1170.835 6        37.977 6
G12  20581473.181 9 108156353.906 9     -1111.753 9        57.187 9  20581471.919 6         0.000 6      -866.301 6        37.977 6
G15  23231964.429 8 122084768.774 8     -3352.769 8        50.686 8  23231964.003 6         0.000 6     -2612.548 6        37.977 6
G20  24890564.976 7 130800755.282 7     -1962.944 7        43.457 7  24890566.122 6         0.000 6     -1529.567 6        37.977 6
G29  22701019.425 8 119294634.740 8      3444.381 8        51.072 8  22701019.222 6         0.000 6      2683.935 6        37.977 6
G19  24638731.127 7 129477362.414 7     -3338.975 7        44.603 7  24638730.827 6         0.000 6     -2601.800 6        37.977 6
G24  20909221.557 9 109878683.255 9      -666.701 9        57.087 9  20909223.185 6         0.000 6      -519.507 6        37.977 6
G32  23455298.725 8 123258394.627 8      2850.173 8        49.066 8  23455300.792 6         0.000 6      2220.915 6        37.977 6
G02  24183285.840 7 127083988.097 7      1325.260 7        46.890 7  24183284.127 6         0.000 6      1032.671 6        37.977 6
G25  21465906.756 9 112804081.145 9      1034.516 9        55.261 9  21465909.175 6         0.000 6       806.117 6        37.977 6
G14  25505573.268 7 134032644.969 7      3361.754 7        42.975 7  25505574.277 6         0.000 6      2619.550 6        37.977 6
> 2019 07 03 18 02 56.0000000  0 12       0.000000000000
G06  24977396.500 7 131257058.951 7       437.730 7        43.792 7  24977400.117 6         0.000 6       341.089 6        37.977 6
G10  24539290.078 7 128954797.555 7     -1502.847 7        44.923 7  24539293.036 6         0.000 6     -1171.050 6        37.977 6
G12  20581684.766 9 108157465.792 9     -1112.021 9        57.186 9  20581683.504 6         0.000 6      -866.510 6        37.977 6
G15  23232602.454 8 122088121.613 8     -3352.917 8        50.686 8  23232602.028 6         0.000 6     -2612.663 6        37.977 6
G20  24890938.510 7 130802718.211 7     -1962.920 7        43.456 7  24890939.656 6         0.000 6     -1529.549 6        37.977 6
G29  22700364.005 8 119291190.485 8      3444.136 8        51.072 8  22700363.801 6         0.000 6      2683.743 6        37.977 6
G19  24639366.540 7 129480701.527 7     -3339.262 7        44.602 7  24639366.241 6         0.000 6     -2602.024 6        37.977 6
G24  20909348.457 9 109879350.115 9      -667.019 9        57.087 9  20909350.085 6         0.000 6      -519.755 6        37.977 6
G32  23454756.390 8 123255544.637 8      2849.815 8        49.066 8  23454758.456 6         0.000 6      2220.636 6        37.977 6
G02  24183033.675 7 127082662.967 7      1325.006 7        46.890 7  24183031.963 6         0.000 6      1032.473 6        37.977 6
G25  21465709.925 9 112803046.789 9      1034.197 9        55.261 9  21465712.344 6         0.000 6       805.868 6        37.977 6
G14  25504933.558 7 134029283.276 7      3361.644 7        42.975 7  25504934.567 6         0.000 6      2619.464 6        37.977 6
> 2019 07 03 18 02 57.0000000  0 12       0.000000000000
G06  24977313.247 7 131256621.455 7       437.263 7        43.792 7  24977316.864 6         0.000 6       340.725 6        37.977 6
G10  24539576.087 7 128956300.538 7     -1503.123 7        44.923 7  24539579.045 6         0.000 6     -1171.265 6        37.977 6
G12  20581896.402 9 108158577.946 9     -1112.289 9        57.186 9  20581895.140 6         0.000 6      -866.719 6        37.977 6
G15  23233240.506 8 122091474.599 8     -3353.064 8        50.686 8  23233240.082 6         0.000 6     -2612.778 6        37.977 6
G20  24891312.039 7 130804681.116 7     -1962.897 7        43.456 7  24891313.186 6         0.000 6     -1529.531 6        37.977 6
G29  22699708.631 8 119287746.477 8      3443.890 8        51.072 8  22699708.427 6         0.000 6      2683.552 6        37.977 6
G19  24640002.008 7 129484040.928 7     -3339.550 7        44.602 7  24640001.709 6         0.000 6     -2602.248 6        37.977 6
G24  20909475.416 9 109880017.293 9      -667.337 9        57.087 9  20909477.045 6         0.000 6      -520.003 6        37.977 6
G32  23454214.122 8 123252695.005 8      2849.457 8        49.066 8  23454216.188 6         0.000 6      2220.357 6        37.977 6
G02  24182781.559 7 127081338.091 7      1324.752 7        46.890 7  24182779.846 6         0.000 6      1032.275 6        37.977 6
G25  21465513.154 9 112802012.752 9      1033.878 9        55.261 9  21465515.573 6         0.000 6       805.620 6        37.977 6
G14  25504293.869 7 134025921.694 7      3361.534 7        42.975 7  25504294.877 6         0.000 6      2619.379 6        37.977 6
> 2019 07 03 18 02 58.0000000  0 12       0.000000000000
G06  24977230.083 7 131256184.427 7       436.796 7        43.792 7  24977233.700 6         0.000 6       340.361 6        37.977 6
G10  24539862.148 7 128957803.796 7     -1503.399 7        44.922 7  24539865.106 6         0.000 6     -1171.480 6        37.977 6
G12  20582108.089 9 108159690.368 9     -1112.557 9        57.186 9  20582106.827 6         0.000 6      -866.928 6        37.977 6
G15  23233878.587 8 122094827.733 8     -3353.212 8        50.686 8  23233878.163 6         0.000 6     -2612.893 6        37.977 6
G20  24891685.563 7 130806643.998 7     -1962.874 7        43.456 7  24891686.710 6         0.000 6     -1529.513 6        37.977 6
G29  22699053.304 8 119284302.714 8      3443.644 8        51.072 8  22699053.100 6         0.000 6      2683.360 6        37.977 6
G19  24640637.530 7 129487380.616 7     -3339.838 7        44.602 7  24640637.232 6         0.000 6     -2602.472 6        37.977 6
G24  20909602.436 9 109880684.788 9      -667.655 9        57.087 9  20909604.065 6         0.000 6      -520.251 6        37.977 6
G32  23453671.922 8 123249845.730 8      2849.100 8        49.066 8  23453673.988 6         0.000 6      2220.079 6        37.977 6
G02  24182529.492 7 127080013.468 7      1324.498 7        46.890 7  24182527.779 6         0.000 6      1032.077 6        37.977 6
G25  21465316.444 9 112800979.034 9      1033.559 9        55.261 9  21465318.863 6         0.000 6       805.371 6        37.977 6
G14  25503654.201 7 134022560.220 7      3361.424 7        42.976 7  25503655.209 6         0.000 6      2619.293 6        37.977 6
> 2019 07 03 18 02 59.0000000  0 12       0.000000000000
G06  24977147.008 7 131255747.865 7       436.329 7        43.792 7  24977150.625 6         0.000 6       339.997 6        37.977 6
G10  24540148.261 7 128959307.330 7     -1503.675 7        44.922 7  24540151.220 6         0.000 6     -1171.695 6        37.977 6
G12  20582319.827 9 108160803.058 9     -1112.825 9        57.186 9  20582318.565 6         0.000 6      -867.136 6        37.977 6
G15  23234516.696 8 122098181.015 8     -3353.359 8        50.685 8  23234516.272 6         0.000 6     -2613.008 6        37.977 6
G20  24892059.084 7 130808606.857 7     -1962.850 7        43.456 7  24892060.231 6         0.000 6     -1529.495 6        37.977 6
G29  22698398.023 8 119280859.196 8      3443.399 8        51.073 8  22698397.819 6         0.000 6      2683.169 6        37.977 6
G19  24641273.108 7 129490720.592 7     -3340.125 7        44.602 7  24641272.810 6         0.000 6     -2602.696 6        37.977 6
G24  20909729.517 9 109881352.602 9      -667.973 9        57.087 9  20909731.146 6         0.000 6      -520.498 6        37.977 6
G32  23453129.791 8 123246996.813 8      2848.742 8        49.066 8  23453131.856 6         0.000 6      2219.800 6        37.977 6
G02  24182277.472 7 127078689.100 7      1324.244 7        46.890 7  24182275.759 6         0.000 6      1031.879 6        37.977 6
G25  21465119.794 9 112799945.635 9      1033.240 9        55.261 9  21465122.213 6         0.000 6       805.123 6        37.977 6
G14  25503014.554 7 134019198.857 7      3361.314 7        42.976 7  25503015.561 6         0.000 6      2619.208 6        37.977 6
> 2019 07 03 18 03  0.0000000  0 12       0.000000000000
G06  24977064.022 7 131255311.771 7       435.861 7        43.792 7  24977067.639 6         0.000 6       339.633 6        37.977 6
G10  24540434.427 7 128960811.140 7     -1503.950 7        44.922 7  24540437.386 6         0.000 6     -1171.910 6        37.977 6
G12  20582531.616 9 108161916.015 9     -1113.092 9        57.186 9  20582530.355 6         0.000 6      -867.345 6        37.977 6
G15  23235154.833 8 122101534.444 8     -3353.507 8        50.685 8  23235154.409 6         0.000 6     -2613.123 6        37.977 6
G20  24892432.599 7 130810569.692 7     -1962.827 7        43.456 7  24892433.747 6         0.000 6     -1529.476 6        37.977 6
G29  22697742.790 8 119277415.925 8      3443.153 8        51.073 8  22697742.585 6         0.000 6      2682.977 6        37.977 6
G19  24641908.740 7 129494060.855 7     -3340.413 7        44.602 7  24641908.442 6         0.000 6     -2602.920 6        37.977 6
G24  20909856.658 9 109882020.733 9      -668.291 9        57.087 9  20909858.287 6         0.000 6      -520.746 6        37.977 6
G32  23452587.727 8 123244148.255 8      2848.384 8        49.067 8  23452589.792 6         0.000 6      2219.521 6        37.977 6
G02  24182025.501 7 127077364.986 7      1323.989 7        46.890 7  24182023.788 6         0.000 6      1031.681 6        37.977 6
G25  21464923.205 9 112798912.555 9      1032.922 9        55.261 9  21464925.624 6         0.000 6       804.874 6        37.977 6
G14  25502374.927 7 134015837.604 7      3361.204 7        42.976 7  25502375.934 6         0.000 6      2619.122 6        37.977 6
> 2019 07 03 18 03  1.0000000  0 12       0.000000000000
G06  24976981.124 7 131254876.144 7       435.394 7        43.792 7  24976984.742 6         0.000 6       339.268 6        37.977 6
G10  24540720.646 7 128962315.225 7     -1504.226 7        44.922 7  24540723.604 6         0.000 6     -1172.125 6        37.977 6
G12  20582743.456 9 108163029.241 9     -1113.360 9        57.186 9  20582742.194 6         0.000 6      -867.554 6        37.977 6
G15  23235792.999 8 122104888.020 8     -3353.654 8        50.685 8  23235792.575 6         0.000 6     -2613.238 6        37.977 6
G20  24892806.111 7 130812532.503 7     -1962.803 7        43.456 7  24892807.258 6         0.000 6     -1529.458 6        37.977 6
G29  22697087.603 8 119273972.900 8      3442.907 8        51.073 8  22697087.398 6         0.000 6      2682.785 6        37.977 6
G19  24642544.426 7 129497401.405 7     -3340.700 7        44.601 7  24642544.129 6         0.000 6     -2603.144 6        37.977 6
G24  20909983.860 9 109882689.183 9      -668.609 9        57.087 9  20909985.489 6         0.000 6      -520.994 6        37.977 6
G32  23452045.732 8 123241300.054 8      2848.026 8        49.067 8  23452047.797 6         0.000 6      2219.242 6        37.977 6
G02  24181773.579 7 127076041.127 7      1323.735 7        46.890 7  24181771.865 6         0.000 6      1031.482 6        37.977 6
G25  21464726.677 9 112797879.794 9      1032.603 9        55.262 9  21464729.096 6         0.000 6       804.626 6        37.977 6
G14  25501735.322 7 134012476.461 7      3361.094 7        42.976 7  25501736.329 6         0.000 6      2619.036 6        37.977 6
> 2019 07 03 18 03  2.0000000  0 12       0.000000000000
G06  24976898.316 7 131254440.984 7       434.927 7        43.792 7  24976901.933 6         0.000 6       338.904 6        37.977 6
G10  24541006.917 7 128963819.586 7     -1504.501 7        44.922 7  24541009.875 6         0.000 6     -1172.339 6        37.977 6
G12  20582955.346 9 108164142.734 9     -1113.628 9        57.186 9  20582954.085 6         0.000 6      -867.762 6        37.977 6
G15  23236431.192 8 122108241.743 8     -3353.801 8        50.685 8  23236430.768 6         0.000 6     -2613.352 6        37.977 6
G20  24893179.617 7 130814495.291 7     -1962.779 7        43.456 7  24893180.765 6         0.000 6     -1529.439 6        37.977 6
G29  22696432.463 8 119270530.121 8      3442.660 8        51.073 8  22696432.258 6         0.000 6      2682.594 6        37.977 6
G19  24643180.168 7 129500742.243 7     -3340.987 7        44.601 7  24643179.871 6         0.000 6     -2603.368 6        37.977 6
G24  20910111.123 9 109883357.950 9      -668.927 9        57.086 9  20910112.751 6         0.000 6      -521.242 6        37.977 6
G32  23451503.805 8 123238452.211 8      2847.667 8        49.067 8  23451505.869 6         0.000 6      2218.963 6        37.977 6
G02  24181521.704 7 127074717.522 7      1323.480 7        46.891 7  24181519.991 6         0.000 6      1031.284 6        37.977 6
G25  21464530.210 9 112796847.352 9      1032.284 9        55.262 9  21464532.629 6         0.000 6       804.377 6        37.977 6
G14  25501095.737 7 134009115.428 7      3360.984 7        42.976 7  25501096.744 6         0.000 6      2618.950 6        37.977 6
> 2019 07 03 18 03  3.0000000  0 12       0.000000000000
G06  24976815.597 7 131254006.292 7       434.459 7        43.792 7  24976819.214 6         0.000 6       338.540 6        37.977 6
G10  24541293.240 7 128965324.222 7     -1504.776 7        44.922 7  24541296.199 6         0.000 6     -1172.554 6        37.977 6
G12  20583167.288 9 108165256.495 9     -1113.895 9        57.186 9  20583166.027 6         0.000 6      -867.971 6        37.977 6
G15  23237069.413 8 122111595.613 8     -3353.948 8        50.684 8  23237068.989 6         0.000 6     -2613.467 6        37.977 6
G20  24893553.120 7 130816458.055 7     -1962.755 7        43.455 7  24893554.268 6         0.000 6     -1529.421 6        37.977 6
G29  22695777.370 8 119267087.588 8      3442.414 8        51.074 8  22695777.165 6         0.000 6      2682.402 6        37.977 6
G19  24643815.964 7 129504083.368 7     -3341.274 7        44.601 7  24643815.667 6         0.000 6     -2603.592 6        37.977 6
G24  20910238.445 9 109884027.036 9      -669.245 9        57.086 9  20910240.074 6         0.000 6      -521.490 6        37.977 6
G32  23450961.946 8 123235604.727 8      2847.309 8        49.067 8  23450964.010 6         0.000 6      2218.683 6        37.977 6
G02  24181269.879 7 127073394.171 7      1323.226 7        46.891 7  24181268.165 6         0.000 6      1031.086 6        37.977 6
G25  21464333.803 9 112795815.228 9      1031.965 9        55.262 9  21464336.222 6         0.000 6       804.129 6        37.977 6
G14  25500456.174 7 134005754.505 7      3360.874 7        42.977 7  25500457.180 6         0.000 6      2618.864 6        37.977 6
> 2019 07 03 18 03  4.0000000  0 12       0.000000000000
G06  24976732.966 7 131253572.067 7       433.992 7        43.792 7  24976736.584 6         0.000 6       338.176 6        37.977 6
G10  24541579.616 7 128966829.133 7     -1505.052 7        44.922 7  24541582.575 6         0.000 6     -1172.768 6        37.977 6
G12  20583379.281 9 108166370.523 9     -1114.163 9        57.186 9  20583378.020 6         0.000 6      -868.179 6        37.977 6
G15  23237707.662 8 122114949.631 8     -3354.095 8        50.684 8  23237707.239 6         0.000 6     -2613.582 6        37.977 6
G20  24893926.617 7 130818420.795 7     -1962.731 7        43.455 7  24893927.766 6         0.000 6     -1529.402 6        37.977 6
G29  22695122.324 8 119263645.301 8      3442.168 8        51.074 8  22695122.118 6         0.000 6      2682.210 6        37.977 6
G19  24644451.814 7 129507424.779 7     -3341.561 7        44.601 7  24644451.518 6         0.000 6     -2603.815 6        37.977 6
G24  20910365.829 9 109884696.440 9      -669.563 9        57.086 9  20910367.457 6         0.000 6      -521.738 6        37.977 6
G32  23450420.155 8 123232757.600 8      2846.951 8        49.067 8  23450422.219 6         0.000 6      2218.404 6        37.977 6
G02  24181018.101 7 127072071.075 7      1322.971 7        46.891 7  24181016.387 6         0.000 6      1030.887 6        37.977 6
G25  21464137.457 9 112794783.424 9      1031.646 9        55.262 9  21464139.876 6         0.000 6       803.880 6        37.977 6
G14  25499816.631 7 134002393.693 7      3360.763 7        42.977 7  25499817.637 6         0.000 6      2618.778 6        37.977 6
> 2019 07 03 18 03  5.0000000  0 12       0.000000000000
G06  24976650.425 7 131253138.310 7       433.524 7        43.792 7  24976654.042 6         0.000 6       337.811 6        37.977 6
G10  24541866.044 7 128968334.320 7     -1505.327 7        44.922 7  24541869.003 6         0.000 6     -1172.982 6        37.977 6
G12  20583591.325 9 108167484.819 9     -1114.430 9        57.186 9  20583590.064 6         0.000 6      -868.387 6        37.977 6
G15  23238345.939 8 122118303.795 8     -3354.242 8        50.684 8  23238345.516 6         0.000 6     -2613.696 6        37.977 6
G20  24894300.110 7 130820383.511 7     -1962.707 7        43.455 7  24894301.259 6         0.000 6     -1529.383 6        37.977 6
G29  22694467.325 8 119260203.261 8      3441.921 8        51.074 8  22694467.119 6         0.000 6      2682.018 6        37.977 6
G19  24645087.720 7 129510766.478 7     -3341.848 7        44.600 7  24645087.424 6         0.000 6     -2604.039 6        37.977 6
G24  20910493.273 9 109885366.162 9      -669.881 9        57.086 9  20910494.901 6         0.000 6      -521.986 6        37.977 6
G32  23449878.432 8 123229910.833 8      2846.592 8        49.068 8  23449880.496 6         0.000 6      2218.125 6        37.977 6
G02  24180766.373 7 127070748.234 7      1322.716 7        46.891 7  24180764.659 6         0.000 6      1030.689 6        37.977 6
G25  21463941.172 9 112793751.938 9      1031.327 9        55.262 9  21463943.590 6         0.000 6       803.632 6        37.977 6
G14  25499177.110 7 133999032.991 7      3360.653 7        42.977 7  25499178.115 6         0.000 6      2618.692 6        37.977 6
> 2019 07 03 18 03  6.0000000  0 12       0.000000000000
G06  24976567.973 7 131252705.021 7       433.057 7        43.792 7  24976571.590 6         0.000 6       337.447 6        37.977 6
G10  24542152.524 7 128969839.781 7     -1505.602 7        44.922 7  24542155.483 6         0.000 6     -1173.197 6        37.977 6
G12  20583803.419 9 108168599.382 9     -1114.698 9        57.186 9  20583802.158 6         0.000 6      -868.596 6        37.977 6
G15  23238984.244 8 122121658.106 8     -3354.389 8        50.684 8  23238983.821 6         0.000 6     -2613.810 6        37.977 6
G20  24894673.599 7 130822346.202 7     -1962.683 7        43.455 7  24894674.748 6         0.000 6     -1529.364 6        37.977 6
G29  22693812.372 8 119256761.467 8      3441.675 8        51.074 8  22693812.166 6         0.000 6      2681.825 6        37.977 6
G19  24645723.679 7 129514108.463 7     -3342.135 7        44.600 7  24645723.384 6         0.000 6     -2604.262 6        37.977 6
G24  20910620.777 9 109886036.202 9      -670.200 9        57.086 9  20910622.406 6         0.000 6      -522.234 6        37.977 6
G32  23449336.778 8 123227064.424 8      2846.234 8        49.068 8  23449338.841 6         0.000 6      2217.845 6        37.977 6
G02  24180514.692 7 127069425.648 7      1322.461 7        46.891 7  24180512.978 6         0.000 6      1030.490 6        37.977 6
G25  21463744.947 9 112792720.771 9      1031.009 9        55.262 9  21463747.365 6         0.000 6       803.384 6        37.977 6
G14  25498537.609 7 133995672.399 7      3360.542 7        42.977 7  25498538.614 6         0.000 6      2618.606 6        37.977 6
> 2019 07 03 18 03  7.0000000  0 12       0.000000000000
G06  24976485.609 7 131252272.199 7       432.589 7        43.792 7  24976489.226 6         0.000 6       337.083 6        37.977 6
G10  24542439.056 7 128971345.517 7     -1505.876 7        44.922 7  24542442.016 6         0.000 6     -1173.411 6        37.977 6
G12  20584015.564 9 108169714.213 9     -1114.965 9        57.185 9  20584014.303 6         0.000 6      -868.804 6        37.977 6
G15  23239622.577 8 122125012.564 8     -3354.535 8        50.683 8  23239622.154 6         0.000 6     -2613.925 6        37.977 6
G20  24895047.083 7 130824308.870 7     -1962.659 7        43.455 7  24895048.232 6         0.000 6     -1529.345 6        37.977 6
G29  22693157.467 8 119253319.920 8      3441.428 8        51.075 8  22693157.261 6         0.000 6      2681.633 6        37.977 6
G19  24646359.694 7 129517450.736 7     -3342.421 7        44.600 7  24646359.399 6         0.000 6     -2604.485 6        37.977 6
G24  20910748.342 9 109886706.561 9      -670.518 9        57.086 9  20910749.971 6         0.000 6      -522.482 6        37.977 6
G32  23448795.192 8 123224218.373 8      2845.875 8        49.068 8  23448797.255 6         0.000 6      2217.566 6        37.977 6
G02  24180263.061 7 127068103.317 7      1322.206 7        46.891 7  24180261.346 6         0.000 6      1030.291 6        37.977 6
G25  21463548.783 9 112791689.922 9      1030.690 9        55.262 9  21463551.201 6         0.000 6       803.135 6        37.977 6
G14  25497898.130 7 133992311.918 7      3360.432 7        42.977 7  25497899.134 6         0.000 6      2618.520 6        37.977 6
> 2019 07 03 18 03  8.0000000  0 12       0.000000000000
G06  24976403.335 7 131251839.844 7       432.121 7        43.792 7  24976406.952 6         0.000 6       336.718 6        37.977 6
G10  24542725.641 7 128972851.529 7     -1506.151 7        44.921 7  24542728.601 6         0.000 6     -1173.625 6        37.977 6
G12  20584227.761 9 108170829.311 9     -1115.232 9        57.185 9  20584226.500 6         0.000 6      -869.012 6        37.977 6
G15  23240260.938 8 122128367.169 8     -3354.682 8        50.683 8  23240260.516 6         0.000 6     -2614.039 6        37.977 6
G20  24895420.562 7 130826271.513 7     -1962.634 7        43.455 7  24895421.711 6         0.000 6     -1529.326 6        37.977 6
G29  22692502.608 8 119249878.619 8      3441.181 8        51.075 8  22692502.402 6         0.000 6      2681.441 6        37.977 6
G19  24646995.763 7 129520793.294 7     -3342.708 7        44.280 7  24646995.468 6         0.000 6     -2604.709 6        37.977 6
G24  20910875.968 9 109887377.237 9      -670.836 9        57.086 9  20910877.596 6         0.000 6      -522.730 6        37.977 6
G32  23448253.674 8 123221372.681 8      2845.516 8        49.068 8  23448255.737 6         0.000 6      2217.286 6        37.977 6
G02  24180011.477 7 127066781.241 7      1321.951 7        46.891 7  24180009.763 6         0.000 6      1030.093 6        37.977 6
G25  21463352.680 9 112790659.393 9      1030.371 9        55.262 9  21463355.098 6         0.000 6       802.887 6        37.977 6
G14  25497258.672 7 133988951.548 7      3360.321 7        42.978 7  25497259.676 6         0.000 6      2618.433 6        37.977 6
> 2019 07 03 18 03  9.0000000  0 12       0.000000000000
G06  24976321.149 7 131251407.958 7       431.653 7        43.792 7  24976324.766 6         0.000 6       336.354 6        37.977 6
G10  24543012.278 7 128974357.814 7     -1506.426 7        44.921 7  24543015.238 6         0.000 6     -1173.839 6        37.977 6
G12  20584440.008 9 108171944.676 9     -1115.500 9        57.185 9  20584438.747 6         0.000 6      -869.221 6        37.977 6
G15  23240899.326 8 122131721.920 8     -3354.828 8        50.683 8  23240898.904 6         0.000 6     -2614.153 6        37.977 6
G20  24895794.037 7 130828234.132 7     -1962.610 7        43.455 7  24895795.186 6         0.000 6     -1529.307 6        37.977 6
G29  22691847.797 8 119246437.566 8      3440.934 8        51.075 8  22691847.590 6         0.000 6      2681.249 6        37.977 6
G19  24647631.886 7 129524136.139 7     -3342.994 7        44.280 7  24647631.592 6         0.000 6     -2604.932 6        37.977 6
G24  20911003.654 9 109888048.232 9      -671.154 9        57.086 9  20911005.283 6         0.000 6      -522.978 6        37.977 6
G32  23447712.224 8 123218527.348 8      2845.157 8        49.068 8  23447714.287 6         0.000 6      2217.007 6        37.977 6
G02  24179759.943 7 127065459.419 7      1321.696 7        46.891 7  24179758.228 6         0.000 6      1029.894 6        37.977 6
G25  21463156.637 9 112789629.182 9      1030.052 9        55.262 9  21463159.055 6         0.000 6       802.638 6        37.977 6
G14  25496619.234 7 133985591.288 7      3360.210 7        42.978 7  25496620.238 6         0.000 6      2618.347 6        37.977 6
> 2019 07 03 18 03 10.0000000  0 12       0.000000000000
G06  24976239.053 7 131250976.539 7       431.186 7        43.793 7  24976242.670 6         0.000 6       335.989 6        37.977 6
G10  24543298.968 7 128975864.375 7     -1506.700 7        44.921 7  24543301.928 6         0.000 6     -1174.053 6        37.977 6
G12  20584652.306 9 108173060.308 9     -1115.767 9        57.185 9  20584651.045 6         0.000 6      -869.429 6        37.977 6
G15  23241537.743 8 122135076.817 8     -3354.975 8        50.683 8  23241537.321 6         0.000 6     -2614.267 6        37.977 6
G20  24896167.506 7 130830196.726 7     -1962.585 7        43.455 7  24896168.656 6         0.000 6     -1529.288 6        37.977 6
G29  22691193.032 8 119242996.759 8      3440.687 8        51.075 8  22691192.825 6         0.000 6      2681.056 6        37.977 6
G19  24648268.064 7 129527479.271 7     -3343.280 7        44.280 7  24648267.770 6         0.000 6     -2605.155 6        37.977 6
G24  20911131.401 9 109888719.545 9      -671.473 9        57.086 9  20911133.029 6         0.000 6      -523.226 6        37.977 6
G32  23447170.843 8 123215682.374 8      2844.799 8        49.069 8  23447172.905 6         0.000 6      2216.727 6        37.977 6
G02  24179508.456 7 127064137.853 7      1321.441 7        46.891 7  24179506.742 6         0.000 6      1029.695 6        37.977 6
G25  21462960.655 9 112788599.290 9      1029.734 9        55.262 9  21462963.073 6         0.000 6       802.390 6        37.977 6
G14  25495979.818 7 133982231.140 7      3360.099 7        42.978 7  25495980.822 6         0.000 6      2618.261 6        37.977 6
> 2019 07 03 18 03 11.0000000  0 12       0.000000000000
G06  24976157.045 7 131250545.588 7       430.718 7        43.793 7  24976160.662 6         0.000 6       335.624 6        37.977 6
G10  24543585.710 7 128977371.210 7     -1506.975 7        44.921 7  24543588.670 6         0.000 6     -1174.267 6        37.977 6
G12  20584864.654 9 108174176.208 9     -1116.034 9        57.185 9  20584863.394 6         0.000 6      -869.637 6        37.977 6
G15  23242176.187 8 122138431.861 8     -3355.121 8        50.682 8  23242175.766 6         0.000 6     -2614.381 6        37.977 6
G20  24896540.972 7 130832159.296 7     -1962.561 7        43.454 7  24896542.121 6         0.000 6     -1529.269 6        37.977 6
G29  22690538.315 8 119239556.200 8      3440.440 8        51.076 8  22690538.107 6         0.000 6      2680.864 6        37.977 6
G19  24648904.296 7 129530822.688 7     -3343.567 7        44.280 7  24648904.003 6         0.000 6     -2605.378 6        37.977 6
G24  20911259.208 9 109889391.177 9      -671.791 9        57.086 9  20911260.837 6         0.000 6      -523.474 6        37.977 6
G32  23446629.530 8 123212837.759 8      2844.439 8        49.069 8  23446631.592 6         0.000 6      2216.447 6        37.977 6
G02  24179257.019 7 127062816.543 7      1321.186 7        46.891 7  24179255.304 6         0.000 6      1029.496 6        37.977 6
G25  21462764.733 9 112787569.716 9      1029.415 9        55.262 9  21462767.151 6         0.000 6       802.142 6        37.977 6
G14  25495340.423 7 133978871.102 7      3359.988 7        42.978 7  25495341.426 6         0.000 6      2618.174 6        37.977 6
> 2019 07 03 18 03 12.0000000  0 12       0.000000000000
G06  24976075.127 7 131250115.105 7       430.250 7        43.793 7  24976078.744 6         0.000 6       335.260 6        37.977 6
G10  24543872.503 7 128978878.319 7     -1507.249 7        44.921 7  24543875.464 6         0.000 6     -1174.481 6        37.977 6
G12  20585077.054 9 108175292.374 9     -1116.301 9        57.185 9  20585075.793 6         0.000 6      -869.845 6        37.977 6
G15  23242814.659 8 122141787.051 8     -3355.267 8        50.682 8  23242814.238 6         0.000 6     -2614.495 6        37.977 6
G20  24896914.432 7 130834121.841 7     -1962.536 7        43.454 7  24896915.582 6         0.000 6     -1529.250 6        37.977 6
G29  22689883.644 8 119236115.887 8      3440.193 8        51.076 8  22689883.437 6         0.000 6      2680.671 6        37.977 6
G19  24649540.583 7 129534166.392 7     -3343.853 7        44.279 7  24649540.290 6         0.000 6     -2605.601 6        37.977 6
G24  20911387.076 9 109890063.127 9      -672.110 9        57.086 9  20911388.705 6         0.000 6      -523.722 6        37.977 6
G32  23446088.285 8 123209993.503 8      2844.080 8        49.069 8  23446090.347 6         0.000 6      2216.167 6        37.977 6
G02  24179005.630 7 127061495.487 7      1320.930 7        46.891 7  24179003.915 6         0.000 6      1029.297 6        37.977 6
G25  21462568.872 9 112786540.461 9      1029.097 9        55.262 9  21462571.290 6         0.000 6       801.894 6        37.977 6
G14  25494701.049 7 133975511.175 7      3359.877 7        42.979 7  25494702.052 6         0.000 6      2618.088 6        37.977 6
> 2019 07 03 18 03 13.0000000  0 12       0.000000000000
G06  24975993.298 7 131249685.090 7       429.782 7        43.793 7  24975996.915 6         0.000 6       334.895 6        37.977 6
G10  24544159.350 7 128980385.703 7     -1507.523 7        44.921 7  24544162.310 6         0.000 6     -1174.694 6        37.977 6
G12  20585289.504 9 108176408.808 9     -1116.568 9        57.185 9  20585288.244 6         0.000 6      -870.053 6        37.977 6
G15  23243453.160 8 122145142.388 8     -3355.414 8        50.682 8  23243452.739 6         0.000 6     -2614.609 6        37.977 6
G20  24897287.888 7 130836084.361 7     -1962.511 7        43.454 7  24897289.038 6         0.000 6     -1529.230 6        37.977 6
G29  22689229.021 8 119232675.822 8      3439.946 8        51.076 8  22689228.813 6         0.000 6      2680.478 6        37.977 6
G19  24650176.924 7 129537510.382 7     -3344.139 7        44.279 7  24650176.631 6         0.000 6     -2605.824 6        37.977 6
G24  20911515.004 9 109890735.395 9      -672.428 9        57.086 9  20911516.633 6         0.000 6      -523.970 6        37.977 6
G32  23445547.109 8 123207149.606 8      2843.721 8        49.069 8  23445549.171 6         0.000 6      2215.888 6        37.977 6
G02  24178754.290 7 127060174.688 7      1320.675 7        46.892 7  24178752.574 6         0.000 6      1029.098 6        37.977 6
G25  21462373.072 9 112785511.525 9      1028.778 9        55.263 9  21462375.490 6         0.000 6       801.645 6        37.977 6
G14  25494061.696 7 133972151.360 7      3359.766 7        42.979 7  25494062.699 6         0.000 6      2618.001 6        37.977 6
> 2019 07 03 18 03 14.0000000  0 12       0.000000000000
G06  24975911.558 7 131249255.544 7       429.314 7        43.793 7  24975915.174 6         0.000 6       334.530 6        37.977 6
G10  24544446.248 7 128981893.361 7     -1507.798 7        44.921 7  24544449.208 6         0.000 6     -1174.908 6        37.977 6
G12  20585502.005 9 108177525.508 9     -1116.835 9        57.185 9  20585500.745 6         0.000 6      -870.261 6        37.977 6
G15  23244091.687 8 122148497.870 8     -3355.560 8        50.682 8  23244091.267 6         0.000 6     -2614.723 6        37.977 6
G20  24897661.339 7 130838046.856 7     -1962.486 7        43.454 7  24897662.489 6         0.000 6     -1529.211 6        37.977 6
G29  22688574.444 8 119229236.004 8      3439.698 8        51.076 8  22688574.236 6         0.000 6      2680.286 6        37.977 6
G19  24650813.320 7 129540854.658 7     -3344.424 7        44.279 7  24650813.027 6         0.000 6     -2606.046 6        37.977 6
G24  20911642.994 9 109891407.982 9      -672.746 9        57.086 9  20911644.622 6         0.000 6      -524.218 6        37.977 6
G32  23445006.001 8 123204306.068 8      2843.362 8        49.069 8  23445008.063 6         0.000 6      2215.608 6        37.977 6
G02  24178502.998 7 127058854.143 7      1320.419 7        46.892 7  24178501.282 6         0.000 6      1028.899 6        37.977 6
G25  21462177.332 9 112784482.907 9      1028.460 9        55.263 9  21462179.750 6         0.000 6       801.397 6        37.977 6
G14  25493422.365 7 133968791.656 7      3359.655 7        42.979 7  25493423.367 6         0.000 6      2617.914 6        37.977 6
> 2019 07 03 18 03 15.0000000  0 12       0.000000000000
G06  24975829.906 7 131248826.465 7       428.846 7        43.793 7  24975833.523 6         0.000 6       334.166 6        37.977 6
G10  24544733.198 7 128983401.293 7     -1508.072 7        44.921 7  24544736.159 6         0.000 6     -1175.121 6        37.977 6
G12  20585714.557 9 108178642.475 9     -1117.101 9        57.185 9  20585713.297 6         0.000 6      -870.469 6        37.977 6
G15  23244730.243 8 122151853.499 8     -3355.706 8        50.682 8  23244729.823 6         0.000 6     -2614.837 6        37.977 6
G20  24898034.785 7 130840009.326 7     -1962.461 7        43.454 7  24898035.936 6         0.000 6     -1529.191 6        37.977 6
G29  22687919.915 8 119225796.434 8      3439.451 8        51.077 8  22687919.707 6         0.000 6      2680.093 6        37.977 6
G19  24651449.770 7 129544199.219 7     -3344.710 7        44.279 7  24651449.478 6         0.000 6     -2606.269 6        37.977 6
G24  20911771.043 9 109892080.887 9      -673.065 9        57.086 9  20911772.672 6         0.000 6      -524.466 6        37.977 6
G32  23444464.961 8 123201462.890 8      2843.002 8        49.070 8  23444467.023 6         0.000 6      2215.327 6        37.977 6
G02  24178251.755 7 127057533.855 7      1320.163 7        46.892 7  24178250.039 6         0.000 6      1028.699 6        37.977 6
G25  21461981.653 9 112783454.608 9      1028.141 9        55.263 9  21461984.071 6         0.000 6       801.149 6        37.977 6
G14  25492783.054 7 133965432.063 7      3359.543 7        42.979 7  25492784.056 6         0.000 6      2617.828 6        37.977 6
> 2019 07 03 18 03 16.0000000  0 12       0.000000000000
G06  24975748.344 7 131248397.854 7       428.377 7        43.793 7  24975751.961 6         0.000 6       333.801 6        37.977 6
G10  24545020.201 7 128984909.499 7     -1508.346 7        44.921 7  24545023.162 6         0.000 6     -1175.335 6        37.977 6
G12  20585927.160 9 108179759.709 9     -1117.368 9        57.185 9  20585925.900 6         0.000 6      -870.677 6        37.977 6
G15  23245368.827 8 122155209.273 8     -3355.851 8        50.681 8  23245368.407 6         0.000 6     -2614.950 6        37.977 6
G20  24898408.227 7 130841971.771 7     -1962.436 7        43.454 7  24898409.378 6         0.000 6     -1529.172 6        37.977 6
G29  22687265.433 8 119222357.111 8      3439.203 8        51.077 8  22687265.224 6         0.000 6      2679.900 6        37.977 6
G19  24652086.274 7 129547544.066 7     -3344.996 7        44.278 7  24652085.982 6         0.000 6     -2606.492 6        37.977 6
G24  20911899.153 9 109892754.111 9      -673.383 9        57.086 9  20911900.782 6         0.000 6      -524.714 6        37.977 6
G32  23443923.990 8 123198620.072 8      2842.643 8        49.070 8  23443926.051 6         0.000 6      2215.047 6        37.977 6
G02  24178000.560 7 127056213.822 7      1319.908 7        46.892 7  24177998.844 6         0.000 6      1028.500 6        37.977 6
G25  21461786.035 9 112782426.627 9      1027.823 9        55.263 9  21461788.453 6         0.000 6       800.901 6        37.977 6
G14  25492143.765 7 133962072.581 7      3359.432 7        42.979 7  25492144.766 6         0.000 6      2617.741 6        37.977 6
> 2019 07 03 18 03 17.0000000  0 12       0.000000000000
G06  24975666.871 7 131247969.712 7       427.909 7        43.793 7  24975670.488 6         0.000 6       333.436 6        37.977 6
G10  24545307.256 7 128986417.979 7     -1508.619 7        44.921 7  24545310.217 6         0.000 6     -1175.548 6        37.977 6
G12  20586139.814 9 108180877.210 9     -1117.635 9        57.185 9  20586138.553 6         0.000 6      -870.884 6        37.977 6
G15  23246007.438 8 122158565.193 8     -3355.997 8        50.681 8  23246007.018 6         0.000 6     -2615.064 6        37.977 6
G20  24898781.664 7 130843934.191 7     -1962.411 7        43.454 7  24898782.815 6         0.000 6     -1529.152 6        37.977 6
G29  22686610.998 8 119218918.036 8      3438.956 8        51.077 8  22686610.789 6         0.000 6      2679.707 6        37.977 6
G19  24652722.833 7 129550889.199 7     -3345.281 7        44.278 7  24652722.541 6         0.000 6     -2606.714 6        37.977 6
G24  20912027.324 9 109893427.653 9      -673.702 9        57.086 9  20912028.953 6         0.000 6      -524.963 6        37.977 6
G32  23443383.087 8 123195777.612 8      2842.283 8        49.070 8  23443385.148 6         0.000 6      2214.767 6        37.977 6
G02  24177749.415 7 127054894.045 7      1319.652 7        46.892 7  24177747.699 6         0.000 6      1028.301 6        37.977 6
G25  21461590.477 9 112781398.964 9      1027.504 9        55.263 9  21461592.895 6         0.000 6       800.653 6        37.977 6
G14  25491504.497 7 133958713.211 7      3359.320 7        42.980 7  25491505.498 6         0.000 6      2617.654 6        37.977 6
> 2019 07 03 18 03 18.0000000  0 12       0.000000000000
G06  24975585.488 7 131247542.038 7       427.441 7        43.793 7  24975589.104 6         0.000 6       333.071 6        37.977 6
G10  24545594.362 7 128987926.732 7     -1508.893 7        44.920 7  24545597.324 6         0.000 6     -1175.762 6        37.977 6
G12  20586352.518 9 108181994.977 9     -1117.901 9        57.066 9  20586351.257 6         0.000 6      -871.092 6        37.977 6
G15  23246646.077 8 122161921.259 8     -3356.143 8        50.681 8  23246645.657 6         0.000 6     -2615.177 6        37.977 6
G20  24899155.096 7 130845896.585 7     -1962.385 7        43.454 7  24899156.247 6         0.000 6     -1529.132 6        37.977 6
G29  22685956.610 8 119215479.208 8      3438.708 8        51.077 8  22685956.401 6         0.000 6      2679.514 6        37.977 6
G19  24653359.446 7 129554234.617 7     -3345.567 7        44.278 7  24653359.155 6         0.000 6     -2606.937 6        37.977 6
G24  20912155.556 9 109894101.514 9      -674.020 9        57.086 9  20912157.185 6         0.000 6      -525.211 6        37.977 6
G32  23442842.253 8 123192935.513 8      2841.923 8        49.070 8  23442844.314 6         0.000 6      2214.487 6        37.977 6
G02  24177498.318 7 127053574.523 7      1319.396 7        46.892 7  24177496.601 6         0.000 6      1028.101 6        37.977 6
G25  21461394.980 9 112780371.620 9      1027.186 9        55.263 9  21461397.398 6         0.000 6       800.405 6        37.977 6
G14  25490865.250 7 133955353.952 7      3359.209 7        42.980 7  25490866.251 6         0.000 6      2617.567 6        37.977 6
> 2019 07 03 18 03 19.0000000  0 12       0.000000000000
G06  24975504.193 7 131247114.832 7       426.972 7        43.793 7  24975507.809 6         0.000 6       332.706 6        37.977 6
G10  24545881.521 7 128989435.760 7     -1509.167 7        44.920 7  24545884.483 6         0.000 6     -1175.975 6        37.977 6
G12  20586565.273 9 108183113.011 9     -1118.168 9        57.066 9  20586564.012 6         0.000 6      -871.300 6        37.977 6
G15  23247284.743 8 122165277.470 8     -3356.288 8        50.681 8  23247284.324 6         0.000 6     -2615.291 6        37.977 6
G20  24899528.523 7 130847858.954 7     -1962.360 7        43.453 7  24899529.674 6         0.000 6     -1529.112 6        37.977 6
G29  22685302.269 8 119212040.629 8      3438.460 8        51.078 8  22685302.060 6         0.000 6      2679.320 6        37.977 6
G19  24653996.113 7 129557580.321 7     -3345.852 7        44.278 7  24653995.822 6         0.000 6     -2607.159 6        37.977 6
G24  20912283.848 9 109894775.693 9      -674.339 9        57.086 9  20912285.477 6         0.000 6      -525.459 6        37.977 6
G32  23442301.487 8 123190093.773 8      2841.564 8        49.070 8  23442303.548 6         0.000 6      2214.206 6        37.977 6
G02  24177247.269 7 127052255.258 7      1319.140 7        46.892 7  24177245.553 6         0.000 6      1027.902 6        37.977 6
G25  21461199.543 9 112779344.595 9      1026.867 9        55.263 9  21461201.961 6         0.000 6       800.157 6        37.977 6
G14  25490226.025 7 133951994.805 7      3359.097 7        42.980 7  25490227.025 6         0.000 6      2617.480 6        37.977 6
> 2019 07 03 18 03 20.0000000  0 12       0.000000000000
G06  24975422.987 7 131246688.094 7       426.504 7        43.793 7  24975426.604 6         0.000 6       332.341 6        37.977 6
G10  24546168.732 7 128990945.061 7     -1509.440 7        44.920 7  24546171.694 6         0.000 6     -1176.188 6        37.977 6
G12  20586778.078 9 108184231.311 9     -1118.434 9        57.066 9  20586776.818 6         0.000 6      -871.508 6        37.977 6
G15  23247923.437 8 122168633.827 8     -3356.434 8        50.680 8  23247923.018 6         0.000 6     -2615.404 6        37.977 6
G20  24899901.945 7 130849821.297 7     -1962.334 7        43.453 7  24899903.096 6         0.000 6     -1529.092 6        37.977 6
G29  22684647.976 8 119208602.297 8      3438.212 8        51.078 8  22684647.766 6         0.000 6      2679.127 6        37.977 6
G19  24654632.835 7 129560926.310 7     -3346.137 7        44.278 7  24654632.544 6         0.000 6     -2607.381 6        37.977 6
G24  20912412.201 9 109895450.191 9      -674.658 9        57.086 9  20912413.830 6         0.000 6      -525.707 6        37.977 6
G32  23441760.790 8 123187252.394 8      2841.204 8        49.071 8  23441762.850 6         0.000 6      2213.926 6        37.977 6
G02  24176996.270 7 127050936.249 7      1318.884 7        46.892 7  24176994.553 6         0.000 6      1027.702 6        37.977 6
G25  21461004.167 9 112778317.887 9      1026.549 9        55.263 9  21461006.585 6         0.000 6       799.908 6        37.977 6
G14  25489586.820 7 133948635.770 7      3358.985 7        42.980 7  25489587.820 6         0.000 6      2617.393 6        37.977 6
> 2019 07 03 18 03 21.0000000  0 12       0.000000000000
G06  24975341.871 7 131246261.825 7       426.036 7        43.793 7  24975345.487 6         0.000 6       331.976 6        37.977 6
G10  24546455.995 7 128992454.635 7     -1509.714 7        44.920 7  24546458.957 6         0.000 6     -1176.401 6        37.977 6
G12  20586990.935 9 108185349.878 9     -1118.701 9        57.066 9  20586989.674 6         0.000 6      -871.715 6        37.977 6
G15  23248562.159 8 122171990.330 8     -3356.579 8        50.439 8  23248561.741 6         0.000 6     -2615.517 6        37.977 6
G20  24900275.362 7 130851783.615 7     -1962.308 7        43.453 7  24900276.514 6         0.000 6     -1529.072 6        37.977 6
G29  22683993.729 8 119205164.214 8      3437.964 8        51.078 8  22683993.519 6         0.000 6      2678.934 6        37.977 6
G19  24655269.611 7 129564272.584 7     -3346.422 7        44.277 7  24655269.321 6         0.000 6     -2607.603 6        37.977 6
G24  20912540.614 9 109896125.008 9      -674.976 9        57.085 9  20912542.243 6         0.000 6      -525.956 6        37.977 6
G32  23441220.161 8 123184411.374 8      2840.844 8        49.071 8  23441222.221 6         0.000 6      2213.645 6        37.977 6
G02  24176745.319 7 127049617.496 7      1318.627 7        46.892 7  24176743.602 6         0.000 6      1027.503 6        37.977 6
G25  21460808.852 9 112777291.499 9      1026.231 9        55.263 9  21460811.269 6         0.000 6       799.660 6        37.977 6
G14  25488947.637 7 133945276.847 7      3358.874 7        42.981 7  25488948.637 6         0.000 6      2617.306 6        37.977 6
