     3.00           Observation Data    M (Mixed)           RINEX VERSION / TYPE
SimGEN V6.06.00     Spirent             03-Jul-19 12:00     PGM / RUN BY / DATE 
                                                            MARKER NAME         
1                                                           MARKER NUMBER       
GROUND_CRAFT                                                MARKER TYPE         
jin4hi              Spirent                                 OBSERVER / AGENCY   
rec_num             rec_type            rec_vers            REC # / TYPE / VERS 
1                   ant_type                                ANT # / TYPE        
  1000.000                                                  INTERVAL            
  2019     7     3    12     0    0.0000000     GPS         TIME OF FIRST OBS   
  4162623.6700   664331.4890  4770584.7400                  APPROX POSITION XYZ 
        0.0000        0.0000        0.0000                  ANTENNA: DELTA H/E/N
G    8 C1C L1C D1C S1C C2C L2C D2C S2C                      SYS / # / OBS TYPES 
        0.0000        0.0000        0.0000                  ANTENNA: DELTA X/Y/Z
DBHZ                                                        SIGNAL STRENGTH UNIT
                                                            END OF HEADER       
> 2019 07 03 12 00  0.0000000  0  8       0.000000000000
G07  25371922.710 9 133330307.430 9      2220.638 9        54.123 9  25371923.393 6         0.000 6      1730.367 6        37.977 6
G10  23849460.872 9 125329707.475 9      3536.767 9        54.655 9  23849464.638 6         0.000 6      2755.922 6        37.977 6
G21  21156826.113 9 111179850.992 9     -1246.282 9        55.715 9  21156825.396 6         0.000 6      -971.129 6        37.977 6
G29  24264456.509 9 127510523.795 9     -3159.242 9        54.487 9  24264458.046 6         0.000 6     -2461.747 6        37.977 6
G27  22033064.953 9 115784510.646 9      2544.876 9        55.363 9  22033066.896 6         0.000 6      1983.020 6        37.977 6
G16  20503739.705 9 107747859.074 9       608.824 9        55.974 9  20503738.879 6         0.000 6       474.408 6        37.977 6
G26  20637963.262 9 108453206.767 9     -1438.503 9        55.880 9  20637966.072 6         0.000 6     -1120.912 6        37.977 6
G20  21973107.015 9 115469423.347 9      2578.769 9        55.304 9  21973107.353 6         0.000 6      2009.431 6        37.977 6
> 2019 07 03 12 00  1.0000000  0  8       0.000000000000
G07  25371500.253 9 133328087.408 9      2217.176 9        54.123 9  25371500.936 6         0.000 6      1727.670 6        37.977 6
G10  23848787.851 9 125326170.739 9      3539.098 9        54.655 9  23848791.616 6         0.000 6      2757.742 6        37.977 6
G21  21157063.106 9 111181096.397 9     -1245.376 9        55.715 9  21157062.389 6         0.000 6      -970.423 6        37.977 6
G29  24265057.168 9 127513680.268 9     -3155.007 9        54.487 9  24265058.705 6         0.000 6     -2458.450 6        37.977 6
G27  22032581.084 9 115781967.901 9      2540.995 9        55.363 9  22032583.027 6         0.000 6      1979.997 6        37.977 6
G16  20503624.096 9 107747251.544 9       606.517 9        55.974 9  20503623.270 6         0.000 6       472.610 6        37.977 6
G26  20638237.185 9 108454646.237 9     -1439.015 9        55.880 9  20638239.995 6         0.000 6     -1121.311 6        37.977 6
G20  21972616.176 9 115466843.975 9      2581.233 9        55.304 9  21972616.513 6         0.000 6      2011.352 6        37.977 6
> 2019 07 03 12 00  2.0000000  0  8       0.000000000000
G07  25371079.210 9 133325874.816 9      2207.513 9        54.123 9  25371079.893 6         0.000 6      1720.141 6        37.977 6
G10  23848113.638 9 125322627.738 9      3547.211 9        54.655 9  23848117.403 6         0.000 6      2764.063 6        37.977 6
G21  21157300.047 9 111182341.531 9     -1244.384 9        55.715 9  21157299.330 6         0.000 6      -969.650 6        37.977 6
G29  24265657.038 9 127516832.597 9     -3148.206 9        54.487 9  24265658.576 6         0.000 6     -2453.150 6        37.977 6
G27  22032098.112 9 115779429.869 9      2533.970 9        55.363 9  22032100.055 6         0.000 6      1974.523 6        37.977 6
G16  20503508.975 9 107746646.575 9       602.887 9        55.974 9  20503508.148 6         0.000 6       469.782 6        37.977 6
G26  20638510.852 9 108456084.368 9     -1437.478 9        55.880 9  20638513.662 6         0.000 6     -1120.113 6        37.977 6
G20  21972124.364 9 115464259.492 9      2588.352 9        55.305 9  21972124.701 6         0.000 6      2016.899 6        37.977 6
> 2019 07 03 12 00  3.0000000  0  8       0.000000000000
G07  25370659.655 9 133323670.045 9      2202.834 9        54.123 9  25370660.338 6         0.000 6      1716.495 6        37.977 6
G10  23847438.228 9 125319078.443 9      3550.735 9        54.656 9  23847441.992 6         0.000 6      2766.809 6        37.977 6
G21  21157536.765 9 111183585.493 9     -1243.780 9        55.715 9  21157536.048 6         0.000 6      -969.179 6        37.977 6
G29  24266255.660 9 127519978.366 9     -3144.257 9        54.487 9  24266257.199 6         0.000 6     -2450.073 6        37.977 6
G27  22031616.365 9 115776898.272 9      2530.028 9        55.364 9  22031618.307 6         0.000 6      1971.451 6        37.977 6
G16  20503394.502 9 107746045.017 9       600.600 9        55.974 9  20503393.675 6         0.000 6       468.000 6        37.977 6
G26  20638784.375 9 108457521.741 9     -1437.351 9        55.880 9  20638787.186 6         0.000 6     -1120.014 6        37.977 6
G20  21971631.446 9 115461669.196 9      2591.542 9        55.305 9  21971631.783 6         0.000 6      2019.384 6        37.977 6
> 2019 07 03 12 00  4.0000000  0  8       0.000000000000
G07  25370240.690 9 133321468.372 9      2200.737 9        54.124 9  25370241.372 6         0.000 6      1714.861 6        37.977 6
G10  23846762.396 9 125315526.935 9      3552.125 9        54.656 9  23846766.160 6         0.000 6      2767.892 6        37.977 6
G21  21157773.467 9 111184829.372 9     -1244.047 9        55.715 9  21157772.751 6         0.000 6      -969.387 6        37.977 6
G29  24266853.890 9 127523122.080 9     -3143.450 9        54.487 9  24266855.430 6         0.000 6     -2449.444 6        37.977 6
G27  22031135.055 9 115774368.973 9      2528.802 9        55.364 9  22031136.997 6         0.000 6      1970.495 6        37.977 6
G16  20503280.320 9 107745444.989 9       599.564 9        55.974 9  20503279.493 6         0.000 6       467.192 6        37.977 6
G26  20639057.901 9 108458959.126 9     -1437.440 9        55.880 9  20639060.712 6         0.000 6     -1120.084 6        37.977 6
G20  21971138.193 9 115459077.139 9      2592.386 9        55.305 9  21971138.530 6         0.000 6      2020.043 6        37.977 6
> 2019 07 03 12 00  5.0000000  0  8       0.000000000000
G07  25369822.036 9 133319268.334 9      2199.427 9        54.124 9  25369822.718 6         0.000 6      1713.840 6        37.977 6
G10  23846086.375 9 125311974.428 9      3552.834 9        54.656 9  23846090.137 6         0.000 6      2768.445 6        37.977 6
G21  21158010.244 9 111186073.640 9     -1244.495 9        55.715 9  21158009.527 6         0.000 6      -969.737 6        37.977 6
G29  24267452.060 9 127526265.472 9     -3143.393 9        54.486 9  24267453.600 6         0.000 6     -2449.399 6        37.977 6
G27  22030653.895 9 115771840.466 9      2528.264 9        55.364 9  22030655.837 6         0.000 6      1970.076 6        37.977 6
G16  20503166.298 9 107744845.796 9       598.840 9        55.974 9  20503165.471 6         0.000 6       466.629 6        37.977 6
G26  20639331.455 9 108460396.661 9     -1437.658 9        55.879 9  20639334.266 6         0.000 6     -1120.254 6        37.977 6
G20  21970644.856 9 115456484.641 9      2592.556 9        55.305 9  21970645.193 6         0.000 6      2020.174 6        37.977 6
> 2019 07 03 12 00  6.0000000  0  8       0.000000000000
G07  25369403.582 9 133317069.347 9      2198.658 9        54.124 9  25369404.264 6         0.000 6      1713.241 6        37.977 6
G10  23845410.265 9 125308421.460 9      3553.017 9        54.656 9  23845414.027 6         0.000 6      2768.588 6        37.977 6
G21  21158247.104 9 111187318.347 9     -1244.909 9        55.714 9  21158246.387 6         0.000 6      -970.059 6        37.977 6
G29  24268050.233 9 127529408.883 9     -3143.455 9        54.486 9  24268051.774 6         0.000 6     -2449.448 6        37.977 6
G27  22030172.816 9 115769312.382 9      2527.932 9        55.364 9  22030174.758 6         0.000 6      1969.818 6        37.977 6
G16  20503052.404 9 107744247.280 9       598.198 9        55.974 9  20503051.577 6         0.000 6       466.129 6        37.977 6
G26  20639605.068 9 108461834.507 9     -1438.088 9        55.879 9  20639607.879 6         0.000 6     -1120.589 6        37.977 6
G20  21970151.523 9 115453892.163 9      2592.334 9        55.305 9  21970151.860 6         0.000 6      2020.001 6        37.977 6
> 2019 07 03 12 00  7.0000000  0  8       0.000000000000
G07  25368985.223 9 133314870.858 9      2198.393 9        54.124 9  25368985.904 6         0.000 6      1713.034 6        37.977 6
G10  23844734.173 9 125304868.582 9      3552.698 9        54.656 9  23844737.934 6         0.000 6      2768.339 6        37.977 6
G21  21158484.036 9 111188563.435 9     -1245.253 9        55.714 9  21158483.320 6         0.000 6      -970.327 6        37.977 6
G29  24268648.421 9 127532552.369 9     -3143.539 9        54.486 9  24268649.962 6         0.000 6     -2449.513 6        37.977 6
G27  22029691.788 9 115766784.563 9      2527.733 9        55.364 9  22029693.730 6         0.000 6      1969.663 6        37.977 6
G16  20502938.628 9 107743649.386 9       597.603 9        55.974 9  20502937.802 6         0.000 6       465.665 6        37.977 6
G26  20639878.788 9 108463272.910 9     -1438.744 9        55.879 9  20639881.599 6         0.000 6     -1121.099 6        37.977 6
G20  21969658.269 9 115451300.099 9      2591.765 9        55.305 9  21969658.605 6         0.000 6      2019.558 6        37.977 6
> 2019 07 03 12 00  8.0000000  0  8       0.000000000000
G07  25368566.881 9 133312672.461 9      2198.449 9        54.124 9  25368567.562 6         0.000 6      1713.078 6        37.977 6
G10  23844058.174 9 125301316.193 9      3552.056 9        54.657 9  23844061.935 6         0.000 6      2767.839 6        37.977 6
G21  21158721.029 9 111189808.837 9     -1245.551 9        55.714 9  21158720.312 6         0.000 6      -970.560 6        37.977 6
G29  24269246.625 9 127535695.943 9     -3143.627 9        54.486 9  24269248.167 6         0.000 6     -2449.582 6        37.977 6
G27  22029210.788 9 115764256.894 9      2527.612 9        55.365 9  22029212.729 6         0.000 6      1969.568 6        37.977 6
G16  20502824.962 9 107743052.065 9       597.032 9        55.974 9  20502824.135 6         0.000 6       465.220 6        37.977 6
G26  20640152.646 9 108464712.040 9     -1439.547 9        55.879 9  20640155.456 6         0.000 6     -1121.726 6        37.977 6
G20  21969165.145 9 115448708.718 9      2590.975 9        55.306 9  21969165.480 6         0.000 6      2018.943 6        37.977 6
> 2019 07 03 12 00  9.0000000  0  8       0.000000000000
G07  25368148.509 9 133310473.907 9      2198.683 9        54.124 9  25368149.191 6         0.000 6      1713.261 6        37.977 6
G10  23843382.317 9 125297764.551 9      3551.235 9        54.657 9  23843386.077 6         0.000 6      2767.199 6        37.977 6
G21  21158958.077 9 111191054.531 9     -1245.824 9        55.714 9  21158957.360 6         0.000 6      -970.772 6        37.977 6
G29  24269844.847 9 127538839.612 9     -3143.721 9        54.486 9  24269846.390 6         0.000 6     -2449.656 6        37.977 6
G27  22028729.807 9 115761729.326 9      2527.536 9        55.365 9  22028731.748 6         0.000 6      1969.509 6        37.977 6
G16  20502711.404 9 107742455.314 9       596.477 9        55.974 9  20502710.577 6         0.000 6       464.787 6        37.977 6
G26  20640426.666 9 108466152.028 9     -1440.432 9        55.879 9  20640429.477 6         0.000 6     -1122.415 6        37.977 6
G20  21968672.185 9 115446118.202 9      2590.062 9        55.306 9  21968672.521 6         0.000 6      2018.231 6        37.977 6
> 2019 07 03 12 00 10.0000000  0  8       0.000000000000
G07  25367730.086 9 133308275.081 9      2198.979 9        54.124 9  25367730.767 6         0.000 6      1713.491 6        37.977 6
G10  23842706.623 9 125294213.768 9      3550.351 9        54.657 9  23842710.383 6         0.000 6      2766.510 6        37.977 6
G21  21159195.174 9 111192300.488 9     -1246.093 9        55.714 9  21159194.458 6         0.000 6      -970.981 6        37.977 6
G29  24270443.086 9 127541983.370 9     -3143.820 9        54.485 9  24270444.630 6         0.000 6     -2449.732 6        37.977 6
G27  22028248.839 9 115759201.826 9      2527.474 9        55.365 9  22028250.780 6         0.000 6      1969.461 6        37.977 6
G16  20502597.951 9 107741859.115 9       595.923 9        55.974 9  20502597.124 6         0.000 6       464.356 6        37.977 6
G26  20640700.859 9 108467592.916 9     -1441.349 9        55.879 9  20640703.670 6         0.000 6     -1123.129 6        37.977 6
G20  21968179.403 9 115443528.622 9      2589.104 9        55.306 9  21968179.739 6         0.000 6      2017.485 6        37.977 6
> 2019 07 03 12 00 11.0000000  0  8       0.000000000000
G07  25367311.605 9 133306075.952 9      2199.276 9        54.125 9  25367312.286 6         0.000 6      1713.722 6        37.977 6
G10  23842031.098 9 125290663.872 9      3549.470 9        54.657 9  23842034.857 6         0.000 6      2765.824 6        37.977 6
G21  21159432.323 9 111193546.710 9     -1246.354 9        55.714 9  21159431.606 6         0.000 6      -971.185 6        37.977 6
G29  24271041.345 9 127545127.230 9     -3143.918 9        54.485 9  24271042.889 6         0.000 6     -2449.808 6        37.977 6
G27  22027767.882 9 115756674.381 9      2527.417 9        55.365 9  22027769.823 6         0.000 6      1969.416 6        37.977 6
G16  20502484.602 9 107741263.464 9       595.376 9        55.974 9  20502483.776 6         0.000 6       463.930 6        37.977 6
G26  20640975.225 9 108469034.719 9     -1442.258 9        55.879 9  20640978.036 6         0.000 6     -1123.838 6        37.977 6
G20  21967686.805 9 115440940.002 9      2588.151 9        55.306 9  21967687.140 6         0.000 6      2016.742 6        37.977 6
> 2019 07 03 12 00 12.0000000  0  8       0.000000000000
G07  25366893.075 9 133303876.564 9      2199.476 9        54.125 9  25366893.755 6         0.000 6      1713.878 6        37.977 6
G10  23841355.735 9 125287114.822 9      3548.682 9        54.658 9  23841359.493 6         0.000 6      2765.210 6        37.977 6
G21  21159669.522 9 111194793.198 9     -1246.632 9        55.714 9  21159668.805 6         0.000 6      -971.402 6        37.977 6
G29  24271639.621 9 127548271.182 9     -3144.011 9        54.485 9  24271641.166 6         0.000 6     -2449.881 6        37.977 6
G27  22027286.938 9 115754147.007 9      2527.330 9        55.365 9  22027288.879 6         0.000 6      1969.349 6        37.977 6
G16  20502371.359 9 107740668.367 9       594.815 9        55.974 9  20502370.532 6         0.000 6       463.492 6        37.977 6
G26  20641249.762 9 108470477.418 9     -1443.131 9        55.879 9  20641252.573 6         0.000 6     -1124.518 6        37.977 6
G20  21967194.382 9 115438352.310 9      2587.261 9        55.306 9  21967194.717 6         0.000 6      2016.049 6        37.977 6
> 2019 07 03 12 00 13.0000000  0  8       0.000000000000
G07  25366474.521 9 133301677.051 9      2199.552 9        54.125 9  25366475.201 6         0.000 6      1713.938 6        37.977 6
G10  23840680.507 9 125283566.485 9      3548.020 9        54.658 9  23840684.264 6         0.000 6      2764.693 6        37.977 6
G21  21159906.776 9 111196039.979 9     -1246.926 9        55.714 9  21159906.060 6         0.000 6      -971.631 6        37.977 6
G29  24272237.916 9 127551415.232 9     -3144.103 9        54.485 9  24272239.461 6         0.000 6     -2449.953 6        37.977 6
G27  22026806.014 9 115751619.735 9      2527.217 9        55.365 9  22026807.955 6         0.000 6      1969.260 6        37.977 6
G16  20502258.224 9 107740073.837 9       594.246 9        55.974 9  20502257.397 6         0.000 6       463.049 6        37.977 6
G26  20641524.458 9 108471920.956 9     -1443.944 9        55.879 9  20641527.270 6         0.000 6     -1125.151 6        37.977 6
G20  21966702.120 9 115435765.459 9      2586.457 9        55.307 9  21966702.455 6         0.000 6      2015.422 6        37.977 6
> 2019 07 03 12 00 14.0000000  0  8       0.000000000000
G07  25366055.955 9 133299477.476 9      2199.567 9        54.125 9  25366056.635 6         0.000 6      1713.949 6        37.977 6
G10  23840005.401 9 125280018.795 9      3547.419 9        54.658 9  23840009.158 6         0.000 6      2764.225 6        37.977 6
G21  21160144.087 9 111197287.055 9     -1247.231 9        55.714 9  21160143.371 6         0.000 6      -971.869 6        37.977 6
G29  24272836.228 9 127554559.375 9     -3144.197 9        54.485 9  24272837.774 6         0.000 6     -2450.026 6        37.977 6
G27  22026325.111 9 115749092.578 9      2527.089 9        55.366 9  22026327.052 6         0.000 6      1969.161 6        37.977 6
G16  20502145.197 9 107739479.875 9       593.672 9        55.974 9  20502144.370 6         0.000 6       462.602 6        37.977 6
G26  20641799.308 9 108473365.297 9     -1444.728 9        55.878 9  20641802.119 6         0.000 6     -1125.763 6        37.977 6
G20  21966210.009 9 115433179.401 9      2585.695 9        55.307 9  21966210.343 6         0.000 6      2014.828 6        37.977 6
> 2019 07 03 12 00 15.0000000  0  8       0.000000000000
G07  25365637.412 9 133297278.024 9      2199.288 9        54.125 9  25365638.092 6         0.000 6      1713.731 6        37.977 6
G10  23839330.385 9 125276471.569 9      3547.112 9        54.658 9  23839334.141 6         0.000 6      2763.986 6        37.977 6
G21  21160381.460 9 111198534.456 9     -1247.578 9        55.714 9  21160380.743 6         0.000 6      -972.139 6        37.977 6
G29  24273434.558 9 127557703.607 9     -3144.283 9        54.484 9  24273436.104 6         0.000 6     -2450.093 6        37.977 6
G27  22025844.240 9 115746565.584 9      2526.888 9        55.366 9  22025846.180 6         0.000 6      1969.004 6        37.977 6
G16  20502032.281 9 107738886.499 9       593.074 9        55.975 9  20502031.454 6         0.000 6       462.136 6        37.977 6
G26  20642074.295 9 108474810.362 9     -1445.379 9        55.878 9  20642077.106 6         0.000 6     -1126.270 6        37.977 6
G20  21965718.025 9 115430594.011 9      2585.134 9        55.307 9  21965718.358 6         0.000 6      2014.391 6        37.977 6
> 2019 07 03 12 00 16.0000000  0  8       0.000000000000
G07  25365218.977 9 133295079.135 9      2197.642 9        54.125 9  25365219.657 6         0.000 6      1712.449 6        37.977 6
G10  23838655.381 9 125272924.413 9      3547.793 9        54.659 9  23838659.137 6         0.000 6      2764.517 6        37.977 6
G21  21160618.882 9 111199782.116 9     -1247.085 9        55.713 9  21160618.166 6         0.000 6      -971.754 6        37.977 6
G29  24274032.841 9 127560847.599 9     -3141.764 9        54.484 9  24274034.389 6         0.000 6     -2448.130 6        37.977 6
G27  22025363.461 9 115744039.079 9      2524.618 9        55.366 9  22025365.401 6         0.000 6      1967.235 6        37.977 6
G16  20501919.504 9 107738293.854 9       591.498 9        55.975 9  20501918.678 6         0.000 6       460.908 6        37.977 6
G26  20642349.400 9 108476256.049 9     -1446.210 9        55.878 9  20642352.212 6         0.000 6     -1126.917 6        37.977 6
G20  21965226.099 9 115428008.929 9      2585.984 9        55.307 9  21965226.433 6         0.000 6      2015.054 6        37.977 6
> 2019 07 03 12 00 17.0000000  0  8       0.000000000000
G07  25364801.091 9 133292883.134 9      2194.927 9        54.125 9  25364801.771 6         0.000 6      1710.334 6        37.977 6
G10  23837980.134 9 125269375.976 9      3548.532 9        54.659 9  23837983.889 6         0.000 6      2765.093 6        37.977 6
G21  21160855.909 9 111201027.701 9     -1243.982 9        55.713 9  21160855.193 6         0.000 6      -969.337 6        37.977 6
G29  24274629.810 9 127563984.681 9     -3132.375 9        54.484 9  24274631.358 6         0.000 6     -2440.814 6        37.977 6
G27  22024883.730 9 115741518.079 9      2517.487 9        55.366 9  22024885.671 6         0.000 6      1961.679 6        37.977 6
G16  20501807.325 9 107737704.349 9       587.538 9        55.975 9  20501806.499 6         0.000 6       457.822 6        37.977 6
G26  20642624.814 9 108477703.359 9     -1448.688 9        55.878 9  20642627.626 6         0.000 6     -1128.848 6        37.977 6
G20  21964733.696 9 115425421.340 9      2588.831 9        55.307 9  21964734.029 6         0.000 6      2017.272 6        37.977 6
> 2019 07 03 12 00 18.0000000  0  8       0.000000000000
G07  25364383.336 9 133290687.820 9      2196.746 9        54.126 9  25364384.015 6         0.000 6      1711.751 6        37.977 6
G10  23837305.129 9 125265828.813 9      3544.808 9        54.659 9  23837308.883 6         0.000 6      2762.190 6        37.977 6
G21  21161092.299 9 111202269.941 9     -1240.434 9        55.713 9  21161091.583 6         0.000 6      -966.572 6        37.977 6
G29  24275225.026 9 127567112.550 9     -3123.620 9        54.484 9  24275226.574 6         0.000 6     -2433.992 6        37.977 6
G27  22024405.244 9 115739003.617 9      2511.841 9        55.366 9  22024407.184 6         0.000 6      1957.280 6        37.977 6
G16  20501695.860 9 107737118.594 9       584.126 9        55.975 9  20501695.033 6         0.000 6       455.163 6        37.977 6
G26  20642900.869 9 108479154.034 9     -1453.076 9        55.878 9  20642903.681 6         0.000 6     -1132.267 6        37.977 6
G20  21964241.021 9 115422832.318 9      2588.472 9        55.308 9  21964241.354 6         0.000 6      2016.992 6        37.977 6
> 2019 07 03 12 00 19.0000000  0  8       0.000000000000
G07  25363964.517 9 133288486.916 9      2203.819 9        54.126 9  25363965.196 6         0.000 6      1717.263 6        37.977 6
G10  23836631.517 9 125262288.967 9      3536.402 9        54.659 9  23836635.270 6         0.000 6      2755.640 6        37.977 6
G21  21161328.007 9 111203508.593 9     -1237.715 9        55.713 9  21161327.291 6         0.000 6      -964.453 6        37.977 6
G29  24275818.831 9 127570233.008 9     -3118.931 9        54.483 9  24275820.380 6         0.000 6     -2430.338 6        37.977 6
G27  22023927.493 9 115736493.022 9      2510.149 9        55.367 9  22023929.433 6         0.000 6      1955.961 6        37.977 6
G16  20501584.906 9 107736535.527 9       582.460 9        55.975 9  20501584.079 6         0.000 6       453.865 6        37.977 6
G26  20643178.013 9 108480610.435 9     -1458.643 9        55.878 9  20643180.825 6         0.000 6     -1136.606 6        37.977 6
G20  21963748.950 9 115420246.472 9      2583.784 9        55.308 9  21963749.282 6         0.000 6      2013.339 6        37.977 6
> 2019 07 03 12 00 20.0000000  0  8       0.000000000000
G07  25363544.986 9 133286282.270 9      2204.956 9        54.126 9  25363545.665 6         0.000 6      1718.149 6        37.977 6
G10  23835958.791 9 125258753.780 9      3534.538 9        54.660 9  23835962.544 6         0.000 6      2754.188 6        37.977 6
G21  21161563.502 9 111204746.126 9     -1237.478 9        55.713 9  21161562.786 6         0.000 6      -964.269 6        37.977 6
G29  24276412.257 9 127573351.475 9     -3118.140 9        54.483 9  24276413.807 6         0.000 6     -2429.722 6        37.977 6
G27  22023449.867 9 115733983.083 9      2509.695 9        55.367 9  22023451.806 6         0.000 6      1955.607 6        37.977 6
G16  20501474.143 9 107735953.464 9       581.669 9        55.975 9  20501473.316 6         0.000 6       453.249 6        37.977 6
G26  20643455.762 9 108482070.013 9     -1460.233 9        55.878 9  20643458.574 6         0.000 6     -1137.844 6        37.977 6
G20  21963257.434 9 115417663.542 9      2582.422 9        55.308 9  21963257.766 6         0.000 6      2012.278 6        37.977 6
> 2019 07 03 12 00 21.0000000  0  8       0.000000000000
G07  25363125.429 9 133284077.484 9      2204.538 9        54.126 9  25363126.108 6         0.000 6      1717.823 6        37.977 6
G10  23835286.223 9 125255219.422 9      3534.292 9        54.660 9  23835289.975 6         0.000 6      2753.997 6        37.977 6
G21  21161798.998 9 111205983.665 9     -1237.627 9        55.713 9  21161798.282 6         0.000 6      -964.385 6        37.977 6
G29  24277005.576 9 127576469.374 9     -3117.715 9        54.483 9  24277007.126 6         0.000 6     -2429.391 6        37.977 6
G27  22022972.343 9 115731473.678 9      2509.127 9        55.367 9  22022974.282 6         0.000 6      1955.165 6        37.977 6
G16  20501363.530 9 107735372.191 9       580.888 9        55.975 9  20501362.704 6         0.000 6       452.640 6        37.977 6
G26  20643733.712 9 108483530.648 9     -1460.985 9        55.878 9  20643736.524 6         0.000 6     -1138.430 6        37.977 6
G20  21962766.055 9 115415081.336 9      2582.052 9        55.308 9  21962766.388 6         0.000 6      2011.990 6        37.977 6
> 2019 07 03 12 00 22.0000000  0  8       0.000000000000
G07  25362705.974 9 133281873.239 9      2203.964 9        54.126 9  25362706.653 6         0.000 6      1717.376 6        37.977 6
G10  23834613.676 9 125251685.173 9      3534.228 9        54.660 9  23834617.427 6         0.000 6      2753.947 6        37.977 6
G21  21162034.534 9 111207221.414 9     -1237.876 9        55.713 9  21162033.818 6         0.000 6      -964.579 6        37.977 6
G29  24277598.832 9 127579586.945 9     -3117.472 9        54.483 9  24277600.383 6         0.000 6     -2429.202 6        37.977 6
G27  22022494.920 9 115728964.809 9      2508.642 9        55.367 9  22022496.859 6         0.000 6      1954.787 6        37.977 6
G16  20501253.063 9 107734791.679 9       580.153 9        55.975 9  20501252.236 6         0.000 6       452.067 6        37.977 6
G26  20644011.789 9 108484991.950 9     -1461.610 9        55.877 9  20644014.601 6         0.000 6     -1138.917 6        37.977 6
G20  21962274.735 9 115412499.436 9      2581.753 9        55.308 9  21962275.067 6         0.000 6      2011.757 6        37.977 6
> 2019 07 03 12 00 23.0000000  0  8       0.000000000000
G07  25362286.627 9 133279669.556 9      2203.421 9        54.126 9  25362287.305 6         0.000 6      1716.952 6        37.977 6
G10  23833941.141 9 125248150.990 9      3534.151 9        54.660 9  23833944.892 6         0.000 6      2753.886 6        37.977 6
G21  21162270.121 9 111208459.434 9     -1238.167 9        55.713 9  21162269.405 6         0.000 6      -964.806 6        37.977 6
G29  24278192.054 9 127582704.336 9     -3117.346 9        54.483 9  24278193.605 6         0.000 6     -2429.103 6        37.977 6
G27  22022017.581 9 115726456.376 9      2508.243 9        55.367 9  22022019.520 6         0.000 6      1954.476 6        37.977 6
G16  20501142.730 9 107734211.877 9       579.459 9        55.975 9  20501141.903 6         0.000 6       451.527 6        37.977 6
G26  20644289.981 9 108486453.860 9     -1462.213 9        55.877 9  20644292.794 6         0.000 6     -1139.387 6        37.977 6
G20  21961783.476 9 115409917.853 9      2581.411 9        55.309 9  21961783.807 6         0.000 6      2011.491 6        37.977 6
> 2019 07 03 12 00 24.0000000  0  8       0.000000000000
G07  25361867.380 9 133277466.403 9      2202.901 9        54.126 9  25361868.058 6         0.000 6      1716.547 6        37.977 6
G10  23833268.623 9 125244616.891 9      3534.061 9        54.661 9  23833272.373 6         0.000 6      2753.816 6        37.977 6
G21  21162505.766 9 111209697.755 9     -1238.483 9        55.713 9  21162505.050 6         0.000 6      -965.052 6        37.977 6
G29  24278785.258 9 127585821.637 9     -3117.293 9        54.482 9  24278786.810 6         0.000 6     -2429.062 6        37.977 6
G27  22021540.312 9 115723948.313 9      2507.900 9        55.368 9  22021542.250 6         0.000 6      1954.208 6        37.977 6
G16  20501032.526 9 107733632.752 9       578.794 9        55.975 9  20501031.699 6         0.000 6       451.008 6        37.977 6
G26  20644568.287 9 108487916.366 9     -1462.802 9        55.877 9  20644571.100 6         0.000 6     -1139.846 6        37.977 6
G20  21961292.284 9 115407336.627 9      2581.041 9        55.309 9  21961292.615 6         0.000 6      2011.202 6        37.977 6
> 2019 07 03 12 00 25.0000000  0  8       0.000000000000
G07  25361448.229 9 133275263.756 9      2202.404 9        54.127 9  25361448.907 6         0.000 6      1716.160 6        37.977 6
G10  23832596.123 9 125241082.894 9      3533.955 9        54.661 9  23832599.873 6         0.000 6      2753.734 6        37.977 6
G21  21162741.473 9 111210936.402 9     -1238.815 9        55.713 9  21162740.757 6         0.000 6      -965.310 6        37.977 6
G29  24279378.458 9 127588938.911 9     -3117.286 9        54.482 9  24279380.010 6         0.000 6     -2429.056 6        37.977 6
G27  22021063.104 9 115721440.575 9      2507.592 9        55.368 9  22021065.043 6         0.000 6      1953.968 6        37.977 6
G16  20500922.448 9 107733054.286 9       578.145 9        55.975 9  20500921.621 6         0.000 6       450.502 6        37.977 6
G26  20644846.705 9 108489379.462 9     -1463.389 9        55.877 9  20644849.518 6         0.000 6     -1140.303 6        37.977 6
G20  21960801.165 9 115404755.787 9      2580.646 9        55.309 9  21960801.496 6         0.000 6      2010.894 6        37.977 6
> 2019 07 03 12 00 26.0000000  0  8       0.000000000000
G07  25361029.172 9 133273061.598 9      2201.925 9        54.127 9  25361029.849 6         0.000 6      1715.787 6        37.977 6
G10  23831923.645 9 125237549.008 9      3533.835 9        54.661 9  23831927.394 6         0.000 6      2753.640 6        37.977 6
G21  21162977.244 9 111212175.388 9     -1239.161 9        55.712 9  21162976.528 6         0.000 6      -965.580 6        37.977 6
G29  24279971.660 9 127592056.199 9     -3117.320 9        54.482 9  24279973.213 6         0.000 6     -2429.083 6        37.977 6
G27  22020585.953 9 115718933.128 9      2507.315 9        55.368 9  22020587.891 6         0.000 6      1953.753 6        37.977 6
G16  20500812.491 9 107732476.460 9       577.510 9        55.975 9  20500811.664 6         0.000 6       450.008 6        37.977 6
G26  20645125.234 9 108490843.140 9     -1463.972 9        55.877 9  20645128.047 6         0.000 6     -1140.758 6        37.977 6
G20  21960310.124 9 115402175.350 9      2580.230 9        55.309 9  21960310.454 6         0.000 6      2010.570 6        37.977 6
> 2019 07 03 12 00 27.0000000  0  8       0.000000000000
G07  25360610.190 9 133270859.839 9      2201.634 9        54.127 9  25360610.868 6         0.000 6      1715.560 6        37.977 6
G10  23831251.200 9 125234015.296 9      3533.589 9        54.661 9  23831254.948 6         0.000 6      2753.449 6        37.977 6
G21  21163213.093 9 111213414.779 9     -1239.648 9        55.712 9  21163212.377 6         0.000 6      -965.960 6        37.977 6
G29  24280564.902 9 127595173.698 9     -3117.774 9        54.482 9  24280566.456 6         0.000 6     -2429.437 6        37.977 6
G27  22020108.828 9 115716425.822 9      2507.363 9        55.368 9  22020110.766 6         0.000 6      1953.790 6        37.977 6
G16  20500702.643 9 107731899.206 9       577.029 9        55.975 9  20500701.816 6         0.000 6       449.633 6        37.977 6
G26  20645403.871 9 108492307.385 9     -1464.511 9        55.877 9  20645406.684 6         0.000 6     -1141.178 6        37.977 6
G20  21959819.178 9 115399595.417 9      2579.609 9        55.309 9  21959819.508 6         0.000 6      2010.086 6        37.977 6
> 2019 07 03 12 00 28.0000000  0  8       0.000000000000
G07  25360191.250 9 133268658.297 9      2201.469 9        54.127 9  25360191.927 6         0.000 6      1715.431 6        37.977 6
G10  23830578.811 9 125230481.878 9      3533.261 9        54.662 9  23830582.558 6         0.000 6      2753.193 6        37.977 6
G21  21163449.044 9 111214654.713 9     -1240.229 9        55.712 9  21163448.329 6         0.000 6      -966.413 6        37.977 6
G29  24281158.263 9 127598291.820 9     -3118.518 9        54.482 9  24281159.818 6         0.000 6     -2430.016 6        37.977 6
G27  22019631.668 9 115713918.334 9      2507.638 9        55.368 9  22019633.606 6         0.000 6      1954.004 6        37.977 6
G16  20500592.874 9 107731322.367 9       576.659 9        55.975 9  20500592.048 6         0.000 6       449.344 6        37.977 6
G26  20645682.607 9 108493772.149 9     -1465.015 9        55.877 9  20645685.420 6         0.000 6     -1141.571 6        37.977 6
G20  21959328.366 9 115397016.186 9      2578.851 9        55.310 9  21959328.696 6         0.000 6      2009.495 6        37.977 6
> 2019 07 03 12 00 29.0000000  0  8       0.000000000000
G07  25359772.352 9 133266456.973 9      2202.469 9        54.127 9  25359773.028 6         0.000 6      1716.210 6        37.977 6
G10  23829906.474 9 125226948.733 9      3531.759 9        54.662 9  23829910.221 6         0.000 6      2752.023 6        37.977 6
G21  21163685.110 9 111215895.246 9     -1240.637 9        55.712 9  21163684.394 6         0.000 6      -966.731 6        37.977 6
G29  24281751.769 9 127601410.704 9     -3119.265 9        54.481 9  24281753.324 6         0.000 6     -2430.599 6        37.977 6
G27  22019154.457 9 115711410.574 9      2508.181 9        55.369 9  22019156.395 6         0.000 6      1954.427 6        37.977 6
G16  20500483.176 9 107730745.899 9       576.366 9        55.975 9  20500482.349 6         0.000 6       449.116 6        37.977 6
G26  20645961.433 9 108495237.388 9     -1466.069 9        55.877 9  20645964.246 6         0.000 6     -1142.391 6        37.977 6
G20  21958837.692 9 115394437.682 9      2577.295 9        55.310 9  21958838.022 6         0.000 6      2008.283 6        37.977 6
> 2019 07 03 12 00 30.0000000  0  8       0.000000000000
G07  25359352.066 9 133264248.363 9      2215.163 9        54.127 9  25359352.743 6         0.000 6      1726.102 6        37.977 6
G10  23829235.593 9 125223423.239 9      3518.983 9        54.662 9  23829239.339 6         0.000 6      2742.067 6        37.977 6
G21  21163921.153 9 111217135.661 9     -1240.517 9        55.712 9  21163920.438 6         0.000 6      -966.636 6        37.977 6
G29  24282345.630 9 127604531.459 9     -3123.215 9        54.481 9  24282347.186 6         0.000 6     -2433.676 6        37.977 6
G27  22018676.720 9 115708900.054 9      2513.595 9        55.369 9  22018678.658 6         0.000 6      1958.646 6        37.977 6
G16  20500373.376 9 107730168.893 9       577.992 9        55.975 9  20500372.549 6         0.000 6       450.383 6        37.977 6
G26  20646240.951 9 108496706.261 9     -1471.577 9        55.877 9  20646243.764 6         0.000 6     -1146.684 6        37.977 6
G20  21958348.166 9 115391865.212 9      2567.202 9        55.310 9  21958348.496 6         0.000 6      2000.418 6        37.977 6
> 2019 07 03 12 00 31.0000000  0  8       0.000000000000
G07  25358929.267 9 133262026.540 9      2228.537 9        54.127 9  25358929.943 6         0.000 6      1736.524 6        37.977 6
G10  23828567.158 9 125219910.603 9      3506.460 9        54.662 9  23828570.904 6         0.000 6      2732.309 6        37.977 6
G21  21164157.389 9 111218377.086 9     -1242.850 9        55.712 9  21164156.673 6         0.000 6      -968.454 6        37.977 6
G29  24282940.811 9 127607659.145 9     -3133.479 9        54.481 9  24282942.368 6         0.000 6     -2441.675 6        37.977 6
G27  22018197.551 9 115706382.007 9      2523.393 9        55.369 9  22018199.489 6         0.000 6      1966.281 6        37.977 6
G16  20500263.070 9 107729589.231 9       581.778 9        55.975 9  20500262.243 6         0.000 6       453.334 6        37.977 6
G26  20646521.387 9 108498179.962 9     -1475.435 9        55.876 9  20646524.200 6         0.000 6     -1149.690 6        37.977 6
G20  21957860.734 9 115389303.741 9      2555.482 9        55.310 9  21957861.063 6         0.000 6      1991.286 6        37.977 6
> 2019 07 03 12 00 32.0000000  0  8       0.000000000000
G07  25358504.135 9 133259792.463 9      2236.427 9        54.128 9  25358504.811 6         0.000 6      1742.671 6        37.977 6
G10  23827900.811 9 125216408.934 9      3499.596 9        54.663 9  23827904.555 6         0.000 6      2726.961 6        37.977 6
G21  21164394.322 9 111219622.178 9     -1246.439 9        55.712 9  21164393.606 6         0.000 6      -971.251 6        37.977 6
G29  24283538.491 9 127610799.965 9     -3144.729 9        54.481 9  24283540.048 6         0.000 6     -2450.441 6        37.977 6
G27  22017716.201 9 115703852.497 9      2532.570 9        55.369 9  22017718.138 6         0.000 6      1973.432 6        37.977 6
G16  20500151.875 9 107729004.898 9       585.495 9        55.975 9  20500151.048 6         0.000 6       456.230 6        37.977 6
G26  20646802.286 9 108499656.094 9     -1476.427 9        55.876 9  20646805.099 6         0.000 6     -1150.463 6        37.977 6
G20  21957375.486 9 115386753.753 9      2547.311 9        55.310 9  21957375.815 6         0.000 6      1984.919 6        37.977 6
> 2019 07 03 12 00 33.0000000  0  8       0.000000000000
G07  25358078.476 9 133257555.611 9      2236.987 9        54.128 9  25358079.152 6         0.000 6      1743.108 6        37.977 6
G10  23827234.966 9 125212909.910 9      3498.694 9        54.663 9  23827238.710 6         0.000 6      2726.258 6        37.977 6
G21  21164631.613 9 111220869.149 9     -1247.320 9        55.712 9  21164630.897 6         0.000 6      -971.938 6        37.977 6
G29  24284137.135 9 127613945.846 9     -3146.499 9        54.480 9  24284138.692 6         0.000 6     -2451.820 6        37.977 6
G27  22017234.120 9 115701319.151 9      2533.694 9        55.369 9  22017236.058 6         0.000 6      1974.308 6        37.977 6
G16  20500040.438 9 107728419.296 9       585.510 9        55.975 9  20500039.611 6         0.000 6       456.241 6        37.977 6
G26  20647083.289 9 108501132.772 9     -1476.958 9        55.876 9  20647086.102 6         0.000 6     -1150.877 6        37.977 6
G20  21956890.915 9 115384207.317 9      2545.878 9        55.311 9  21956891.243 6         0.000 6      1983.802 6        37.977 6
> 2019 07 03 12 00 34.0000000  0  8       0.000000000000
G07  25357652.811 9 133255318.729 9      2236.750 9        54.128 9  25357653.486 6         0.000 6      1742.923 6        37.977 6
G10  23826569.220 9 125209411.402 9      3498.369 9        54.663 9  23826572.964 6         0.000 6      2726.005 6        37.977 6
G21  21164869.010 9 111222116.680 9     -1247.725 9        55.712 9  21164868.295 6         0.000 6      -972.253 6        37.977 6
G29  24284735.925 9 127617092.503 9     -3146.778 9        54.480 9  24284737.484 6         0.000 6     -2452.037 6        37.977 6
G27  22016751.976 9 115698785.470 9      2533.631 9        55.369 9  22016753.914 6         0.000 6      1974.258 6        37.977 6
G16  20499929.070 9 107727834.050 9       584.962 9        55.975 9  20499928.243 6         0.000 6       455.814 6        37.977 6
G26  20647364.404 9 108502610.043 9     -1477.588 9        55.876 9  20647367.218 6         0.000 6     -1151.368 6        37.977 6
G20  21956406.512 9 115381661.771 9      2545.259 9        55.311 9  21956406.841 6         0.000 6      1983.320 6        37.977 6
> 2019 07 03 12 00 35.0000000  0  8       0.000000000000
G07  25357227.205 9 133253082.159 9      2236.389 9        54.128 9  25357227.880 6         0.000 6      1742.642 6        37.977 6
G10  23825903.526 9 125205913.163 9      3498.142 9        54.663 9  23825907.268 6         0.000 6      2725.827 6        37.977 6
G21  21165106.479 9 111223364.586 9     -1248.081 9        55.712 9  21165105.764 6         0.000 6      -972.531 6        37.977 6
G29  24285334.748 9 127620239.327 9     -3146.886 9        54.480 9  24285336.307 6         0.000 6     -2452.122 6        37.977 6
G27  22016269.862 9 115696251.946 9      2533.422 9        55.370 9  22016271.799 6         0.000 6      1974.096 6        37.977 6
G16  20499817.814 9 107727249.400 9       584.345 9        55.975 9  20499816.988 6         0.000 6       455.334 6        37.977 6
G26  20647645.641 9 108504087.948 9     -1478.216 9        55.876 9  20647648.454 6         0.000 6     -1151.857 6        37.977 6
G20  21955922.215 9 115379116.775 9      2544.753 9        55.311 9  21955922.543 6         0.000 6      1982.926 6        37.977 6
> 2019 07 03 12 00 36.0000000  0  8       0.000000000000
G07  25356801.671 9 133250845.970 9      2235.992 9        54.128 9  25356802.347 6         0.000 6      1742.333 6        37.977 6
G10  23825237.870 9 125202415.128 9      3497.950 9        54.664 9  23825241.612 6         0.000 6      2725.678 6        37.977 6
G21  21165344.015 9 111224612.845 9     -1248.436 9        55.712 9  21165343.299 6         0.000 6      -972.807 6        37.977 6
G29  24285933.591 9 127623386.256 9     -3146.982 9        54.480 9  24285935.150 6         0.000 6     -2452.196 6        37.977 6
G27  22015787.788 9 115693718.633 9      2533.200 9        55.370 9  22015789.725 6         0.000 6      1973.923 6        37.977 6
G16  20499706.676 9 107726665.362 9       583.724 9        55.976 9  20499705.849 6         0.000 6       454.850 6        37.977 6
G26  20647926.993 9 108505566.466 9     -1478.827 9        55.876 9  20647929.807 6         0.000 6     -1152.334 6        37.977 6
G20  21955438.010 9 115376572.266 9      2544.277 9        55.311 9  21955438.338 6         0.000 6      1982.555 6        37.977 6
> 2019 07 03 12 00 37.0000000  0  8       0.000000000000
G07  25356376.216 9 133248610.190 9      2235.571 9        54.128 9  25356376.891 6         0.000 6      1742.004 6        37.977 6
G10  23824572.248 9 125198917.273 9      3497.784 9        54.664 9  23824575.989 6         0.000 6      2725.549 6        37.977 6
G21  21165581.618 9 111225861.455 9     -1248.791 9        55.711 9  21165580.902 6         0.000 6      -973.084 6        37.977 6
G29  24286532.450 9 127626533.272 9     -3147.075 9        54.480 9  24286534.010 6         0.000 6     -2452.269 6        37.977 6
G27  22015305.758 9 115691185.551 9      2532.971 9        55.370 9  22015307.695 6         0.000 6      1973.745 6        37.977 6
G16  20499595.656 9 107726081.949 9       583.104 9        55.976 9  20499594.829 6         0.000 6       454.367 6        37.977 6
G26  20648208.462 9 108507045.592 9     -1479.426 9        55.876 9  20648211.276 6         0.000 6     -1152.800 6        37.977 6
G20  21954953.894 9 115374028.223 9      2543.819 9        55.311 9  21954954.221 6         0.000 6      1982.198 6        37.977 6
> 2019 07 03 12 00 38.0000000  0  8       0.000000000000
G07  25355950.841 9 133246374.835 9      2235.143 9        54.128 9  25355951.516 6         0.000 6      1741.671 6        37.977 6
G10  23823906.657 9 125195419.580 9      3497.624 9        54.664 9  23823910.398 6         0.000 6      2725.424 6        37.977 6
G21  21165819.289 9 111227110.425 9     -1249.148 9        55.711 9  21165818.574 6         0.000 6      -973.362 6        37.977 6
G29  24287131.328 9 127629680.386 9     -3147.169 9        54.479 9  24287132.888 6         0.000 6     -2452.342 6        37.977 6
G27  22014823.771 9 115688652.696 9      2532.742 9        55.370 9  22014825.708 6         0.000 6      1973.566 6        37.977 6
G16  20499484.754 9 107725499.155 9       582.482 9        55.976 9  20499483.927 6         0.000 6       453.882 6        37.977 6
G26  20648490.044 9 108508525.315 9     -1480.022 9        55.876 9  20648492.858 6         0.000 6     -1153.265 6        37.977 6
G20  21954469.865 9 115371484.637 9      2543.365 9        55.311 9  21954470.192 6         0.000 6      1981.844 6        37.977 6
> 2019 07 03 12 00 39.0000000  0  8       0.000000000000
G07  25355525.550 9 133244139.915 9      2234.703 9        54.129 9  25355526.224 6         0.000 6      1741.328 6        37.977 6
G10  23823241.096 9 125191922.044 9      3497.474 9        54.664 9  23823244.836 6         0.000 6      2725.307 6        37.977 6
G21  21166057.028 9 111228359.754 9     -1249.509 9        55.711 9  21166056.313 6         0.000 6      -973.643 6        37.977 6
G29  24287730.223 9 127632827.591 9     -3147.259 9        54.479 9  24287731.784 6         0.000 6     -2452.412 6        37.977 6
G27  22014341.830 9 115686120.077 9      2532.504 9        55.370 9  22014343.766 6         0.000 6      1973.380 6        37.977 6
G16  20499373.971 9 107724916.989 9       581.855 9        55.976 9  20499373.144 6         0.000 6       453.393 6        37.977 6
G26  20648771.740 9 108510005.635 9     -1480.618 9        55.875 9  20648774.554 6         0.000 6     -1153.729 6        37.977 6
G20  21953985.921 9 115368941.503 9      2542.917 9        55.312 9  21953986.249 6         0.000 6      1981.495 6        37.977 6
> 2019 07 03 12 00 40.0000000  0  8       0.000000000000
G07  25355100.343 9 133241905.444 9      2234.256 9        54.129 9  25355101.017 6         0.000 6      1740.980 6        37.977 6
G10  23822575.562 9 125188424.648 9      3497.332 9        54.665 9  23822579.301 6         0.000 6      2725.197 6        37.977 6
G21  21166294.836 9 111229609.443 9     -1249.871 9        55.711 9  21166294.121 6         0.000 6      -973.925 6        37.977 6
G29  24288329.135 9 127635974.886 9     -3147.356 9        54.479 9  24288330.697 6         0.000 6     -2452.487 6        37.977 6
G27  22013859.933 9 115683587.696 9      2532.270 9        55.371 9  22013861.869 6         0.000 6      1973.198 6        37.977 6
G16  20499263.308 9 107724335.447 9       581.231 9        55.976 9  20499262.481 6         0.000 6       452.907 6        37.977 6
G26  20649053.548 9 108511486.544 9     -1481.206 9        55.875 9  20649056.362 6         0.000 6     -1154.187 6        37.977 6
G20  21953502.062 9 115366398.808 9      2542.474 9        55.312 9  21953502.389 6         0.000 6      1981.150 6        37.977 6
> 2019 07 03 12 00 41.0000000  0  8       0.000000000000
G07  25354675.222 9 133239671.419 9      2233.772 9        54.129 9  25354675.896 6         0.000 6      1740.603 6        37.977 6
G10  23821910.054 9 125184927.393 9      3497.226 9        54.665 9  23821913.793 6         0.000 6      2725.114 6        37.977 6
G21  21166532.713 9 111230859.494 9     -1250.237 9        55.711 9  21166531.998 6         0.000 6      -974.211 6        37.977 6
G29  24288928.065 9 127639122.277 9     -3147.445 9        54.479 9  24288929.628 6         0.000 6     -2452.557 6        37.977 6
G27  22013378.081 9 115681055.548 9      2532.022 9        55.371 9  22013380.017 6         0.000 6      1973.005 6        37.977 6
G16  20499152.763 9 107723754.529 9       580.601 9        55.976 9  20499151.936 6         0.000 6       452.416 6        37.977 6
G26  20649335.468 9 108512968.041 9     -1481.780 9        55.875 9  20649338.282 6         0.000 6     -1154.634 6        37.977 6
G20  21953018.287 9 115363856.557 9      2542.056 9        55.312 9  21953018.613 6         0.000 6      1980.824 6        37.977 6
> 2019 07 03 12 00 42.0000000  0  8       0.000000000000
G07  25354250.224 9 133237438.045 9      2232.924 9        54.129 9  25354250.898 6         0.000 6      1739.942 6        37.977 6
G10  23821244.535 9 125181430.078 9      3497.485 9        54.665 9  23821248.274 6         0.000 6      2725.316 6        37.977 6
G21  21166770.664 9 111232109.934 9     -1250.657 9        55.711 9  21166769.949 6         0.000 6      -974.538 6        37.977 6
G29  24289527.012 9 127642269.751 9     -3147.529 9        54.479 9  24289528.575 6         0.000 6     -2452.622 6        37.977 6
G27  22012896.284 9 115678523.692 9      2531.687 9        55.371 9  22012898.220 6         0.000 6      1972.744 6        37.977 6
G16  20499042.340 9 107723174.255 9       579.945 9        55.976 9  20499041.513 6         0.000 6       451.905 6        37.977 6
G26  20649617.482 9 108514450.035 9     -1482.183 9        55.875 9  20649620.297 6         0.000 6     -1154.949 6        37.977 6
G20  21952534.569 9 115361314.609 9      2541.887 9        55.312 9  21952534.896 6         0.000 6      1980.693 6        37.977 6
> 2019 07 03 12 00 43.0000000  0  8       0.000000000000
G07  25353825.413 9 133235205.650 9      2231.876 9        54.129 9  25353826.086 6         0.000 6      1739.125 6        37.977 6
G10  23820578.942 9 125177932.374 9      3497.946 9        54.665 9  23820582.680 6         0.000 6      2725.675 6        37.977 6
G21  21167008.699 9 111233360.817 9     -1251.105 9        55.711 9  21167007.984 6         0.000 6      -974.887 6        37.977 6
G29  24290125.975 9 127645417.312 9     -3147.608 9        54.478 9  24290127.539 6         0.000 6     -2452.684 6        37.977 6
G27  22012414.556 9 115675992.199 9      2531.303 9        55.371 9  22012416.492 6         0.000 6      1972.445 6        37.977 6
G16  20498932.044 9 107722594.645 9       579.276 9        55.976 9  20498931.217 6         0.000 6       451.384 6        37.977 6
G26  20649899.562 9 108515932.372 9     -1482.492 9        55.875 9  20649902.377 6         0.000 6     -1155.189 6        37.977 6
G20  21952050.868 9 115358772.744 9      2541.856 9        55.312 9  21952051.193 6         0.000 6      1980.669 6        37.977 6
> 2019 07 03 12 00 44.0000000  0  8       0.000000000000
G07  25353400.628 9 133232973.393 9      2233.629 9        54.129 9  25353401.301 6         0.000 6      1740.491 6        37.977 6
G10  23819913.370 9 125174434.778 9      3496.780 9        54.666 9  23819917.107 6         0.000 6      2724.766 6        37.977 6
G21  21167246.971 9 111234612.940 9     -1254.371 9        55.711 9  21167246.256 6         0.000 6      -977.432 6        37.977 6
G29  24290725.391 9 127648567.254 9     -3155.675 9        54.478 9  24290726.955 6         0.000 6     -2458.970 6        37.977 6
G27  22011932.569 9 115673459.339 9      2536.905 9        55.371 9  22011934.504 6         0.000 6      1976.810 6        37.977 6
G16  20498821.716 9 107722014.866 9       581.480 9        55.976 9  20498820.889 6         0.000 6       453.101 6        37.977 6
G26  20650181.644 9 108517414.719 9     -1481.612 9        55.875 9  20650184.458 6         0.000 6     -1154.503 6        37.977 6
G20  21951567.370 9 115356231.949 9      2538.445 9        55.313 9  21951567.695 6         0.000 6      1978.010 6        37.977 6
> 2019 07 03 12 00 45.0000000  0  8       0.000000000000
G07  25352975.615 9 133230739.940 9      2232.108 9        54.129 9  25352976.288 6         0.000 6      1739.306 6        37.977 6
G10  23819247.802 9 125170937.204 9      3499.477 9        54.666 9  23819251.538 6         0.000 6      2726.868 6        37.977 6
G21  21167486.184 9 111235870.014 9     -1259.701 9        55.711 9  21167485.469 6         0.000 6      -981.585 6        37.977 6
G29  24291327.086 9 127651729.176 9     -3167.547 9        54.478 9  24291328.651 6         0.000 6     -2468.221 6        37.977 6
G27  22011449.042 9 115670918.393 9      2544.290 9        55.372 9  22011450.977 6         0.000 6      1982.564 6        37.977 6
G16  20498710.725 9 107721431.606 9       584.743 9        55.976 9  20498709.898 6         0.000 6       455.644 6        37.977 6
G26  20650463.274 9 108518894.693 9     -1477.987 9        55.875 9  20650466.089 6         0.000 6     -1151.679 6        37.977 6
G20  21951084.586 9 115353694.911 9      2536.558 9        55.313 9  21951084.912 6         0.000 6      1976.540 6        37.977 6
> 2019 07 03 12 00 46.0000000  0  8       0.000000000000
G07  25352551.756 9 133228512.552 9      2221.885 9        54.130 9  25352552.429 6         0.000 6      1731.340 6        37.977 6
G10  23818580.903 9 125167432.640 9      3510.241 9        54.666 9  23818584.639 6         0.000 6      2735.255 6        37.977 6
G21  21167726.406 9 111237132.387 9     -1264.563 9        55.711 9  21167725.691 6         0.000 6      -985.374 6        37.977 6
G29  24291930.690 9 127654901.126 9     -3174.871 9        54.478 9  24291932.256 6         0.000 6     -2473.928 6        37.977 6
G27  22010964.546 9 115668372.354 9      2546.602 9        55.372 9  22010966.482 6         0.000 6      1984.366 6        37.977 6
G16  20498599.291 9 107720846.018 9       585.872 9        55.976 9  20498598.464 6         0.000 6       456.524 6        37.977 6
G26  20650743.918 9 108520369.486 9     -1471.704 9        55.875 9  20650746.733 6         0.000 6     -1146.783 6        37.977 6
G20  21950601.511 9 115351156.339 9      2541.407 9        55.313 9  21950601.836 6         0.000 6      1980.319 6        37.977 6
> 2019 07 03 12 00 47.0000000  0  8       0.000000000000
G07  25352129.396 9 133226293.035 9      2218.099 9        54.130 9  25352130.068 6         0.000 6      1728.389 6        37.977 6
G10  23817912.521 9 125163920.278 9      3513.534 9        54.666 9  23817916.256 6         0.000 6      2737.821 6        37.977 6
G21  21167967.171 9 111238397.617 9     -1265.669 9        55.710 9  21167966.456 6         0.000 6      -986.236 6        37.977 6
G29  24292534.924 9 127658076.385 9     -3175.476 9        54.477 9  24292536.490 6         0.000 6     -2474.399 6        37.977 6
G27  22010480.017 9 115665826.139 9      2545.926 9        55.372 9  22010481.952 6         0.000 6      1983.839 6        37.977 6
G16  20498487.868 9 107720260.485 9       585.196 9        55.976 9  20498487.041 6         0.000 6       455.997 6        37.977 6
G26  20651023.816 9 108521840.361 9     -1470.550 9        55.875 9  20651026.631 6         0.000 6     -1145.884 6        37.977 6
G20  21950117.676 9 115348613.773 9      2543.133 9        55.313 9  21950118.001 6         0.000 6      1981.663 6        37.977 6
> 2019 07 03 12 00 48.0000000  0  8       0.000000000000
G07  25351707.402 9 133224075.446 9      2217.246 9        54.130 9  25351708.074 6         0.000 6      1727.725 6        37.977 6
G10  23817243.875 9 125160406.529 9      3513.819 9        54.667 9  23817247.609 6         0.000 6      2738.043 6        37.977 6
G21  21168208.069 9 111239663.542 9     -1266.161 9        55.710 9  21168207.354 6         0.000 6      -986.619 6        37.977 6
G29  24293139.219 9 127661251.966 9     -3175.699 9        54.477 9  24293140.786 6         0.000 6     -2474.573 6        37.977 6
G27  22009995.570 9 115663280.354 9      2545.674 9        55.372 9  22009997.505 6         0.000 6      1983.643 6        37.977 6
G16  20498376.567 9 107719675.592 9       584.589 9        55.976 9  20498375.740 6         0.000 6       455.524 6        37.977 6
G26  20651303.678 9 108523311.041 9     -1470.901 9        55.874 9  20651306.493 6         0.000 6     -1146.157 6        37.977 6
G20  21949633.742 9 115346070.686 9      2542.936 9        55.313 9  21949634.067 6         0.000 6      1981.509 6        37.977 6
> 2019 07 03 12 00 49.0000000  0  8       0.000000000000
G07  25351285.519 9 133221858.440 9      2216.792 9        54.130 9  25351286.191 6         0.000 6      1727.371 6        37.977 6
G10  23816575.227 9 125156892.770 9      3513.698 9        54.667 9  23816578.960 6         0.000 6      2737.950 6        37.977 6
G21  21168449.050 9 111240929.904 9     -1266.567 9        55.710 9  21168448.335 6         0.000 6      -986.935 6        37.977 6
G29  24293743.551 9 127664427.743 9     -3175.875 9        54.477 9  24293745.119 6         0.000 6     -2474.710 6        37.977 6
G27  22009511.162 9 115660734.777 9      2545.486 9        55.372 9  22009513.097 6         0.000 6      1983.496 6        37.977 6
G16  20498265.379 9 107719091.297 9       583.998 9        55.976 9  20498264.552 6         0.000 6       455.063 6        37.977 6
G26  20651583.632 9 108524782.207 9     -1471.449 9        55.874 9  20651586.447 6         0.000 6     -1146.584 6        37.977 6
G20  21949149.879 9 115343527.975 9      2542.480 9        55.314 9  21949150.204 6         0.000 6      1981.154 6        37.977 6
> 2019 07 03 12 00 50.0000000  0  8       0.000000000000
G07  25350863.718 9 133219641.863 9      2216.361 9        54.130 9  25350864.390 6         0.000 6      1727.035 6        37.977 6
G10  23815906.607 9 125153379.162 9      3513.550 9        54.667 9  23815910.340 6         0.000 6      2737.834 6        37.977 6
G21  21168690.108 9 111242196.672 9     -1266.958 9        55.710 9  21168689.393 6         0.000 6      -987.240 6        37.977 6
G29  24294347.915 9 127667603.689 9     -3176.021 9        54.477 9  24294349.484 6         0.000 6     -2474.824 6        37.977 6
G27  22009026.791 9 115658189.392 9      2545.283 9        55.373 9  22009028.725 6         0.000 6      1983.338 6        37.977 6
G16  20498154.305 9 107718507.601 9       583.397 9        55.976 9  20498153.478 6         0.000 6       454.595 6        37.977 6
G26  20651863.694 9 108526253.943 9     -1472.019 9        55.874 9  20651866.509 6         0.000 6     -1147.028 6        37.977 6
G20  21948666.107 9 115340985.741 9      2542.012 9        55.314 9  21948666.431 6         0.000 6      1980.790 6        37.977 6
> 2019 07 03 12 00 51.0000000  0  8       0.000000000000
G07  25350441.999 9 133217425.723 9      2215.930 9        54.130 9  25350442.671 6         0.000 6      1726.700 6        37.977 6
G10  23815238.015 9 125149865.697 9      3513.397 9        54.667 9  23815241.747 6         0.000 6      2737.715 6        37.977 6
G21  21168931.238 9 111243463.821 9     -1267.344 9        55.710 9  21168930.524 6         0.000 6      -987.541 6        37.977 6
G29  24294952.304 9 127670779.764 9     -3176.151 9        54.477 9  24294953.873 6         0.000 6     -2474.925 6        37.977 6
G27  22008542.460 9 115655644.219 9      2545.067 9        55.373 9  22008544.394 6         0.000 6      1983.170 6        37.977 6
G16  20498043.346 9 107717924.506 9       582.789 9        55.976 9  20498042.519 6         0.000 6       454.121 6        37.977 6
G26  20652143.864 9 108527726.245 9     -1472.595 9        55.874 9  20652146.680 6         0.000 6     -1147.477 6        37.977 6
G20  21948182.422 9 115338443.964 9      2541.547 9        55.314 9  21948182.746 6         0.000 6      1980.427 6        37.977 6
> 2019 07 03 12 00 52.0000000  0  8       0.000000000000
G07  25350020.364 9 133215210.015 9      2215.489 9        54.130 9  25350021.035 6         0.000 6      1726.356 6        37.977 6
G10  23814569.451 9 125146352.382 9      3513.253 9        54.667 9  23814573.183 6         0.000 6      2737.603 6        37.977 6
G21  21169172.441 9 111244731.347 9     -1267.720 9        55.710 9  21169171.726 6         0.000 6      -987.834 6        37.977 6
G29  24295556.716 9 127673955.958 9     -3176.260 9        54.476 9  24295558.286 6         0.000 6     -2475.010 6        37.977 6
G27  22008058.171 9 115653099.265 9      2544.837 9        55.373 9  22008060.105 6         0.000 6      1982.991 6        37.977 6
G16  20497932.502 9 107717342.019 9       582.176 9        55.976 9  20497931.675 6         0.000 6       453.643 6        37.977 6
G26  20652424.144 9 108529199.122 9     -1473.171 9        55.874 9  20652426.959 6         0.000 6     -1147.926 6        37.977 6
G20  21947698.825 9 115335902.645 9      2541.094 9        55.314 9  21947699.148 6         0.000 6      1980.074 6        37.977 6
> 2019 07 03 12 00 53.0000000  0  8       0.000000000000
G07  25349598.812 9 133212994.750 9      2215.044 9        54.131 9  25349599.483 6         0.000 6      1726.009 6        37.977 6
G10  23813900.916 9 125142839.214 9      3513.112 9        54.668 9  23813904.647 6         0.000 6      2737.492 6        37.977 6
G21  21169413.716 9 111245999.256 9     -1268.095 9        55.710 9  21169413.001 6         0.000 6      -988.126 6        37.977 6
G29  24296161.148 9 127677132.262 9     -3176.363 9        54.476 9  24296162.719 6         0.000 6     -2475.091 6        37.977 6
G27  22007573.927 9 115650554.547 9      2544.603 9        55.373 9  22007575.861 6         0.000 6      1982.809 6        37.977 6
G16  20497821.777 9 107716760.151 9       581.561 9        55.976 9  20497820.950 6         0.000 6       453.164 6        37.977 6
G26  20652704.534 9 108530672.582 9     -1473.746 9        55.874 9  20652707.350 6         0.000 6     -1148.374 6        37.977 6
G20  21947215.314 9 115333361.785 9      2540.644 9        55.314 9  21947215.637 6         0.000 6      1979.723 6        37.977 6
> 2019 07 03 12 00 54.0000000  0  8       0.000000000000
G07  25349177.346 9 133210779.934 9      2214.572 9        54.131 9  25349178.017 6         0.000 6      1725.641 6        37.977 6
G10  23813232.406 9 125139326.185 9      3512.986 9        54.668 9  23813236.137 6         0.000 6      2737.394 6        37.977 6
G21  21169655.062 9 111247267.537 9     -1268.449 9        55.710 9  21169654.347 6         0.000 6      -988.402 6        37.977 6
G29  24296765.598 9 127680308.654 9     -3176.400 9        54.476 9  24296767.169 6         0.000 6     -2475.119 6        37.977 6
G27  22007089.729 9 115648010.075 9      2544.316 9        55.373 9  22007091.663 6         0.000 6      1982.584 6        37.977 6
G16  20497711.169 9 107716178.906 9       580.918 9        55.976 9  20497710.342 6         0.000 6       452.664 6        37.977 6
G26  20652985.035 9 108532146.621 9     -1474.333 9        55.874 9  20652987.850 6         0.000 6     -1148.831 6        37.977 6
G20  21946731.888 9 115330821.369 9      2540.223 9        55.314 9  21946732.211 6         0.000 6      1979.395 6        37.977 6
> 2019 07 03 12 00 55.0000000  0  8       0.000000000000
G07  25348755.986 9 133208565.679 9      2213.917 9        54.131 9  25348756.657 6         0.000 6      1725.131 6        37.977 6
G10  23812563.909 9 125135813.219 9      3512.984 9        54.668 9  23812567.639 6         0.000 6      2737.393 6        37.977 6
G21  21169896.462 9 111248536.104 9     -1268.666 9        55.710 9  21169895.748 6         0.000 6      -988.571 6        37.977 6
G29  24297370.017 9 127683484.891 9     -3176.032 9        54.476 9  24297371.589 6         0.000 6     -2474.833 6        37.977 6
G27  22006605.615 9 115645466.038 9      2543.718 9        55.373 9  22006607.548 6         0.000 6      1982.118 6        37.977 6
G16  20497600.697 9 107715598.371 9       580.129 9        55.976 9  20497599.870 6         0.000 6       452.049 6        37.977 6
G26  20653265.650 9 108533621.262 9     -1474.959 9        55.874 9  20653268.466 6         0.000 6     -1149.319 6        37.977 6
G20  21946248.524 9 115328281.277 9      2540.001 9        55.315 9  21946248.847 6         0.000 6      1979.223 6        37.977 6
> 2019 07 03 12 00 56.0000000  0  8       0.000000000000
G07  25348334.734 9 133206351.985 9      2213.006 9        54.131 9  25348335.404 6         0.000 6      1724.421 6        37.977 6
G10  23811895.434 9 125132300.367 9      3513.222 9        54.668 9  23811899.163 6         0.000 6      2737.578 6        37.977 6
G21  21170137.893 9 111249804.831 9     -1268.876 9        55.710 9  21170137.178 6         0.000 6      -988.735 6        37.977 6
G29  24297974.347 9 127686660.657 9     -3175.548 9        54.476 9  24297975.920 6         0.000 6     -2474.455 6        37.977 6
G27  22006121.623 9 115642922.645 9      2542.981 9        55.374 9  22006123.556 6         0.000 6      1981.544 6        37.977 6
G16  20497490.381 9 107715018.654 9       579.283 9        55.976 9  20497489.554 6         0.000 6       451.390 6        37.977 6
G26  20653546.399 9 108535096.607 9     -1475.502 9        55.873 9  20653549.215 6         0.000 6     -1149.742 6        37.977 6
G20  21945765.210 9 115325741.452 9      2539.974 9        55.315 9  21945765.533 6         0.000 6      1979.202 6        37.977 6
> 2019 07 03 12 00 57.0000000  0  8       0.000000000000
G07  25347914.848 9 133204145.475 9      2199.301 9        54.131 9  25347915.519 6         0.000 6      1713.742 6        37.977 6
G10  23811225.740 9 125128781.114 9      3525.876 9        54.669 9  23811229.468 6         0.000 6      2747.438 6        37.977 6
G21  21170379.479 9 111251074.375 9     -1269.912 9        55.709 9  21170378.765 6         0.000 6      -989.542 6        37.977 6
G29  24298578.403 9 127689834.979 9     -3172.099 9        54.475 9  24298579.976 6         0.000 6     -2471.768 6        37.977 6
G27  22005638.170 9 115640382.089 9      2537.294 9        55.374 9  22005640.103 6         0.000 6      1977.113 6        37.977 6
G16  20497380.366 9 107714440.526 9       576.586 9        55.977 9  20497379.539 6         0.000 6       449.287 6        37.977 6
G26  20653826.745 9 108536569.833 9     -1470.932 9        55.873 9  20653829.561 6         0.000 6     -1146.181 6        37.977 6
G20  21945281.060 9 115323197.228 9      2549.159 9        55.315 9  21945281.382 6         0.000 6      1986.359 6        37.977 6
> 2019 07 03 12 00 58.0000000  0  8       0.000000000000
G07  25347497.735 9 133201953.534 9      2184.628 9        54.131 9  25347498.405 6         0.000 6      1702.309 6        37.977 6
G10  23810553.563 9 125125248.812 9      3538.524 9        54.669 9  23810557.291 6         0.000 6      2757.294 6        37.977 6
G21  21170621.043 9 111252343.800 9     -1268.429 9        55.709 9  21170620.328 6         0.000 6      -988.386 6        37.977 6
G29  24299181.201 9 127693002.693 9     -3162.118 9        54.475 9  24299182.774 6         0.000 6     -2463.991 6        37.977 6
G27  22005156.239 9 115637849.524 9      2527.029 9        55.374 9  22005158.172 6         0.000 6      1969.114 6        37.977 6
G16  20497271.078 9 107713866.210 9       571.635 9        55.977 9  20497270.251 6         0.000 6       445.430 6        37.977 6
G26  20654106.332 9 108538039.072 9     -1467.956 9        55.873 9  20654109.148 6         0.000 6     -1143.862 6        37.977 6
G20  21944794.939 9 115320642.650 9      2560.204 9        55.315 9  21944795.261 6         0.000 6      1994.965 6        37.977 6
> 2019 07 03 12 00 59.0000000  0  8       0.000000000000
G07  25347083.242 9 133199775.363 9      2174.967 9        54.131 9  25347083.912 6         0.000 6      1694.780 6        37.977 6
G10  23809879.246 9 125121705.263 9      3545.824 9        54.669 9  23809882.973 6         0.000 6      2762.982 6        37.977 6
G21  21170862.041 9 111253610.250 9     -1265.305 9        55.709 9  21170861.326 6         0.000 6      -985.952 6        37.977 6
G29  24299781.473 9 127696157.137 9     -3150.080 9        54.475 9  24299783.048 6         0.000 6     -2454.610 6        37.977 6
G27  22004676.637 9 115635329.205 9      2516.563 9        55.374 9  22004678.570 6         0.000 6      1960.959 6        37.977 6
G16  20497162.929 9 107713297.886 9       566.334 9        55.977 9  20497162.102 6         0.000 6       441.299 6        37.977 6
G26  20654385.631 9 108539506.795 9     -1467.994 9        55.873 9  20654388.447 6         0.000 6     -1143.892 6        37.977 6
G20  21944306.717 9 115318077.033 9      2568.231 9        55.315 9  21944307.039 6         0.000 6      2001.220 6        37.977 6
> 2019 07 03 12 01  0.0000000  0  8       0.000000000000
G07  25346669.536 9 133197601.324 9      2173.452 9        54.132 9  25346670.205 6         0.000 6      1693.600 6        37.977 6
G10  23809204.415 9 125118159.009 9      3546.465 9        54.669 9  23809208.141 6         0.000 6      2763.482 6        37.977 6
G21  21171102.779 9 111254875.337 9     -1265.069 9        55.709 9  21171102.064 6         0.000 6      -985.768 6        37.977 6
G29  24300380.682 9 127699305.989 9     -3148.264 9        54.475 9  24300382.257 6         0.000 6     -2453.196 6        37.977 6
G27  22004197.965 9 115632813.770 9      2514.805 9        55.374 9  22004199.898 6         0.000 6      1959.589 6        37.977 6
G16  20497055.308 9 107712732.330 9       565.011 9        55.977 9  20497054.481 6         0.000 6       440.269 6        37.977 6
G26  20654665.048 9 108540975.142 9     -1468.661 9        55.873 9  20654667.865 6         0.000 6     -1144.412 6        37.977 6
G20  21943817.908 9 115315508.328 9      2568.850 9        55.316 9  21943818.229 6         0.000 6      2001.703 6        37.977 6
> 2019 07 03 12 01  1.0000000  0  8       0.000000000000
G07  25346256.007 9 133195428.218 9      2172.818 9        54.132 9  25346256.676 6         0.000 6      1693.106 6        37.977 6
G10  23808529.540 9 125114612.531 9      3546.474 9        54.670 9  23808533.266 6         0.000 6      2763.489 6        37.977 6
G21  21171343.542 9 111256140.555 9     -1265.387 9        55.709 9  21171342.828 6         0.000 6      -986.016 6        37.977 6
G29  24300979.758 9 127702454.146 9     -3148.145 9        54.474 9  24300981.334 6         0.000 6     -2453.102 6        37.977 6
G27  22003719.460 9 115630299.211 9      2514.383 9        55.375 9  22003721.393 6         0.000 6      1959.260 6        37.977 6
G16  20496947.859 9 107712167.682 9       564.318 9        55.977 9  20496947.032 6         0.000 6       439.728 6        37.977 6
G26  20654944.578 9 108542444.078 9     -1469.211 9        55.873 9  20654947.394 6         0.000 6     -1144.840 6        37.977 6
G20  21943329.096 9 115312939.604 9      2568.559 9        55.316 9  21943329.417 6         0.000 6      2001.476 6        37.977 6
> 2019 07 03 12 01  2.0000000  0  8       0.000000000000
G07  25345842.582 9 133193255.663 9      2172.297 9        54.132 9  25345843.252 6         0.000 6      1692.700 6        37.977 6
G10  23807854.676 9 125111066.106 9      3546.400 9        54.670 9  23807858.401 6         0.000 6      2763.431 6        37.977 6
G21  21171584.372 9 111257406.127 9     -1265.756 9        55.709 9  21171583.658 6         0.000 6      -986.304 6        37.977 6
G29  24301578.836 9 127705602.309 9     -3148.202 9        54.474 9  24301580.412 6         0.000 6     -2453.147 6        37.977 6
G27  22003241.016 9 115627784.970 9      2514.108 9        55.375 9  22003242.948 6         0.000 6      1959.046 6        37.977 6
G16  20496840.532 9 107711603.676 9       563.696 9        55.977 9  20496839.705 6         0.000 6       439.243 6        37.977 6
G26  20655224.211 9 108543913.560 9     -1469.753 9        55.873 9  20655227.028 6         0.000 6     -1145.262 6        37.977 6
G20  21942840.353 9 115310371.250 9      2568.162 9        55.316 9  21942840.674 6         0.000 6      2001.166 6        37.977 6
> 2019 07 03 12 01  3.0000000  0  8       0.000000000000
G07  25345429.255 9 133191083.614 9      2171.810 9        54.132 9  25345429.924 6         0.000 6      1692.320 6        37.977 6
G10  23807179.828 9 125107519.769 9      3546.291 9        54.670 9  23807183.553 6         0.000 6      2763.346 6        37.977 6
G21  21171825.273 9 111258672.067 9     -1266.133 9        55.709 9  21171824.559 6         0.000 6      -986.598 6        37.977 6
G29  24302177.926 9 127708750.538 9     -3148.283 9        54.474 9  24302179.502 6         0.000 6     -2453.210 6        37.977 6
G27  22002762.621 9 115625270.991 9      2513.853 9        55.375 9  22002764.553 6         0.000 6      1958.847 6        37.977 6
G16  20496733.322 9 107711040.286 9       563.079 9        55.977 9  20496732.495 6         0.000 6       438.763 6        37.977 6
G26  20655503.948 9 108545383.585 9     -1470.308 9        55.873 9  20655506.765 6         0.000 6     -1145.695 6        37.977 6
G20  21942351.688 9 115307803.304 9      2567.733 9        55.316 9  21942352.009 6         0.000 6      2000.832 6        37.977 6
> 2019 07 03 12 01  4.0000000  0  8       0.000000000000
G07  25345016.018 9 133188912.047 9      2171.329 9        54.132 9  25345016.687 6         0.000 6      1691.946 6        37.977 6
G10  23806505.003 9 125103973.547 9      3546.176 9        54.670 9  23806508.727 6         0.000 6      2763.257 6        37.977 6
G21  21172066.246 9 111259938.388 9     -1266.509 9        55.709 9  21172065.532 6         0.000 6      -986.890 6        37.977 6
G29  24302777.032 9 127711898.853 9     -3148.363 9        54.474 9  24302778.609 6         0.000 6     -2453.273 6        37.977 6
G27  22002284.274 9 115622757.266 9      2513.599 9        55.375 9  22002286.206 6         0.000 6      1958.649 6        37.977 6
G16  20496626.231 9 107710477.515 9       562.463 9        55.977 9  20496625.404 6         0.000 6       438.283 6        37.977 6
G26  20655783.792 9 108546854.171 9     -1470.867 9        55.873 9  20655786.609 6         0.000 6     -1146.131 6        37.977 6
G20  21941863.106 9 115305235.793 9      2567.301 9        55.316 9  21941863.427 6         0.000 6      2000.495 6        37.977 6
> 2019 07 03 12 01  5.0000000  0  8       0.000000000000
G07  25344602.873 9 133186740.956 9      2170.862 9        54.132 9  25344603.542 6         0.000 6      1691.581 6        37.977 6
G10  23805830.200 9 125100427.442 9      3546.051 9        54.671 9  23805833.923 6         0.000 6      2763.159 6        37.977 6
G21  21172307.290 9 111261205.081 9     -1266.880 9        55.709 9  21172306.575 6         0.000 6      -987.180 6        37.977 6
G29  24303376.154 9 127715047.248 9     -3148.447 9        54.474 9  24303377.732 6         0.000 6     -2453.338 6        37.977 6
G27  22001805.976 9 115620243.791 9      2513.354 9        55.375 9  22001807.907 6         0.000 6      1958.458 6        37.977 6
G16  20496519.255 9 107709915.356 9       561.853 9        55.977 9  20496518.428 6         0.000 6       437.807 6        37.977 6
G26  20656063.741 9 108548325.314 9     -1471.426 9        55.872 9  20656066.558 6         0.000 6     -1146.566 6        37.977 6
G20  21941374.607 9 115302668.714 9      2566.861 9        55.317 9  21941374.927 6         0.000 6      2000.153 6        37.977 6
> 2019 07 03 12 01  6.0000000  0  8       0.000000000000
G07  25344189.815 9 133184570.325 9      2170.403 9        54.132 9  25344190.483 6         0.000 6      1691.224 6        37.977 6
G10  23805155.422 9 125096881.473 9      3545.915 9        54.671 9  23805159.144 6         0.000 6      2763.053 6        37.977 6
G21  21172548.404 9 111262472.145 9     -1267.252 9        55.709 9  21172547.690 6         0.000 6      -987.470 6        37.977 6
G29  24303975.291 9 127718195.725 9     -3148.530 9        54.473 9  24303976.870 6         0.000 6     -2453.402 6        37.977 6
G27  22001327.723 9 115617730.562 9      2513.108 9        55.376 9  22001329.655 6         0.000 6      1958.267 6        37.977 6
G16  20496412.396 9 107709353.809 9       561.240 9        55.977 9  20496411.570 6         0.000 6       437.330 6        37.977 6
G26  20656343.799 9 108549797.023 9     -1471.993 9        55.872 9  20656346.616 6         0.000 6     -1147.008 6        37.977 6
G20  21940886.192 9 115300102.083 9      2566.414 9        55.317 9  21940886.512 6         0.000 6      1999.804 6        37.977 6
> 2019 07 03 12 01  7.0000000  0  8       0.000000000000
G07  25343776.846 9 133182400.161 9      2169.941 9        54.133 9  25343777.514 6         0.000 6      1690.864 6        37.977 6
G10  23804480.669 9 125093335.632 9      3545.781 9        54.671 9  23804484.391 6         0.000 6      2762.949 6        37.977 6
G21  21172789.589 9 111263739.582 9     -1267.622 9        55.708 9  21172788.875 6         0.000 6      -987.758 6        37.977 6
G29  24304574.443 9 127721344.281 9     -3148.607 9        54.473 9  24304576.022 6         0.000 6     -2453.463 6        37.977 6
G27  22000849.519 9 115615217.584 9      2512.859 9        55.376 9  22000851.451 6         0.000 6      1958.072 6        37.977 6
G16  20496305.655 9 107708792.878 9       560.626 9        55.977 9  20496304.828 6         0.000 6       436.851 6        37.977 6
G26  20656623.963 9 108551269.296 9     -1472.559 9        55.872 9  20656626.780 6         0.000 6     -1147.449 6        37.977 6
G20  21940397.861 9 115297535.892 9      2565.970 9        55.317 9  21940398.181 6         0.000 6      1999.458 6        37.977 6
> 2019 07 03 12 01  8.0000000  0  8       0.000000000000
G07  25343363.963 9 133180230.453 9      2169.482 9        54.133 9  25343364.631 6         0.000 6      1690.506 6        37.977 6
G10  23803805.942 9 125089789.929 9      3545.645 9        54.671 9  23803809.663 6         0.000 6      2762.843 6        37.977 6
G21  21173030.845 9 111265007.386 9     -1267.994 9        55.708 9  21173030.131 6         0.000 6      -988.048 6        37.977 6
G29  24305173.611 9 127724492.919 9     -3148.690 9        54.473 9  24305175.191 6         0.000 6     -2453.527 6        37.977 6
G27  22000371.361 9 115612704.849 9      2512.613 9        55.376 9  22000373.292 6         0.000 6      1957.881 6        37.977 6
G16  20496199.029 9 107708232.555 9       560.013 9        55.977 9  20496198.202 6         0.000 6       436.374 6        37.977 6
G26  20656904.235 9 108552742.133 9     -1473.126 9        55.872 9  20656907.052 6         0.000 6     -1147.891 6        37.977 6
G20  21939909.616 9 115294970.147 9      2565.523 9        55.317 9  21939909.935 6         0.000 6      1999.110 6        37.977 6
> 2019 07 03 12 01  9.0000000  0  8       0.000000000000
G07  25342951.159 9 133178061.155 9      2169.192 9        54.133 9  25342951.827 6         0.000 6      1690.281 6        37.977 6
G10  23803131.250 9 125086244.412 9      3545.338 9        54.672 9  23803134.971 6         0.000 6      2762.604 6        37.977 6
G21  21173272.170 9 111266275.560 9     -1268.339 9        55.708 9  21173271.456 6         0.000 6      -988.317 6        37.977 6
G29  24305772.796 9 127727641.646 9     -3148.775 9        54.473 9  24305774.376 6         0.000 6     -2453.594 6        37.977 6
G27  21999893.247 9 115610192.347 9      2512.408 9        55.376 9  21999895.179 6         0.000 6      1957.721 6        37.977 6
G16  20496092.520 9 107707672.845 9       559.412 9        55.977 9  20496091.693 6         0.000 6       435.905 6        37.977 6
G26  20657184.620 9 108554215.563 9     -1473.772 9        55.872 9  20657187.437 6         0.000 6     -1148.394 6        37.977 6
G20  21939421.462 9 115292404.888 9      2564.960 9        55.317 9  21939421.781 6         0.000 6      1998.672 6        37.977 6
> 2019 07 03 12 01 10.0000000  0  8       0.000000000000
G07  25342538.373 9 133175891.953 9      2169.220 9        54.133 9  25342539.040 6         0.000 6      1690.302 6        37.977 6
G10  23802456.654 9 125082699.396 9      3544.714 9        54.672 9  23802460.374 6         0.000 6      2762.118 6        37.977 6
G21  21173513.555 9 111267544.047 9     -1268.634 9        55.708 9  21173512.842 6         0.000 6      -988.546 6        37.977 6
G29  24306371.997 9 127730790.456 9     -3148.867 9        54.473 9  24306373.578 6         0.000 6     -2453.665 6        37.977 6
G27  21999415.164 9 115607680.005 9      2512.283 9        55.376 9  21999417.095 6         0.000 6      1957.624 6        37.977 6
G16  20495986.122 9 107707113.721 9       558.836 9        55.977 9  20495985.295 6         0.000 6       435.456 6        37.977 6
G26  20657465.145 9 108555689.730 9     -1474.565 9        55.872 9  20657467.962 6         0.000 6     -1149.012 6        37.977 6
G20  21938933.440 9 115289840.320 9      2564.183 9        55.318 9  21938933.759 6         0.000 6      1998.066 6        37.977 6
> 2019 07 03 12 01 11.0000000  0  8       0.000000000000
G07  25342125.747 9 133173723.592 9      2166.481 9        54.133 9  25342126.414 6         0.000 6      1688.168 6        37.977 6
G10  23801782.076 9 125079154.472 9      3545.659 9        54.672 9  23801785.795 6         0.000 6      2762.854 6        37.977 6
G21  21173754.846 9 111268812.038 9     -1266.060 9        55.708 9  21173754.132 6         0.000 6      -986.541 6        37.977 6
G29  24306970.784 9 127733937.095 9     -3140.903 9        54.472 9  24306972.366 6         0.000 6     -2447.460 6        37.977 6
G27  21998937.430 9 115605169.496 9      2506.158 9        55.377 9  21998939.360 6         0.000 6      1952.851 6        37.977 6
G16  20495879.990 9 107706555.993 9       555.373 9        55.977 9  20495879.163 6         0.000 6       432.758 6        37.977 6
G26  20657745.879 9 108557164.994 9     -1476.591 9        55.872 9  20657748.696 6         0.000 6     -1150.591 6        37.977 6
G20  21938445.375 9 115287275.524 9      2566.766 9        55.318 9  21938445.693 6         0.000 6      2000.079 6        37.977 6
> 2019 07 03 12 01 12.0000000  0  8       0.000000000000
G07  25341713.528 9 133171557.373 9      2167.231 9        54.133 9  25341714.196 6         0.000 6      1688.752 6        37.977 6
G10  23801107.550 9 125075609.826 9      3542.489 9        54.672 9  23801111.269 6         0.000 6      2760.383 6        37.977 6
G21  21173995.306 9 111270075.659 9     -1261.277 9        55.708 9  21173994.592 6         0.000 6      -982.813 6        37.977 6
G29  24307567.270 9 127737071.642 9     -3128.937 9        54.472 9  24307568.853 6         0.000 6     -2438.135 6        37.977 6
G27  21998461.356 9 115602667.718 9      2498.182 9        55.377 9  21998463.287 6         0.000 6      1946.636 6        37.977 6
G16  20495774.773 9 107706003.078 9       550.783 9        55.977 9  20495773.946 6         0.000 6       429.181 6        37.977 6
G26  20658027.301 9 108558643.877 9     -1481.551 9        55.872 9  20658030.119 6         0.000 6     -1154.456 6        37.977 6
G20  21937956.750 9 115284707.787 9      2567.727 9        55.318 9  21937957.068 6         0.000 6      2000.827 6        37.977 6
> 2019 07 03 12 01 13.0000000  0  8       0.000000000000
G07  25341300.270 9 133169385.689 9      2176.796 9        54.133 9  25341300.937 6         0.000 6      1696.206 6        37.977 6
G10  23800434.471 9 125072072.782 9      3531.205 9        54.673 9  23800438.189 6         0.000 6      2751.591 6        37.977 6
G21  21174234.868 9 111271334.567 9     -1257.097 9        55.708 9  21174234.154 6         0.000 6      -979.556 6        37.977 6
G29  24308161.868 9 127740196.261 9     -3121.927 9        54.472 9  24308163.451 6         0.000 6     -2432.673 6        37.977 6
G27  21997986.333 9 115600171.457 9      2495.562 9        55.377 9  21997988.264 6         0.000 6      1944.595 6        37.977 6
G16  20495670.242 9 107705453.759 9       548.433 9        55.977 9  20495669.415 6         0.000 6       427.350 6        37.977 6
G26  20658309.970 9 108560129.314 9     -1489.131 9        55.871 9  20658312.788 6         0.000 6     -1160.363 6        37.977 6
G20  21937468.620 9 115282142.649 9      2561.820 9        55.318 9  21937468.937 6         0.000 6      1996.225 6        37.977 6
> 2019 07 03 12 01 14.0000000  0  8       0.000000000000
G07  25340885.682 9 133167207.017 9      2179.612 9        54.134 9  25340886.349 6         0.000 6      1698.400 6        37.977 6
G10  23799762.930 9 125068543.822 9      3527.711 9        54.673 9  23799766.647 6         0.000 6      2748.868 6        37.977 6
G21  21174474.033 9 111272591.387 9     -1256.760 9        55.708 9  21174473.319 6         0.000 6      -979.293 6        37.977 6
G29  24308755.904 9 127743317.935 9     -3121.603 9        54.472 9  24308757.488 6         0.000 6     -2432.420 6        37.977 6
G27  21997511.409 9 115597675.718 9      2495.813 9        55.377 9  21997513.340 6         0.000 6      1944.790 6        37.977 6
G16  20495565.930 9 107704905.598 9       547.888 9        55.977 9  20495565.103 6         0.000 6       426.926 6        37.977 6
G26  20658593.606 9 108561619.827 9     -1491.395 9        55.871 9  20658596.424 6         0.000 6     -1162.126 6        37.977 6
G20  21936981.425 9 115279582.429 9      2559.237 9        55.318 9  21936981.743 6         0.000 6      1994.212 6        37.977 6
> 2019 07 03 12 01 15.0000000  0  8       0.000000000000
G07  25340470.907 9 133165027.362 9      2179.551 9        54.134 9  25340471.573 6         0.000 6      1698.352 6        37.977 6
G10  23799091.696 9 125065016.476 9      3527.158 9        54.673 9  23799095.413 6         0.000 6      2748.437 6        37.977 6
G21  21174713.209 9 111273848.264 9     -1257.022 9        55.708 9  21174712.495 6         0.000 6      -979.498 6        37.977 6
G29  24309349.926 9 127746439.527 9     -3121.604 9        54.471 9  24309351.510 6         0.000 6     -2432.421 6        37.977 6
G27  21997036.488 9 115595179.991 9      2495.612 9        55.377 9  21997038.418 6         0.000 6      1944.634 6        37.977 6
G16  20495461.728 9 107704358.015 9       547.268 9        55.977 9  20495460.901 6         0.000 6       426.442 6        37.977 6
G26  20658877.491 9 108563111.653 9     -1492.187 9        55.871 9  20658880.309 6         0.000 6     -1162.743 6        37.977 6
G20  21936494.495 9 115277023.599 9      2558.537 9        55.319 9  21936494.812 6         0.000 6      1993.667 6        37.977 6
> 2019 07 03 12 01 16.0000000  0  8       0.000000000000
G07  25340056.193 9 133162848.031 9      2179.106 9        54.134 9  25340056.859 6         0.000 6      1698.005 6        37.977 6
G10  23798420.517 9 125061489.416 9      3526.996 9        54.673 9  23798424.233 6         0.000 6      2748.311 6        37.977 6
G21  21174952.443 9 111275105.450 9     -1257.354 9        55.708 9  21174951.730 6         0.000 6      -979.757 6        37.977 6
G29  24309943.950 9 127749561.135 9     -3121.633 9        54.471 9  24309945.534 6         0.000 6     -2432.444 6        37.977 6
G27  21996561.614 9 115592684.515 9      2495.342 9        55.377 9  21996563.544 6         0.000 6      1944.423 6        37.977 6
G16  20495357.647 9 107703811.063 9       546.635 9        55.977 9  20495356.820 6         0.000 6       425.949 6        37.977 6
G26  20659161.502 9 108564604.139 9     -1492.784 9        55.871 9  20659164.321 6         0.000 6     -1163.209 6        37.977 6
G20  21936007.664 9 115274465.291 9      2558.094 9        55.319 9  21936007.981 6         0.000 6      1993.321 6        37.977 6
> 2019 07 03 12 01 17.0000000  0  8       0.000000000000
G07  25339641.567 9 133160669.159 9      2178.635 9        54.134 9  25339642.233 6         0.000 6      1697.638 6        37.977 6
G10  23797749.366 9 125057962.503 9      3526.862 9        54.674 9  23797753.081 6         0.000 6      2748.207 6        37.977 6
G21  21175191.743 9 111276362.978 9     -1257.700 9        55.707 9  21175191.030 6         0.000 6      -980.026 6        37.977 6
G29  24310537.982 9 127752682.784 9     -3121.681 9        54.471 9  24310539.567 6         0.000 6     -2432.481 6        37.977 6
G27  21996086.791 9 115590189.306 9      2495.078 9        55.378 9  21996088.721 6         0.000 6      1944.218 6        37.977 6
G16  20495253.686 9 107703264.744 9       546.006 9        55.977 9  20495252.859 6         0.000 6       425.459 6        37.977 6
G26  20659445.626 9 108566097.216 9     -1493.364 9        55.871 9  20659448.444 6         0.000 6     -1163.661 6        37.977 6
G20  21935520.917 9 115271907.422 9      2557.664 9        55.319 9  21935521.234 6         0.000 6      1992.986 6        37.977 6
> 2019 07 03 12 01 18.0000000  0  8       0.000000000000
G07  25339227.032 9 133158490.766 9      2178.166 9        54.134 9  25339227.698 6         0.000 6      1697.273 6        37.977 6
G10  23797078.238 9 125054435.714 9      3526.728 9        54.674 9  23797081.953 6         0.000 6      2748.102 6        37.977 6
G21  21175431.109 9 111277620.851 9     -1258.054 9        55.707 9  21175430.395 6         0.000 6      -980.302 6        37.977 6
G29  24311132.023 9 127755804.481 9     -3121.745 9        54.471 9  24311133.609 6         0.000 6     -2432.531 6        37.977 6
G27  21995612.018 9 115587694.360 9      2494.824 9        55.378 9  21995613.948 6         0.000 6      1944.020 6        37.977 6
G16  20495149.844 9 107702719.050 9       545.380 9        55.977 9  20495149.017 6         0.000 6       424.972 6        37.977 6
G26  20659729.858 9 108567590.865 9     -1493.942 9        55.871 9  20659732.677 6         0.000 6     -1164.111 6        37.977 6
G20  21935034.251 9 115269349.976 9      2557.227 9        55.319 9  21935034.567 6         0.000 6      1992.646 6        37.977 6
> 2019 07 03 12 01 19.0000000  0  8       0.000000000000
G07  25338812.585 9 133156312.839 9      2177.697 9        54.134 9  25338813.251 6         0.000 6      1696.908 6        37.977 6
G10  23796407.137 9 125050909.062 9      3526.594 9        54.674 9  23796410.851 6         0.000 6      2747.998 6        37.977 6
G21  21175670.542 9 111278879.080 9     -1258.407 9        55.707 9  21175669.828 6         0.000 6      -980.577 6        37.977 6
G29  24311726.077 9 127758926.248 9     -3121.810 9        54.471 9  24311727.664 6         0.000 6     -2432.582 6        37.977 6
G27  21995137.293 9 115585199.664 9      2494.570 9        55.378 9  21995139.222 6         0.000 6      1943.821 6        37.977 6
G16  20495046.120 9 107702173.981 9       544.755 9        55.977 9  20495045.294 6         0.000 6       424.484 6        37.977 6
G26  20660014.200 9 108569085.092 9     -1494.520 9        55.871 9  20660017.019 6         0.000 6     -1164.562 6        37.977 6
G20  21934547.668 9 115266792.969 9      2556.791 9        55.319 9  21934547.984 6         0.000 6      1992.306 6        37.977 6
> 2019 07 03 12 01 20.0000000  0  8       0.000000000000
G07  25338398.227 9 133154135.376 9      2177.234 9        54.134 9  25338398.893 6         0.000 6      1696.547 6        37.977 6
G10  23795736.062 9 125047382.549 9      3526.457 9        54.674 9  23795739.775 6         0.000 6      2747.891 6        37.977 6
G21  21175910.043 9 111280137.666 9     -1258.765 9        55.707 9  21175909.329 6         0.000 6      -980.856 6        37.977 6
G29  24312320.146 9 127762048.090 9     -3121.890 9        54.470 9  24312321.733 6         0.000 6     -2432.644 6        37.977 6
G27  21994662.614 9 115582705.216 9      2494.329 9        55.378 9  21994664.544 6         0.000 6      1943.633 6        37.977 6
G16  20494942.516 9 107701629.534 9       544.137 9        55.978 9  20494941.689 6         0.000 6       424.003 6        37.977 6
G26  20660298.653 9 108570579.898 9     -1495.094 9        55.871 9  20660301.471 6         0.000 6     -1165.009 6        37.977 6
G20  21934061.169 9 115264236.405 9      2556.349 9        55.319 9  21934061.484 6         0.000 6      1991.962 6        37.977 6
> 2019 07 03 12 01 21.0000000  0  8       0.000000000000
G07  25337983.959 9 133151958.386 9      2176.770 9        54.135 9  25337984.624 6         0.000 6      1696.185 6        37.977 6
G10  23795065.011 9 125043856.166 9      3526.320 9        54.675 9  23795068.724 6         0.000 6      2747.784 6        37.977 6
G21  21176149.612 9 111281396.610 9     -1259.123 9        55.707 9  21176148.899 6         0.000 6      -981.135 6        37.977 6
G29  24312914.228 9 127765170.003 9     -3121.969 9        54.470 9  24312915.816 6         0.000 6     -2432.706 6        37.977 6
G27  21994187.984 9 115580211.019 9      2494.087 9        55.378 9  21994189.913 6         0.000 6      1943.445 6        37.977 6
G16  20494839.030 9 107701085.713 9       543.518 9        55.978 9  20494838.203 6         0.000 6       423.521 6        37.977 6
G26  20660583.215 9 108572075.279 9     -1495.668 9        55.871 9  20660586.034 6         0.000 6     -1165.456 6        37.977 6
G20  21933574.753 9 115261680.277 9      2555.907 9        55.320 9  21933575.068 6         0.000 6      1991.617 6        37.977 6
> 2019 07 03 12 01 22.0000000  0  8       0.000000000000
G07  25337569.768 9 133149781.800 9      2176.442 9        54.135 9  25337570.433 6         0.000 6      1695.930 6        37.977 6
G10  23794393.995 9 125040329.961 9      3526.091 9        54.675 9  23794397.707 6         0.000 6      2747.606 6        37.977 6
G21  21176389.257 9 111282655.950 9     -1259.583 9        55.707 9  21176388.543 6         0.000 6      -981.493 6        37.977 6
G29  24313508.348 9 127768292.113 9     -3122.350 9        54.470 9  24313509.937 6         0.000 6     -2433.002 6        37.977 6
G27  21993713.382 9 115577716.970 9      2494.077 9        55.379 9  21993715.311 6         0.000 6      1943.437 6        37.977 6
G16  20494735.653 9 107700542.464 9       543.009 9        55.978 9  20494734.826 6         0.000 6       423.124 6        37.977 6
G26  20660867.884 9 108573571.223 9     -1496.213 9        55.870 9  20660870.703 6         0.000 6     -1165.880 6        37.977 6
G20  21933088.433 9 115259124.652 9      2555.317 9        55.320 9  21933088.748 6         0.000 6      1991.157 6        37.977 6
> 2019 07 03 12 01 23.0000000  0  8       0.000000000000
G07  25337155.649 9 133147605.597 9      2176.886 9        54.135 9  25337156.314 6         0.000 6      1696.275 6        37.977 6
G10  23793723.007 9 125036803.906 9      3525.116 9        54.675 9  23793726.718 6         0.000 6      2746.846 6        37.977 6
G21  21176629.000 9 111283915.810 9     -1259.999 9        55.707 9  21176628.287 6         0.000 6      -981.818 6        37.977 6
G29  24314102.566 9 127771414.740 9     -3122.926 9        54.470 9  24314104.155 6         0.000 6     -2433.451 6        37.977 6
G27  21993238.766 9 115575222.851 9      2494.373 9        55.379 9  21993240.695 6         0.000 6      1943.668 6        37.977 6
G16  20494632.364 9 107699999.677 9       542.612 9        55.978 9  20494631.537 6         0.000 6       422.815 6        37.977 6
G26  20661152.642 9 108575067.636 9     -1497.064 9        55.870 9  20661155.461 6         0.000 6     -1166.544 6        37.977 6
G20  21932602.222 9 115256569.600 9      2554.170 9        55.320 9  21932602.537 6         0.000 6      1990.263 6        37.977 6
> 2019 07 03 12 01 24.0000000  0  8       0.000000000000
G07  25336740.173 9 133145422.259 9      2190.343 9        54.135 9  25336740.838 6         0.000 6      1706.761 6        37.977 6
G10  23793053.450 9 125033285.372 9      3511.596 9        54.675 9  23793057.161 6         0.000 6      2736.312 6        37.977 6
G21  21176868.713 9 111285175.509 9     -1259.759 9        55.707 9  21176868.000 6         0.000 6      -981.630 6        37.977 6
G29  24314697.128 9 127774539.174 9     -3127.061 9        54.470 9  24314698.718 6         0.000 6     -2436.673 6        37.977 6
G27  21992763.643 9 115572726.066 9      2500.062 9        55.379 9  21992765.572 6         0.000 6      1948.101 6        37.977 6
G16  20494528.994 9 107699456.462 9       544.227 9        55.978 9  20494528.167 6         0.000 6       424.073 6        37.977 6
G26  20661438.098 9 108576567.715 9     -1503.003 9        55.870 9  20661440.917 6         0.000 6     -1171.172 6        37.977 6
G20  21932117.132 9 115254020.443 9      2543.588 9        55.320 9  21932117.447 6         0.000 6      1982.018 6        37.977 6
> 2019 07 03 12 01 25.0000000  0  8       0.000000000000
G07  25336322.025 9 133143224.877 9      2204.399 9        54.135 9  25336322.689 6         0.000 6      1717.714 6        37.977 6
G10  23792386.481 9 125029780.435 9      3498.530 9        54.676 9  23792390.191 6         0.000 6      2726.130 6        37.977 6
G21  21177108.626 9 111286436.259 9     -1262.307 9        55.707 9  21177107.913 6         0.000 6      -983.616 6        37.977 6
G29  24315293.118 9 127777671.110 9     -3138.176 9        54.469 9  24315294.708 6         0.000 6     -2445.335 6        37.977 6
G27  21992286.987 9 115570221.222 9      2510.514 9        55.379 9  21992288.915 6         0.000 6      1956.245 6        37.977 6
G16  20494425.094 9 107698910.464 9       548.216 9        55.978 9  20494424.267 6         0.000 6       427.181 6        37.977 6
G26  20661724.534 9 108578072.945 9     -1507.023 9        55.870 9  20661727.353 6         0.000 6     -1174.304 6        37.977 6
G20  21931634.250 9 115251482.881 9      2531.313 9        55.320 9  21931634.564 6         0.000 6      1972.453 6        37.977 6
> 2019 07 03 12 01 26.0000000  0  8       0.000000000000
G07  25335901.483 9 133141014.918 9      2212.186 9        54.135 9  25335902.147 6         0.000 6      1723.782 6        37.977 6
G10  23791721.637 9 125026286.667 9      3491.821 9        54.676 9  23791725.346 6         0.000 6      2720.902 6        37.977 6
G21  21177349.281 9 111287700.909 9     -1266.017 9        55.707 9  21177348.568 6         0.000 6      -986.507 6        37.977 6
G29  24315891.735 9 127780816.854 9     -3149.632 9        54.469 9  24315893.326 6         0.000 6     -2454.262 6        37.977 6
G27  21991808.067 9 115567704.483 9      2519.733 9        55.379 9  21991809.995 6         0.000 6      1963.429 6        37.977 6
G16  20494320.280 9 107698359.662 9       551.928 9        55.978 9  20494319.453 6         0.000 6       430.074 6        37.977 6
G26  20662011.437 9 108579580.630 9     -1507.937 9        55.870 9  20662014.256 6         0.000 6     -1175.016 6        37.977 6
G20  21931153.607 9 115248957.090 9      2523.210 9        55.321 9  21931153.921 6         0.000 6      1966.138 6        37.977 6
> 2019 07 03 12 01 27.0000000  0  8       0.000000000000
G07  25335480.452 9 133138802.390 9      2212.591 9        54.135 9  25335481.116 6         0.000 6      1724.098 6        37.977 6
G10  23791057.258 9 125022795.344 9      3491.057 9        54.676 9  23791060.967 6         0.000 6      2720.307 6        37.977 6
G21  21177590.298 9 111288967.462 9     -1266.899 9        55.706 9  21177589.585 6         0.000 6      -987.194 6        37.977 6
G29  24316491.304 9 127783967.600 9     -3151.330 9        54.469 9  24316492.896 6         0.000 6     -2455.584 6        37.977 6
G27  21991328.440 9 115565184.028 9      2520.759 9        55.380 9  21991330.368 6         0.000 6      1964.229 6        37.977 6
G16  20494215.236 9 107697807.655 9       551.895 9        55.978 9  20494214.409 6         0.000 6       430.048 6        37.977 6
G26  20662298.432 9 108581088.795 9     -1508.423 9        55.870 9  20662301.251 6         0.000 6     -1175.395 6        37.977 6
G20  21930673.610 9 115246434.697 9      2521.889 9        55.321 9  21930673.924 6         0.000 6      1965.109 6        37.977 6
> 2019 07 03 12 01 28.0000000  0  8       0.000000000000
G07  25335059.438 9 133136589.952 9      2212.265 9        54.136 9  25335060.102 6         0.000 6      1723.844 6        37.977 6
G10  23790392.957 9 125019304.430 9      3490.810 9        54.676 9  23790396.665 6         0.000 6      2720.114 6        37.977 6
G21  21177831.422 9 111290234.575 9     -1267.307 9        55.706 9  21177830.709 6         0.000 6      -987.512 6        37.977 6
G29  24317091.013 9 127787119.081 9     -3151.591 9        54.469 9  24317092.605 6         0.000 6     -2455.787 6        37.977 6
G27  21990848.760 9 115562663.296 9      2520.662 9        55.380 9  21990850.688 6         0.000 6      1964.153 6        37.977 6
G16  20494110.265 9 107697256.029 9       551.332 9        55.978 9  20494109.438 6         0.000 6       429.610 6        37.977 6
G26  20662585.531 9 108582597.510 9     -1509.017 9        55.870 9  20662588.351 6         0.000 6     -1175.858 6        37.977 6
G20  21930193.767 9 115243913.109 9      2521.326 9        55.321 9  21930194.081 6         0.000 6      1964.671 6        37.977 6
> 2019 07 03 12 01 29.0000000  0  8       0.000000000000
G07  25334638.499 9 133134377.902 9      2211.848 9        54.136 9  25334639.162 6         0.000 6      1723.519 6        37.977 6
G10  23789728.694 9 125015813.717 9      3490.631 9        54.677 9  23789732.402 6         0.000 6      2719.975 6        37.977 6
G21  21178072.617 9 111291502.061 9     -1267.666 9        55.706 9  21178071.904 6         0.000 6      -987.792 6        37.977 6
G29  24317690.751 9 127790270.716 9     -3151.698 9        54.469 9  24317692.344 6         0.000 6     -2455.871 6        37.977 6
G27  21990369.115 9 115560142.748 9      2520.442 9        55.380 9  21990371.043 6         0.000 6      1963.982 6        37.977 6
G16  20494005.409 9 107696705.007 9       550.713 9        55.978 9  20494004.582 6         0.000 6       429.127 6        37.977 6
G26  20662872.744 9 108584106.824 9     -1509.615 9        55.870 9  20662875.564 6         0.000 6     -1176.324 6        37.977 6
G20  21929714.019 9 115241392.021 9      2520.854 9        55.321 9  21929714.333 6         0.000 6      1964.303 6        37.977 6
> 2019 07 03 12 01 30.0000000  0  8       0.000000000000
G07  25334217.640 9 133132166.279 9      2211.409 9        54.136 9  25334218.303 6         0.000 6      1723.177 6        37.977 6
G10  23789064.465 9 125012323.176 9      3490.472 9        54.677 9  23789068.171 6         0.000 6      2719.851 6        37.977 6
G21  21178313.880 9 111292769.907 9     -1268.022 9        55.706 9  21178313.167 6         0.000 6      -988.069 6        37.977 6
G29  24318290.507 9 127793422.448 9     -3151.792 9        54.468 9  24318292.101 6         0.000 6     -2455.944 6        37.977 6
G27  21989889.514 9 115557622.429 9      2520.209 9        55.380 9  21989891.441 6         0.000 6      1963.800 6        37.977 6
G16  20493900.672 9 107696154.611 9       550.089 9        55.978 9  20493899.845 6         0.000 6       428.641 6        37.977 6
G26  20663160.071 9 108585616.736 9     -1510.207 9        55.869 9  20663162.891 6         0.000 6     -1176.785 6        37.977 6
G20  21929234.360 9 115238871.400 9      2520.399 9        55.321 9  21929234.673 6         0.000 6      1963.948 6        37.977 6
> 2019 07 03 12 01 31.0000000  0  8       0.000000000000
G07  25333796.865 9 133129955.094 9      2210.965 9        54.136 9  25333797.528 6         0.000 6      1722.831 6        37.977 6
G10  23788400.265 9 125008832.794 9      3490.317 9        54.677 9  23788403.971 6         0.000 6      2719.730 6        37.977 6
G21  21178555.210 9 111294038.108 9     -1268.379 9        55.706 9  21178554.497 6         0.000 6      -988.348 6        37.977 6
G29  24318890.282 9 127796574.274 9     -3151.881 9        54.468 9  24318891.876 6         0.000 6     -2456.014 6        37.977 6
G27  21989409.957 9 115555102.343 9      2519.969 9        55.380 9  21989411.884 6         0.000 6      1963.613 6        37.977 6
G16  20493796.054 9 107695604.838 9       549.459 9        55.978 9  20493795.227 6         0.000 6       428.150 6        37.977 6
G26  20663447.511 9 108587127.241 9     -1510.801 9        55.869 9  20663450.331 6         0.000 6     -1177.248 6        37.977 6
G20  21928754.788 9 115236351.234 9      2519.946 9        55.322 9  21928755.100 6         0.000 6      1963.596 6        37.977 6
> 2019 07 03 12 01 32.0000000  0  8       0.000000000000
G07  25333376.175 9 133127744.356 9      2210.511 9        54.136 9  25333376.838 6         0.000 6      1722.477 6        37.977 6
G10  23787736.094 9 125005342.563 9      3490.172 9        54.677 9  23787739.800 6         0.000 6      2719.617 6        37.977 6
G21  21178796.609 9 111295306.664 9     -1268.736 9        55.706 9  21178795.896 6         0.000 6      -988.626 6        37.977 6
G29  24319490.073 9 127799726.190 9     -3151.971 9        54.468 9  24319491.668 6         0.000 6     -2456.084 6        37.977 6
G27  21988930.445 9 115552582.496 9      2519.730 9        55.380 9  21988932.372 6         0.000 6      1963.426 6        37.977 6
G16  20493691.555 9 107695055.693 9       548.832 9        55.978 9  20493690.728 6         0.000 6       427.661 6        37.977 6
G26  20663735.063 9 108588638.334 9     -1511.387 9        55.869 9  20663737.883 6         0.000 6     -1177.704 6        37.977 6
G20  21928275.300 9 115233831.516 9      2519.502 9        55.322 9  21928275.613 6         0.000 6      1963.249 6        37.977 6
> 2019 07 03 12 01 33.0000000  0  8       0.000000000000
G07  25332955.571 9 133125534.072 9      2210.060 9        54.136 9  25332956.234 6         0.000 6      1722.126 6        37.977 6
G10  23787071.951 9 125001852.476 9      3490.025 9        54.678 9  23787075.655 6         0.000 6      2719.502 6        37.977 6
G21  21179038.075 9 111296575.577 9     -1269.096 9        55.706 9  21179037.362 6         0.000 6      -988.906 6        37.977 6
G29  24320089.883 9 127802878.200 9     -3152.066 9        54.468 9  24320091.478 6         0.000 6     -2456.158 6        37.977 6
G27  21988450.978 9 115550062.883 9      2519.494 9        55.381 9  21988452.905 6         0.000 6      1963.243 6        37.977 6
G16  20493587.175 9 107694507.170 9       548.206 9        55.978 9  20493586.348 6         0.000 6       427.173 6        37.977 6
G26  20664022.725 9 108590150.008 9     -1511.973 9        55.869 9  20664025.545 6         0.000 6     -1178.161 6        37.977 6
G20  21927795.898 9 115231312.242 9      2519.054 9        55.322 9  21927796.210 6         0.000 6      1962.900 6        37.977 6
> 2019 07 03 12 01 34.0000000  0  8       0.000000000000
G07  25332535.054 9 133123324.243 9      2209.607 9        54.136 9  25332535.716 6         0.000 6      1721.772 6        37.977 6
G10  23786407.835 9 124998362.536 9      3489.879 9        54.678 9  23786411.539 6         0.000 6      2719.389 6        37.977 6
G21  21179279.610 9 111297844.854 9     -1269.452 9        55.706 9  21179278.898 6         0.000 6      -989.184 6        37.977 6
G29  24320689.710 9 127806030.300 9     -3152.155 9        54.467 9  24320691.306 6         0.000 6     -2456.228 6        37.977 6
G27  21987971.558 9 115547543.514 9      2519.254 9        55.381 9  21987973.485 6         0.000 6      1963.056 6        37.977 6
G16  20493482.915 9 107693959.281 9       547.579 9        55.978 9  20493482.088 6         0.000 6       426.685 6        37.977 6
G26  20664310.501 9 108591662.276 9     -1512.559 9        55.869 9  20664313.321 6         0.000 6     -1178.618 6        37.977 6
G20  21927316.581 9 115228793.418 9      2518.609 9        55.322 9  21927316.892 6         0.000 6      1962.553 6        37.977 6
> 2019 07 03 12 01 35.0000000  0  8       0.000000000000
G07  25332114.623 9 133121114.870 9      2209.146 9        54.137 9  25332115.286 6         0.000 6      1721.414 6        37.977 6
G10  23785743.746 9 124994872.736 9      3489.740 9        54.678 9  23785747.450 6         0.000 6      2719.281 6        37.977 6
G21  21179521.213 9 111299114.485 9     -1269.811 9        55.706 9  21179520.501 6         0.000 6      -989.463 6        37.977 6
G29  24321289.553 9 127809182.491 9     -3152.246 9        54.467 9  24321291.150 6         0.000 6     -2456.298 6        37.977 6
G27  21987492.182 9 115545024.383 9      2519.013 9        55.381 9  21987494.109 6         0.000 6      1962.868 6        37.977 6
G16  20493378.774 9 107693412.016 9       546.951 9        55.978 9  20493377.947 6         0.000 6       426.195 6        37.977 6
G26  20664598.387 9 108593175.125 9     -1513.142 9        55.869 9  20664601.207 6         0.000 6     -1179.072 6        37.977 6
G20  21926837.347 9 115226275.034 9      2518.167 9        55.322 9  21926837.659 6         0.000 6      1962.209 6        37.977 6
> 2019 07 03 12 01 36.0000000  0  8       0.000000000000
G07  25331694.284 9 133118905.972 9      2208.600 9        54.137 9  25331694.945 6         0.000 6      1720.988 6        37.977 6
G10  23785079.681 9 124991383.062 9      3489.688 9        54.678 9  23785083.384 6         0.000 6      2719.240 6        37.977 6
G21  21179762.885 9 111300384.476 9     -1270.182 9        55.706 9  21179762.172 6         0.000 6      -989.752 6        37.977 6
G29  24321889.414 9 127812334.768 9     -3152.335 9        54.467 9  24321891.011 6         0.000 6     -2456.368 6        37.977 6
G27  21987012.854 9 115542505.499 9      2518.752 9        55.381 9  21987014.781 6         0.000 6      1962.665 6        37.977 6
G16  20493274.753 9 107692865.383 9       546.319 9        55.978 9  20493273.926 6         0.000 6       425.703 6        37.977 6
G26  20664886.382 9 108594688.551 9     -1513.683 9        55.869 9  20664889.203 6         0.000 6     -1179.494 6        37.977 6
G20  21926358.196 9 115223757.081 9      2517.785 9        55.323 9  21926358.507 6         0.000 6      1961.912 6        37.977 6
> 2019 07 03 12 01 37.0000000  0  8       0.000000000000
G07  25331274.084 9 133116697.812 9      2207.521 9        54.137 9  25331274.745 6         0.000 6      1720.147 6        37.977 6
G10  23784415.591 9 124987893.252 9      3490.090 9        54.678 9  23784419.293 6         0.000 6      2719.553 6        37.977 6
G21  21180004.631 9 111301654.862 9     -1270.429 9        55.705 9  21180003.919 6         0.000 6      -989.944 6        37.977 6
G29  24322489.287 9 127815487.113 9     -3151.902 9        54.467 9  24322490.885 6         0.000 6     -2456.030 6        37.977 6
G27  21986533.587 9 115539986.937 9      2518.018 9        55.381 9  21986535.514 6         0.000 6      1962.093 6        37.977 6
G16  20493170.856 9 107692319.402 9       545.474 9        55.978 9  20493170.029 6         0.000 6       425.044 6        37.977 6
G26  20665174.465 9 108596202.436 9     -1514.139 9        55.869 9  20665177.286 6         0.000 6     -1179.849 6        37.977 6
G20  21925879.092 9 115221239.380 9      2517.855 9        55.323 9  21925879.403 6         0.000 6      1961.966 6        37.977 6
> 2019 07 03 12 01 38.0000000  0  8       0.000000000000
G07  25330853.817 9 133114489.296 9      2209.959 9        54.137 9  25330854.478 6         0.000 6      1722.047 6        37.977 6
G10  23783751.587 9 124984403.898 9      3488.591 9        54.679 9  23783755.288 6         0.000 6      2718.385 6        37.977 6
G21  21180246.682 9 111302926.849 9     -1274.563 9        55.705 9  21180245.970 6         0.000 6      -993.166 6        37.977 6
G29  24323089.808 9 127818642.860 9     -3162.228 9        54.467 9  24323091.406 6         0.000 6     -2464.076 6        37.977 6
G27  21986053.913 9 115537466.234 9      2525.223 9        55.382 9  21986055.839 6         0.000 6      1967.707 6        37.977 6
G16  20493066.857 9 107691772.885 9       548.462 9        55.978 9  20493066.030 6         0.000 6       427.373 6        37.977 6
G26  20665462.533 9 108597716.240 9     -1512.856 9        55.868 9  20665465.354 6         0.000 6     -1178.849 6        37.977 6
G20  21925400.294 9 115218723.282 9      2513.567 9        55.323 9  21925400.605 6         0.000 6      1958.625 6        37.977 6
> 2019 07 03 12 01 39.0000000  0  8       0.000000000000
G07  25330433.405 9 133112280.023 9      2207.264 9        54.137 9  25330434.066 6         0.000 6      1719.947 6        37.977 6
G10  23783087.476 9 124980913.981 9      3492.484 9        54.679 9  23783091.176 6         0.000 6      2721.418 6        37.977 6
G21  21180489.767 9 111304204.263 9     -1280.167 9        55.705 9  21180489.054 6         0.000 6      -997.533 6        37.977 6
G29  24323692.758 9 127821811.373 9     -3174.043 9        54.466 9  24323694.357 6         0.000 6     -2473.283 6        37.977 6
G27  21985572.635 9 115534937.105 9      2532.216 9        55.382 9  21985574.561 6         0.000 6      1973.156 6        37.977 6
G16  20492962.153 9 107691222.659 9       551.647 9        55.978 9  20492961.326 6         0.000 6       429.855 6        37.977 6
G26  20665750.055 9 108599227.174 9     -1508.624 9        55.868 9  20665752.875 6         0.000 6     -1175.552 6        37.977 6
G20  21924922.182 9 115216210.791 9      2512.461 9        55.323 9  21924922.492 6         0.000 6      1957.763 6        37.977 6
> 2019 07 03 12 01 40.0000000  0  8       0.000000000000
G07  25330014.426 9 133110078.276 9      2196.631 9        54.137 9  25330015.087 6         0.000 6      1711.662 6        37.977 6
G10  23782421.767 9 124977415.669 9      3503.479 9        54.679 9  23782425.467 6         0.000 6      2729.987 6        37.977 6
G21  21180733.887 9 111305487.123 9     -1284.695 9        55.705 9  21180733.174 6         0.000 6     -1001.062 6        37.977 6
G29  24324297.514 9 127824989.382 9     -3180.091 9        54.466 9  24324299.115 6         0.000 6     -2477.996 6        37.977 6
G27  21985090.533 9 115532403.646 9      2533.543 9        55.382 9  21985092.459 6         0.000 6      1974.190 6        37.977 6
G16  20492857.047 9 107690670.321 9       552.417 9        55.978 9  20492856.220 6         0.000 6       430.455 6        37.977 6
G26  20666036.470 9 108600732.294 9     -1502.411 9        55.868 9  20666039.290 6         0.000 6     -1170.710 6        37.977 6
G20  21924443.581 9 115213695.729 9      2517.761 9        55.323 9  21924443.891 6         0.000 6      1961.893 6        37.977 6
> 2019 07 03 12 01 41.0000000  0  8       0.000000000000
G07  25329596.791 9 133107883.594 9      2193.544 9        54.137 9  25329597.452 6         0.000 6      1709.256 6        37.977 6
G10  23781754.757 9 124973910.520 9      3506.019 9        54.679 9  23781758.457 6         0.000 6      2731.966 6        37.977 6
G21  21180978.459 9 111306772.357 9     -1285.599 9        55.705 9  21180977.746 6         0.000 6     -1001.766 6        37.977 6
G29  24324902.706 9 127828169.673 9     -3180.416 9        54.466 9  24324904.306 6         0.000 6     -2478.248 6        37.977 6
G27  21984608.495 9 115529870.521 9      2532.837 9        55.382 9  21984610.421 6         0.000 6      1973.640 6        37.977 6
G16  20492751.994 9 107690118.265 9       551.714 9        55.978 9  20492751.167 6         0.000 6       429.907 6        37.977 6
G26  20666322.257 9 108602234.115 9     -1501.648 9        55.868 9  20666325.078 6         0.000 6     -1170.116 6        37.977 6
G20  21923964.296 9 115211177.073 9      2519.040 9        55.323 9  21923964.606 6         0.000 6      1962.889 6        37.977 6
> 2019 07 03 12 01 42.0000000  0  8       0.000000000000
G07  25329179.456 9 133105690.485 9      2192.789 9        54.138 9  25329180.116 6         0.000 6      1708.668 6        37.977 6
G10  23781087.558 9 124970404.373 9      3506.186 9        54.680 9  23781091.256 6         0.000 6      2732.096 6        37.977 6
G21  21181223.144 9 111308058.185 9     -1286.037 9        55.705 9  21181222.431 6         0.000 6     -1002.107 6        37.977 6
G29  24325507.932 9 127831350.150 9     -3180.553 9        54.466 9  24325509.534 6         0.000 6     -2478.355 6        37.977 6
G27  21984126.541 9 115527337.839 9      2532.553 9        55.382 9  21984128.467 6         0.000 6      1973.419 6        37.977 6
G16  20492647.066 9 107689566.865 9       551.090 9        55.979 9  20492646.239 6         0.000 6       429.421 6        37.977 6
G26  20666608.046 9 108603735.942 9     -1502.063 9        55.868 9  20666610.867 6         0.000 6     -1170.439 6        37.977 6
G20  21923484.956 9 115208658.130 9      2518.785 9        55.324 9  21923485.265 6         0.000 6      1962.691 6        37.977 6
> 2019 07 03 12 01 43.0000000  0  8       0.000000000000
G07  25328762.228 9 133103497.940 9      2192.321 9        54.138 9  25328762.888 6         0.000 6      1708.303 6        37.977 6
G10  23780420.363 9 124966898.254 9      3506.061 9        54.680 9  23780424.062 6         0.000 6      2731.998 6        37.977 6
G21  21181467.905 9 111309344.415 9     -1286.420 9        55.705 9  21181467.193 6         0.000 6     -1002.405 6        37.977 6
G29  24326113.183 9 127834530.754 9     -3180.674 9        54.465 9  24326114.785 6         0.000 6     -2478.450 6        37.977 6
G27  21983644.635 9 115524805.405 9      2532.325 9        55.383 9  21983646.560 6         0.000 6      1973.241 6        37.977 6
G16  20492542.255 9 107689016.082 9       550.478 9        55.979 9  20492541.428 6         0.000 6       428.944 6        37.977 6
G26  20666893.931 9 108605238.280 9     -1502.622 9        55.868 9  20666896.752 6         0.000 6     -1170.875 6        37.977 6
G20  21923005.689 9 115206139.568 9      2518.340 9        55.324 9  21923005.998 6         0.000 6      1962.344 6        37.977 6
> 2019 07 03 12 01 44.0000000  0  8       0.000000000000
G07  25328345.086 9 133101305.847 9      2191.875 9        54.138 9  25328345.746 6         0.000 6      1707.955 6        37.977 6
G10  23779753.196 9 124963392.278 9      3505.911 9        54.680 9  23779756.894 6         0.000 6      2731.882 6        37.977 6
G21  21181712.740 9 111310631.026 9     -1286.800 9        55.705 9  21181712.027 6         0.000 6     -1002.702 6        37.977 6
G29  24326718.456 9 127837711.472 9     -3180.788 9        54.465 9  24326720.058 6         0.000 6     -2478.538 6        37.977 6
G27  21983162.772 9 115522273.203 9      2532.093 9        55.383 9  21983164.697 6         0.000 6      1973.060 6        37.977 6
G16  20492437.562 9 107688465.917 9       549.860 9        55.979 9  20492436.735 6         0.000 6       428.463 6        37.977 6
G26  20667179.926 9 108606741.191 9     -1503.198 9        55.868 9  20667182.747 6         0.000 6     -1171.323 6        37.977 6
G20  21922526.509 9 115203621.465 9      2517.878 9        55.324 9  21922526.818 6         0.000 6      1961.984 6        37.977 6
> 2019 07 03 12 01 45.0000000  0  8       0.000000000000
G07  25327928.028 9 133099114.197 9      2191.427 9        54.138 9  25327928.688 6         0.000 6      1707.606 6        37.977 6
G10  23779086.058 9 124959886.454 9      3505.764 9        54.680 9  23779089.755 6         0.000 6      2731.767 6        37.977 6
G21  21181957.645 9 111311918.014 9     -1287.172 9        55.705 9  21181956.933 6         0.000 6     -1002.992 6        37.977 6
G29  24327323.750 9 127840892.303 9     -3180.890 9        54.465 9  24327325.353 6         0.000 6     -2478.618 6        37.977 6
G27  21982680.953 9 115519741.231 9      2531.857 9        55.383 9  21982682.878 6         0.000 6      1972.876 6        37.977 6
G16  20492332.986 9 107687916.366 9       549.244 9        55.979 9  20492332.159 6         0.000 6       427.982 6        37.977 6
G26  20667466.030 9 108608244.676 9     -1503.771 9        55.868 9  20667468.852 6         0.000 6     -1171.770 6        37.977 6
G20  21922047.416 9 115201103.822 9      2517.423 9        55.324 9  21922047.725 6         0.000 6      1961.630 6        37.977 6
> 2019 07 03 12 01 46.0000000  0  8       0.000000000000
G07  25327511.056 9 133096922.998 9      2190.978 9        54.138 9  25327511.715 6         0.000 6      1707.257 6        37.977 6
G10  23778418.947 9 124956380.774 9      3505.615 9        54.681 9  23778422.644 6         0.000 6      2731.651 6        37.977 6
G21  21182202.620 9 111313205.366 9     -1287.545 9        55.705 9  21182201.908 6         0.000 6     -1003.282 6        37.977 6
G29  24327929.061 9 127844073.225 9     -3180.987 9        54.465 9  24327930.665 6         0.000 6     -2478.694 6        37.977 6
G27  21982199.180 9 115517209.498 9      2531.615 9        55.383 9  21982201.105 6         0.000 6      1972.688 6        37.977 6
G16  20492228.527 9 107687367.430 9       548.622 9        55.979 9  20492227.700 6         0.000 6       427.498 6        37.977 6
G26  20667752.243 9 108609748.733 9     -1504.350 9        55.868 9  20667755.064 6         0.000 6     -1172.221 6        37.977 6
G20  21921568.409 9 115198586.628 9      2516.967 9        55.324 9  21921568.718 6         0.000 6      1961.274 6        37.977 6
> 2019 07 03 12 01 47.0000000  0  8       0.000000000000
G07  25327094.170 9 133094732.250 9      2190.527 9        54.138 9  25327094.829 6         0.000 6      1706.905 6        37.977 6
G10  23777751.865 9 124952875.242 9      3505.468 9        54.681 9  23777755.561 6         0.000 6      2731.536 6        37.977 6
G21  21182447.667 9 111314493.094 9     -1287.914 9        55.704 9  21182446.955 6         0.000 6     -1003.570 6        37.977 6
G29  24328534.391 9 127847254.245 9     -3181.079 9        54.465 9  24328535.995 6         0.000 6     -2478.766 6        37.977 6
G27  21981717.453 9 115514678.010 9      2531.370 9        55.383 9  21981719.378 6         0.000 6      1972.497 6        37.977 6
G16  20492124.187 9 107686819.120 9       547.999 9        55.979 9  20492123.360 6         0.000 6       427.013 6        37.977 6
G26  20668038.566 9 108611253.369 9     -1504.927 9        55.867 9  20668041.388 6         0.000 6     -1172.671 6        37.977 6
G20  21921089.489 9 115196069.890 9      2516.514 9        55.325 9  21921089.797 6         0.000 6      1960.922 6        37.977 6
> 2019 07 03 12 01 48.0000000  0  8       0.000000000000
G07  25326677.369 9 133092541.951 9      2190.075 9        54.138 9  25326678.028 6         0.000 6      1706.553 6        37.977 6
G10  23777084.811 9 124949369.859 9      3505.321 9        54.681 9  23777088.506 6         0.000 6      2731.421 6        37.977 6
G21  21182692.784 9 111315781.193 9     -1288.284 9        55.704 9  21182692.072 6         0.000 6     -1003.858 6        37.977 6
G29  24329139.740 9 127850435.363 9     -3181.172 9        54.464 9  24329141.345 6         0.000 6     -2478.838 6        37.977 6
G27  21981235.773 9 115512146.764 9      2531.125 9        55.384 9  21981237.697 6         0.000 6      1972.306 6        37.977 6
G16  20492019.966 9 107686271.432 9       547.377 9        55.979 9  20492019.139 6         0.000 6       426.527 6        37.977 6
G26  20668324.999 9 108612758.584 9     -1505.505 9        55.867 9  20668327.821 6         0.000 6     -1173.121 6        37.977 6
G20  21920610.656 9 115193553.608 9      2516.062 9        55.325 9  21920610.964 6         0.000 6      1960.569 6        37.977 6
> 2019 07 03 12 01 49.0000000  0  8       0.000000000000
G07  25326260.662 9 133090352.145 9      2189.507 9        54.139 9  25326261.321 6         0.000 6      1706.110 6        37.977 6
G10  23776417.779 9 124945864.594 9      3505.254 9        54.681 9  23776421.473 6         0.000 6      2731.369 6        37.977 6
G21  21182937.966 9 111317069.631 9     -1288.565 9        55.704 9  21182937.254 6         0.000 6     -1004.077 6        37.977 6
G29  24329745.089 9 127853616.484 9     -3181.009 9        54.464 9  24329746.695 6         0.000 6     -2478.711 6        37.977 6
G27  21980754.151 9 115509615.829 9      2530.686 9        55.384 9  21980756.076 6         0.000 6      1971.964 6        37.977 6
G16  20491915.868 9 107685724.396 9       546.664 9        55.979 9  20491915.041 6         0.000 6       425.972 6        37.977 6
G26  20668611.543 9 108614264.382 9     -1506.104 9        55.867 9  20668614.365 6         0.000 6     -1173.588 6        37.977 6
G20  21920131.900 9 115191037.732 9      2515.736 9        55.325 9  21920132.207 6         0.000 6      1960.315 6        37.977 6
> 2019 07 03 12 01 50.0000000  0  8       0.000000000000
G07  25325844.092 9 133088163.057 9      2186.533 9        54.139 9  25325844.750 6         0.000 6      1703.793 6        37.977 6
G10  23775750.735 9 124942359.264 9      3507.562 9        54.682 9  23775754.428 6         0.000 6      2733.168 6        37.977 6
G21  21183183.197 9 111318358.328 9     -1289.137 9        55.704 9  21183182.485 6         0.000 6     -1004.522 6        37.977 6
G29  24330350.386 9 127856797.330 9     -3180.572 9        54.464 9  24330351.992 6         0.000 6     -2478.371 6        37.977 6
G27  21980272.634 9 115507085.443 9      2529.504 9        55.384 9  21980274.558 6         0.000 6      1971.043 6        37.977 6
G16  20491811.915 9 107685178.120 9       545.716 9        55.979 9  20491811.088 6         0.000 6       425.233 6        37.977 6
G26  20668898.195 9 108615770.744 9     -1505.634 9        55.867 9  20668901.017 6         0.000 6     -1173.222 6        37.977 6
G20  21919653.183 9 115188522.062 9      2517.075 9        55.325 9  21919653.490 6         0.000 6      1961.359 6        37.977 6
> 2019 07 03 12 01 51.0000000  0  8       0.000000000000
G07  25325429.426 9 133085983.979 9      2171.457 9        54.139 9  25325430.085 6         0.000 6      1692.045 6        37.977 6
G10  23775081.958 9 124938844.831 9      3521.328 9        54.682 9  23775085.651 6         0.000 6      2743.895 6        37.977 6
G21  21183428.616 9 111319648.015 9     -1289.783 9        55.704 9  21183427.904 6         0.000 6     -1005.026 6        37.977 6
G29  24330955.253 9 127859975.917 9     -3175.475 9        54.464 9  24330956.860 6         0.000 6     -2474.399 6        37.977 6
G27  21979791.883 9 115504559.081 9      2522.432 9        55.384 9  21979793.807 6         0.000 6      1965.532 6        37.977 6
G16  20491708.338 9 107684633.816 9       542.504 9        55.979 9  20491707.511 6         0.000 6       422.730 6        37.977 6
G26  20669184.222 9 108617273.822 9     -1500.799 9        55.867 9  20669187.043 6         0.000 6     -1169.455 6        37.977 6
G20  21919173.248 9 115185999.991 9      2527.409 9        55.325 9  21919173.555 6         0.000 6      1969.411 6        37.977 6
> 2019 07 03 12 01 52.0000000  0  8       0.000000000000
G07  25325017.664 9 133083820.155 9      2155.512 9        54.139 9  25325018.322 6         0.000 6      1679.621 6        37.977 6
G10  23774410.633 9 124935317.004 9      3534.675 9        54.682 9  23774414.326 6         0.000 6      2754.295 6        37.977 6
G21  21183673.876 9 111320936.862 9     -1287.047 9        55.704 9  21183673.164 6         0.000 6     -1002.894 6        37.977 6
G29  24331558.459 9 127863145.780 9     -3161.919 9        54.464 9  24331560.067 6         0.000 6     -2463.836 6        37.977 6
G27  21979312.940 9 115502042.222 9      2509.578 9        55.384 9  21979314.864 6         0.000 6      1955.516 6        37.977 6
G16  20491605.604 9 107684093.948 9       536.400 9        55.979 9  20491604.777 6         0.000 6       417.974 6        37.977 6
G26  20669469.531 9 108618773.130 9     -1498.243 9        55.867 9  20669472.353 6         0.000 6     -1167.463 6        37.977 6
G20  21918691.196 9 115183466.795 9      2539.886 9        55.326 9  21918691.503 6         0.000 6      1979.133 6        37.977 6
> 2019 07 03 12 01 53.0000000  0  8       0.000000000000
G07  25324608.234 9 133081668.591 9      2149.703 9        54.139 9  25324608.892 6         0.000 6      1675.094 6        37.977 6
G10  23773737.469 9 124931779.510 9      3538.651 9        54.682 9  23773741.160 6         0.000 6      2757.393 6        37.977 6
G21  21183918.513 9 111322222.436 9     -1284.864 9        55.704 9  21183917.801 6         0.000 6     -1001.193 6        37.977 6
G29  24332159.122 9 127866302.273 9     -3153.748 9        54.463 9  24332160.730 6         0.000 6     -2457.468 6        37.977 6
G27  21978836.257 9 115499537.236 9      2502.639 9        55.384 9  21978838.180 6         0.000 6      1950.109 6        37.977 6
G16  20491503.980 9 107683559.907 9       532.699 9        55.979 9  20491503.153 6         0.000 6       415.090 6        37.977 6
G26  20669754.681 9 108620271.605 9     -1498.862 9        55.867 9  20669757.504 6         0.000 6     -1167.945 6        37.977 6
G20  21918207.248 9 115180923.635 9      2544.555 9        55.326 9  21918207.554 6         0.000 6      1982.771 6        37.977 6
> 2019 07 03 12 01 54.0000000  0  8       0.000000000000
G07  25324199.279 9 133079519.521 9      2148.649 9        54.139 9  25324199.937 6         0.000 6      1674.273 6        37.977 6
G10  23773064.045 9 124928240.658 9      3538.929 9        54.683 9  23773067.736 6         0.000 6      2757.610 6        37.977 6
G21  21184163.001 9 111323507.231 9     -1284.858 9        55.704 9  21184162.289 6         0.000 6     -1001.188 6        37.977 6
G29  24332759.122 9 127869455.284 9     -3152.692 9        54.463 9  24332760.731 6         0.000 6     -2456.646 6        37.977 6
G27  21978360.158 9 115497035.323 9      2501.502 9        55.385 9  21978362.082 6         0.000 6      1949.223 6        37.977 6
G16  20491402.723 9 107683027.798 9       531.666 9        55.979 9  20491401.896 6         0.000 6       414.285 6        37.977 6
G26  20670039.969 9 108621770.802 9     -1499.507 9        55.867 9  20670042.792 6         0.000 6     -1168.447 6        37.977 6
G20  21917723.000 9 115178378.900 9      2544.710 9        55.326 9  21917723.306 6         0.000 6      1982.892 6        37.977 6
> 2019 07 03 12 01 55.0000000  0  8       0.000000000000
G07  25323790.458 9 133077371.158 9      2148.106 9        54.139 9  25323791.116 6         0.000 6      1673.850 6        37.977 6
G10  23772390.615 9 124924701.768 9      3538.852 9        54.683 9  23772394.305 6         0.000 6      2757.549 6        37.977 6
G21  21184407.531 9 111324792.243 9     -1285.192 9        55.704 9  21184406.819 6         0.000 6     -1001.448 6        37.977 6
G29  24333359.052 9 127872607.925 9     -3152.657 9        54.463 9  24333360.661 6         0.000 6     -2456.619 6        37.977 6
G27  21977884.173 9 115494534.010 9      2501.159 9        55.385 9  21977886.097 6         0.000 6      1948.956 6        37.977 6
G16  20491301.613 9 107682496.465 9       531.008 9        55.979 9  20491300.786 6         0.000 6       413.772 6        37.977 6
G26  20670325.369 9 108623270.586 9     -1500.070 9        55.866 9  20670328.192 6         0.000 6     -1168.886 6        37.977 6
G20  21917238.791 9 115175834.368 9      2544.334 9        55.326 9  21917239.097 6         0.000 6      1982.599 6        37.977 6
> 2019 07 03 12 01 56.0000000  0  8       0.000000000000
G07  25323381.733 9 133075223.298 9      2147.622 9        54.140 9  25323382.391 6         0.000 6      1673.473 6        37.977 6
G10  23771717.205 9 124921162.986 9      3538.732 9        54.683 9  23771720.895 6         0.000 6      2757.456 6        37.977 6
G21  21184652.129 9 111326077.613 9     -1285.558 9        55.704 9  21184651.417 6         0.000 6     -1001.734 6        37.977 6
G29  24333958.988 9 127875760.602 9     -3152.730 9        54.463 9  24333960.598 6         0.000 6     -2456.675 6        37.977 6
G27  21977408.243 9 115492032.984 9      2500.903 9        55.385 9  21977410.167 6         0.000 6      1948.756 6        37.977 6
G16  20491200.624 9 107681965.764 9       530.393 9        55.979 9  20491199.797 6         0.000 6       413.293 6        37.977 6
G26  20670610.875 9 108624770.929 9     -1500.624 9        55.866 9  20670613.698 6         0.000 6     -1169.318 6        37.977 6
G20  21916754.661 9 115173290.252 9      2543.900 9        55.326 9  21916754.966 6         0.000 6      1982.261 6        37.977 6
> 2019 07 03 12 01 57.0000000  0  8       0.000000000000
G07  25322973.099 9 133073075.914 9      2147.151 9        54.140 9  25322973.756 6         0.000 6      1673.105 6        37.977 6
G10  23771043.820 9 124917624.333 9      3538.599 9        54.683 9  23771047.509 6         0.000 6      2757.352 6        37.977 6
G21  21184896.798 9 111327363.356 9     -1285.927 9        55.703 9  21184896.086 6         0.000 6     -1002.021 6        37.977 6
G29  24334558.941 9 127878913.363 9     -3152.807 9        54.462 9  24334560.551 6         0.000 6     -2456.735 6        37.977 6
G27  21976932.361 9 115489532.208 9      2500.650 9        55.385 9  21976934.284 6         0.000 6      1948.559 6        37.977 6
G16  20491099.752 9 107681435.679 9       529.776 9        55.979 9  20491098.925 6         0.000 6       412.812 6        37.977 6
G26  20670896.488 9 108626271.832 9     -1501.185 9        55.866 9  20670899.311 6         0.000 6     -1169.755 6        37.977 6
G20  21916270.615 9 115170746.580 9      2543.455 9        55.326 9  21916270.921 6         0.000 6      1981.914 6        37.977 6
> 2019 07 03 12 01 58.0000000  0  8       0.000000000000
G07  25322564.555 9 133070929.002 9      2146.688 9        54.140 9  25322565.212 6         0.000 6      1672.744 6        37.977 6
G10  23770370.460 9 124914085.814 9      3538.457 9        54.684 9  23770374.149 6         0.000 6      2757.242 6        37.977 6
G21  21185141.537 9 111328649.468 9     -1286.296 9        55.703 9  21185140.825 6         0.000 6     -1002.309 6        37.977 6
G29  24335158.907 9 127882066.195 9     -3152.889 9        54.462 9  24335160.518 6         0.000 6     -2456.799 6        37.977 6
G27  21976456.528 9 115487031.690 9      2500.403 9        55.385 9  21976458.451 6         0.000 6      1948.366 6        37.977 6
G16  20490998.999 9 107680906.215 9       529.161 9        55.979 9  20490998.172 6         0.000 6       412.333 6        37.977 6
G26  20671182.208 9 108627773.301 9     -1501.750 9        55.866 9  20671185.031 6         0.000 6     -1170.195 6        37.977 6
G20  21915786.654 9 115168203.354 9      2543.003 9        55.327 9  21915786.960 6         0.000 6      1981.562 6        37.977 6
> 2019 07 03 12 01 59.0000000  0  8       0.000000000000
G07  25322156.098 9 133068782.552 9      2146.222 9        54.140 9  25322156.755 6         0.000 6      1672.381 6        37.977 6
G10  23769697.127 9 124910547.436 9      3538.318 9        54.684 9  23769700.815 6         0.000 6      2757.133 6        37.977 6
G21  21185386.346 9 111329935.948 9     -1286.663 9        55.703 9  21185385.634 6         0.000 6     -1002.595 6        37.977 6
G29  24335758.889 9 127885219.115 9     -3152.965 9        54.462 9  24335760.501 6         0.000 6     -2456.859 6        37.977 6
G27  21975980.741 9 115484531.415 9      2500.151 9        55.386 9  21975982.664 6         0.000 6      1948.170 6        37.977 6
G16  20490898.361 9 107680377.362 9       528.545 9        55.979 9  20490897.534 6         0.000 6       411.853 6        37.977 6
G26  20671468.035 9 108629275.331 9     -1502.315 9        55.866 9  20671470.858 6         0.000 6     -1170.635 6        37.977 6
G20  21915302.780 9 115165660.580 9      2542.554 9        55.327 9  21915303.085 6         0.000 6      1981.212 6        37.977 6
> 2019 07 03 12 02  0.0000000  0  8       0.000000000000
G07  25321747.730 9 133066636.566 9      2145.759 9        54.140 9  25321748.386 6         0.000 6      1672.021 6        37.977 6
G10  23769023.821 9 124907009.198 9      3538.176 9        54.684 9  23769027.508 6         0.000 6      2757.023 6        37.977 6
G21  21185631.225 9 111331222.793 9     -1287.032 9        55.703 9  21185630.513 6         0.000 6     -1002.882 6        37.977 6
G29  24336358.886 9 127888372.110 9     -3153.047 9        54.462 9  24336360.499 6         0.000 6     -2456.922 6        37.977 6
G27  21975505.001 9 115482031.388 9      2499.903 9        55.386 9  21975506.924 6         0.000 6      1947.977 6        37.977 6
G16  20490797.840 9 107679849.120 9       527.931 9        55.979 9  20490797.013 6         0.000 6       411.375 6        37.977 6
G26  20671753.970 9 108630777.922 9     -1502.879 9        55.866 9  20671756.792 6         0.000 6     -1171.075 6        37.977 6
G20  21914818.990 9 115163118.254 9      2542.102 9        55.327 9  21914819.295 6         0.000 6      1980.860 6        37.977 6
