     3.00           Observation Data    M (Mixed)           RINEX VERSION / TYPE
SimGEN V6.06.00     Spirent             03-Jul-19 12:00     PGM / RUN BY / DATE 
                                                            MARKER NAME         
1                                                           MARKER NUMBER       
GROUND_CRAFT                                                MARKER TYPE         
jin4hi              Spirent                                 OBSERVER / AGENCY   
rec_num             rec_type            rec_vers            REC # / TYPE / VERS 
1                   ant_type                                ANT # / TYPE        
  1000.000                                                  INTERVAL            
  2019     7     3    12     0    0.0000000     GPS         TIME OF FIRST OBS   
  4162673.0160   664405.7080  4770531.7030                  APPROX POSITION XYZ 
        0.0000        0.0000        0.0000                  ANTENNA: DELTA H/E/N
G    8 C1C L1C D1C S1C C2C L2C D2C S2C                      SYS / # / OBS TYPES 
        0.0000        0.0000        0.0000                  ANTENNA: DELTA X/Y/Z
DBHZ                                                        SIGNAL STRENGTH UNIT
                                                            END OF HEADER       
> 2019 07 03 12 00  0.0000000  0  8       0.000000000000
G07  25372023.004 9 133330834.479 9      2239.805 9        54.123 9  25372023.687 6         0.000 6      1745.302 6        37.977 6
G10  23849369.614 9 125329227.912 9      3512.727 9        54.655 9  23849373.380 6         0.000 6      2737.190 6        37.977 6
G21  21156815.293 9 111179794.131 9     -1230.409 9        55.715 9  21156814.576 6         0.000 6      -958.760 6        37.977 6
G29  24264391.673 9 127510183.078 9     -3126.822 9        54.488 9  24264393.210 6         0.000 6     -2436.484 6        37.977 6
G27  22033131.960 9 115784862.770 9      2527.536 9        55.363 9  22033133.903 6         0.000 6      1969.508 6        37.977 6
G16  20503769.154 9 107748013.825 9       599.492 9        55.974 9  20503768.327 6         0.000 6       467.137 6        37.977 6
G26  20637937.147 9 108453069.529 9     -1457.348 9        55.880 9  20637939.957 6         0.000 6     -1135.596 6        37.977 6
G20  21973026.555 9 115469000.532 9      2571.610 9        55.304 9  21973026.894 6         0.000 6      2003.852 6        37.977 6
> 2019 07 03 12 00  1.0000000  0  8       0.000000000000
G07  25371596.840 9 133328594.975 9      2242.005 9        54.123 9  25371597.523 6         0.000 6      1747.018 6        37.977 6
G10  23848701.002 9 125325714.342 9      3511.630 9        54.655 9  23848704.767 6         0.000 6      2736.338 6        37.977 6
G21  21157049.873 9 111181026.857 9     -1234.816 9        55.715 9  21157049.156 6         0.000 6      -962.194 6        37.977 6
G29  24264987.705 9 127513315.237 9     -3138.000 9        54.487 9  24264989.242 6         0.000 6     -2445.197 6        37.977 6
G27  22032650.337 9 115782331.828 9      2535.358 9        55.363 9  22032652.280 6         0.000 6      1975.604 6        37.977 6
G16  20503654.798 9 107747412.883 9       602.783 9        55.974 9  20503653.972 6         0.000 6       469.701 6        37.977 6
G26  20638214.204 9 108454525.473 9     -1455.695 9        55.880 9  20638217.014 6         0.000 6     -1134.308 6        37.977 6
G20  21972537.404 9 115466430.027 9      2567.365 9        55.304 9  21972537.742 6         0.000 6      2000.545 6        37.977 6
> 2019 07 03 12 00  2.0000000  0  8       0.000000000000
G07  25371169.676 9 133326350.216 9      2246.590 9        54.123 9  25371170.359 6         0.000 6      1750.590 6        37.977 6
G10  23848033.268 9 125322205.390 9      3507.092 9        54.655 9  23848037.033 6         0.000 6      2732.802 6        37.977 6
G21  21157285.006 9 111182262.490 9     -1236.201 9        55.715 9  21157284.289 6         0.000 6      -963.273 6        37.977 6
G29  24265585.369 9 127516455.976 9     -3142.540 9        54.487 9  24265586.908 6         0.000 6     -2448.735 6        37.977 6
G27  22032167.419 9 115779794.080 9      2539.289 9        55.363 9  22032169.362 6         0.000 6      1978.668 6        37.977 6
G16  20503539.936 9 107746809.280 9       604.040 9        55.974 9  20503539.110 6         0.000 6       470.680 6        37.977 6
G26  20638491.372 9 108455981.999 9     -1457.221 9        55.880 9  20638494.182 6         0.000 6     -1135.497 6        37.977 6
G20  21972049.375 9 115463865.421 9      2562.672 9        55.305 9  21972049.712 6         0.000 6      1996.888 6        37.977 6
> 2019 07 03 12 00  3.0000000  0  8       0.000000000000
G07  25370741.988 9 133324102.706 9      2248.168 9        54.123 9  25370742.671 6         0.000 6      1751.820 6        37.977 6
G10  23847366.103 9 125318699.425 9      3505.085 9        54.656 9  23847369.867 6         0.000 6      2731.238 6        37.977 6
G21  21157520.303 9 111183498.982 9     -1236.710 9        55.715 9  21157519.586 6         0.000 6      -963.670 6        37.977 6
G29  24266183.519 9 127519599.263 9     -3143.755 9        54.487 9  24266185.058 6         0.000 6     -2449.682 6        37.977 6
G27  22031684.089 9 115777254.165 9      2540.278 9        55.364 9  22031686.032 6         0.000 6      1979.438 6        37.977 6
G16  20503424.988 9 107746205.225 9       603.945 9        55.974 9  20503424.162 6         0.000 6       470.607 6        37.977 6
G26  20638768.787 9 108457439.820 9     -1458.398 9        55.880 9  20638771.597 6         0.000 6     -1136.414 6        37.977 6
G20  21971561.930 9 115461303.887 9      2560.643 9        55.305 9  21971562.267 6         0.000 6      1995.307 6        37.977 6
> 2019 07 03 12 00  4.0000000  0  8       0.000000000000
G07  25370314.108 9 133321854.187 9      2248.775 9        54.124 9  25370314.791 6         0.000 6      1752.293 6        37.977 6
G10  23846699.228 9 125315194.981 9      3503.920 9        54.656 9  23846702.991 6         0.000 6      2730.330 6        37.977 6
G21  21157755.668 9 111184735.837 9     -1236.988 9        55.715 9  21157754.952 6         0.000 6      -963.887 6        37.977 6
G29  24266781.788 9 127522743.181 9     -3144.041 9        54.487 9  24266783.328 6         0.000 6     -2449.905 6        37.977 6
G27  22031200.671 9 115774713.790 9      2540.419 9        55.364 9  22031202.613 6         0.000 6      1979.548 6        37.977 6
G16  20503310.105 9 107745601.506 9       603.470 9        55.974 9  20503309.278 6         0.000 6       470.236 6        37.977 6
G26  20639046.410 9 108458898.740 9     -1459.411 9        55.880 9  20639049.221 6         0.000 6     -1137.203 6        37.977 6
G20  21971074.777 9 115458743.887 9      2559.452 9        55.305 9  21971075.114 6         0.000 6      1994.379 6        37.977 6
> 2019 07 03 12 00  5.0000000  0  8       0.000000000000
G07  25369886.157 9 133319605.293 9      2248.967 9        54.124 9  25369886.840 6         0.000 6      1752.443 6        37.977 6
G10  23846032.532 9 125311691.485 9      3503.145 9        54.656 9  23846036.295 6         0.000 6      2729.726 6        37.977 6
G21  21157991.086 9 111185972.962 9     -1237.268 9        55.715 9  21157990.369 6         0.000 6      -964.105 6        37.977 6
G29  24267380.092 9 127525887.276 9     -3144.165 9        54.486 9  24267381.632 6         0.000 6     -2450.001 6        37.977 6
G27  22030717.251 9 115772173.400 9      2540.351 9        55.364 9  22030719.193 6         0.000 6      1979.495 6        37.977 6
G16  20503195.321 9 107744998.317 9       602.903 9        55.974 9  20503194.495 6         0.000 6       469.795 6        37.977 6
G26  20639324.212 9 108460358.598 9     -1460.287 9        55.879 9  20639327.023 6         0.000 6     -1137.886 6        37.977 6
G20  21970587.817 9 115456184.898 9      2558.571 9        55.305 9  21970588.154 6         0.000 6      1993.693 6        37.977 6
> 2019 07 03 12 00  6.0000000  0  8       0.000000000000
G07  25369458.193 9 133317356.331 9      2248.928 9        54.124 9  25369458.875 6         0.000 6      1752.413 6        37.977 6
G10  23845365.961 9 125308188.640 9      3502.601 9        54.656 9  23845369.723 6         0.000 6      2729.302 6        37.977 6
G21  21158226.559 9 111187210.383 9     -1237.573 9        55.714 9  21158225.843 6         0.000 6      -964.342 6        37.977 6
G29  24267978.417 9 127529031.488 9     -3144.267 9        54.486 9  24267979.958 6         0.000 6     -2450.081 6        37.977 6
G27  22030233.849 9 115769633.111 9      2540.217 9        55.364 9  22030235.791 6         0.000 6      1979.391 6        37.977 6
G16  20503080.648 9 107744395.706 9       602.314 9        55.974 9  20503079.822 6         0.000 6       469.336 6        37.977 6
G26  20639602.171 9 108461819.279 9     -1461.061 9        55.879 9  20639604.981 6         0.000 6     -1138.489 6        37.977 6
G20  21970101.008 9 115453626.705 9      2557.854 9        55.305 9  21970101.345 6         0.000 6      1993.134 6        37.977 6
> 2019 07 03 12 00  7.0000000  0  8       0.000000000000
G07  25369030.251 9 133315107.484 9      2248.741 9        54.124 9  25369030.933 6         0.000 6      1752.267 6        37.977 6
G10  23844699.479 9 125304686.263 9      3502.204 9        54.656 9  23844703.240 6         0.000 6      2728.993 6        37.977 6
G21  21158462.092 9 111188448.114 9     -1237.900 9        55.714 9  21158461.375 6         0.000 6      -964.597 6        37.977 6
G29  24268576.761 9 127532175.796 9     -3144.366 9        54.486 9  24268578.303 6         0.000 6     -2450.158 6        37.977 6
G27  22029750.477 9 115767092.977 9      2540.045 9        55.364 9  22029752.419 6         0.000 6      1979.256 6        37.977 6
G16  20502966.088 9 107743793.690 9       601.711 9        55.974 9  20502965.262 6         0.000 6       468.866 6        37.977 6
G26  20639880.270 9 108463280.696 9     -1461.770 9        55.879 9  20639883.080 6         0.000 6     -1139.042 6        37.977 6
G20  21969614.325 9 115451069.173 9      2557.237 9        55.306 9  21969614.661 6         0.000 6      1992.654 6        37.977 6
> 2019 07 03 12 00  8.0000000  0  8       0.000000000000
G07  25368602.356 9 133312858.881 9      2248.467 9        54.124 9  25368603.037 6         0.000 6      1752.053 6        37.977 6
G10  23844033.062 9 125301184.229 9      3501.895 9        54.657 9  23844036.823 6         0.000 6      2728.752 6        37.977 6
G21  21158697.688 9 111189686.181 9     -1238.238 9        55.714 9  21158696.972 6         0.000 6      -964.861 6        37.977 6
G29  24269175.123 9 127535320.198 9     -3144.464 9        54.486 9  24269176.665 6         0.000 6     -2450.234 6        37.977 6
G27  22029267.141 9 115764553.033 9      2539.853 9        55.365 9  22029269.083 6         0.000 6      1979.107 6        37.977 6
G16  20502851.645 9 107743192.285 9       601.102 9        55.974 9  20502850.818 6         0.000 6       468.391 6        37.977 6
G26  20640158.499 9 108464742.801 9     -1462.437 9        55.879 9  20640161.310 6         0.000 6     -1139.562 6        37.977 6
G20  21969127.753 9 115448512.221 9      2556.681 9        55.306 9  21969128.088 6         0.000 6      1992.220 6        37.977 6
> 2019 07 03 12 00  9.0000000  0  8       0.000000000000
G07  25368174.519 9 133310610.586 9      2248.125 9        54.124 9  25368175.200 6         0.000 6      1751.787 6        37.977 6
G10  23843366.697 9 125297682.468 9      3501.654 9        54.657 9  23843370.457 6         0.000 6      2728.564 6        37.977 6
G21  21158933.350 9 111190924.593 9     -1238.583 9        55.714 9  21158932.634 6         0.000 6      -965.129 6        37.977 6
G29  24269773.504 9 127538464.702 9     -3144.559 9        54.486 9  24269775.047 6         0.000 6     -2450.309 6        37.977 6
G27  22028783.843 9 115762013.286 9      2539.645 9        55.365 9  22028785.784 6         0.000 6      1978.945 6        37.977 6
G16  20502737.318 9 107742591.491 9       600.490 9        55.974 9  20502736.491 6         0.000 6       467.914 6        37.977 6
G26  20640436.853 9 108466205.556 9     -1463.070 9        55.879 9  20640439.664 6         0.000 6     -1140.055 6        37.977 6
G20  21968641.281 9 115445955.802 9      2556.173 9        55.306 9  21968641.617 6         0.000 6      1991.824 6        37.977 6
> 2019 07 03 12 00 10.0000000  0  8       0.000000000000
G07  25367746.751 9 133308362.655 9      2247.745 9        54.124 9  25367747.432 6         0.000 6      1751.491 6        37.977 6
G10  23842700.374 9 125294180.928 9      3501.449 9        54.657 9  23842704.133 6         0.000 6      2728.404 6        37.977 6
G21  21159169.078 9 111192163.353 9     -1238.938 9        55.714 9  21159168.362 6         0.000 6      -965.406 6        37.977 6
G29  24270371.903 9 127541609.299 9     -3144.654 9        54.485 9  24270373.446 6         0.000 6     -2450.383 6        37.977 6
G27  22028300.586 9 115759473.755 9      2539.424 9        55.365 9  22028302.527 6         0.000 6      1978.773 6        37.977 6
G16  20502623.107 9 107741991.311 9       599.869 9        55.974 9  20502622.280 6         0.000 6       467.430 6        37.977 6
G26  20640715.325 9 108467668.936 9     -1463.693 9        55.879 9  20640718.136 6         0.000 6     -1140.540 6        37.977 6
G20  21968154.904 9 115443399.876 9      2555.687 9        55.306 9  21968155.239 6         0.000 6      1991.446 6        37.977 6
> 2019 07 03 12 00 11.0000000  0  8       0.000000000000
G07  25367319.057 9 133306115.115 9      2247.335 9        54.125 9  25367319.738 6         0.000 6      1751.171 6        37.977 6
G10  23842034.088 9 125290679.580 9      3501.275 9        54.657 9  23842037.846 6         0.000 6      2728.269 6        37.977 6
G21  21159404.874 9 111193402.465 9     -1239.295 9        55.714 9  21159404.157 6         0.000 6      -965.685 6        37.977 6
G29  24270970.319 9 127544753.986 9     -3144.747 9        54.485 9  24270971.863 6         0.000 6     -2450.455 6        37.977 6
G27  22027817.371 9 115756934.447 9      2539.196 9        55.365 9  22027819.312 6         0.000 6      1978.595 6        37.977 6
G16  20502509.015 9 107741391.752 9       599.247 9        55.974 9  20502508.188 6         0.000 6       466.946 6        37.977 6
G26  20640993.914 9 108469132.931 9     -1464.300 9        55.879 9  20640996.725 6         0.000 6     -1141.013 6        37.977 6
G20  21967668.617 9 115440844.426 9      2555.224 9        55.306 9  21967668.952 6         0.000 6      1991.085 6        37.977 6
> 2019 07 03 12 00 12.0000000  0  8       0.000000000000
G07  25366891.443 9 133303867.992 9      2246.916 9        54.125 9  25366892.124 6         0.000 6      1750.844 6        37.977 6
G10  23841367.833 9 125287178.400 9      3501.111 9        54.658 9  23841371.591 6         0.000 6      2728.141 6        37.977 6
G21  21159640.737 9 111194641.936 9     -1239.652 9        55.714 9  21159640.021 6         0.000 6      -965.963 6        37.977 6
G29  24271568.753 9 127547898.767 9     -3144.841 9        54.485 9  24271570.297 6         0.000 6     -2450.528 6        37.977 6
G27  22027334.200 9 115754395.368 9      2538.969 9        55.365 9  22027336.141 6         0.000 6      1978.418 6        37.977 6
G16  20502395.041 9 107740792.815 9       598.627 9        55.974 9  20502394.214 6         0.000 6       466.463 6        37.977 6
G26  20641272.618 9 108470597.530 9     -1464.900 9        55.879 9  20641275.430 6         0.000 6     -1141.481 6        37.977 6
G20  21967182.418 9 115438289.435 9      2554.768 9        55.306 9  21967182.752 6         0.000 6      1990.729 6        37.977 6
> 2019 07 03 12 00 13.0000000  0  8       0.000000000000
G07  25366463.911 9 133301621.298 9      2246.481 9        54.125 9  25366464.591 6         0.000 6      1750.505 6        37.977 6
G10  23840701.608 9 125283677.375 9      3500.962 9        54.658 9  23840705.366 6         0.000 6      2728.025 6        37.977 6
G21  21159876.670 9 111195881.769 9     -1240.010 9        55.714 9  21159875.954 6         0.000 6      -966.242 6        37.977 6
G29  24272167.205 9 127551043.644 9     -3144.931 9        54.485 9  24272168.750 6         0.000 6     -2450.598 6        37.977 6
G27  22026851.073 9 115751856.522 9      2538.735 9        55.365 9  22026853.014 6         0.000 6      1978.236 6        37.977 6
G16  20502281.186 9 107740194.502 9       598.005 9        55.974 9  20502280.359 6         0.000 6       465.978 6        37.977 6
G26  20641551.437 9 108472062.728 9     -1465.494 9        55.878 9  20641554.248 6         0.000 6     -1141.943 6        37.977 6
G20  21966696.304 9 115435734.896 9      2554.323 9        55.307 9  21966696.639 6         0.000 6      1990.383 6        37.977 6
> 2019 07 03 12 00 14.0000000  0  8       0.000000000000
G07  25366036.409 9 133299374.764 9      2247.836 9        54.125 9  25366037.089 6         0.000 6      1751.561 6        37.977 6
G10  23840035.442 9 125280176.659 9      3499.765 9        54.658 9  23840039.199 6         0.000 6      2727.093 6        37.977 6
G21  21160112.723 9 111197122.237 9     -1242.158 9        55.714 9  21160112.007 6         0.000 6      -967.915 6        37.977 6
G29  24272765.824 9 127554189.400 9     -3150.132 9        54.485 9  24272767.370 6         0.000 6     -2454.651 6        37.977 6
G27  22026367.877 9 115749317.314 9      2542.347 9        55.366 9  22026369.818 6         0.000 6      1981.051 6        37.977 6
G16  20502167.395 9 107739596.526 9       599.226 9        55.974 9  20502166.568 6         0.000 6       466.929 6        37.977 6
G26  20641830.345 9 108473528.401 9     -1465.330 9        55.878 9  20641833.157 6         0.000 6     -1141.816 6        37.977 6
G20  21966210.339 9 115433181.135 9      2551.711 9        55.307 9  21966210.673 6         0.000 6      1988.347 6        37.977 6
> 2019 07 03 12 00 15.0000000  0  8       0.000000000000
G07  25365608.569 9 133297126.452 9      2247.421 9        54.125 9  25365609.249 6         0.000 6      1751.238 6        37.977 6
G10  23839369.408 9 125276676.635 9      3501.576 9        54.658 9  23839373.164 6         0.000 6      2728.503 6        37.977 6
G21  21160349.654 9 111198367.314 9     -1247.913 9        55.714 9  21160348.937 6         0.000 6      -972.400 6        37.977 6
G29  24273366.628 9 127557346.634 9     -3163.615 9        54.484 9  24273368.174 6         0.000 6     -2465.157 6        37.977 6
G27  22025883.172 9 115746770.176 9      2551.115 9        55.366 9  22025885.113 6         0.000 6      1987.883 6        37.977 6
G16  20502052.963 9 107738995.186 9       603.103 9        55.975 9  20502052.137 6         0.000 6       469.951 6        37.977 6
G26  20642108.887 9 108474992.144 9     -1461.752 9        55.878 9  20642111.698 6         0.000 6     -1139.028 6        37.977 6
G20  21965725.145 9 115430631.430 9      2548.781 9        55.307 9  21965725.479 6         0.000 6      1986.064 6        37.977 6
> 2019 07 03 12 00 16.0000000  0  8       0.000000000000
G07  25365181.697 9 133294883.230 9      2237.058 9        54.125 9  25365182.377 6         0.000 6      1743.163 6        37.977 6
G10  23838702.195 9 125273170.419 9      3512.706 9        54.659 9  23838705.950 6         0.000 6      2737.176 6        37.977 6
G21  21160587.654 9 111199618.014 9     -1253.355 9        55.713 9  21160586.938 6         0.000 6      -976.641 6        37.977 6
G29  24273969.592 9 127560515.224 9     -3172.513 9        54.484 9  24273971.139 6         0.000 6     -2472.091 6        37.977 6
G27  22025397.279 9 115744216.793 9      2554.482 9        55.366 9  22025399.219 6         0.000 6      1990.506 6        37.977 6
G16  20501937.997 9 107738391.033 9       604.704 9        55.975 9  20501937.170 6         0.000 6       471.198 6        37.977 6
G26  20642386.461 9 108476450.805 9     -1454.985 9        55.878 9  20642389.273 6         0.000 6     -1133.755 6        37.977 6
G20  21965239.829 9 115428081.081 9      2553.473 9        55.307 9  21965240.162 6         0.000 6      1989.720 6        37.977 6
> 2019 07 03 12 00 17.0000000  0  8       0.000000000000
G07  25364756.605 9 133292649.359 9      2231.988 9        54.125 9  25364757.285 6         0.000 6      1739.212 6        37.977 6
G10  23838033.182 9 125269654.745 9      3517.307 9        54.659 9  23838036.937 6         0.000 6      2740.761 6        37.977 6
G21  21160826.318 9 111200872.202 9     -1254.686 9        55.713 9  21160825.602 6         0.000 6      -977.677 6        37.977 6
G29  24274573.401 9 127563688.252 9     -3173.216 9        54.484 9  24274574.949 6         0.000 6     -2472.639 6        37.977 6
G27  22024911.270 9 115741662.801 9      2553.573 9        55.366 9  22024913.210 6         0.000 6      1989.798 6        37.977 6
G16  20501822.996 9 107737786.697 9       603.946 9        55.975 9  20501822.169 6         0.000 6       470.607 6        37.977 6
G26  20642663.100 9 108477904.554 9     -1453.228 9        55.878 9  20642665.912 6         0.000 6     -1132.386 6        37.977 6
G20  21964753.594 9 115425525.904 9      2556.068 9        55.307 9  21964753.927 6         0.000 6      1991.743 6        37.977 6
> 2019 07 03 12 00 18.0000000  0  8       0.000000000000
G07  25364331.999 9 133290418.041 9      2230.894 9        54.126 9  25364332.678 6         0.000 6      1738.360 6        37.977 6
G10  23837363.789 9 125266137.071 9      3517.823 9        54.659 9  23837367.543 6         0.000 6      2741.164 6        37.977 6
G21  21161065.125 9 111202127.137 9     -1255.154 9        55.713 9  21161064.408 6         0.000 6      -978.042 6        37.977 6
G29  24275177.252 9 127566861.501 9     -3173.306 9        54.484 9  24275178.801 6         0.000 6     -2472.709 6        37.977 6
G27  22024425.384 9 115739109.455 9      2553.181 9        55.366 9  22024427.324 6         0.000 6      1989.492 6        37.977 6
G16  20501708.133 9 107737183.091 9       603.282 9        55.975 9  20501707.306 6         0.000 6       470.090 6        37.977 6
G26  20642939.656 9 108479357.862 9     -1453.504 9        55.878 9  20642942.468 6         0.000 6     -1132.601 6        37.977 6
G20  21964267.175 9 115422969.757 9      2556.070 9        55.308 9  21964267.508 6         0.000 6      1991.744 6        37.977 6
> 2019 07 03 12 00 19.0000000  0  8       0.000000000000
G07  25363907.524 9 133288187.414 9      2230.388 9        54.126 9  25363908.203 6         0.000 6      1737.965 6        37.977 6
G10  23836694.375 9 125262619.287 9      3517.745 9        54.659 9  23836698.128 6         0.000 6      2741.103 6        37.977 6
G21  21161304.010 9 111203382.485 9     -1255.540 9        55.713 9  21161303.293 6         0.000 6      -978.343 6        37.977 6
G29  24275781.121 9 127570034.841 9     -3173.397 9        54.483 9  24275782.670 6         0.000 6     -2472.780 6        37.977 6
G27  22023939.555 9 115736556.411 9      2552.920 9        55.367 9  22023941.495 6         0.000 6      1989.289 6        37.977 6
G16  20501593.392 9 107736580.125 9       602.653 9        55.975 9  20501592.566 6         0.000 6       469.600 6        37.977 6
G26  20643216.301 9 108480811.638 9     -1454.061 9        55.878 9  20643219.113 6         0.000 6     -1133.035 6        37.977 6
G20  21963780.808 9 115420413.886 9      2555.666 9        55.308 9  21963781.140 6         0.000 6      1991.429 6        37.977 6
> 2019 07 03 12 00 20.0000000  0  8       0.000000000000
G07  25363483.139 9 133285957.260 9      2229.934 9        54.126 9  25363483.818 6         0.000 6      1737.612 6        37.977 6
G10  23836024.982 9 125259101.615 9      3517.616 9        54.660 9  23836028.735 6         0.000 6      2741.002 6        37.977 6
G21  21161542.967 9 111204638.213 9     -1255.915 9        55.713 9  21161542.251 6         0.000 6      -978.635 6        37.977 6
G29  24276385.007 9 127573208.274 9     -3173.487 9        54.483 9  24276386.557 6         0.000 6     -2472.850 6        37.977 6
G27  22023453.774 9 115734003.618 9      2552.673 9        55.367 9  22023455.714 6         0.000 6      1989.097 6        37.977 6
G16  20501478.771 9 107735977.783 9       602.032 9        55.975 9  20501477.944 6         0.000 6       469.116 6        37.977 6
G26  20643493.054 9 108482265.985 9     -1454.639 9        55.878 9  20643495.866 6         0.000 6     -1133.485 6        37.977 6
G20  21963294.522 9 115417858.442 9      2555.228 9        55.308 9  21963294.854 6         0.000 6      1991.088 6        37.977 6
> 2019 07 03 12 00 21.0000000  0  8       0.000000000000
G07  25363058.839 9 133283727.554 9      2229.486 9        54.126 9  25363059.518 6         0.000 6      1737.263 6        37.977 6
G10  23835355.615 9 125255584.078 9      3517.480 9        54.660 9  23835359.367 6         0.000 6      2740.896 6        37.977 6
G21  21161781.995 9 111205894.313 9     -1256.287 9        55.713 9  21161781.279 6         0.000 6      -978.925 6        37.977 6
G29  24276988.910 9 127576381.795 9     -3173.576 9        54.483 9  24276990.460 6         0.000 6     -2472.919 6        37.977 6
G27  22022968.040 9 115731451.071 9      2552.428 9        55.367 9  22022969.980 6         0.000 6      1988.905 6        37.977 6
G16  20501364.267 9 107735376.061 9       601.411 9        55.975 9  20501363.440 6         0.000 6       468.632 6        37.977 6
G26  20643769.918 9 108483720.913 9     -1455.219 9        55.878 9  20643772.730 6         0.000 6     -1133.938 6        37.977 6
G20  21962808.320 9 115415303.438 9      2554.787 9        55.308 9  21962808.652 6         0.000 6      1990.744 6        37.977 6
> 2019 07 03 12 00 22.0000000  0  8       0.000000000000
G07  25362634.624 9 133281498.292 9      2229.039 9        54.126 9  25362635.302 6         0.000 6      1736.914 6        37.977 6
G10  23834686.274 9 125252066.678 9      3517.344 9        54.660 9  23834690.026 6         0.000 6      2740.790 6        37.977 6
G21  21162021.093 9 111207150.782 9     -1256.660 9        55.713 9  21162020.377 6         0.000 6      -979.215 6        37.977 6
G29  24277592.830 9 127579555.405 9     -3173.666 9        54.483 9  24277594.381 6         0.000 6     -2472.989 6        37.977 6
G27  22022482.352 9 115728898.765 9      2552.182 9        55.367 9  22022484.291 6         0.000 6      1988.714 6        37.977 6
G16  20501249.880 9 107734774.957 9       600.790 9        55.975 9  20501249.054 6         0.000 6       468.148 6        37.977 6
G26  20644046.892 9 108485176.419 9     -1455.800 9        55.877 9  20644049.704 6         0.000 6     -1134.390 6        37.977 6
G20  21962322.202 9 115412748.876 9      2554.345 9        55.308 9  21962322.534 6         0.000 6      1990.400 6        37.977 6
> 2019 07 03 12 00 23.0000000  0  8       0.000000000000
G07  25362210.495 9 133279269.483 9      2228.591 9        54.126 9  25362211.173 6         0.000 6      1736.565 6        37.977 6
G10  23834016.958 9 125248549.409 9      3517.208 9        54.660 9  23834020.709 6         0.000 6      2740.684 6        37.977 6
G21  21162260.262 9 111208407.625 9     -1257.032 9        55.713 9  21162259.546 6         0.000 6      -979.506 6        37.977 6
G29  24278196.767 9 127582729.105 9     -3173.755 9        54.483 9  24278198.318 6         0.000 6     -2473.058 6        37.977 6
G27  22021996.711 9 115726346.707 9      2551.936 9        55.367 9  22021998.650 6         0.000 6      1988.523 6        37.977 6
G16  20501135.612 9 107734174.474 9       600.169 9        55.975 9  20501134.786 6         0.000 6       467.664 6        37.977 6
G26  20644323.976 9 108486632.502 9     -1456.381 9        55.877 9  20644326.788 6         0.000 6     -1134.842 6        37.977 6
G20  21961836.168 9 115410194.752 9      2553.904 9        55.309 9  21961836.499 6         0.000 6      1990.056 6        37.977 6
> 2019 07 03 12 00 24.0000000  0  8       0.000000000000
G07  25361786.451 9 133277041.120 9      2228.143 9        54.126 9  25361787.129 6         0.000 6      1736.216 6        37.977 6
G10  23833347.669 9 125245032.280 9      3517.072 9        54.661 9  23833351.419 6         0.000 6      2740.578 6        37.977 6
G21  21162499.503 9 111209664.842 9     -1257.404 9        55.713 9  21162498.787 6         0.000 6      -979.796 6        37.977 6
G29  24278800.721 9 127585902.894 9     -3173.844 9        54.482 9  24278802.273 6         0.000 6     -2473.127 6        37.977 6
G27  22021511.117 9 115723794.896 9      2551.691 9        55.368 9  22021513.056 6         0.000 6      1988.331 6        37.977 6
G16  20501021.463 9 107733574.616 9       599.548 9        55.975 9  20501020.636 6         0.000 6       467.180 6        37.977 6
G26  20644601.171 9 108488089.172 9     -1456.961 9        55.877 9  20644603.984 6         0.000 6     -1135.295 6        37.977 6
G20  21961350.218 9 115407641.074 9      2553.462 9        55.309 9  21961350.549 6         0.000 6      1989.712 6        37.977 6
> 2019 07 03 12 00 25.0000000  0  8       0.000000000000
G07  25361362.493 9 133274813.207 9      2227.693 9        54.127 9  25361363.170 6         0.000 6      1735.865 6        37.977 6
G10  23832678.404 9 125241515.283 9      3516.940 9        54.661 9  23832682.154 6         0.000 6      2740.475 6        37.977 6
G21  21162738.814 9 111210922.430 9     -1257.774 9        55.713 9  21162738.098 6         0.000 6      -980.084 6        37.977 6
G29  24279404.691 9 127589076.772 9     -3173.932 9        54.482 9  24279406.244 6         0.000 6     -2473.197 6        37.977 6
G27  22021025.570 9 115721243.330 9      2551.447 9        55.368 9  22021027.508 6         0.000 6      1988.141 6        37.977 6
G16  20500907.431 9 107732975.376 9       598.930 9        55.975 9  20500906.605 6         0.000 6       466.699 6        37.977 6
G26  20644878.476 9 108489546.417 9     -1457.537 9        55.877 9  20644881.288 6         0.000 6     -1135.743 6        37.977 6
G20  21960864.352 9 115405087.834 9      2553.024 9        55.309 9  21960864.683 6         0.000 6      1989.371 6        37.977 6
> 2019 07 03 12 00 26.0000000  0  8       0.000000000000
G07  25360938.592 9 133272585.597 9      2227.555 9        54.127 9  25360939.269 6         0.000 6      1735.758 6        37.977 6
G10  23832009.194 9 125237998.570 9      3516.488 9        54.661 9  23832012.943 6         0.000 6      2740.123 6        37.977 6
G21  21162978.192 9 111212180.371 9     -1258.092 9        55.712 9  21162977.477 6         0.000 6      -980.331 6        37.977 6
G29  24280008.679 9 127592250.738 9     -3174.001 9        54.482 9  24280010.232 6         0.000 6     -2473.250 6        37.977 6
G27  22020540.063 9 115718691.979 9      2551.258 9        55.368 9  22020542.002 6         0.000 6      1987.994 6        37.977 6
G16  20500793.517 9 107732376.751 9       598.323 9        55.975 9  20500792.690 6         0.000 6       466.225 6        37.977 6
G26  20645155.905 9 108491004.315 9     -1458.270 9        55.877 9  20645158.718 6         0.000 6     -1136.315 6        37.977 6
G20  21960378.589 9 115402535.137 9      2552.374 9        55.309 9  21960378.919 6         0.000 6      1988.864 6        37.977 6
> 2019 07 03 12 00 27.0000000  0  8       0.000000000000
G07  25360515.959 9 133270364.648 9      2213.225 9        54.127 9  25360516.636 6         0.000 6      1724.592 6        37.977 6
G10  23831338.853 9 125234475.915 9      3529.782 9        54.661 9  23831342.601 6         0.000 6      2750.483 6        37.977 6
G21  21163217.736 9 111213439.180 9     -1259.196 9        55.712 9  21163217.020 6         0.000 6      -981.192 6        37.977 6
G29  24280612.466 9 127595423.651 9     -3170.578 9        54.482 9  24280614.020 6         0.000 6     -2470.583 6        37.977 6
G27  22020055.023 9 115716143.079 9      2545.430 9        55.368 9  22020056.961 6         0.000 6      1983.452 6        37.977 6
G16  20500679.877 9 107731779.571 9       595.523 9        55.975 9  20500679.051 6         0.000 6       464.044 6        37.977 6
G26  20645432.959 9 108492460.244 9     -1453.470 9        55.877 9  20645435.772 6         0.000 6     -1132.575 6        37.977 6
G20  21959892.064 9 115399978.439 9      2562.023 9        55.309 9  21959892.395 6         0.000 6      1996.383 6        37.977 6
> 2019 07 03 12 00 28.0000000  0  8       0.000000000000
G07  25360096.278 9 133268159.217 9      2197.800 9        54.127 9  25360096.955 6         0.000 6      1712.573 6        37.977 6
G10  23830665.859 9 125230939.318 9      3543.096 9        54.662 9  23830669.606 6         0.000 6      2760.857 6        37.977 6
G21  21163457.245 9 111214697.806 9     -1257.523 9        55.712 9  21163456.529 6         0.000 6      -979.888 6        37.977 6
G29  24281214.907 9 127598589.489 9     -3159.871 9        54.482 9  24281216.462 6         0.000 6     -2462.240 6        37.977 6
G27  22019571.612 9 115713602.739 9      2534.465 9        55.368 9  22019573.550 6         0.000 6      1974.909 6        37.977 6
G16  20500567.021 9 107731186.509 9       590.205 9        55.975 9  20500566.194 6         0.000 6       459.900 6        37.977 6
G26  20645709.213 9 108493911.967 9     -1450.432 9        55.877 9  20645712.026 6         0.000 6     -1130.208 6        37.977 6
G20  21959403.423 9 115397410.617 9      2573.758 9        55.310 9  21959403.754 6         0.000 6      2005.527 6        37.977 6
> 2019 07 03 12 00 29.0000000  0  8       0.000000000000
G07  25359679.297 9 133265967.970 9      2188.113 9        54.127 9  25359679.974 6         0.000 6      1705.024 6        37.977 6
G10  23829990.659 9 125227391.131 9      3550.388 9        54.662 9  23829994.406 6         0.000 6      2766.539 6        37.977 6
G21  21163696.149 9 111215953.255 9     -1254.274 9        55.712 9  21163695.433 6         0.000 6      -977.356 6        37.977 6
G29  24281814.696 9 127601741.390 9     -3147.466 9        54.481 9  24281816.251 6         0.000 6     -2452.573 6        37.977 6
G27  22019090.643 9 115711075.231 9      2523.700 9        55.369 9  22019092.581 6         0.000 6      1966.520 6        37.977 6
G16  20500455.365 9 107730599.751 9       584.731 9        55.975 9  20500454.538 6         0.000 6       455.635 6        37.977 6
G26  20645985.190 9 108495362.234 9     -1450.603 9        55.877 9  20645988.003 6         0.000 6     -1130.340 6        37.977 6
G20  21958912.596 9 115394831.307 9      2581.899 9        55.310 9  21958912.926 6         0.000 6      2011.870 6        37.977 6
> 2019 07 03 12 00 30.0000000  0  8       0.000000000000
G07  25359263.071 9 133263780.689 9      2186.763 9        54.127 9  25359263.747 6         0.000 6      1703.972 6        37.977 6
G10  23829314.975 9 125223840.398 9      3550.881 9        54.662 9  23829318.721 6         0.000 6      2766.923 6        37.977 6
G21  21163934.787 9 111217207.306 9     -1254.034 9        55.712 9  21163934.071 6         0.000 6      -977.170 6        37.977 6
G29  24282413.412 9 127604887.655 9     -3145.699 9        54.481 9  24282414.968 6         0.000 6     -2451.196 6        37.977 6
G27  22018610.605 9 115708552.618 9      2522.010 9        55.369 9  22018612.543 6         0.000 6      1965.203 6        37.977 6
G16  20500344.239 9 107730015.778 9       583.437 9        55.975 9  20500343.412 6         0.000 6       454.626 6        37.977 6
G26  20646261.304 9 108496813.221 9     -1451.330 9        55.877 9  20646264.118 6         0.000 6     -1130.907 6        37.977 6
G20  21958421.198 9 115392248.997 9      2582.407 9        55.310 9  21958421.527 6         0.000 6      2012.266 6        37.977 6
> 2019 07 03 12 00 31.0000000  0  8       0.000000000000
G07  25358846.997 9 133261594.213 9      2186.227 9        54.127 9  25358847.674 6         0.000 6      1703.555 6        37.977 6
G10  23828639.271 9 125220289.560 9      3550.800 9        54.662 9  23828643.017 6         0.000 6      2766.860 6        37.977 6
G21  21164173.449 9 111218461.483 9     -1254.343 9        55.712 9  21164172.733 6         0.000 6      -977.410 6        37.977 6
G29  24283012.001 9 127608033.251 9     -3145.590 9        54.481 9  24283013.558 6         0.000 6     -2451.112 6        37.977 6
G27  22018130.726 9 115706030.838 9      2521.618 9        55.369 9  22018132.663 6         0.000 6      1964.898 6        37.977 6
G16  20500233.282 9 107729432.698 9       582.756 9        55.975 9  20500232.455 6         0.000 6       454.095 6        37.977 6
G26  20646537.541 9 108498264.852 9     -1451.921 9        55.876 9  20646540.354 6         0.000 6     -1131.367 6        37.977 6
G20  21957929.813 9 115389666.756 9      2582.052 9        55.310 9  21957930.142 6         0.000 6      2011.990 6        37.977 6
> 2019 07 03 12 00 32.0000000  0  8       0.000000000000
G07  25358431.016 9 133259408.219 9      2185.772 9        54.128 9  25358431.692 6         0.000 6      1703.200 6        37.977 6
G10  23827963.589 9 125216738.836 9      3550.663 9        54.663 9  23827967.334 6         0.000 6      2766.753 6        37.977 6
G21  21164412.177 9 111219716.007 9     -1254.711 9        55.712 9  21164411.461 6         0.000 6      -977.697 6        37.977 6
G29  24283610.593 9 127611178.862 9     -3145.658 9        54.481 9  24283612.150 6         0.000 6     -2451.164 6        37.977 6
G27  22017650.902 9 115703509.352 9      2521.362 9        55.369 9  22017652.840 6         0.000 6      1964.698 6        37.977 6
G16  20500122.446 9 107728850.251 9       582.137 9        55.975 9  20500121.619 6         0.000 6       453.614 6        37.977 6
G26  20646813.887 9 108499717.056 9     -1452.496 9        55.876 9  20646816.700 6         0.000 6     -1131.815 6        37.977 6
G20  21957438.506 9 115387084.926 9      2581.610 9        55.310 9  21957438.835 6         0.000 6      2011.645 6        37.977 6
> 2019 07 03 12 00 33.0000000  0  8       0.000000000000
G07  25358015.120 9 133257222.673 9      2185.319 9        54.128 9  25358015.796 6         0.000 6      1702.847 6        37.977 6
G10  23827287.934 9 125213188.255 9      3550.527 9        54.663 9  23827291.678 6         0.000 6      2766.647 6        37.977 6
G21  21164650.975 9 111220970.899 9     -1255.081 9        55.712 9  21164650.260 6         0.000 6      -977.985 6        37.977 6
G29  24284209.199 9 127614324.550 9     -3145.735 9        54.480 9  24284210.757 6         0.000 6     -2451.225 6        37.977 6
G27  22017171.125 9 115700988.111 9      2521.115 9        55.369 9  22017173.063 6         0.000 6      1964.506 6        37.977 6
G16  20500011.727 9 107728268.415 9       581.525 9        55.975 9  20500010.900 6         0.000 6       453.137 6        37.977 6
G26  20647090.341 9 108501169.833 9     -1453.066 9        55.876 9  20647093.155 6         0.000 6     -1132.259 6        37.977 6
G20  21956947.285 9 115384503.544 9      2581.165 9        55.310 9  21956947.613 6         0.000 6      2011.299 6        37.977 6
> 2019 07 03 12 00 34.0000000  0  8       0.000000000000
G07  25357599.310 9 133255037.582 9      2184.869 9        54.128 9  25357599.986 6         0.000 6      1702.496 6        37.977 6
G10  23826612.304 9 125209637.808 9      3550.388 9        54.663 9  23826616.048 6         0.000 6      2766.539 6        37.977 6
G21  21164889.844 9 111222226.165 9     -1255.453 9        55.712 9  21164889.129 6         0.000 6      -978.275 6        37.977 6
G29  24284807.821 9 127617470.316 9     -3145.818 9        54.480 9  24284809.379 6         0.000 6     -2451.290 6        37.977 6
G27  22016691.396 9 115698467.121 9      2520.871 9        55.369 9  22016693.334 6         0.000 6      1964.316 6        37.977 6
G16  20499901.124 9 107727687.195 9       580.914 9        55.975 9  20499900.297 6         0.000 6       452.661 6        37.977 6
G26  20647366.905 9 108502623.183 9     -1453.636 9        55.876 9  20647369.718 6         0.000 6     -1132.704 6        37.977 6
G20  21956456.148 9 115381922.607 9      2580.718 9        55.311 9  21956456.476 6         0.000 6      2010.950 6        37.977 6
> 2019 07 03 12 00 35.0000000  0  8       0.000000000000
G07  25357183.587 9 133252852.945 9      2184.418 9        54.128 9  25357184.262 6         0.000 6      1702.145 6        37.977 6
G10  23825936.700 9 125206087.495 9      3550.249 9        54.663 9  23825940.443 6         0.000 6      2766.431 6        37.977 6
G21  21165128.784 9 111223481.801 9     -1255.825 9        55.712 9  21165128.069 6         0.000 6      -978.565 6        37.977 6
G29  24285406.458 9 127620616.166 9     -3145.901 9        54.480 9  24285408.017 6         0.000 6     -2451.354 6        37.977 6
G27  22016211.713 9 115695946.372 9      2520.628 9        55.370 9  22016213.650 6         0.000 6      1964.126 6        37.977 6
G16  20499790.637 9 107727106.583 9       580.304 9        55.975 9  20499789.810 6         0.000 6       452.185 6        37.977 6
G26  20647643.576 9 108504077.097 9     -1454.207 9        55.876 9  20647646.389 6         0.000 6     -1133.148 6        37.977 6
G20  21955965.095 9 115379342.114 9      2580.270 9        55.311 9  21955965.424 6         0.000 6      2010.601 6        37.977 6
> 2019 07 03 12 00 36.0000000  0  8       0.000000000000
G07  25356767.949 9 133250668.756 9      2183.968 9        54.128 9  25356768.624 6         0.000 6      1701.794 6        37.977 6
G10  23825261.123 9 125202537.326 9      3550.110 9        54.664 9  23825264.865 6         0.000 6      2766.322 6        37.977 6
G21  21165367.795 9 111224737.812 9     -1256.197 9        55.712 9  21165367.080 6         0.000 6      -978.855 6        37.977 6
G29  24286005.111 9 127623762.098 9     -3145.984 9        54.480 9  24286006.671 6         0.000 6     -2451.419 6        37.977 6
G27  22015732.077 9 115693425.868 9      2520.385 9        55.370 9  22015734.014 6         0.000 6      1963.937 6        37.977 6
G16  20499680.267 9 107726526.585 9       579.693 9        55.976 9  20499679.440 6         0.000 6       451.709 6        37.977 6
G26  20647920.356 9 108505531.587 9     -1454.777 9        55.876 9  20647923.170 6         0.000 6     -1133.593 6        37.977 6
G20  21955474.129 9 115376762.072 9      2579.822 9        55.311 9  21955474.457 6         0.000 6      2010.252 6        37.977 6
> 2019 07 03 12 00 37.0000000  0  8       0.000000000000
G07  25356352.396 9 133248485.013 9      2183.517 9        54.128 9  25356353.071 6         0.000 6      1701.443 6        37.977 6
G10  23824585.573 9 125198987.298 9      3549.971 9        54.664 9  23824589.315 6         0.000 6      2766.214 6        37.977 6
G21  21165606.876 9 111225994.190 9     -1256.569 9        55.711 9  21165606.161 6         0.000 6      -979.145 6        37.977 6
G29  24286603.780 9 127626908.112 9     -3146.067 9        54.480 9  24286605.340 6         0.000 6     -2451.483 6        37.977 6
G27  22015252.486 9 115690905.605 9      2520.141 9        55.370 9  22015254.423 6         0.000 6      1963.747 6        37.977 6
G16  20499570.013 9 107725947.194 9       579.082 9        55.976 9  20499569.186 6         0.000 6       451.232 6        37.977 6
G26  20648197.245 9 108506986.646 9     -1455.347 9        55.876 9  20648200.059 6         0.000 6     -1134.037 6        37.977 6
G20  21954983.248 9 115374182.479 9      2579.374 9        55.311 9  21954983.575 6         0.000 6      2009.903 6        37.977 6
> 2019 07 03 12 00 38.0000000  0  8       0.000000000000
G07  25355936.929 9 133246301.725 9      2183.067 9        54.128 9  25355937.604 6         0.000 6      1701.092 6        37.977 6
G10  23823910.050 9 125195437.408 9      3549.832 9        54.664 9  23823913.790 6         0.000 6      2766.105 6        37.977 6
G21  21165846.029 9 111227250.944 9     -1256.941 9        55.711 9  21165845.314 6         0.000 6      -979.435 6        37.977 6
G29  24287202.464 9 127630054.210 9     -3146.150 9        54.479 9  24287204.025 6         0.000 6     -2451.548 6        37.977 6
G27  22014772.942 9 115688385.588 9      2519.898 9        55.370 9  22014774.879 6         0.000 6      1963.557 6        37.977 6
G16  20499459.875 9 107725368.418 9       578.471 9        55.976 9  20499459.049 6         0.000 6       450.756 6        37.977 6
G26  20648474.243 9 108508442.276 9     -1455.918 9        55.876 9  20648477.057 6         0.000 6     -1134.482 6        37.977 6
G20  21954492.452 9 115371603.334 9      2578.925 9        55.311 9  21954492.779 6         0.000 6      2009.553 6        37.977 6
> 2019 07 03 12 00 39.0000000  0  8       0.000000000000
G07  25355521.548 9 133244118.887 9      2182.616 9        54.129 9  25355522.223 6         0.000 6      1700.741 6        37.977 6
G10  23823234.552 9 125191887.656 9      3549.692 9        54.664 9  23823238.293 6         0.000 6      2765.997 6        37.977 6
G21  21166085.252 9 111228508.071 9     -1257.313 9        55.711 9  21166084.537 6         0.000 6      -979.725 6        37.977 6
G29  24287801.164 9 127633200.391 9     -3146.233 9        54.479 9  24287802.726 6         0.000 6     -2451.612 6        37.977 6
G27  22014293.445 9 115685865.815 9      2519.654 9        55.370 9  22014295.381 6         0.000 6      1963.368 6        37.977 6
G16  20499349.854 9 107724790.253 9       577.860 9        55.976 9  20499349.027 6         0.000 6       450.280 6        37.977 6
G26  20648751.349 9 108509898.477 9     -1456.488 9        55.875 9  20648754.163 6         0.000 6     -1134.926 6        37.977 6
G20  21954001.742 9 115369024.638 9      2578.477 9        55.312 9  21954002.069 6         0.000 6      2009.204 6        37.977 6
> 2019 07 03 12 00 40.0000000  0  8       0.000000000000
G07  25355106.253 9 133241936.500 9      2182.295 9        54.129 9  25355106.927 6         0.000 6      1700.491 6        37.977 6
G10  23822559.081 9 125188338.042 9      3549.466 9        54.665 9  23822562.821 6         0.000 6      2765.820 6        37.977 6
G21  21166324.546 9 111229765.569 9     -1257.782 9        55.711 9  21166323.831 6         0.000 6      -980.090 6        37.977 6
G29  24288399.881 9 127636346.660 9     -3146.605 9        54.479 9  24288401.444 6         0.000 6     -2451.903 6        37.977 6
G27  22013813.993 9 115683346.279 9      2519.635 9        55.371 9  22013815.929 6         0.000 6      1963.353 6        37.977 6
G16  20499239.948 9 107724212.694 9       577.355 9        55.976 9  20499239.122 6         0.000 6       449.887 6        37.977 6
G26  20649028.563 9 108511355.244 9     -1457.028 9        55.875 9  20649031.377 6         0.000 6     -1135.347 6        37.977 6
G20  21953511.116 9 115366446.388 9      2577.887 9        55.312 9  21953511.443 6         0.000 6      2008.744 6        37.977 6
> 2019 07 03 12 00 41.0000000  0  8       0.000000000000
G07  25354691.238 9 133239755.583 9      2178.989 9        54.129 9  25354691.912 6         0.000 6      1697.914 6        37.977 6
G10  23821883.532 9 125184788.016 9      3550.698 9        54.665 9  23821887.270 6         0.000 6      2766.781 6        37.977 6
G21  21166563.696 9 111231022.307 9     -1254.509 9        55.711 9  21166562.981 6         0.000 6      -977.539 6        37.977 6
G29  24288998.011 9 127639489.840 9     -3136.632 9        54.479 9  24288999.573 6         0.000 6     -2444.131 6        37.977 6
G27  22013335.036 9 115680829.345 9      2512.004 9        55.371 9  22013336.972 6         0.000 6      1957.406 6        37.977 6
G16  20499130.375 9 107723636.883 9       573.167 9        55.976 9  20499129.548 6         0.000 6       446.624 6        37.977 6
G26  20649305.983 9 108512813.098 9     -1459.415 9        55.875 9  20649308.798 6         0.000 6     -1137.207 6        37.977 6
G20  21953020.333 9 115363867.309 9      2581.235 9        55.312 9  21953020.659 6         0.000 6      2011.353 6        37.977 6
> 2019 07 03 12 00 42.0000000  0  8       0.000000000000
G07  25354276.519 9 133237576.224 9      2181.110 9        54.129 9  25354277.193 6         0.000 6      1699.567 6        37.977 6
G10  23821208.167 9 125181238.960 9      3546.175 9        54.665 9  23821211.905 6         0.000 6      2763.256 6        37.977 6
G21  21166801.938 9 111232274.279 9     -1249.566 9        55.711 9  21166801.223 6         0.000 6      -973.688 6        37.977 6
G29  24289593.673 9 127642620.057 9     -3124.663 9        54.479 9  24289595.236 6         0.000 6     -2434.805 6        37.977 6
G27  22012857.833 9 115678321.633 9      2504.305 9        55.371 9  22012859.769 6         0.000 6      1951.407 6        37.977 6
G16  20499021.767 9 107723066.142 9       568.686 9        55.976 9  20499020.940 6         0.000 6       443.132 6        37.977 6
G26  20649584.193 9 108514275.100 9     -1464.980 9        55.875 9  20649587.008 6         0.000 6     -1141.543 6        37.977 6
G20  21952529.033 9 115361285.517 9      2581.266 9        55.312 9  21952529.359 6         0.000 6      2011.377 6        37.977 6
> 2019 07 03 12 00 43.0000000  0  8       0.000000000000
G07  25353860.457 9 133235389.810 9      2191.180 9        54.129 9  25353861.131 6         0.000 6      1707.414 6        37.977 6
G10  23820534.536 9 125177699.017 9      3534.574 9        54.665 9  23820538.273 6         0.000 6      2754.216 6        37.977 6
G21  21167039.286 9 111233521.549 9     -1245.866 9        55.711 9  21167038.571 6         0.000 6      -970.805 6        37.977 6
G29  24290187.533 9 127645740.804 9     -3118.829 9        54.478 9  24290189.097 6         0.000 6     -2430.259 6        37.977 6
G27  22012381.560 9 115675818.801 9      2502.558 9        55.371 9  22012383.496 6         0.000 6      1950.046 6        37.977 6
G16  20498913.787 9 107722498.705 9       566.813 9        55.976 9  20498912.960 6         0.000 6       441.672 6        37.977 6
G26  20649863.755 9 108515744.204 9     -1472.358 9        55.875 9  20649866.570 6         0.000 6     -1147.293 6        37.977 6
G20  21952038.453 9 115358707.506 9      2574.770 9        55.312 9  21952038.779 6         0.000 6      2006.315 6        37.977 6
> 2019 07 03 12 00 44.0000000  0  8       0.000000000000
G07  25353443.207 9 133233197.147 9      2193.354 9        54.129 9  25353443.880 6         0.000 6      1709.108 6        37.977 6
G10  23819862.273 9 125174166.263 9      3531.774 9        54.666 9  23819866.010 6         0.000 6      2752.034 6        37.977 6
G21  21167276.340 9 111234767.275 9     -1245.751 9        55.711 9  21167275.625 6         0.000 6      -970.715 6        37.977 6
G29  24290781.012 9 127648859.545 9     -3118.769 9        54.478 9  24290782.577 6         0.000 6     -2430.212 6        37.977 6
G27  22011905.301 9 115673316.045 9      2502.839 9        55.371 9  22011907.236 6         0.000 6      1950.265 6        37.977 6
G16  20498805.970 9 107721932.121 9       566.335 9        55.976 9  20498805.143 6         0.000 6       441.300 6        37.977 6
G26  20650144.151 9 108517217.691 9     -1474.212 9        55.875 9  20650146.965 6         0.000 6     -1148.737 6        37.977 6
G20  21951548.750 9 115356134.103 9      2572.571 9        55.313 9  21951549.076 6         0.000 6      2004.602 6        37.977 6
> 2019 07 03 12 00 45.0000000  0  8       0.000000000000
G07  25353025.829 9 133231003.816 9      2193.202 9        54.129 9  25353026.502 6         0.000 6      1708.989 6        37.977 6
G10  23819190.252 9 125170634.781 9      3531.330 9        54.666 9  23819193.989 6         0.000 6      2751.689 6        37.977 6
G21  21167513.427 9 111236013.178 9     -1246.067 9        55.711 9  21167512.712 6         0.000 6      -970.961 6        37.977 6
G29  24291374.503 9 127651978.350 9     -3118.857 9        54.478 9  24291376.068 6         0.000 6     -2430.281 6        37.977 6
G27  22011429.040 9 115670813.279 9      2502.674 9        55.372 9  22011430.975 6         0.000 6      1950.136 6        37.977 6
G16  20498698.256 9 107721366.082 9       565.740 9        55.976 9  20498697.429 6         0.000 6       440.836 6        37.977 6
G26  20650424.758 9 108518692.291 9     -1474.932 9        55.875 9  20650427.573 6         0.000 6     -1149.298 6        37.977 6
G20  21951059.276 9 115353561.903 9      2571.920 9        55.313 9  21951059.601 6         0.000 6      2004.095 6        37.977 6
> 2019 07 03 12 00 46.0000000  0  8       0.000000000000
G07  25352608.517 9 133228810.828 9      2192.774 9        54.130 9  25352609.190 6         0.000 6      1708.656 6        37.977 6
G10  23818518.279 9 125167103.547 9      3531.163 9        54.666 9  23818522.015 6         0.000 6      2751.559 6        37.977 6
G21  21167750.579 9 111237259.420 9     -1246.426 9        55.711 9  21167749.865 6         0.000 6      -971.241 6        37.977 6
G29  24291968.009 9 127655097.237 9     -3118.945 9        54.478 9  24291969.575 6         0.000 6     -2430.349 6        37.977 6
G27  22010952.818 9 115668310.722 9      2502.445 9        55.372 9  22010954.754 6         0.000 6      1949.958 6        37.977 6
G16  20498590.658 9 107720800.648 9       565.125 9        55.976 9  20498589.831 6         0.000 6       440.357 6        37.977 6
G26  20650705.484 9 108520167.517 9     -1475.523 9        55.875 9  20650708.299 6         0.000 6     -1149.758 6        37.977 6
G20  21950569.900 9 115350990.220 9      2571.456 9        55.313 9  21950570.225 6         0.000 6      2003.733 6        37.977 6
> 2019 07 03 12 00 47.0000000  0  8       0.000000000000
G07  25352191.288 9 133226618.283 9      2192.320 9        54.130 9  25352191.961 6         0.000 6      1708.302 6        37.977 6
G10  23817846.334 9 125163572.464 9      3531.026 9        54.666 9  23817850.069 6         0.000 6      2751.451 6        37.977 6
G21  21167987.800 9 111238506.022 9     -1246.784 9        55.710 9  21167987.085 6         0.000 6      -971.520 6        37.977 6
G29  24292561.533 9 127658216.214 9     -3119.030 9        54.477 9  24292563.099 6         0.000 6     -2430.415 6        37.977 6
G27  22010476.641 9 115665808.395 9      2502.212 9        55.372 9  22010478.576 6         0.000 6      1949.776 6        37.977 6
G16  20498483.176 9 107720235.827 9       564.514 9        55.976 9  20498482.349 6         0.000 6       439.881 6        37.977 6
G26  20650986.321 9 108521643.323 9     -1476.096 9        55.875 9  20650989.136 6         0.000 6     -1150.205 6        37.977 6
G20  21950080.610 9 115348418.989 9      2571.015 9        55.313 9  21950080.935 6         0.000 6      2003.389 6        37.977 6
> 2019 07 03 12 00 48.0000000  0  8       0.000000000000
G07  25351774.148 9 133224426.196 9      2191.861 9        54.130 9  25351774.820 6         0.000 6      1707.945 6        37.977 6
G10  23817174.415 9 125160041.517 9      3530.890 9        54.667 9  23817178.149 6         0.000 6      2751.345 6        37.977 6
G21  21168225.090 9 111239752.986 9     -1247.145 9        55.710 9  21168224.375 6         0.000 6      -971.802 6        37.977 6
G29  24293155.072 9 127661335.276 9     -3119.116 9        54.477 9  24293156.640 6         0.000 6     -2430.482 6        37.977 6
G27  22010000.508 9 115663306.304 9      2501.975 9        55.372 9  22010002.443 6         0.000 6      1949.592 6        37.977 6
G16  20498375.811 9 107719671.621 9       563.898 9        55.976 9  20498374.984 6         0.000 6       439.401 6        37.977 6
G26  20651267.268 9 108523119.705 9     -1476.671 9        55.874 9  20651270.083 6         0.000 6     -1150.653 6        37.977 6
G20  21949591.404 9 115345848.200 9      2570.573 9        55.313 9  21949591.729 6         0.000 6      2003.045 6        37.977 6
> 2019 07 03 12 00 49.0000000  0  8       0.000000000000
G07  25351357.093 9 133222234.565 9      2191.403 9        54.130 9  25351357.766 6         0.000 6      1707.588 6        37.977 6
G10  23816502.523 9 125156510.710 9      3530.754 9        54.667 9  23816506.257 6         0.000 6      2751.240 6        37.977 6
G21  21168462.448 9 111241000.314 9     -1247.507 9        55.710 9  21168461.733 6         0.000 6      -972.083 6        37.977 6
G29  24293748.629 9 127664454.425 9     -3119.201 9        54.477 9  24293750.196 6         0.000 6     -2430.549 6        37.977 6
G27  22009524.421 9 115660804.451 9      2501.739 9        55.372 9  22009526.356 6         0.000 6      1949.408 6        37.977 6
G16  20498268.564 9 107719108.034 9       563.282 9        55.976 9  20498267.737 6         0.000 6       438.921 6        37.977 6
G26  20651548.325 9 108524596.666 9     -1477.246 9        55.874 9  20651551.140 6         0.000 6     -1151.101 6        37.977 6
G20  21949102.283 9 115343277.857 9      2570.130 9        55.314 9  21949102.608 6         0.000 6      2002.700 6        37.977 6
> 2019 07 03 12 00 50.0000000  0  8       0.000000000000
G07  25350940.127 9 133220043.395 9      2190.945 9        54.130 9  25350940.799 6         0.000 6      1707.230 6        37.977 6
G10  23815830.656 9 125152980.035 9      3530.618 9        54.667 9  23815834.389 6         0.000 6      2751.134 6        37.977 6
G21  21168699.875 9 111242248.000 9     -1247.868 9        55.710 9  21168699.160 6         0.000 6      -972.365 6        37.977 6
G29  24294342.201 9 127667573.659 9     -3119.287 9        54.477 9  24294343.769 6         0.000 6     -2430.616 6        37.977 6
G27  22009048.378 9 115658302.833 9      2501.503 9        55.373 9  22009050.313 6         0.000 6      1949.223 6        37.977 6
G16  20498161.433 9 107718545.060 9       562.667 9        55.976 9  20498160.607 6         0.000 6       438.442 6        37.977 6
G26  20651829.490 9 108526074.198 9     -1477.821 9        55.874 9  20651832.305 6         0.000 6     -1151.550 6        37.977 6
G20  21948613.246 9 115340707.952 9      2569.688 9        55.314 9  21948613.570 6         0.000 6      2002.356 6        37.977 6
> 2019 07 03 12 00 51.0000000  0  8       0.000000000000
G07  25350523.248 9 133217852.684 9      2190.489 9        54.130 9  25350523.920 6         0.000 6      1706.875 6        37.977 6
G10  23815158.815 9 125149449.499 9      3530.477 9        54.667 9  23815162.547 6         0.000 6      2751.024 6        37.977 6
G21  21168937.372 9 111243496.055 9     -1248.232 9        55.710 9  21168936.658 6         0.000 6      -972.648 6        37.977 6
G29  24294935.790 9 127670692.980 9     -3119.373 9        54.477 9  24294937.359 6         0.000 6     -2430.683 6        37.977 6
G27  22008572.382 9 115655801.457 9      2501.264 9        55.373 9  22008574.316 6         0.000 6      1949.038 6        37.977 6
G16  20498054.421 9 107717982.708 9       562.048 9        55.976 9  20498053.595 6         0.000 6       437.959 6        37.977 6
G26  20652110.766 9 108527552.313 9     -1478.401 9        55.874 9  20652113.581 6         0.000 6     -1152.001 6        37.977 6
G20  21948124.294 9 115338138.494 9      2569.242 9        55.314 9  21948124.617 6         0.000 6      2002.008 6        37.977 6
> 2019 07 03 12 00 52.0000000  0  8       0.000000000000
G07  25350106.456 9 133215662.431 9      2190.030 9        54.130 9  25350107.127 6         0.000 6      1706.518 6        37.977 6
G10  23814487.000 9 125145919.096 9      3530.341 9        54.668 9  23814490.731 6         0.000 6      2750.918 6        37.977 6
G21  21169174.937 9 111244744.464 9     -1248.593 9        55.710 9  21169174.222 6         0.000 6      -972.930 6        37.977 6
G29  24295529.395 9 127673812.385 9     -3119.459 9        54.476 9  24295530.965 6         0.000 6     -2430.750 6        37.977 6
G27  22008096.429 9 115653300.312 9      2501.028 9        55.373 9  22008098.363 6         0.000 6      1948.853 6        37.977 6
G16  20497947.525 9 107717420.965 9       561.432 9        55.976 9  20497946.698 6         0.000 6       437.480 6        37.977 6
G26  20652392.150 9 108529030.995 9     -1478.976 9        55.874 9  20652394.966 6         0.000 6     -1152.450 6        37.977 6
G20  21947635.424 9 115335569.474 9      2568.799 9        55.314 9  21947635.748 6         0.000 6      2001.663 6        37.977 6
> 2019 07 03 12 00 53.0000000  0  8       0.000000000000
G07  25349689.702 9 133213472.379 9      2192.721 9        54.131 9  25349690.373 6         0.000 6      1708.614 6        37.977 6
G10  23813815.259 9 125142389.084 9      3527.086 9        54.668 9  23813818.990 6         0.000 6      2748.381 6        37.977 6
G21  21169412.565 9 111245993.210 9     -1248.583 9        55.710 9  21169411.851 6         0.000 6      -972.922 6        37.977 6
G29  24296123.023 9 127676931.912 9     -3119.858 9        54.476 9  24296124.594 6         0.000 6     -2431.061 6        37.977 6
G27  22007620.506 9 115650799.321 9      2501.732 9        55.373 9  22007622.440 6         0.000 6      1949.402 6        37.977 6
G16  20497840.741 9 107716859.811 9       561.134 9        55.976 9  20497839.914 6         0.000 6       437.247 6        37.977 6
G26  20652673.665 9 108530510.365 9     -1480.939 9        55.874 9  20652676.481 6         0.000 6     -1153.979 6        37.977 6
G20  21947146.674 9 115333001.079 9      2566.164 9        55.314 9  21947146.997 6         0.000 6      1999.609 6        37.977 6
> 2019 07 03 12 00 54.0000000  0  8       0.000000000000
G07  25349271.034 9 133211272.268 9      2207.527 9        54.131 9  25349271.705 6         0.000 6      1720.152 6        37.977 6
G10  23813145.480 9 125138869.385 9      3512.489 9        54.668 9  23813149.210 6         0.000 6      2737.007 6        37.977 6
G21  21169650.149 9 111247241.720 9     -1248.927 9        55.710 9  21169649.434 6         0.000 6      -973.190 6        37.977 6
G29  24296717.168 9 127680054.156 9     -3125.842 9        54.476 9  24296718.739 6         0.000 6     -2435.724 6        37.977 6
G27  22007143.828 9 115648294.364 9      2508.982 9        55.373 9  22007145.762 6         0.000 6      1955.052 6        37.977 6
G16  20497733.770 9 107716297.675 9       563.531 9        55.976 9  20497732.943 6         0.000 6       439.115 6        37.977 6
G26  20652956.076 9 108531994.442 9     -1486.861 9        55.874 9  20652958.892 6         0.000 6     -1158.593 6        37.977 6
G20  21946659.456 9 115330440.737 9      2554.291 9        55.315 9  21946659.779 6         0.000 6      1990.358 6        37.977 6
> 2019 07 03 12 00 55.0000000  0  8       0.000000000000
G07  25348849.550 9 133209057.359 9      2222.789 9        54.131 9  25348850.221 6         0.000 6      1732.044 6        37.977 6
G10  23812478.368 9 125135363.698 9      3498.761 9        54.668 9  23812482.098 6         0.000 6      2726.310 6        37.977 6
G21  21169888.098 9 111248492.151 9     -1252.827 9        55.710 9  21169887.384 6         0.000 6      -976.229 6        37.977 6
G29  24297313.186 9 127683186.239 9     -3140.697 9        54.476 9  24297314.757 6         0.000 6     -2447.299 6        37.977 6
G27  22006665.282 9 115645779.590 9      2522.249 9        55.373 9  22006667.215 6         0.000 6      1965.389 6        37.977 6
G16  20497626.098 9 107715731.853 9       568.928 9        55.976 9  20497625.271 6         0.000 6       443.321 6        37.977 6
G26  20653239.383 9 108533483.228 9     -1490.213 9        55.874 9  20653242.199 6         0.000 6     -1161.206 6        37.977 6
G20  21946174.633 9 115327892.975 9      2540.471 9        55.315 9  21946174.955 6         0.000 6      1979.589 6        37.977 6
> 2019 07 03 12 00 56.0000000  0  8       0.000000000000
G07  25348426.065 9 133206831.931 9      2226.515 9        54.131 9  25348426.735 6         0.000 6      1734.947 6        37.977 6
G10  23811813.009 9 125131867.221 9      3495.462 9        54.668 9  23811816.738 6         0.000 6      2723.739 6        37.977 6
G21  21170126.805 9 111249746.560 9     -1255.358 9        55.710 9  21170126.090 6         0.000 6      -978.201 6        37.977 6
G29  24297911.715 9 127686331.519 9     -3147.727 9        54.476 9  24297913.287 6         0.000 6     -2452.777 6        37.977 6
G27  22006184.632 9 115643253.762 9      2527.613 9        55.374 9  22006186.566 6         0.000 6      1969.569 6        37.977 6
G16  20497517.566 9 107715161.516 9       570.919 9        55.976 9  20497516.740 6         0.000 6       444.872 6        37.977 6
G26  20653523.002 9 108534973.654 9     -1490.583 9        55.873 9  20653525.818 6         0.000 6     -1161.494 6        37.977 6
G20  21945691.769 9 115325355.513 9      2535.919 9        55.315 9  21945692.091 6         0.000 6      1976.042 6        37.977 6
> 2019 07 03 12 00 57.0000000  0  8       0.000000000000
G07  25348002.359 9 133204605.346 9      2226.499 9        54.131 9  25348003.029 6         0.000 6      1734.936 6        37.977 6
G10  23811147.897 9 125128372.047 9      3495.024 9        54.669 9  23811151.626 6         0.000 6      2723.398 6        37.977 6
G21  21170365.767 9 111251002.313 9     -1256.032 9        55.709 9  21170365.052 6         0.000 6      -978.726 6        37.977 6
G29  24298510.838 9 127689479.922 9     -3148.759 9        54.475 9  24298512.411 6         0.000 6     -2453.581 6        37.977 6
G27  22005703.572 9 115640725.775 9      2528.104 9        55.374 9  22005705.505 6         0.000 6      1969.952 6        37.977 6
G16  20497408.939 9 107714590.677 9       570.639 9        55.976 9  20497408.112 6         0.000 6       444.654 6        37.977 6
G26  20653806.695 9 108536464.470 9     -1491.079 9        55.873 9  20653809.511 6         0.000 6     -1161.880 6        37.977 6
G20  21945209.303 9 115322820.142 9      2535.009 9        55.315 9  21945209.625 6         0.000 6      1975.333 6        37.977 6
> 2019 07 03 12 00 58.0000000  0  8       0.000000000000
G07  25347578.709 9 133202379.054 9      2226.084 9        54.131 9  25347579.379 6         0.000 6      1734.612 6        37.977 6
G10  23810482.832 9 125124877.118 9      3494.859 9        54.669 9  23810486.560 6         0.000 6      2723.269 6        37.977 6
G21  21170604.819 9 111252258.544 9     -1256.424 9        55.709 9  21170604.105 6         0.000 6      -979.032 6        37.977 6
G29  24299110.046 9 127692628.774 9     -3148.938 9        54.475 9  24299111.620 6         0.000 6     -2453.721 6        37.977 6
G27  22005222.504 9 115638197.749 9      2527.931 9        55.374 9  22005224.437 6         0.000 6      1969.817 6        37.977 6
G16  20497300.406 9 107714020.329 9       570.043 9        55.977 9  20497299.579 6         0.000 6       444.189 6        37.977 6
G26  20654090.492 9 108537955.833 9     -1491.658 9        55.873 9  20654093.309 6         0.000 6     -1162.331 6        37.977 6
G20  21944726.953 9 115320285.384 9      2534.525 9        55.315 9  21944727.275 6         0.000 6      1974.956 6        37.977 6
> 2019 07 03 12 00 59.0000000  0  8       0.000000000000
G07  25347155.143 9 133200153.206 9      2225.629 9        54.131 9  25347155.813 6         0.000 6      1734.257 6        37.977 6
G10  23809817.795 9 125121382.334 9      3494.723 9        54.669 9  23809821.522 6         0.000 6      2723.164 6        37.977 6
G21  21170843.944 9 111253515.151 9     -1256.787 9        55.709 9  21170843.230 6         0.000 6      -979.314 6        37.977 6
G29  24299709.279 9 127695777.754 9     -3149.040 9        54.475 9  24299710.853 6         0.000 6     -2453.800 6        37.977 6
G27  22004741.477 9 115635669.938 9      2527.701 9        55.374 9  22004743.410 6         0.000 6      1969.638 6        37.977 6
G16  20497191.990 9 107713450.599 9       569.422 9        55.977 9  20497191.163 6         0.000 6       443.706 6        37.977 6
G26  20654374.400 9 108539447.778 9     -1492.238 9        55.873 9  20654377.217 6         0.000 6     -1162.783 6        37.977 6
G20  21944244.691 9 115317751.081 9      2534.085 9        55.315 9  21944245.012 6         0.000 6      1974.613 6        37.977 6
> 2019 07 03 12 01  0.0000000  0  8       0.000000000000
G07  25346731.663 9 133197927.806 9      2225.172 9        54.132 9  25346732.333 6         0.000 6      1733.901 6        37.977 6
G10  23809152.785 9 125117887.693 9      3494.588 9        54.669 9  23809156.511 6         0.000 6      2723.058 6        37.977 6
G21  21171083.137 9 111254772.120 9     -1257.147 9        55.709 9  21171082.423 6         0.000 6      -979.595 6        37.977 6
G29  24300308.530 9 127698926.829 9     -3149.131 9        54.475 9  24300310.105 6         0.000 6     -2453.871 6        37.977 6
G27  22004260.495 9 115633142.362 9      2527.461 9        55.374 9  22004262.427 6         0.000 6      1969.451 6        37.977 6
G16  20497083.693 9 107712881.494 9       568.795 9        55.977 9  20497082.866 6         0.000 6       443.217 6        37.977 6
G26  20654658.420 9 108540940.311 9     -1492.822 9        55.873 9  20654661.237 6         0.000 6     -1163.239 6        37.977 6
G20  21943762.513 9 115315217.224 9      2533.647 9        55.316 9  21943762.834 6         0.000 6      1974.272 6        37.977 6
> 2019 07 03 12 01  1.0000000  0  8       0.000000000000
G07  25346308.271 9 133195702.867 9      2224.714 9        54.132 9  25346308.940 6         0.000 6      1733.545 6        37.977 6
G10  23808487.800 9 125114393.184 9      3494.452 9        54.670 9  23808491.526 6         0.000 6      2722.952 6        37.977 6
G21  21171322.399 9 111256029.447 9     -1257.508 9        55.709 9  21171321.684 6         0.000 6      -979.876 6        37.977 6
G29  24300907.799 9 127702075.996 9     -3149.223 9        54.474 9  24300909.374 6         0.000 6     -2453.942 6        37.977 6
G27  22003779.558 9 115630615.023 9      2527.222 9        55.375 9  22003781.490 6         0.000 6      1969.264 6        37.977 6
G16  20496975.514 9 107712313.011 9       568.169 9        55.977 9  20496974.687 6         0.000 6       442.729 6        37.977 6
G26  20654942.551 9 108542433.424 9     -1493.407 9        55.873 9  20654945.367 6         0.000 6     -1163.694 6        37.977 6
G20  21943280.418 9 115312683.801 9      2533.209 9        55.316 9  21943280.739 6         0.000 6      1973.930 6        37.977 6
> 2019 07 03 12 01  2.0000000  0  8       0.000000000000
G07  25345884.965 9 133193478.386 9      2224.257 9        54.132 9  25345885.635 6         0.000 6      1733.188 6        37.977 6
G10  23807822.841 9 125110898.810 9      3494.316 9        54.670 9  23807826.566 6         0.000 6      2722.847 6        37.977 6
G21  21171561.729 9 111257287.135 9     -1257.868 9        55.709 9  21171561.015 6         0.000 6      -980.157 6        37.977 6
G29  24301507.085 9 127705225.254 9     -3149.314 9        54.474 9  24301508.661 6         0.000 6     -2454.014 6        37.977 6
G27  22003298.666 9 115628087.924 9      2526.982 9        55.375 9  22003300.598 6         0.000 6      1969.078 6        37.977 6
G16  20496867.455 9 107711745.156 9       567.542 9        55.977 9  20496866.628 6         0.000 6       442.241 6        37.977 6
G26  20655226.792 9 108543927.122 9     -1493.991 9        55.873 9  20655229.609 6         0.000 6     -1164.150 6        37.977 6
G20  21942798.406 9 115310150.815 9      2532.771 9        55.316 9  21942798.727 6         0.000 6      1973.589 6        37.977 6
> 2019 07 03 12 01  3.0000000  0  8       0.000000000000
G07  25345461.747 9 133191254.365 9      2223.799 9        54.132 9  25345462.417 6         0.000 6      1732.831 6        37.977 6
G10  23807157.907 9 125107404.571 9      3494.181 9        54.670 9  23807161.631 6         0.000 6      2722.741 6        37.977 6
G21  21171801.128 9 111258545.187 9     -1258.229 9        55.709 9  21171800.414 6         0.000 6      -980.438 6        37.977 6
G29  24302106.388 9 127708374.605 9     -3149.405 9        54.474 9  24302107.965 6         0.000 6     -2454.085 6        37.977 6
G27  22002817.821 9 115625561.068 9      2526.742 9        55.375 9  22002819.753 6         0.000 6      1968.891 6        37.977 6
G16  20496759.515 9 107711177.931 9       566.915 9        55.977 9  20496758.688 6         0.000 6       441.752 6        37.977 6
G26  20655511.145 9 108545421.406 9     -1494.576 9        55.873 9  20655513.962 6         0.000 6     -1164.605 6        37.977 6
G20  21942316.477 9 115307618.269 9      2532.332 9        55.316 9  21942316.798 6         0.000 6      1973.247 6        37.977 6
> 2019 07 03 12 01  4.0000000  0  8       0.000000000000
G07  25345038.616 9 133189030.796 9      2223.341 9        54.132 9  25345039.285 6         0.000 6      1732.475 6        37.977 6
G10  23806493.000 9 125103910.473 9      3494.045 9        54.670 9  23806496.724 6         0.000 6      2722.635 6        37.977 6
G21  21172040.596 9 111259803.597 9     -1258.589 9        55.709 9  21172039.882 6         0.000 6      -980.719 6        37.977 6
G29  24302705.709 9 127711524.046 9     -3149.497 9        54.474 9  24302707.286 6         0.000 6     -2454.156 6        37.977 6
G27  22002337.021 9 115623034.451 9      2526.502 9        55.375 9  22002338.953 6         0.000 6      1968.704 6        37.977 6
G16  20496651.695 9 107710611.333 9       566.289 9        55.977 9  20496650.868 6         0.000 6       441.264 6        37.977 6
G26  20655795.610 9 108546916.277 9     -1495.160 9        55.873 9  20655798.427 6         0.000 6     -1165.060 6        37.977 6
G20  21941834.633 9 115305086.164 9      2531.894 9        55.316 9  21941834.953 6         0.000 6      1972.905 6        37.977 6
> 2019 07 03 12 01  5.0000000  0  8       0.000000000000
G07  25344615.571 9 133186807.687 9      2222.883 9        54.132 9  25344616.240 6         0.000 6      1732.118 6        37.977 6
G10  23805828.119 9 125100416.507 9      3493.909 9        54.671 9  23805831.842 6         0.000 6      2722.529 6        37.977 6
G21  21172280.132 9 111261062.366 9     -1258.949 9        55.709 9  21172279.418 6         0.000 6      -981.000 6        37.977 6
G29  24303305.047 9 127714673.578 9     -3149.588 9        54.474 9  24303306.624 6         0.000 6     -2454.227 6        37.977 6
G27  22001856.266 9 115620508.071 9      2526.263 9        55.375 9  22001858.198 6         0.000 6      1968.517 6        37.977 6
G16  20496543.994 9 107710045.358 9       565.662 9        55.977 9  20496543.167 6         0.000 6       440.775 6        37.977 6
G26  20656080.185 9 108548411.727 9     -1495.744 9        55.872 9  20656083.002 6         0.000 6     -1165.516 6        37.977 6
G20  21941352.871 9 115302554.494 9      2531.455 9        55.317 9  21941353.191 6         0.000 6      1972.564 6        37.977 6
> 2019 07 03 12 01  6.0000000  0  8       0.000000000000
G07  25344192.614 9 133184585.036 9      2222.426 9        54.132 9  25344193.283 6         0.000 6      1731.761 6        37.977 6
G10  23805163.263 9 125096922.677 9      3493.773 9        54.671 9  23805166.985 6         0.000 6      2722.423 6        37.977 6
G21  21172519.736 9 111262321.495 9     -1259.310 9        55.709 9  21172519.022 6         0.000 6      -981.280 6        37.977 6
G29  24303904.402 9 127717823.201 9     -3149.679 9        54.473 9  24303905.980 6         0.000 6     -2454.298 6        37.977 6
G27  22001375.557 9 115617981.931 9      2526.023 9        55.376 9  22001377.489 6         0.000 6      1968.330 6        37.977 6
G16  20496436.411 9 107709480.009 9       565.035 9        55.977 9  20496435.585 6         0.000 6       440.287 6        37.977 6
G26  20656364.872 9 108549907.762 9     -1496.329 9        55.872 9  20656367.689 6         0.000 6     -1165.971 6        37.977 6
G20  21940871.193 9 115300023.263 9      2531.017 9        55.317 9  21940871.513 6         0.000 6      1972.222 6        37.977 6
> 2019 07 03 12 01  7.0000000  0  8       0.000000000000
G07  25343769.759 9 133182362.922 9      2222.072 9        54.133 9  25343770.428 6         0.000 6      1731.486 6        37.977 6
G10  23804498.423 9 125093428.929 9      3493.575 9        54.671 9  23804502.144 6         0.000 6      2722.269 6        37.977 6
G21  21172759.399 9 111263580.932 9     -1259.781 9        55.708 9  21172758.685 6         0.000 6      -981.648 6        37.977 6
G29  24304503.744 9 127720972.756 9     -3150.075 9        54.473 9  24304505.323 6         0.000 6     -2454.606 6        37.977 6
G27  22000894.918 9 115615456.157 9      2526.007 9        55.376 9  22000896.849 6         0.000 6      1968.318 6        37.977 6
G16  20496328.960 9 107708915.347 9       564.514 9        55.977 9  20496328.133 6         0.000 6       439.881 6        37.977 6
G26  20656649.672 9 108551404.396 9     -1496.870 9        55.872 9  20656652.489 6         0.000 6     -1166.393 6        37.977 6
G20  21940389.583 9 115297492.388 9      2530.449 9        55.317 9  21940389.902 6         0.000 6      1971.779 6        37.977 6
> 2019 07 03 12 01  8.0000000  0  8       0.000000000000
G07  25343346.593 9 133180139.172 9      2224.345 9        54.133 9  25343347.261 6         0.000 6      1733.257 6        37.977 6
G10  23803833.800 9 125089936.324 9      3492.774 9        54.671 9  23803837.521 6         0.000 6      2721.645 6        37.977 6
G21  21172999.639 9 111264843.398 9     -1265.380 9        55.708 9  21172998.925 6         0.000 6      -986.010 6        37.977 6
G29  24305104.494 9 127724129.707 9     -3163.984 9        54.473 9  24305106.074 6         0.000 6     -2465.445 6        37.977 6
G27  22000413.307 9 115612925.277 9      2535.598 9        55.376 9  22000415.238 6         0.000 6      1975.791 6        37.977 6
G16  20496221.135 9 107708348.724 9       568.713 9        55.977 9  20496220.308 6         0.000 6       443.153 6        37.977 6
G26  20656934.333 9 108552900.301 9     -1494.379 9        55.872 9  20656937.151 6         0.000 6     -1164.451 6        37.977 6
G20  21939908.583 9 115294964.720 9      2525.611 9        55.317 9  21939908.902 6         0.000 6      1968.010 6        37.977 6
> 2019 07 03 12 01  9.0000000  0  8       0.000000000000
G07  25342923.726 9 133177916.996 9      2218.419 9        54.133 9  25342924.394 6         0.000 6      1728.639 6        37.977 6
G10  23803168.627 9 125086440.824 9      3499.726 9        54.672 9  23803172.347 6         0.000 6      2727.062 6        37.977 6
G21  21173240.971 9 111266111.608 9     -1270.979 9        55.708 9  21173240.257 6         0.000 6      -990.374 6        37.977 6
G29  24305707.671 9 127727299.415 9     -3174.656 9        54.473 9  24305709.252 6         0.000 6     -2473.760 6        37.977 6
G27  21999930.187 9 115610386.469 9      2541.117 9        55.376 9  21999932.119 6         0.000 6      1980.092 6        37.977 6
G16  20496112.632 9 107707778.536 9       571.284 9        55.977 9  20496111.805 6         0.000 6       445.156 6        37.977 6
G26  20657218.242 9 108554392.249 9     -1489.022 9        55.872 9  20657221.059 6         0.000 6     -1160.277 6        37.977 6
G20  21939427.967 9 115292439.074 9      2526.910 9        55.317 9  21939428.286 6         0.000 6      1969.022 6        37.977 6
> 2019 07 03 12 01 10.0000000  0  8       0.000000000000
G07  25342502.729 9 133175704.645 9      2208.930 9        54.133 9  25342503.397 6         0.000 6      1721.245 6        37.977 6
G10  23802501.477 9 125082934.943 9      3509.140 9        54.672 9  23802505.197 6         0.000 6      2734.397 6        37.977 6
G21  21173483.237 9 111267384.721 9     -1274.084 9        55.708 9  21173482.523 6         0.000 6      -992.793 6        37.977 6
G29  24306312.263 9 127730476.555 9     -3177.857 9        54.473 9  24306313.844 6         0.000 6     -2476.255 6        37.977 6
G27  21999446.601 9 115607845.209 9      2540.839 9        55.376 9  21999448.532 6         0.000 6      1979.875 6        37.977 6
G16  20496003.895 9 107707207.122 9       571.120 9        55.977 9  20496003.068 6         0.000 6       445.029 6        37.977 6
G26  20657500.974 9 108555878.015 9     -1484.325 9        55.872 9  20657503.792 6         0.000 6     -1156.617 6        37.977 6
G20  21938946.490 9 115289908.899 9      2532.000 9        55.318 9  21938946.809 6         0.000 6      1972.988 6        37.977 6
> 2019 07 03 12 01 11.0000000  0  8       0.000000000000
G07  25342082.607 9 133173496.892 9      2207.058 9        54.133 9  25342083.275 6         0.000 6      1719.786 6        37.977 6
G10  23801833.542 9 125079424.926 9      3510.431 9        54.672 9  23801837.261 6         0.000 6      2735.404 6        37.977 6
G21  21173725.752 9 111268659.149 9     -1274.689 9        55.708 9  21173725.039 6         0.000 6      -993.264 6        37.977 6
G29  24306917.002 9 127733654.468 9     -3177.967 9        54.472 9  24306918.583 6         0.000 6     -2476.341 6        37.977 6
G27  21998963.158 9 115605304.701 9      2540.278 9        55.377 9  21998965.089 6         0.000 6      1979.438 6        37.977 6
G16  20495895.284 9 107706636.366 9       570.416 9        55.977 9  20495894.457 6         0.000 6       444.480 6        37.977 6
G26  20657783.399 9 108557362.168 9     -1484.219 9        55.872 9  20657786.217 6         0.000 6     -1156.535 6        37.977 6
G20  21938464.588 9 115287376.488 9      2532.512 9        55.318 9  21938464.906 6         0.000 6      1973.387 6        37.977 6
> 2019 07 03 12 01 12.0000000  0  8       0.000000000000
G07  25341662.680 9 133171290.162 9      2206.461 9        54.133 9  25341663.347 6         0.000 6      1719.321 6        37.977 6
G10  23801165.523 9 125075914.477 9      3510.435 9        54.672 9  23801169.242 6         0.000 6      2735.407 6        37.977 6
G21  21173968.356 9 111269934.038 9     -1275.085 9        55.708 9  21173967.642 6         0.000 6      -993.573 6        37.977 6
G29  24307521.757 9 127736832.469 9     -3178.056 9        54.472 9  24307523.339 6         0.000 6     -2476.410 6        37.977 6
G27  21998479.787 9 115602764.571 9      2539.995 9        55.377 9  21998481.718 6         0.000 6      1979.218 6        37.977 6
G16  20495786.798 9 107706066.267 9       569.781 9        55.977 9  20495785.971 6         0.000 6       443.985 6        37.977 6
G26  20658065.883 9 108558846.627 9     -1484.731 9        55.872 9  20658068.701 6         0.000 6     -1156.934 6        37.977 6
G20  21937982.696 9 115284844.137 9      2532.162 9        55.318 9  21937983.014 6         0.000 6      1973.114 6        37.977 6
> 2019 07 03 12 01 13.0000000  0  8       0.000000000000
G07  25341242.849 9 133169083.942 9      2205.995 9        54.133 9  25341243.516 6         0.000 6      1718.958 6        37.977 6
G10  23800497.521 9 125072404.110 9      3510.308 9        54.673 9  23800501.238 6         0.000 6      2735.308 6        37.977 6
G21  21174211.031 9 111271209.304 9     -1275.456 9        55.708 9  21174210.317 6         0.000 6      -993.862 6        37.977 6
G29  24308126.528 9 127740010.554 9     -3178.140 9        54.472 9  24308128.111 6         0.000 6     -2476.475 6        37.977 6
G27  21997996.466 9 115600224.706 9      2539.741 9        55.377 9  21997998.397 6         0.000 6      1979.020 6        37.977 6
G16  20495678.431 9 107705496.796 9       569.156 9        55.977 9  20495677.604 6         0.000 6       443.498 6        37.977 6
G26  20658348.471 9 108560331.638 9     -1485.304 9        55.871 9  20658351.289 6         0.000 6     -1157.380 6        37.977 6
G20  21937500.882 9 115282312.191 9      2531.726 9        55.318 9  21937501.200 6         0.000 6      1972.775 6        37.977 6
> 2019 07 03 12 01 14.0000000  0  8       0.000000000000
G07  25340823.106 9 133166878.177 9      2205.543 9        54.134 9  25340823.772 6         0.000 6      1718.606 6        37.977 6
G10  23799829.545 9 125068893.883 9      3510.167 9        54.673 9  23799833.262 6         0.000 6      2735.198 6        37.977 6
G21  21174453.777 9 111272484.944 9     -1275.825 9        55.708 9  21174453.064 6         0.000 6      -994.150 6        37.977 6
G29  24308731.317 9 127743188.727 9     -3178.227 9        54.472 9  24308732.900 6         0.000 6     -2476.543 6        37.977 6
G27  21997513.193 9 115597685.091 9      2539.494 9        55.377 9  21997515.123 6         0.000 6      1978.827 6        37.977 6
G16  20495570.184 9 107704927.952 9       568.533 9        55.977 9  20495569.357 6         0.000 6       443.012 6        37.977 6
G26  20658631.170 9 108561817.229 9     -1485.883 9        55.871 9  20658633.988 6         0.000 6     -1157.831 6        37.977 6
G20  21937019.153 9 115279780.693 9      2531.280 9        55.318 9  21937019.471 6         0.000 6      1972.427 6        37.977 6
> 2019 07 03 12 01 15.0000000  0  8       0.000000000000
G07  25340403.447 9 133164672.860 9      2205.091 9        54.134 9  25340404.113 6         0.000 6      1718.254 6        37.977 6
G10  23799161.596 9 125065383.799 9      3510.025 9        54.673 9  23799165.312 6         0.000 6      2735.087 6        37.977 6
G21  21174696.593 9 111273760.949 9     -1276.195 9        55.708 9  21174695.880 6         0.000 6      -994.438 6        37.977 6
G29  24309336.121 9 127746366.987 9     -3178.315 9        54.471 9  24309337.706 6         0.000 6     -2476.612 6        37.977 6
G27  21997029.966 9 115595145.721 9      2539.246 9        55.377 9  21997031.896 6         0.000 6      1978.634 6        37.977 6
G16  20495462.054 9 107704359.727 9       567.910 9        55.977 9  20495461.227 6         0.000 6       442.527 6        37.977 6
G26  20658913.979 9 108563303.398 9     -1486.462 9        55.871 9  20658916.797 6         0.000 6     -1158.282 6        37.977 6
G20  21936537.509 9 115277249.640 9      2530.833 9        55.319 9  21936537.826 6         0.000 6      1972.079 6        37.977 6
> 2019 07 03 12 01 16.0000000  0  8       0.000000000000
G07  25339983.875 9 133162467.998 9      2204.640 9        54.134 9  25339984.541 6         0.000 6      1717.902 6        37.977 6
G10  23798493.673 9 125061873.853 9      3509.884 9        54.673 9  23798497.389 6         0.000 6      2734.977 6        37.977 6
G21  21174939.480 9 111275037.328 9     -1276.564 9        55.708 9  21174938.767 6         0.000 6      -994.726 6        37.977 6
G29  24309940.944 9 127749545.341 9     -3178.403 9        54.471 9  24309942.529 6         0.000 6     -2476.680 6        37.977 6
G27  21996546.786 9 115592606.597 9      2538.998 9        55.377 9  21996548.716 6         0.000 6      1978.441 6        37.977 6
G16  20495354.043 9 107703792.125 9       567.287 9        55.977 9  20495353.216 6         0.000 6       442.041 6        37.977 6
G26  20659196.898 9 108564790.142 9     -1487.040 9        55.871 9  20659199.716 6         0.000 6     -1158.733 6        37.977 6
G20  21936055.950 9 115274719.034 9      2530.387 9        55.319 9  21936056.267 6         0.000 6      1971.731 6        37.977 6
> 2019 07 03 12 01 17.0000000  0  8       0.000000000000
G07  25339564.389 9 133160263.588 9      2204.185 9        54.134 9  25339565.055 6         0.000 6      1717.548 6        37.977 6
G10  23797825.778 9 125058364.050 9      3509.747 9        54.674 9  23797829.493 6         0.000 6      2734.870 6        37.977 6
G21  21175182.437 9 111276314.077 9     -1276.931 9        55.707 9  21175181.724 6         0.000 6      -995.012 6        37.977 6
G29  24310545.782 9 127752723.777 9     -3178.491 9        54.471 9  24310547.368 6         0.000 6     -2476.748 6        37.977 6
G27  21996063.655 9 115590067.725 9      2538.752 9        55.378 9  21996065.585 6         0.000 6      1978.249 6        37.977 6
G16  20495246.151 9 107703225.150 9       566.667 9        55.977 9  20495245.324 6         0.000 6       441.558 6        37.977 6
G26  20659479.927 9 108566277.470 9     -1487.614 9        55.871 9  20659482.745 6         0.000 6     -1159.180 6        37.977 6
G20  21935574.476 9 115272188.875 9      2529.944 9        55.319 9  21935574.793 6         0.000 6      1971.386 6        37.977 6
> 2019 07 03 12 01 18.0000000  0  8       0.000000000000
G07  25339144.990 9 133158059.633 9      2203.733 9        54.134 9  25339145.655 6         0.000 6      1717.196 6        37.977 6
G10  23797157.909 9 125054854.385 9      3509.605 9        54.674 9  23797161.623 6         0.000 6      2734.760 6        37.977 6
G21  21175425.465 9 111277591.192 9     -1277.301 9        55.707 9  21175424.751 6         0.000 6      -995.300 6        37.977 6
G29  24311150.637 9 127755902.301 9     -3178.578 9        54.471 9  24311152.223 6         0.000 6     -2476.817 6        37.977 6
G27  21995580.570 9 115587529.100 9      2538.504 9        55.378 9  21995582.499 6         0.000 6      1978.056 6        37.977 6
G16  20495138.377 9 107702658.794 9       566.044 9        55.977 9  20495137.550 6         0.000 6       441.073 6        37.977 6
G26  20659763.066 9 108567765.372 9     -1488.193 9        55.871 9  20659765.884 6         0.000 6     -1159.631 6        37.977 6
G20  21935093.086 9 115269659.159 9      2529.497 9        55.319 9  21935093.402 6         0.000 6      1971.038 6        37.977 6
> 2019 07 03 12 01 19.0000000  0  8       0.000000000000
G07  25338725.676 9 133155856.127 9      2203.281 9        54.134 9  25338726.341 6         0.000 6      1716.843 6        37.977 6
G10  23796490.068 9 125051344.867 9      3509.463 9        54.674 9  23796493.782 6         0.000 6      2734.649 6        37.977 6
G21  21175668.562 9 111278868.679 9     -1277.670 9        55.707 9  21175667.849 6         0.000 6      -995.587 6        37.977 6
G29  24311755.509 9 127759080.913 9     -3178.666 9        54.471 9  24311757.096 6         0.000 6     -2476.885 6        37.977 6
G27  21995097.532 9 115584990.724 9      2538.257 9        55.378 9  21995099.462 6         0.000 6      1977.863 6        37.977 6
G16  20495030.723 9 107702093.066 9       565.420 9        55.978 9  20495029.896 6         0.000 6       440.587 6        37.977 6
G26  20660046.315 9 108569253.857 9     -1488.771 9        55.871 9  20660049.134 6         0.000 6     -1160.082 6        37.977 6
G20  21934611.782 9 115267129.895 9      2529.050 9        55.319 9  21934612.098 6         0.000 6      1970.689 6        37.977 6
> 2019 07 03 12 01 20.0000000  0  8       0.000000000000
G07  25338306.830 9 133153655.084 9      2194.949 9        54.134 9  25338307.496 6         0.000 6      1710.351 6        37.977 6
G10  23795821.877 9 125047833.510 9      3517.032 9        54.674 9  23795825.590 6         0.000 6      2740.547 6        37.977 6
G21  21175911.769 9 111280146.738 9     -1278.752 9        55.707 9  21175911.056 6         0.000 6      -996.430 6        37.977 6
G29  24312360.341 9 127762259.319 9     -3177.367 9        54.470 9  24312361.929 6         0.000 6     -2475.873 6        37.977 6
G27  21994614.668 9 115582453.255 9      2535.253 9        55.378 9  21994616.597 6         0.000 6      1975.523 6        37.977 6
G16  20494923.229 9 107701528.181 9       563.831 9        55.978 9  20494922.402 6         0.000 6       439.349 6        37.977 6
G26  20660329.509 9 108570742.050 9     -1486.032 9        55.871 9  20660332.328 6         0.000 6     -1157.948 6        37.977 6
G20  21934130.294 9 115264599.662 9      2534.176 9        55.319 9  21934130.610 6         0.000 6      1974.684 6        37.977 6
> 2019 07 03 12 01 21.0000000  0  8       0.000000000000
G07  25337890.664 9 133151468.120 9      2179.251 9        54.135 9  25337891.330 6         0.000 6      1698.119 6        37.977 6
G10  23795151.240 9 125044309.300 9      3530.982 9        54.675 9  23795154.952 6         0.000 6      2751.417 6        37.977 6
G21  21176155.104 9 111281425.469 9     -1278.223 9        55.707 9  21176154.390 6         0.000 6      -996.018 6        37.977 6
G29  24312964.305 9 127765433.161 9     -3169.270 9        54.470 9  24312965.893 6         0.000 6     -2469.564 6        37.977 6
G27  21994133.042 9 115579922.296 9      2526.029 9        55.378 9  21994134.971 6         0.000 6      1968.335 6        37.977 6
G16  20494816.315 9 107700966.347 9       559.503 9        55.978 9  20494815.488 6         0.000 6       435.976 6        37.977 6
G26  20660611.857 9 108572225.797 9     -1481.923 9        55.871 9  20660614.676 6         0.000 6     -1154.746 6        37.977 6
G20  21933646.978 9 115262059.823 9      2545.532 9        55.320 9  21933647.293 6         0.000 6      1983.532 6        37.977 6
> 2019 07 03 12 01 22.0000000  0  8       0.000000000000
G07  25337477.458 9 133149296.707 9      2165.303 9        54.135 9  25337478.122 6         0.000 6      1687.250 6        37.977 6
G10  23794478.098 9 125040771.927 9      3542.106 9        54.675 9  23794481.810 6         0.000 6      2760.085 6        37.977 6
G21  21176398.001 9 111282701.903 9     -1274.499 9        55.707 9  21176397.288 6         0.000 6      -993.117 6        37.977 6
G29  24313565.925 9 127768594.681 9     -3154.122 9        54.470 9  24313567.513 6         0.000 6     -2457.760 6        37.977 6
G27  21993653.698 9 115577403.328 9      2512.534 9        55.379 9  21993655.626 6         0.000 6      1957.820 6        37.977 6
G16  20494710.493 9 107700410.249 9       552.918 9        55.978 9  20494709.666 6         0.000 6       430.845 6        37.977 6
G26  20660893.691 9 108573706.842 9     -1480.882 9        55.870 9  20660896.510 6         0.000 6     -1153.935 6        37.977 6
G20  21933161.372 9 115259507.949 9      2557.005 9        55.320 9  21933161.687 6         0.000 6      1992.473 6        37.977 6
> 2019 07 03 12 01 23.0000000  0  8       0.000000000000
G07  25337065.709 9 133147132.956 9      2162.875 9        54.135 9  25337066.373 6         0.000 6      1685.358 6        37.977 6
G10  23793803.889 9 125037228.946 9      3543.382 9        54.675 9  23793807.600 6         0.000 6      2761.079 6        37.977 6
G21  21176640.416 9 111283975.804 9     -1273.651 9        55.707 9  21176639.703 6         0.000 6      -992.456 6        37.977 6
G29  24314165.680 9 127771746.408 9     -3150.474 9        54.470 9  24314167.270 6         0.000 6     -2454.917 6        37.977 6
G27  21993175.967 9 115574892.840 9      2509.353 9        55.379 9  21993177.896 6         0.000 6      1955.341 6        37.977 6
G16  20494605.507 9 107699858.541 9       550.925 9        55.978 9  20494604.680 6         0.000 6       429.292 6        37.977 6
G26  20661175.575 9 108575188.152 9     -1481.694 9        55.870 9  20661178.394 6         0.000 6     -1154.567 6        37.977 6
G20  21932674.578 9 115256949.838 9      2558.573 9        55.320 9  21932674.893 6         0.000 6      1993.695 6        37.977 6
> 2019 07 03 12 01 24.0000000  0  8       0.000000000000
G07  25336654.197 9 133144970.453 9      2162.209 9        54.135 9  25336654.862 6         0.000 6      1684.839 6        37.977 6
G10  23793129.601 9 125033685.550 9      3543.382 9        54.675 9  23793133.312 6         0.000 6      2761.079 6        37.977 6
G21  21176882.799 9 111285249.532 9     -1273.867 9        55.707 9  21176882.086 6         0.000 6      -992.624 6        37.977 6
G29  24314765.144 9 127774896.601 9     -3150.100 9        54.470 9  24314766.734 6         0.000 6     -2454.626 6        37.977 6
G27  21992698.522 9 115572383.850 9      2508.757 9        55.379 9  21992700.450 6         0.000 6      1954.876 6        37.977 6
G16  20494500.749 9 107699308.034 9       550.145 9        55.978 9  20494499.922 6         0.000 6       428.685 6        37.977 6
G26  20661457.592 9 108576670.157 9     -1482.306 9        55.870 9  20661460.411 6         0.000 6     -1155.044 6        37.977 6
G20  21932187.712 9 115254391.341 9      2558.348 9        55.320 9  21932188.026 6         0.000 6      1993.519 6        37.977 6
> 2019 07 03 12 01 25.0000000  0  8       0.000000000000
G07  25336242.788 9 133142808.486 9      2161.738 9        54.135 9  25336243.452 6         0.000 6      1684.472 6        37.977 6
G10  23792455.331 9 125030142.244 9      3543.247 9        54.676 9  23792459.041 6         0.000 6      2760.974 6        37.977 6
G21  21177125.241 9 111286523.575 9     -1274.224 9        55.707 9  21177124.528 6         0.000 6      -992.902 6        37.977 6
G29  24315364.591 9 127778046.706 9     -3150.141 9        54.469 9  24315366.182 6         0.000 6     -2454.658 6        37.977 6
G27  21992221.148 9 115569875.239 9      2508.478 9        55.379 9  21992223.077 6         0.000 6      1954.659 6        37.977 6
G16  20494396.120 9 107698758.205 9       549.515 9        55.978 9  20494395.293 6         0.000 6       428.194 6        37.977 6
G26  20661739.720 9 108578152.749 9     -1482.883 9        55.870 9  20661742.539 6         0.000 6     -1155.493 6        37.977 6
G20  21931700.915 9 115251833.212 9      2557.912 9        55.320 9  21931701.230 6         0.000 6      1993.180 6        37.977 6
> 2019 07 03 12 01 26.0000000  0  8       0.000000000000
G07  25335831.467 9 133140646.982 9      2161.281 9        54.135 9  25335832.131 6         0.000 6      1684.116 6        37.977 6
G10  23791781.087 9 125026599.078 9      3543.105 9        54.676 9  23791784.796 6         0.000 6      2760.863 6        37.977 6
G21  21177367.753 9 111287797.981 9     -1274.591 9        55.707 9  21177367.040 6         0.000 6      -993.188 6        37.977 6
G29  24315964.050 9 127781196.872 9     -3150.217 9        54.469 9  24315965.641 6         0.000 6     -2454.717 6        37.977 6
G27  21991743.825 9 115567366.890 9      2508.229 9        55.379 9  21991745.753 6         0.000 6      1954.465 6        37.977 6
G16  20494291.609 9 107698208.998 9       548.901 9        55.978 9  20494290.782 6         0.000 6       427.715 6        37.977 6
G26  20662021.957 9 108579635.914 9     -1483.451 9        55.870 9  20662024.777 6         0.000 6     -1155.936 6        37.977 6
G20  21931214.203 9 115249275.527 9      2557.463 9        55.321 9  21931214.517 6         0.000 6      1992.829 6        37.977 6
> 2019 07 03 12 01 27.0000000  0  8       0.000000000000
G07  25335420.231 9 133138485.929 9      2160.826 9        54.135 9  25335420.895 6         0.000 6      1683.762 6        37.977 6
G10  23791106.870 9 125023056.058 9      3542.960 9        54.676 9  23791110.579 6         0.000 6      2760.751 6        37.977 6
G21  21177610.335 9 111289072.758 9     -1274.960 9        55.706 9  21177609.622 6         0.000 6      -993.476 6        37.977 6
G29  24316563.525 9 127784347.125 9     -3150.299 9        54.469 9  24316565.117 6         0.000 6     -2454.781 6        37.977 6
G27  21991266.547 9 115564858.783 9      2507.984 9        55.380 9  21991268.475 6         0.000 6      1954.274 6        37.977 6
G16  20494187.215 9 107697660.402 9       548.288 9        55.978 9  20494186.388 6         0.000 6       427.237 6        37.977 6
G26  20662304.303 9 108581119.648 9     -1484.020 9        55.870 9  20662307.122 6         0.000 6     -1156.379 6        37.977 6
G20  21930727.578 9 115246718.299 9      2557.010 9        55.321 9  21930727.892 6         0.000 6      1992.476 6        37.977 6
> 2019 07 03 12 01 28.0000000  0  8       0.000000000000
G07  25335009.083 9 133136325.332 9      2160.372 9        54.136 9  25335009.747 6         0.000 6      1683.408 6        37.977 6
G10  23790432.681 9 125019513.178 9      3542.816 9        54.676 9  23790436.389 6         0.000 6      2760.638 6        37.977 6
G21  21177852.986 9 111290347.896 9     -1275.330 9        55.706 9  21177852.273 6         0.000 6      -993.763 6        37.977 6
G29  24317163.014 9 127787497.453 9     -3150.380 9        54.469 9  24317164.607 6         0.000 6     -2454.844 6        37.977 6
G27  21990789.316 9 115562350.919 9      2507.738 9        55.380 9  21990791.244 6         0.000 6      1954.083 6        37.977 6
G16  20494082.936 9 107697112.414 9       547.675 9        55.978 9  20494082.109 6         0.000 6       426.760 6        37.977 6
G26  20662586.755 9 108582603.943 9     -1484.588 9        55.870 9  20662589.575 6         0.000 6     -1156.822 6        37.977 6
G20  21930241.037 9 115244161.515 9      2556.557 9        55.321 9  21930241.351 6         0.000 6      1992.123 6        37.977 6
> 2019 07 03 12 01 29.0000000  0  8       0.000000000000
G07  25334598.021 9 133134165.191 9      2159.918 9        54.136 9  25334598.684 6         0.000 6      1683.054 6        37.977 6
G10  23789758.519 9 125015970.445 9      3542.671 9        54.677 9  23789762.226 6         0.000 6      2760.526 6        37.977 6
G21  21178095.708 9 111291623.409 9     -1275.699 9        55.706 9  21178094.995 6         0.000 6      -994.051 6        37.977 6
G29  24317762.520 9 127790647.864 9     -3150.462 9        54.468 9  24317764.113 6         0.000 6     -2454.908 6        37.977 6
G27  21990312.133 9 115559843.306 9      2507.493 9        55.380 9  21990314.061 6         0.000 6      1953.891 6        37.977 6
G16  20493978.775 9 107696565.045 9       547.062 9        55.978 9  20493977.948 6         0.000 6       426.282 6        37.977 6
G26  20662869.317 9 108584088.814 9     -1485.157 9        55.870 9  20662872.137 6         0.000 6     -1157.265 6        37.977 6
G20  21929754.584 9 115241605.189 9      2556.104 9        55.321 9  21929754.897 6         0.000 6      1991.770 6        37.977 6
> 2019 07 03 12 01 30.0000000  0  8       0.000000000000
G07  25334187.046 9 133132005.504 9      2159.463 9        54.136 9  25334187.709 6         0.000 6      1682.699 6        37.977 6
G10  23789084.385 9 125012427.857 9      3542.526 9        54.677 9  23789088.092 6         0.000 6      2760.413 6        37.977 6
G21  21178338.501 9 111292899.291 9     -1276.068 9        55.706 9  21178337.788 6         0.000 6      -994.339 6        37.977 6
G29  24318362.040 9 127793798.356 9     -3150.543 9        54.468 9  24318363.634 6         0.000 6     -2454.972 6        37.977 6
G27  21989834.996 9 115557335.939 9      2507.247 9        55.380 9  21989836.924 6         0.000 6      1953.700 6        37.977 6
G16  20493874.731 9 107696018.289 9       546.449 9        55.978 9  20493873.904 6         0.000 6       425.805 6        37.977 6
G26  20663151.987 9 108585574.253 9     -1485.725 9        55.869 9  20663154.807 6         0.000 6     -1157.708 6        37.977 6
G20  21929268.217 9 115239049.317 9      2555.651 9        55.321 9  21929268.530 6         0.000 6      1991.417 6        37.977 6
> 2019 07 03 12 01 31.0000000  0  8       0.000000000000
G07  25333776.157 9 133129846.272 9      2159.008 9        54.136 9  25333776.820 6         0.000 6      1682.345 6        37.977 6
G10  23788410.278 9 125008885.414 9      3542.382 9        54.677 9  23788413.984 6         0.000 6      2760.300 6        37.977 6
G21  21178581.363 9 111294175.543 9     -1276.436 9        55.706 9  21178580.650 6         0.000 6      -994.626 6        37.977 6
G29  24318961.577 9 127796948.930 9     -3150.625 9        54.468 9  24318963.171 6         0.000 6     -2455.035 6        37.977 6
G27  21989357.906 9 115554828.817 9      2507.002 9        55.380 9  21989359.834 6         0.000 6      1953.509 6        37.977 6
G16  20493770.804 9 107695472.147 9       545.836 9        55.978 9  20493769.977 6         0.000 6       425.327 6        37.977 6
G26  20663434.765 9 108587060.260 9     -1486.294 9        55.869 9  20663437.585 6         0.000 6     -1158.151 6        37.977 6
G20  21928781.936 9 115236493.897 9      2555.197 9        55.322 9  21928782.248 6         0.000 6      1991.064 6        37.977 6
> 2019 07 03 12 01 32.0000000  0  8       0.000000000000
G07  25333365.354 9 133127687.491 9      2158.554 9        54.136 9  25333366.016 6         0.000 6      1681.991 6        37.977 6
G10  23787736.200 9 125005343.117 9      3542.237 9        54.677 9  23787739.905 6         0.000 6      2760.187 6        37.977 6
G21  21178824.295 9 111295452.159 9     -1276.805 9        55.706 9  21178823.583 6         0.000 6      -994.913 6        37.977 6
G29  24319561.128 9 127800099.585 9     -3150.706 9        54.468 9  24319562.723 6         0.000 6     -2455.099 6        37.977 6
G27  21988880.862 9 115552321.937 9      2506.756 9        55.380 9  21988882.790 6         0.000 6      1953.317 6        37.977 6
G16  20493666.992 9 107694926.613 9       545.223 9        55.978 9  20493666.165 6         0.000 6       424.849 6        37.977 6
G26  20663717.651 9 108588546.834 9     -1486.862 9        55.869 9  20663720.471 6         0.000 6     -1158.594 6        37.977 6
G20  21928295.741 9 115233938.930 9      2554.744 9        55.322 9  21928296.053 6         0.000 6      1990.711 6        37.977 6
> 2019 07 03 12 01 33.0000000  0  8       0.000000000000
G07  25332954.638 9 133125529.170 9      2158.099 9        54.136 9  25332955.301 6         0.000 6      1681.637 6        37.977 6
G10  23787062.147 9 125001800.959 9      3542.092 9        54.678 9  23787065.852 6         0.000 6      2760.074 6        37.977 6
G21  21179067.298 9 111296729.145 9     -1277.174 9        55.706 9  21179066.585 6         0.000 6      -995.201 6        37.977 6
G29  24320160.695 9 127803250.322 9     -3150.788 9        54.468 9  24320162.291 6         0.000 6     -2455.162 6        37.977 6
G27  21988403.865 9 115549815.304 9      2506.511 9        55.381 9  21988405.793 6         0.000 6      1953.126 6        37.977 6
G16  20493563.297 9 107694381.693 9       544.610 9        55.978 9  20493562.470 6         0.000 6       424.371 6        37.977 6
G26  20664000.645 9 108590033.974 9     -1487.430 9        55.869 9  20664003.465 6         0.000 6     -1159.037 6        37.977 6
G20  21927809.631 9 115231384.413 9      2554.291 9        55.322 9  21927809.944 6         0.000 6      1990.357 6        37.977 6
> 2019 07 03 12 01 34.0000000  0  8       0.000000000000
G07  25332544.047 9 133123371.503 9      2156.018 9        54.136 9  25332544.709 6         0.000 6      1680.015 6        37.977 6
G10  23786388.101 9 124998258.834 9      3542.910 9        54.678 9  23786391.805 6         0.000 6      2760.712 6        37.977 6
G21  21179310.333 9 111298006.300 9     -1275.974 9        55.706 9  21179309.620 6         0.000 6      -994.266 6        37.977 6
G29  24320760.171 9 127806400.574 9     -3146.445 9        54.467 9  24320761.767 6         0.000 6     -2451.778 6        37.977 6
G27  21987926.996 9 115547309.338 9      2502.958 9        55.381 9  21987928.923 6         0.000 6      1950.357 6        37.977 6
G16  20493459.758 9 107693837.591 9       542.410 9        55.978 9  20493458.931 6         0.000 6       422.657 6        37.977 6
G26  20664283.763 9 108591521.769 9     -1488.626 9        55.869 9  20664286.583 6         0.000 6     -1159.969 6        37.977 6
G20  21927323.563 9 115228830.113 9      2555.752 9        55.322 9  21927323.875 6         0.000 6      1991.496 6        37.977 6
> 2019 07 03 12 01 35.0000000  0  8       0.000000000000
G07  25332133.993 9 133121216.660 9      2155.048 9        54.137 9  25332134.656 6         0.000 6      1679.259 6        37.977 6
G10  23785713.947 9 124994716.140 9      3541.226 9        54.678 9  23785717.651 6         0.000 6      2759.399 6        37.977 6
G21  21179552.644 9 111299279.654 9     -1270.799 9        55.706 9  21179551.931 6         0.000 6      -990.233 6        37.977 6
G29  24321357.570 9 127809539.922 9     -3132.976 9        54.467 9  24321359.167 6         0.000 6     -2441.282 6        37.977 6
G27  21987451.662 9 115544811.444 9      2493.625 9        55.381 9  21987453.588 6         0.000 6      1943.085 6        37.977 6
G16  20493357.066 9 107693297.943 9       537.210 9        55.978 9  20493356.239 6         0.000 6       418.605 6        37.977 6
G26  20664567.439 9 108593012.493 9     -1493.259 9        55.869 9  20664570.259 6         0.000 6     -1163.579 6        37.977 6
G20  21926836.891 9 115226272.638 9      2558.154 9        55.322 9  21926837.203 6         0.000 6      1993.368 6        37.977 6
> 2019 07 03 12 01 36.0000000  0  8       0.000000000000
G07  25331723.250 9 133119058.194 9      2164.090 9        54.137 9  25331723.912 6         0.000 6      1686.305 6        37.977 6
G10  23785040.931 9 124991179.430 9      3530.146 9        54.678 9  23785044.634 6         0.000 6      2750.766 6        37.977 6
G21  21179793.993 9 111300547.950 9     -1265.809 9        55.706 9  21179793.280 6         0.000 6      -986.344 6        37.977 6
G29  24321952.809 9 127812667.911 9     -3123.942 9        54.467 9  24321954.407 6         0.000 6     -2434.243 6        37.977 6
G27  21986977.634 9 115542320.415 9      2489.561 9        55.381 9  21986979.561 6         0.000 6      1939.918 6        37.977 6
G16  20493255.177 9 107692762.508 9       534.104 9        55.978 9  20493254.350 6         0.000 6       416.185 6        37.977 6
G26  20664852.288 9 108594509.386 9     -1501.293 9        55.869 9  20664855.109 6         0.000 6     -1169.839 6        37.977 6
G20  21926350.425 9 115223716.246 9      2552.992 9        55.323 9  21926350.736 6         0.000 6      1989.346 6        37.977 6
> 2019 07 03 12 01 37.0000000  0  8       0.000000000000
G07  25331310.870 9 133116891.124 9      2168.640 9        54.137 9  25331311.532 6         0.000 6      1689.851 6        37.977 6
G10  23784369.812 9 124987652.682 9      3524.858 9        54.679 9  23784373.514 6         0.000 6      2746.645 6        37.977 6
G21  21180034.757 9 111301813.176 9     -1265.046 9        55.705 9  21180034.045 6         0.000 6      -985.751 6        37.977 6
G29  24322547.177 9 127815791.325 9     -3123.317 9        54.467 9  24322548.775 6         0.000 6     -2433.756 6        37.977 6
G27  21986503.837 9 115539830.600 9      2490.019 9        55.381 9  21986505.764 6         0.000 6      1940.275 6        37.977 6
G16  20493153.598 9 107692228.708 9       533.551 9        55.978 9  20493152.771 6         0.000 6       415.754 6        37.977 6
G26  20665138.357 9 108596012.687 9     -1504.499 9        55.869 9  20665141.178 6         0.000 6     -1172.337 6        37.977 6
G20  21925865.042 9 115221165.543 9      2549.302 9        55.323 9  21925865.353 6         0.000 6      1986.470 6        37.977 6
> 2019 07 03 12 01 38.0000000  0  8       0.000000000000
G07  25330898.143 9 133114722.234 9      2168.890 9        54.137 9  25330898.805 6         0.000 6      1690.045 6        37.977 6
G10  23783699.159 9 124984128.390 9      3524.002 9        54.679 9  23783702.861 6         0.000 6      2745.978 6        37.977 6
G21  21180275.507 9 111303078.320 9     -1265.290 9        55.705 9  21180274.794 6         0.000 6      -985.941 6        37.977 6
G29  24323141.533 9 127818914.679 9     -3123.408 9        54.467 9  24323143.132 6         0.000 6     -2433.827 6        37.977 6
G27  21986030.003 9 115537340.584 9      2489.951 9        55.382 9  21986031.929 6         0.000 6      1940.222 6        37.977 6
G16  20493052.119 9 107691695.432 9       532.979 9        55.978 9  20493051.292 6         0.000 6       415.308 6        37.977 6
G26  20665424.752 9 108597517.698 9     -1505.412 9        55.868 9  20665427.572 6         0.000 6     -1173.049 6        37.977 6
G20  21925380.030 9 115218616.794 9      2548.375 9        55.323 9  21925380.341 6         0.000 6      1985.747 6        37.977 6
> 2019 07 03 12 01 39.0000000  0  8       0.000000000000
G07  25330485.452 9 133112553.529 9      2168.499 9        54.137 9  25330486.113 6         0.000 6      1689.740 6        37.977 6
G10  23783028.587 9 124980604.518 9      3523.791 9        54.679 9  23783032.288 6         0.000 6      2745.813 6        37.977 6
G21  21180516.316 9 111304343.781 9     -1265.638 9        55.705 9  21180515.603 6         0.000 6      -986.212 6        37.977 6
G29  24323735.906 9 127822038.120 9     -3123.496 9        54.466 9  24323737.506 6         0.000 6     -2433.896 6        37.977 6
G27  21985556.201 9 115534850.744 9      2489.732 9        55.382 9  21985558.127 6         0.000 6      1940.051 6        37.977 6
G16  20492950.755 9 107691162.760 9       532.367 9        55.978 9  20492949.928 6         0.000 6       414.831 6        37.977 6
G26  20665711.281 9 108599023.419 9     -1506.018 9        55.868 9  20665714.102 6         0.000 6     -1173.521 6        37.977 6
G20  21924895.139 9 115216068.680 9      2547.880 9        55.323 9  21924895.450 6         0.000 6      1985.362 6        37.977 6
> 2019 07 03 12 01 40.0000000  0  8       0.000000000000
G07  25330072.844 9 133110385.265 9      2168.043 9        54.137 9  25330073.505 6         0.000 6      1689.385 6        37.977 6
G10  23782358.045 9 124977080.811 9      3523.643 9        54.679 9  23782361.746 6         0.000 6      2745.699 6        37.977 6
G21  21180757.193 9 111305609.598 9     -1265.995 9        55.705 9  21180756.481 6         0.000 6      -986.490 6        37.977 6
G29  24324330.295 9 127825161.643 9     -3123.580 9        54.466 9  24324331.895 6         0.000 6     -2433.961 6        37.977 6
G27  21985082.445 9 115532361.140 9      2489.495 9        55.382 9  21985084.371 6         0.000 6      1939.867 6        37.977 6
G16  20492849.508 9 107690630.706 9       531.750 9        55.978 9  20492848.681 6         0.000 6       414.351 6        37.977 6
G26  20665997.922 9 108600529.726 9     -1506.594 9        55.868 9  20666000.743 6         0.000 6     -1173.970 6        37.977 6
G20  21924410.337 9 115213521.029 9      2547.429 9        55.323 9  21924410.647 6         0.000 6      1985.011 6        37.977 6
> 2019 07 03 12 01 41.0000000  0  8       0.000000000000
G07  25329660.323 9 133108217.457 9      2167.580 9        54.137 9  25329660.984 6         0.000 6      1689.025 6        37.977 6
G10  23781687.532 9 124973557.249 9      3523.502 9        54.679 9  23781691.232 6         0.000 6      2745.588 6        37.977 6
G21  21180998.138 9 111306875.772 9     -1266.353 9        55.705 9  21180997.426 6         0.000 6      -986.769 6        37.977 6
G29  24324924.700 9 127828285.254 9     -3123.664 9        54.466 9  24324926.301 6         0.000 6     -2434.027 6        37.977 6
G27  21984608.732 9 115529871.767 9      2489.256 9        55.382 9  21984610.658 6         0.000 6      1939.681 6        37.977 6
G16  20492748.378 9 107690099.265 9       531.132 9        55.978 9  20492747.551 6         0.000 6       413.869 6        37.977 6
G26  20666284.672 9 108602036.605 9     -1507.167 9        55.868 9  20666287.493 6         0.000 6     -1174.416 6        37.977 6
G20  21923925.619 9 115210973.828 9      2546.982 9        55.323 9  21923925.929 6         0.000 6      1984.663 6        37.977 6
> 2019 07 03 12 01 42.0000000  0  8       0.000000000000
G07  25329247.890 9 133106050.109 9      2167.118 9        54.138 9  25329248.551 6         0.000 6      1688.664 6        37.977 6
G10  23781017.046 9 124970033.834 9      3523.360 9        54.680 9  23781020.745 6         0.000 6      2745.478 6        37.977 6
G21  21181239.152 9 111308142.306 9     -1266.712 9        55.705 9  21181238.439 6         0.000 6      -987.048 6        37.977 6
G29  24325519.122 9 127831408.951 9     -3123.749 9        54.466 9  24325520.723 6         0.000 6     -2434.093 6        37.977 6
G27  21984135.066 9 115527382.634 9      2489.018 9        55.382 9  21984136.991 6         0.000 6      1939.495 6        37.977 6
G16  20492647.366 9 107689568.445 9       530.515 9        55.979 9  20492646.540 6         0.000 6       413.388 6        37.977 6
G26  20666571.532 9 108603544.062 9     -1507.741 9        55.868 9  20666574.353 6         0.000 6     -1174.863 6        37.977 6
G20  21923440.988 9 115208427.078 9      2546.535 9        55.324 9  21923441.298 6         0.000 6      1984.314 6        37.977 6
> 2019 07 03 12 01 43.0000000  0  8       0.000000000000
G07  25328835.545 9 133103883.226 9      2166.656 9        54.138 9  25328836.206 6         0.000 6      1688.304 6        37.977 6
G10  23780346.587 9 124966510.555 9      3523.218 9        54.680 9  23780350.285 6         0.000 6      2745.368 6        37.977 6
G21  21181480.233 9 111309409.197 9     -1267.070 9        55.705 9  21181479.521 6         0.000 6      -987.328 6        37.977 6
G29  24326113.560 9 127834532.732 9     -3123.833 9        54.465 9  24326115.162 6         0.000 6     -2434.159 6        37.977 6
G27  21983661.444 9 115524893.739 9      2488.779 9        55.383 9  21983663.370 6         0.000 6      1939.309 6        37.977 6
G16  20492546.472 9 107689038.239 9       529.897 9        55.979 9  20492545.645 6         0.000 6       412.907 6        37.977 6
G26  20666858.500 9 108605052.087 9     -1508.314 9        55.868 9  20666861.321 6         0.000 6     -1175.310 6        37.977 6
G20  21922956.441 9 115205880.771 9      2546.088 9        55.324 9  21922956.751 6         0.000 6      1983.966 6        37.977 6
> 2019 07 03 12 01 44.0000000  0  8       0.000000000000
G07  25328423.289 9 133101716.806 9      2166.196 9        54.138 9  25328423.949 6         0.000 6      1687.946 6        37.977 6
G10  23779676.154 9 124962987.421 9      3523.072 9        54.680 9  23779679.852 6         0.000 6      2745.254 6        37.977 6
G21  21181721.384 9 111310676.452 9     -1267.431 9        55.705 9  21181720.671 6         0.000 6      -987.609 6        37.977 6
G29  24326708.014 9 127837656.598 9     -3123.918 9        54.465 9  24326709.616 6         0.000 6     -2434.224 6        37.977 6
G27  21983187.869 9 115522405.086 9      2488.539 9        55.383 9  21983189.794 6         0.000 6      1939.122 6        37.977 6
G16  20492445.696 9 107688508.658 9       529.276 9        55.979 9  20492444.869 6         0.000 6       412.423 6        37.977 6
G26  20667145.579 9 108606560.693 9     -1508.892 9        55.868 9  20667148.400 6         0.000 6     -1175.760 6        37.977 6
G20  21922471.980 9 115203334.916 9      2545.636 9        55.324 9  21922472.289 6         0.000 6      1983.614 6        37.977 6
> 2019 07 03 12 01 45.0000000  0  8       0.000000000000
G07  25328011.120 9 133099550.848 9      2165.733 9        54.138 9  25328011.780 6         0.000 6      1687.585 6        37.977 6
G10  23779005.749 9 124959464.425 9      3522.930 9        54.680 9  23779009.446 6         0.000 6      2745.143 6        37.977 6
G21  21181962.602 9 111311944.059 9     -1267.790 9        55.705 9  21181961.889 6         0.000 6      -987.888 6        37.977 6
G29  24327302.484 9 127840780.548 9     -3124.002 9        54.465 9  24327304.087 6         0.000 6     -2434.290 6        37.977 6
G27  21982714.338 9 115519916.667 9      2488.300 9        55.383 9  21982716.263 6         0.000 6      1938.936 6        37.977 6
G16  20492345.036 9 107687979.687 9       528.658 9        55.979 9  20492344.209 6         0.000 6       411.942 6        37.977 6
G26  20667432.765 9 108608069.864 9     -1509.465 9        55.868 9  20667435.586 6         0.000 6     -1176.207 6        37.977 6
G20  21921987.604 9 115200789.504 9      2545.189 9        55.324 9  21921987.912 6         0.000 6      1983.265 6        37.977 6
> 2019 07 03 12 01 46.0000000  0  8       0.000000000000
G07  25327599.062 9 133097385.472 9      2164.719 9        54.138 9  25327599.722 6         0.000 6      1686.795 6        37.977 6
G10  23778335.347 9 124955941.452 9      3523.345 9        54.681 9  23778339.043 6         0.000 6      2745.466 6        37.977 6
G21  21182203.891 9 111313212.044 9     -1268.241 9        55.705 9  21182203.179 6         0.000 6      -988.240 6        37.977 6
G29  24327896.969 9 127843904.579 9     -3124.094 9        54.465 9  24327898.573 6         0.000 6     -2434.362 6        37.977 6
G27  21982240.858 9 115517428.517 9      2487.939 9        55.383 9  21982242.783 6         0.000 6      1938.655 6        37.977 6
G16  20492244.495 9 107687451.343 9       528.012 9        55.979 9  20492243.668 6         0.000 6       411.438 6        37.977 6
G26  20667720.049 9 108609579.553 9     -1509.768 9        55.868 9  20667722.871 6         0.000 6     -1176.443 6        37.977 6
G20  21921503.297 9 115198244.458 9      2545.112 9        55.324 9  21921503.605 6         0.000 6      1983.205 6        37.977 6
> 2019 07 03 12 01 47.0000000  0  8       0.000000000000
G07  25327186.034 9 133095214.999 9      2177.652 9        54.138 9  25327186.693 6         0.000 6      1696.873 6        37.977 6
G10  23777666.007 9 124952424.055 9      3510.234 9        54.681 9  23777669.702 6         0.000 6      2735.250 6        37.977 6
G21  21182445.155 9 111314479.890 9     -1267.740 9        55.704 9  21182444.442 6         0.000 6      -987.850 6        37.977 6
G29  24328491.667 9 127847029.727 9     -3127.469 9        54.465 9  24328493.271 6         0.000 6     -2436.991 6        37.977 6
G27  21981767.048 9 115514938.630 9      2492.990 9        55.383 9  21981768.973 6         0.000 6      1942.591 6        37.977 6
G16  20492143.944 9 107686922.943 9       529.284 9        55.979 9  20492143.117 6         0.000 6       412.429 6        37.977 6
G26  20668007.891 9 108611092.167 9     -1515.755 9        55.867 9  20668010.712 6         0.000 6     -1181.108 6        37.977 6
G20  21921019.822 9 115195703.789 9      2535.049 9        55.325 9  21921020.131 6         0.000 6      1975.364 6        37.977 6
> 2019 07 03 12 01 48.0000000  0  8       0.000000000000
G07  25326770.239 9 133093029.986 9      2192.210 9        54.138 9  25326770.898 6         0.000 6      1708.217 6        37.977 6
G10  23776999.363 9 124948920.829 9      3496.593 9        54.681 9  23777003.058 6         0.000 6      2724.620 6        37.977 6
G21  21182686.560 9 111315748.486 9     -1269.983 9        55.704 9  21182685.848 6         0.000 6      -989.597 6        37.977 6
G29  24329087.699 9 127850161.890 9     -3138.078 9        54.464 9  24329089.305 6         0.000 6     -2445.259 6        37.977 6
G27  21981291.748 9 115512440.916 9      2503.195 9        55.383 9  21981293.673 6         0.000 6      1950.542 6        37.977 6
G16  20492042.901 9 107686391.958 9       533.078 9        55.979 9  20492042.074 6         0.000 6       415.386 6        37.977 6
G26  20668296.798 9 108612610.387 9     -1520.224 9        55.867 9  20668299.620 6         0.000 6     -1184.590 6        37.977 6
G20  21920538.597 9 115193174.935 9      2522.559 9        55.325 9  21920538.905 6         0.000 6      1965.631 6        37.977 6
> 2019 07 03 12 01 49.0000000  0  8       0.000000000000
G07  25326351.861 9 133090831.401 9      2201.623 9        54.139 9  25326352.520 6         0.000 6      1715.551 6        37.977 6
G10  23776335.025 9 124945429.722 9      3488.511 9        54.681 9  23776338.720 6         0.000 6      2718.323 6        37.977 6
G21  21182928.701 9 111317020.945 9     -1274.121 9        55.704 9  21182927.989 6         0.000 6      -992.822 6        37.977 6
G29  24329686.415 9 127853308.151 9     -3151.190 9        54.464 9  24329688.021 6         0.000 6     -2455.476 6        37.977 6
G27  21980814.112 9 115509930.926 9      2513.855 9        55.384 9  21980816.037 6         0.000 6      1958.849 6        37.977 6
G16  20491940.924 9 107685856.067 9       537.414 9        55.979 9  20491940.097 6         0.000 6       418.764 6        37.977 6
G26  20668586.255 9 108614131.489 9     -1521.408 9        55.867 9  20668589.077 6         0.000 6     -1185.513 6        37.977 6
G20  21920059.745 9 115190658.555 9      2513.071 9        55.325 9  21920060.052 6         0.000 6      1958.238 6        37.977 6
> 2019 07 03 12 01 50.0000000  0  8       0.000000000000
G07  25325932.822 9 133088629.336 9      2202.163 9        54.139 9  25325933.481 6         0.000 6      1715.972 6        37.977 6
G10  23775671.287 9 124941941.765 9      3487.673 9        54.682 9  23775674.981 6         0.000 6      2717.670 6        37.977 6
G21  21183171.279 9 111318295.697 9     -1275.158 9        55.704 9  21183170.567 6         0.000 6      -993.630 6        37.977 6
G29  24330286.332 9 127856460.728 9     -3153.309 9        54.464 9  24330287.939 6         0.000 6     -2457.126 6        37.977 6
G27  21980335.565 9 115507416.146 9      2515.186 9        55.384 9  21980337.490 6         0.000 6      1959.886 6        37.977 6
G16  20491838.624 9 107685318.474 9       537.527 9        55.979 9  20491837.797 6         0.000 6       418.852 6        37.977 6
G26  20668875.805 9 108615653.082 9     -1521.826 9        55.867 9  20668878.627 6         0.000 6     -1185.839 6        37.977 6
G20  21919581.700 9 115188146.415 9      2511.580 9        55.325 9  21919582.007 6         0.000 6      1957.076 6        37.977 6
> 2019 07 03 12 01 51.0000000  0  8       0.000000000000
G07  25325513.795 9 133086427.341 9      2201.802 9        54.139 9  25325514.454 6         0.000 6      1715.691 6        37.977 6
G10  23775007.627 9 124938454.219 9      3487.463 9        54.682 9  23775011.320 6         0.000 6      2717.506 6        37.977 6
G21  21183413.977 9 111319571.084 9     -1275.592 9        55.704 9  21183413.265 6         0.000 6      -993.968 6        37.977 6
G29  24330886.423 9 127859614.217 9     -3153.617 9        54.464 9  24330888.030 6         0.000 6     -2457.366 6        37.977 6
G27  21979856.943 9 115504900.973 9      2515.110 9        55.384 9  21979858.867 6         0.000 6      1959.827 6        37.977 6
G16  20491736.386 9 107684781.210 9       536.975 9        55.979 9  20491735.559 6         0.000 6       418.422 6        37.977 6
G26  20669165.452 9 108617175.185 9     -1522.390 9        55.867 9  20669168.274 6         0.000 6     -1186.278 6        37.977 6
G20  21919103.818 9 115185635.134 9      2511.028 9        55.325 9  21919104.125 6         0.000 6      1956.646 6        37.977 6
> 2019 07 03 12 01 52.0000000  0  8       0.000000000000
G07  25325094.850 9 133084225.770 9      2201.346 9        54.139 9  25325095.508 6         0.000 6      1715.336 6        37.977 6
G10  23774343.999 9 124934966.837 9      3487.320 9        54.682 9  23774347.691 6         0.000 6      2717.395 6        37.977 6
G21  21183656.748 9 111320846.856 9     -1275.954 9        55.704 9  21183656.036 6         0.000 6      -994.250 6        37.977 6
G29  24331486.547 9 127862767.879 9     -3153.722 9        54.464 9  24331488.155 6         0.000 6     -2457.449 6        37.977 6
G27  21979378.355 9 115502385.978 9      2514.881 9        55.384 9  21979380.279 6         0.000 6      1959.648 6        37.977 6
G16  20491634.262 9 107684244.543 9       536.354 9        55.979 9  20491633.435 6         0.000 6       417.938 6        37.977 6
G26  20669455.207 9 108618697.860 9     -1522.968 9        55.867 9  20669458.029 6         0.000 6     -1186.729 6        37.977 6
G20  21918626.028 9 115183124.335 9      2510.579 9        55.326 9  21918626.335 6         0.000 6      1956.297 6        37.977 6
> 2019 07 03 12 01 53.0000000  0  8       0.000000000000
G07  25324675.990 9 133082024.652 9      2200.888 9        54.139 9  25324676.648 6         0.000 6      1714.978 6        37.977 6
G10  23773680.398 9 124931479.605 9      3487.177 9        54.682 9  23773684.090 6         0.000 6      2717.283 6        37.977 6
G21  21183899.589 9 111322122.992 9     -1276.314 9        55.704 9  21183898.877 6         0.000 6      -994.530 6        37.977 6
G29  24332086.690 9 127865921.641 9     -3153.818 9        54.463 9  24332088.299 6         0.000 6     -2457.523 6        37.977 6
G27  21978899.812 9 115499871.218 9      2514.643 9        55.384 9  21978901.735 6         0.000 6      1959.463 6        37.977 6
G16  20491532.257 9 107683708.505 9       535.727 9        55.979 9  20491531.430 6         0.000 6       417.449 6        37.977 6
G26  20669745.075 9 108620221.123 9     -1523.551 9        55.867 9  20669747.897 6         0.000 6     -1187.183 6        37.977 6
G20  21918148.324 9 115180613.989 9      2510.133 9        55.326 9  21918148.631 6         0.000 6      1955.949 6        37.977 6
> 2019 07 03 12 01 54.0000000  0  8       0.000000000000
G07  25324257.220 9 133079824.003 9      2200.426 9        54.139 9  25324257.878 6         0.000 6      1714.619 6        37.977 6
G10  23773016.824 9 124927992.508 9      3487.036 9        54.683 9  23773020.515 6         0.000 6      2717.173 6        37.977 6
G21  21184142.499 9 111323399.488 9     -1276.671 9        55.704 9  21184141.787 6         0.000 6      -994.809 6        37.977 6
G29  24332686.851 9 127869075.494 9     -3153.908 9        54.463 9  24332688.459 6         0.000 6     -2457.593 6        37.977 6
G27  21978421.315 9 115497356.702 9      2514.401 9        55.385 9  21978423.238 6         0.000 6      1959.274 6        37.977 6
G16  20491430.372 9 107683173.097 9       535.098 9        55.979 9  20491429.545 6         0.000 6       416.959 6        37.977 6
G26  20670035.053 9 108621744.965 9     -1524.134 9        55.867 9  20670037.875 6         0.000 6     -1187.637 6        37.977 6
G20  21917670.704 9 115178104.082 9      2509.690 9        55.326 9  21917671.010 6         0.000 6      1955.604 6        37.977 6
> 2019 07 03 12 01 55.0000000  0  8       0.000000000000
G07  25323838.537 9 133077623.811 9      2199.964 9        54.139 9  25323839.194 6         0.000 6      1714.259 6        37.977 6
G10  23772353.276 9 124924505.553 9      3486.894 9        54.683 9  23772356.967 6         0.000 6      2717.063 6        37.977 6
G21  21184385.475 9 111324676.338 9     -1277.029 9        55.704 9  21184384.763 6         0.000 6      -995.088 6        37.977 6
G29  24333287.028 9 127872229.437 9     -3153.998 9        54.463 9  24333288.637 6         0.000 6     -2457.663 6        37.977 6
G27  21977942.863 9 115494842.424 9      2514.160 9        55.385 9  21977944.786 6         0.000 6      1959.086 6        37.977 6
G16  20491328.606 9 107682638.314 9       534.469 9        55.979 9  20491327.779 6         0.000 6       416.470 6        37.977 6
G26  20670325.141 9 108623269.388 9     -1524.716 9        55.866 9  20670327.964 6         0.000 6     -1188.091 6        37.977 6
G20  21917193.168 9 115175594.618 9      2509.247 9        55.326 9  21917193.474 6         0.000 6      1955.258 6        37.977 6
> 2019 07 03 12 01 56.0000000  0  8       0.000000000000
G07  25323419.941 9 133075424.081 9      2199.503 9        54.140 9  25323420.599 6         0.000 6      1713.899 6        37.977 6
G10  23771689.756 9 124921018.740 9      3486.753 9        54.683 9  23771693.446 6         0.000 6      2716.953 6        37.977 6
G21  21184628.520 9 111325953.545 9     -1277.386 9        55.704 9  21184627.808 6         0.000 6      -995.366 6        37.977 6
G29  24333887.222 9 127875383.470 9     -3154.088 9        54.463 9  24333888.832 6         0.000 6     -2457.733 6        37.977 6
G27  21977464.457 9 115492328.389 9      2513.918 9        55.385 9  21977466.381 6         0.000 6      1958.898 6        37.977 6
G16  20491226.960 9 107682104.159 9       533.840 9        55.979 9  20491226.133 6         0.000 6       415.980 6        37.977 6
G26  20670615.341 9 108624794.394 9     -1525.299 9        55.866 9  20670618.163 6         0.000 6     -1188.545 6        37.977 6
G20  21916715.716 9 115173085.598 9      2508.804 9        55.326 9  21916716.022 6         0.000 6      1954.913 6        37.977 6
> 2019 07 03 12 01 57.0000000  0  8       0.000000000000
G07  25323001.433 9 133073224.811 9      2199.041 9        54.140 9  25323002.090 6         0.000 6      1713.539 6        37.977 6
G10  23771026.263 9 124917532.073 9      3486.612 9        54.683 9  23771029.952 6         0.000 6      2716.843 6        37.977 6
G21  21184871.633 9 111327231.112 9     -1277.744 9        55.703 9  21184870.921 6         0.000 6      -995.645 6        37.977 6
G29  24334487.434 9 127878537.592 9     -3154.178 9        54.463 9  24334489.045 6         0.000 6     -2457.804 6        37.977 6
G27  21976986.098 9 115489814.597 9      2513.676 9        55.385 9  21976988.021 6         0.000 6      1958.709 6        37.977 6
G16  20491125.434 9 107681570.636 9       533.212 9        55.979 9  20491124.607 6         0.000 6       415.490 6        37.977 6
G26  20670905.652 9 108626319.987 9     -1525.881 9        55.866 9  20670908.474 6         0.000 6     -1188.999 6        37.977 6
G20  21916238.350 9 115170577.024 9      2508.360 9        55.326 9  21916238.655 6         0.000 6      1954.567 6        37.977 6
> 2019 07 03 12 01 58.0000000  0  8       0.000000000000
G07  25322583.014 9 133071026.008 9      2198.579 9        54.140 9  25322583.671 6         0.000 6      1713.179 6        37.977 6
G10  23770362.796 9 124914045.541 9      3486.470 9        54.684 9  23770366.485 6         0.000 6      2716.733 6        37.977 6
G21  21185114.814 9 111328509.038 9     -1278.101 9        55.703 9  21185114.102 6         0.000 6      -995.923 6        37.977 6
G29  24335087.662 9 127881691.805 9     -3154.268 9        54.462 9  24335089.274 6         0.000 6     -2457.874 6        37.977 6
G27  21976507.785 9 115487301.048 9      2513.434 9        55.385 9  21976509.708 6         0.000 6      1958.521 6        37.977 6
G16  20491024.028 9 107681037.743 9       532.583 9        55.979 9  20491023.201 6         0.000 6       414.999 6        37.977 6
G26  20671196.073 9 108627846.160 9     -1526.464 9        55.866 9  20671198.896 6         0.000 6     -1189.453 6        37.977 6
G20  21915761.067 9 115168068.891 9      2507.917 9        55.327 9  21915761.372 6         0.000 6      1954.222 6        37.977 6
> 2019 07 03 12 01 59.0000000  0  8       0.000000000000
G07  25322164.683 9 133068827.664 9      2198.117 9        54.140 9  25322165.339 6         0.000 6      1712.819 6        37.977 6
G10  23769699.356 9 124910559.152 9      3486.329 9        54.684 9  23769703.044 6         0.000 6      2716.622 6        37.977 6
G21  21185358.063 9 111329787.317 9     -1278.459 9        55.703 9  21185357.351 6         0.000 6      -996.202 6        37.977 6
G29  24335687.908 9 127884846.108 9     -3154.358 9        54.462 9  24335689.520 6         0.000 6     -2457.944 6        37.977 6
G27  21976029.518 9 115484787.738 9      2513.192 9        55.386 9  21976031.440 6         0.000 6      1958.332 6        37.977 6
G16  20490922.741 9 107680505.475 9       531.954 9        55.979 9  20490921.913 6         0.000 6       414.509 6        37.977 6
G26  20671486.605 9 108629372.913 9     -1527.046 9        55.866 9  20671489.428 6         0.000 6     -1189.906 6        37.977 6
G20  21915283.868 9 115165561.200 9      2507.473 9        55.327 9  21915284.173 6         0.000 6      1953.876 6        37.977 6
> 2019 07 03 12 02  0.0000000  0  8       0.000000000000
G07  25321746.439 9 133066629.780 9      2197.655 9        54.140 9  25321747.095 6         0.000 6      1712.459 6        37.977 6
G10  23769035.944 9 124907072.905 9      3486.187 9        54.684 9  23769039.631 6         0.000 6      2716.512 6        37.977 6
G21  21185601.379 9 111331065.953 9     -1278.816 9        55.703 9  21185600.667 6         0.000 6      -996.480 6        37.977 6
G29  24336288.171 9 127888000.500 9     -3154.448 9        54.462 9  24336289.784 6         0.000 6     -2458.014 6        37.977 6
G27  21975551.296 9 115482274.669 9      2512.950 9        55.386 9  21975553.219 6         0.000 6      1958.143 6        37.977 6
G16  20490821.573 9 107679973.835 9       531.325 9        55.979 9  20490820.746 6         0.000 6       414.019 6        37.977 6
G26  20671777.247 9 108630900.248 9     -1527.628 9        55.866 9  20671780.070 6         0.000 6     -1190.360 6        37.977 6
G20  21914806.754 9 115163053.954 9      2507.030 9        55.327 9  21914807.059 6         0.000 6      1953.531 6        37.977 6
