     3.00           Observation Data    M (Mixed)           RINEX VERSION / TYPE
SimGEN V6.06.00     Spirent             03-Jul-19 12:00     PGM / RUN BY / DATE 
                                                            MARKER NAME         
1                                                           MARKER NUMBER       
GROUND_CRAFT                                                MARKER TYPE         
jin4hi              Spirent                                 OBSERVER / AGENCY   
rec_num             rec_type            rec_vers            REC # / TYPE / VERS 
1                   ant_type                                ANT # / TYPE        
  1000.000                                                  INTERVAL            
  2019     7     3    12     0    0.0000000     GPS         TIME OF FIRST OBS   
  4162676.5650   664394.3570  4770530.1970                  APPROX POSITION XYZ 
        0.0000        0.0000        0.0000                  ANTENNA: DELTA H/E/N
G    8 C1C L1C D1C S1C C2C L2C D2C S2C                      SYS / # / OBS TYPES 
        0.0000        0.0000        0.0000                  ANTENNA: DELTA X/Y/Z
DBHZ                                                        SIGNAL STRENGTH UNIT
                                                            END OF HEADER       
> 2019 07 03 12 00  0.0000000  0  8       0.000000000000
G07  25372019.954 9 133330818.454 9      2213.604 9        54.123 9  25372020.638 6         0.000 6      1724.886 6        37.977 6
G10  23849371.002 9 125329235.208 9      3537.307 9        54.655 9  23849374.768 6         0.000 6      2756.343 6        37.977 6
G21  21156819.403 9 111179815.729 9     -1229.607 9        55.715 9  21156818.686 6         0.000 6      -958.135 6        37.977 6
G29  24264403.076 9 127510243.004 9     -3114.909 9        54.488 9  24264404.613 6         0.000 6     -2427.202 6        37.977 6
G27  22033123.568 9 115784818.669 9      2513.405 9        55.363 9  22033125.511 6         0.000 6      1958.497 6        37.977 6
G16  20503765.091 9 107747992.473 9       593.480 9        55.974 9  20503764.264 6         0.000 6       462.452 6        37.977 6
G26  20637935.008 9 108453058.289 9     -1448.967 9        55.880 9  20637937.818 6         0.000 6     -1129.065 6        37.977 6
G20  21973030.742 9 115469022.530 9      2591.701 9        55.304 9  21973031.080 6         0.000 6      2019.507 6        37.977 6
> 2019 07 03 12 00  1.0000000  0  8       0.000000000000
G07  25371598.393 9 133328603.136 9      2217.225 9        54.123 9  25371599.076 6         0.000 6      1727.708 6        37.977 6
G10  23848698.123 9 125325699.213 9      3534.234 9        54.655 9  23848701.888 6         0.000 6      2753.951 6        37.977 6
G21  21157053.703 9 111181046.984 9     -1232.301 9        55.715 9  21157052.986 6         0.000 6      -960.235 6        37.977 6
G29  24264996.670 9 127513362.349 9     -3122.352 9        54.487 9  24264998.208 6         0.000 6     -2433.004 6        37.977 6
G27  22032644.659 9 115782301.990 9      2519.048 9        55.363 9  22032646.602 6         0.000 6      1962.895 6        37.977 6
G16  20503651.906 9 107747397.683 9       595.636 9        55.974 9  20503651.079 6         0.000 6       464.132 6        37.977 6
G26  20638210.699 9 108454507.052 9     -1449.119 9        55.880 9  20638213.509 6         0.000 6     -1129.184 6        37.977 6
G20  21972537.997 9 115466433.144 9      2587.173 9        55.304 9  21972538.335 6         0.000 6      2015.980 6        37.977 6
> 2019 07 03 12 00  2.0000000  0  8       0.000000000000
G07  25371175.784 9 133326382.318 9      2224.432 9        54.123 9  25371176.467 6         0.000 6      1733.324 6        37.977 6
G10  23848026.281 9 125322168.672 9      3526.850 9        54.655 9  23848030.046 6         0.000 6      2748.198 6        37.977 6
G21  21157288.245 9 111182279.509 9     -1232.720 9        55.715 9  21157287.528 6         0.000 6      -960.561 6        37.977 6
G29  24265591.136 9 127516486.278 9     -3125.470 9        54.487 9  24265592.674 6         0.000 6     -2435.434 6        37.977 6
G27  22032164.956 9 115779781.136 9      2522.635 9        55.363 9  22032166.899 6         0.000 6      1965.690 6        37.977 6
G16  20503538.465 9 107746801.546 9       596.624 9        55.974 9  20503537.638 6         0.000 6       464.902 6        37.977 6
G26  20638486.757 9 108455957.745 9     -1452.291 9        55.880 9  20638489.567 6         0.000 6     -1131.656 6        37.977 6
G20  21972046.267 9 115463849.091 9      2580.946 9        55.305 9  21972046.605 6         0.000 6      2011.128 6        37.977 6
> 2019 07 03 12 00  3.0000000  0  8       0.000000000000
G07  25370751.804 9 133324154.290 9      2231.646 9        54.123 9  25370752.487 6         0.000 6      1738.946 6        37.977 6
G10  23847355.839 9 125318645.484 9      3519.567 9        54.656 9  23847359.603 6         0.000 6      2742.523 6        37.977 6
G21  21157522.882 9 111183512.537 9     -1233.431 9        55.715 9  21157522.165 6         0.000 6      -961.115 6        37.977 6
G29  24266186.236 9 127519613.544 9     -3129.320 9        54.487 9  24266187.776 6         0.000 6     -2438.434 6        37.977 6
G27  22031684.542 9 115777256.545 9      2526.715 9        55.364 9  22031686.485 6         0.000 6      1968.870 6        37.977 6
G16  20503424.822 9 107746204.349 9       597.852 9        55.974 9  20503423.995 6         0.000 6       465.859 6        37.977 6
G26  20638763.406 9 108457411.544 9     -1455.243 9        55.880 9  20638766.216 6         0.000 6     -1133.956 6        37.977 6
G20  21971555.730 9 115461271.306 9      2574.581 9        55.305 9  21971556.067 6         0.000 6      2006.168 6        37.977 6
> 2019 07 03 12 00  4.0000000  0  8       0.000000000000
G07  25370326.326 9 133321918.389 9      2240.830 9        54.124 9  25370327.008 6         0.000 6      1746.102 6        37.977 6
G10  23846686.865 9 125315130.013 9      3510.934 9        54.656 9  23846690.628 6         0.000 6      2735.796 6        37.977 6
G21  21157757.756 9 111184746.808 9     -1235.559 9        55.715 9  21157757.039 6         0.000 6      -962.774 6        37.977 6
G29  24266782.368 9 127522746.228 9     -3137.452 9        54.487 9  24266783.908 6         0.000 6     -2444.770 6        37.977 6
G27  22031203.122 9 115774726.670 9      2534.135 9        55.364 9  22031205.065 6         0.000 6      1974.651 6        37.977 6
G16  20503310.836 9 107745605.352 9       600.664 9        55.974 9  20503310.010 6         0.000 6       468.050 6        37.977 6
G26  20639040.583 9 108458868.118 9     -1457.777 9        55.880 9  20639043.393 6         0.000 6     -1135.931 6        37.977 6
G20  21971066.545 9 115458700.625 9      2566.084 9        55.305 9  21971066.882 6         0.000 6      1999.547 6        37.977 6
> 2019 07 03 12 00  5.0000000  0  8       0.000000000000
G07  25369899.394 9 133319674.855 9      2245.231 9        54.124 9  25369900.077 6         0.000 6      1749.532 6        37.977 6
G10  23846019.240 9 125311621.633 9      3506.686 9        54.656 9  23846023.003 6         0.000 6      2732.486 6        37.977 6
G21  21157993.069 9 111185983.382 9     -1237.259 9        55.715 9  21157992.352 6         0.000 6      -964.098 6        37.977 6
G29  24267380.021 9 127525886.904 9     -3142.708 9        54.486 9  24267381.561 6         0.000 6     -2448.866 6        37.977 6
G27  22030720.377 9 115772189.828 9      2538.503 9        55.364 9  22030722.319 6         0.000 6      1978.055 6        37.977 6
G16  20503196.347 9 107745003.705 9       602.145 9        55.974 9  20503195.520 6         0.000 6       469.204 6        37.977 6
G26  20639318.113 9 108460326.549 9     -1458.998 9        55.879 9  20639320.924 6         0.000 6     -1136.882 6        37.977 6
G20  21970578.770 9 115456137.353 9      2561.384 9        55.305 9  21970579.106 6         0.000 6      1995.885 6        37.977 6
> 2019 07 03 12 00  6.0000000  0  8       0.000000000000
G07  25369471.982 9 133317428.792 9      2246.685 9        54.124 9  25369472.664 6         0.000 6      1750.664 6        37.977 6
G10  23845352.134 9 125308115.978 9      3504.817 9        54.656 9  23845355.896 6         0.000 6      2731.029 6        37.977 6
G21  21158228.573 9 111187220.968 9     -1237.815 9        55.714 9  21158227.857 6         0.000 6      -964.531 6        37.977 6
G29  24267978.212 9 127529030.408 9     -3143.998 9        54.486 9  24267979.753 6         0.000 6     -2449.871 6        37.977 6
G27  22030237.194 9 115769650.688 9      2539.515 9        55.364 9  22030239.136 6         0.000 6      1978.844 6        37.977 6
G16  20503081.758 9 107744401.538 9       602.068 9        55.974 9  20503080.932 6         0.000 6       469.144 6        37.977 6
G26  20639595.856 9 108461786.093 9     -1460.092 9        55.879 9  20639598.666 6         0.000 6     -1137.734 6        37.977 6
G20  21970091.560 9 115453577.056 9      2559.429 9        55.305 9  21970091.897 6         0.000 6      1994.361 6        37.977 6
> 2019 07 03 12 00  7.0000000  0  8       0.000000000000
G07  25369044.381 9 133315181.737 9      2247.333 9        54.124 9  25369045.063 6         0.000 6      1751.170 6        37.977 6
G10  23844685.314 9 125304611.824 9      3503.609 9        54.657 9  23844689.075 6         0.000 6      2730.087 6        37.977 6
G21  21158464.150 9 111188458.931 9     -1238.099 9        55.714 9  21158463.433 6         0.000 6      -964.753 6        37.977 6
G29  24268576.529 9 127532174.577 9     -3144.301 9        54.486 9  24268578.071 6         0.000 6     -2450.107 6        37.977 6
G27  22029753.920 9 115767111.068 9      2539.672 9        55.364 9  22029755.861 6         0.000 6      1978.966 6        37.977 6
G16  20502967.231 9 107743799.696 9       601.594 9        55.974 9  20502966.405 6         0.000 6       468.774 6        37.977 6
G26  20639873.804 9 108463246.717 9     -1461.126 9        55.879 9  20639876.614 6         0.000 6     -1138.540 6        37.977 6
G20  21969604.642 9 115451018.288 9      2558.201 9        55.306 9  21969604.978 6         0.000 6      1993.405 6        37.977 6
> 2019 07 03 12 00  8.0000000  0  8       0.000000000000
G07  25368616.701 9 133312934.266 9      2247.559 9        54.124 9  25368617.383 6         0.000 6      1751.346 6        37.977 6
G10  23844018.680 9 125301108.653 9      3502.803 9        54.657 9  23844022.441 6         0.000 6      2729.460 6        37.977 6
G21  21158699.777 9 111189697.161 9     -1238.372 9        55.714 9  21158699.061 6         0.000 6      -964.965 6        37.977 6
G29  24269174.883 9 127535318.940 9     -3144.431 9        54.486 9  24269176.426 6         0.000 6     -2450.209 6        37.977 6
G27  22029270.638 9 115764571.410 9      2539.620 9        55.365 9  22029272.580 6         0.000 6      1978.926 6        37.977 6
G16  20502852.803 9 107743198.372 9       601.037 9        55.974 9  20502851.977 6         0.000 6       468.340 6        37.977 6
G26  20640151.932 9 108464708.289 9     -1462.011 9        55.879 9  20640154.743 6         0.000 6     -1139.230 6        37.977 6
G20  21969117.922 9 115448460.559 9      2557.300 9        55.306 9  21969118.257 6         0.000 6      1992.702 6        37.977 6
> 2019 07 03 12 00  9.0000000  0  8       0.000000000000
G07  25368189.004 9 133310686.706 9      2247.538 9        54.124 9  25368189.685 6         0.000 6      1751.329 6        37.977 6
G10  23843352.176 9 125297606.160 9      3502.239 9        54.657 9  23843355.936 6         0.000 6      2729.020 6        37.977 6
G21  21158935.461 9 111190935.684 9     -1238.677 9        55.714 9  21158934.744 6         0.000 6      -965.203 6        37.977 6
G29  24269773.259 9 127538463.412 9     -3144.537 9        54.486 9  24269774.801 6         0.000 6     -2450.291 6        37.977 6
G27  22028787.377 9 115762031.856 9      2539.491 9        55.365 9  22028789.318 6         0.000 6      1978.825 6        37.977 6
G16  20502738.486 9 107742597.632 9       600.447 9        55.974 9  20502737.660 6         0.000 6       467.881 6        37.977 6
G26  20640430.220 9 108466170.700 9     -1462.795 9        55.879 9  20640433.031 6         0.000 6     -1139.841 6        37.977 6
G20  21968631.356 9 115445903.642 9      2556.567 9        55.306 9  21968631.691 6         0.000 6      1992.132 6        37.977 6
> 2019 07 03 12 00 10.0000000  0  8       0.000000000000
G07  25367761.326 9 133308439.250 9      2247.363 9        54.124 9  25367762.007 6         0.000 6      1751.193 6        37.977 6
G10  23842685.763 9 125294104.144 9      3501.830 9        54.657 9  23842689.522 6         0.000 6      2728.701 6        37.977 6
G21  21159171.203 9 111192174.519 9     -1239.000 9        55.714 9  21159170.487 6         0.000 6      -965.455 6        37.977 6
G29  24270371.654 9 127541607.989 9     -3144.634 9        54.485 9  24270373.197 6         0.000 6     -2450.367 6        37.977 6
G27  22028304.143 9 115759492.449 9      2539.321 9        55.365 9  22028306.084 6         0.000 6      1978.692 6        37.977 6
G16  20502624.282 9 107741997.483 9       599.845 9        55.974 9  20502623.455 6         0.000 6       467.411 6        37.977 6
G26  20640708.649 9 108467633.853 9     -1463.509 9        55.879 9  20640711.460 6         0.000 6     -1140.397 6        37.977 6
G20  21968144.917 9 115443347.397 9      2555.943 9        55.306 9  21968145.253 6         0.000 6      1991.645 6        37.977 6
> 2019 07 03 12 00 11.0000000  0  8       0.000000000000
G07  25367333.692 9 133306192.018 9      2247.092 9        54.125 9  25367334.373 6         0.000 6      1750.982 6        37.977 6
G10  23842019.418 9 125290602.488 9      3501.518 9        54.657 9  23842023.176 6         0.000 6      2728.459 6        37.977 6
G21  21159407.009 9 111193413.685 9     -1239.334 9        55.714 9  21159406.292 6         0.000 6      -965.715 6        37.977 6
G29  24270970.067 9 127544752.664 9     -3144.732 9        54.485 9  24270971.611 6         0.000 6     -2450.443 6        37.977 6
G27  22027820.944 9 115756953.222 9      2539.132 9        55.365 9  22027822.885 6         0.000 6      1978.545 6        37.977 6
G16  20502510.192 9 107741397.940 9       599.239 9        55.974 9  20502509.366 6         0.000 6       466.940 6        37.977 6
G26  20640987.209 9 108469097.695 9     -1464.174 9        55.879 9  20640990.020 6         0.000 6     -1140.915 6        37.977 6
G20  21967658.592 9 115440791.742 9      2555.387 9        55.306 9  21967658.927 6         0.000 6      1991.211 6        37.977 6
> 2019 07 03 12 00 12.0000000  0  8       0.000000000000
G07  25366906.115 9 133303945.089 9      2246.755 9        54.125 9  25366906.795 6         0.000 6      1750.719 6        37.977 6
G10  23841353.126 9 125287101.115 9      3501.269 9        54.658 9  23841356.884 6         0.000 6      2728.264 6        37.977 6
G21  21159642.880 9 111194653.194 9     -1239.684 9        55.714 9  21159642.163 6         0.000 6      -965.987 6        37.977 6
G29  24271568.499 9 127547897.435 9     -3144.827 9        54.485 9  24271570.044 6         0.000 6     -2450.517 6        37.977 6
G27  22027337.783 9 115754414.197 9      2538.920 9        55.365 9  22027339.724 6         0.000 6      1978.380 6        37.977 6
G16  20502396.220 9 107740799.010 9       598.621 9        55.974 9  20502395.393 6         0.000 6       466.458 6        37.977 6
G26  20641265.894 9 108470562.194 9     -1464.817 9        55.879 9  20641268.706 6         0.000 6     -1141.416 6        37.977 6
G20  21967172.368 9 115438236.625 9      2554.870 9        55.306 9  21967172.703 6         0.000 6      1990.809 6        37.977 6
> 2019 07 03 12 00 13.0000000  0  8       0.000000000000
G07  25366478.606 9 133301698.521 9      2246.379 9        54.125 9  25366479.287 6         0.000 6      1750.426 6        37.977 6
G10  23840686.877 9 125283599.964 9      3501.061 9        54.658 9  23840690.635 6         0.000 6      2728.102 6        37.977 6
G21  21159878.817 9 111195893.052 9     -1240.035 9        55.714 9  21159878.101 6         0.000 6      -966.261 6        37.977 6
G29  24272166.950 9 127551042.303 9     -3144.921 9        54.485 9  24272168.495 6         0.000 6     -2450.590 6        37.977 6
G27  22026854.662 9 115751875.383 9      2538.703 9        55.365 9  22026856.603 6         0.000 6      1978.211 6        37.977 6
G16  20502282.364 9 107740200.694 9       598.004 9        55.974 9  20502281.537 6         0.000 6       465.977 6        37.977 6
G26  20641544.699 9 108472027.319 9     -1465.438 9        55.878 9  20641547.510 6         0.000 6     -1141.900 6        37.977 6
G20  21966686.239 9 115435682.006 9      2554.384 9        55.307 9  21966686.574 6         0.000 6      1990.431 6        37.977 6
> 2019 07 03 12 00 14.0000000  0  8       0.000000000000
G07  25366051.173 9 133299452.349 9      2245.977 9        54.125 9  25366051.853 6         0.000 6      1750.113 6        37.977 6
G10  23840020.665 9 125280099.004 9      3500.878 9        54.658 9  23840024.421 6         0.000 6      2727.960 6        37.977 6
G21  21160114.822 9 111197133.267 9     -1240.392 9        55.714 9  21160114.106 6         0.000 6      -966.540 6        37.977 6
G29  24272765.417 9 127554187.263 9     -3145.018 9        54.485 9  24272766.963 6         0.000 6     -2450.666 6        37.977 6
G27  22026371.584 9 115749336.796 9      2538.479 9        55.366 9  22026373.525 6         0.000 6      1978.037 6        37.977 6
G16  20502168.627 9 107739603.002 9       597.384 9        55.974 9  20502167.800 6         0.000 6       465.494 6        37.977 6
G26  20641823.620 9 108473493.061 9     -1466.047 9        55.878 9  20641826.432 6         0.000 6     -1142.375 6        37.977 6
G20  21966200.201 9 115433127.861 9      2553.914 9        55.307 9  21966200.535 6         0.000 6      1990.064 6        37.977 6
> 2019 07 03 12 00 15.0000000  0  8       0.000000000000
G07  25365623.827 9 133297206.632 9      2245.379 9        54.125 9  25365624.507 6         0.000 6      1749.647 6        37.977 6
G10  23839354.476 9 125276598.171 9      3500.893 9        54.658 9  23839358.232 6         0.000 6      2727.972 6        37.977 6
G21  21160350.896 9 111198373.843 9     -1240.774 9        55.714 9  21160350.180 6         0.000 6      -966.837 6        37.977 6
G29  24273363.903 9 127557332.315 9     -3145.106 9        54.484 9  24273365.449 6         0.000 6     -2450.734 6        37.977 6
G27  22025888.552 9 115746798.446 9      2538.206 9        55.366 9  22025890.492 6         0.000 6      1977.824 6        37.977 6
G16  20502055.008 9 107739005.932 9       596.749 9        55.975 9  20502054.182 6         0.000 6       464.999 6        37.977 6
G26  20642102.653 9 108474959.384 9     -1466.566 9        55.878 9  20642105.464 6         0.000 6     -1142.779 6        37.977 6
G20  21965714.244 9 115430574.147 9      2553.581 9        55.307 9  21965714.578 6         0.000 6      1989.804 6        37.977 6
> 2019 07 03 12 00 16.0000000  0  8       0.000000000000
G07  25365196.639 9 133294961.747 9      2244.365 9        54.125 9  25365197.318 6         0.000 6      1748.857 6        37.977 6
G10  23838688.241 9 125273097.091 9      3501.322 9        54.659 9  23838691.996 6         0.000 6      2728.306 6        37.977 6
G21  21160587.049 9 111199614.837 9     -1241.222 9        55.713 9  21160586.333 6         0.000 6      -967.186 6        37.977 6
G29  24273962.404 9 127560477.451 9     -3145.189 9        54.484 9  24273963.951 6         0.000 6     -2450.799 6        37.977 6
G27  22025405.583 9 115744260.428 9      2537.830 9        55.366 9  22025407.523 6         0.000 6      1977.530 6        37.977 6
G16  20501941.515 9 107738409.520 9       596.076 9        55.975 9  20501940.688 6         0.000 6       464.475 6        37.977 6
G26  20642381.764 9 108476426.123 9     -1466.897 9        55.878 9  20642384.576 6         0.000 6     -1143.037 6        37.977 6
G20  21965228.321 9 115428020.608 9      2553.528 9        55.307 9  21965228.655 6         0.000 6      1989.763 6        37.977 6
> 2019 07 03 12 00 17.0000000  0  8       0.000000000000
G07  25364769.597 9 133292717.632 9      2245.092 9        54.125 9  25364770.277 6         0.000 6      1749.423 6        37.977 6
G10  23838021.951 9 125269595.724 9      3500.676 9        54.659 9  23838025.706 6         0.000 6      2727.802 6        37.977 6
G21  21160823.333 9 111200856.513 9     -1243.231 9        55.713 9  21160822.616 6         0.000 6      -968.751 6        37.977 6
G29  24274561.052 9 127563623.354 9     -3149.816 9        54.484 9  24274562.599 6         0.000 6     -2454.405 6        37.977 6
G27  22024922.586 9 115741722.266 9      2540.914 9        55.366 9  22024924.526 6         0.000 6      1979.934 6        37.977 6
G16  20501828.101 9 107737813.525 9       597.065 9        55.975 9  20501827.274 6         0.000 6       465.245 6        37.977 6
G26  20642660.918 9 108477893.087 9     -1466.614 9        55.878 9  20642663.730 6         0.000 6     -1142.816 6        37.977 6
G20  21964742.463 9 115425467.411 9      2551.454 9        55.307 9  21964742.797 6         0.000 6      1988.147 6        37.977 6
> 2019 07 03 12 00 18.0000000  0  8       0.000000000000
G07  25364342.250 9 133290471.911 9      2245.262 9        54.126 9  25364342.929 6         0.000 6      1749.556 6        37.977 6
G10  23837355.788 9 125266095.026 9      3501.769 9        54.659 9  23837359.542 6         0.000 6      2728.654 6        37.977 6
G21  21161060.421 9 111202102.422 9     -1248.546 9        55.713 9  21161059.705 6         0.000 6      -972.893 6        37.977 6
G29  24275161.690 9 127566779.719 9     -3162.417 9        54.484 9  24275163.238 6         0.000 6     -2464.224 6        37.977 6
G27  22024438.219 9 115739176.902 9      2549.221 9        55.366 9  22024440.158 6         0.000 6      1986.406 6        37.977 6
G16  20501714.115 9 107737214.523 9       600.689 9        55.975 9  20501713.288 6         0.000 6       468.069 6        37.977 6
G26  20642939.751 9 108479358.358 9     -1463.580 9        55.878 9  20642942.562 6         0.000 6     -1140.453 6        37.977 6
G20  21964257.319 9 115422917.968 9      2548.287 9        55.308 9  21964257.652 6         0.000 6      1985.679 6        37.977 6
> 2019 07 03 12 00 19.0000000  0  8       0.000000000000
G07  25363915.619 9 133288229.957 9      2236.375 9        54.126 9  25363916.298 6         0.000 6      1742.631 6        37.977 6
G10  23836688.709 9 125262589.511 9      3511.484 9        54.659 9  23836692.462 6         0.000 6      2736.224 6        37.977 6
G21  21161298.516 9 111203353.619 9     -1253.948 9        55.713 9  21161297.800 6         0.000 6      -977.103 6        37.977 6
G29  24275764.426 9 127569947.108 9     -3171.763 9        54.483 9  24275765.975 6         0.000 6     -2471.506 6        37.977 6
G27  22023952.647 9 115736625.209 9      2553.229 9        55.367 9  22023954.587 6         0.000 6      1989.530 6        37.977 6
G16  20501599.595 9 107736612.717 9       602.554 9        55.975 9  20501598.768 6         0.000 6       469.523 6        37.977 6
G26  20643217.751 9 108480819.259 9     -1457.350 9        55.878 9  20643220.563 6         0.000 6     -1135.598 6        37.977 6
G20  21963772.213 9 115420368.719 9      2551.889 9        55.308 9  21963772.545 6         0.000 6      1988.486 6        37.977 6
> 2019 07 03 12 00 20.0000000  0  8       0.000000000000
G07  25363490.737 9 133285997.189 9      2230.649 9        54.126 9  25363491.416 6         0.000 6      1738.169 6        37.977 6
G10  23836019.838 9 125259074.582 9      3516.825 9        54.660 9  23836023.591 6         0.000 6      2740.386 6        37.977 6
G21  21161537.336 9 111204608.622 9     -1255.612 9        55.713 9  21161536.620 6         0.000 6      -978.399 6        37.977 6
G29  24276368.165 9 127573119.767 9     -3173.028 9        54.483 9  24276369.714 6         0.000 6     -2472.492 6        37.977 6
G27  22023466.847 9 115734072.314 9      2552.542 9        55.367 9  22023468.786 6         0.000 6      1988.995 6        37.977 6
G16  20501484.984 9 107736010.434 9       601.936 9        55.975 9  20501484.157 6         0.000 6       469.041 6        37.977 6
G26  20643494.781 9 108482275.058 9     -1455.114 9        55.878 9  20643497.593 6         0.000 6     -1133.855 6        37.977 6
G20  21963286.239 9 115417814.913 9      2554.823 9        55.308 9  21963286.571 6         0.000 6      1990.772 6        37.977 6
> 2019 07 03 12 00 21.0000000  0  8       0.000000000000
G07  25363066.401 9 133283767.293 9      2229.440 9        54.126 9  25363067.080 6         0.000 6      1737.227 6        37.977 6
G10  23835350.519 9 125255557.295 9      3517.480 9        54.660 9  23835354.271 6         0.000 6      2740.896 6        37.977 6
G21  21161776.328 9 111205864.537 9     -1256.167 9        55.713 9  21161775.612 6         0.000 6      -978.832 6        37.977 6
G29  24276971.998 9 127576292.920 9     -3173.285 9        54.483 9  24276973.548 6         0.000 6     -2472.692 6        37.977 6
G27  22022981.149 9 115731519.959 9      2552.233 9        55.367 9  22022983.089 6         0.000 6      1988.754 6        37.977 6
G16  20501370.500 9 107735408.816 9       601.318 9        55.975 9  20501369.673 6         0.000 6       468.559 6        37.977 6
G26  20643771.683 9 108483730.188 9     -1455.286 9        55.878 9  20643774.495 6         0.000 6     -1133.990 6        37.977 6
G20  21962800.049 9 115415259.975 9      2554.870 9        55.308 9  21962800.381 6         0.000 6      1990.809 6        37.977 6
> 2019 07 03 12 00 22.0000000  0  8       0.000000000000
G07  25362642.201 9 133281538.111 9      2228.957 9        54.126 9  25362642.880 6         0.000 6      1736.850 6        37.977 6
G10  23834681.170 9 125252039.856 9      3517.395 9        54.660 9  23834684.921 6         0.000 6      2740.830 6        37.977 6
G21  21162015.410 9 111207120.917 9     -1256.582 9        55.713 9  21162014.694 6         0.000 6      -979.155 6        37.977 6
G29  24277575.872 9 127579466.292 9     -3173.470 9        54.483 9  24277577.423 6         0.000 6     -2472.837 6        37.977 6
G27  22022495.494 9 115728967.825 9      2552.046 9        55.367 9  22022497.433 6         0.000 6      1988.608 6        37.977 6
G16  20501256.129 9 107734807.796 9       600.729 9        55.975 9  20501255.303 6         0.000 6       468.100 6        37.977 6
G26  20644048.665 9 108485185.734 9     -1455.817 9        55.877 9  20644051.477 6         0.000 6     -1134.404 6        37.977 6
G20  21962313.914 9 115412705.320 9      2554.437 9        55.308 9  21962314.246 6         0.000 6      1990.471 6        37.977 6
> 2019 07 03 12 00 23.0000000  0  8       0.000000000000
G07  25362218.086 9 133279309.372 9      2228.529 9        54.126 9  25362218.764 6         0.000 6      1736.517 6        37.977 6
G10  23834011.846 9 125248522.545 9      3517.247 9        54.660 9  23834015.597 6         0.000 6      2740.714 6        37.977 6
G21  21162254.568 9 111208377.699 9     -1256.983 9        55.713 9  21162253.852 6         0.000 6      -979.468 6        37.977 6
G29  24278179.779 9 127582639.834 9     -3173.628 9        54.483 9  24278181.330 6         0.000 6     -2472.960 6        37.977 6
G27  22022009.874 9 115726415.878 9      2551.848 9        55.367 9  22022011.813 6         0.000 6      1988.454 6        37.977 6
G16  20501141.871 9 107734207.365 9       600.128 9        55.975 9  20501141.044 6         0.000 6       467.632 6        37.977 6
G26  20644325.752 9 108486641.835 9     -1456.391 9        55.877 9  20644328.564 6         0.000 6     -1134.850 6        37.977 6
G20  21961827.865 9 115410151.123 9      2553.965 9        55.309 9  21961828.197 6         0.000 6      1990.104 6        37.977 6
> 2019 07 03 12 00 24.0000000  0  8       0.000000000000
G07  25361794.051 9 133277081.059 9      2228.101 9        54.126 9  25361794.729 6         0.000 6      1736.183 6        37.977 6
G10  23833342.550 9 125245005.384 9      3517.099 9        54.661 9  23833346.301 6         0.000 6      2740.599 6        37.977 6
G21  21162493.801 9 111209634.876 9     -1257.370 9        55.713 9  21162493.085 6         0.000 6      -979.769 6        37.977 6
G29  24278783.714 9 127585813.522 9     -3173.764 9        54.482 9  24278785.266 6         0.000 6     -2473.065 6        37.977 6
G27  22021524.293 9 115723864.135 9      2551.639 9        55.368 9  22021526.232 6         0.000 6      1988.291 6        37.977 6
G16  20501027.728 9 107733607.538 9       599.526 9        55.975 9  20501026.901 6         0.000 6       467.163 6        37.977 6
G26  20644602.948 9 108488098.510 9     -1456.964 9        55.877 9  20644605.761 6         0.000 6     -1135.297 6        37.977 6
G20  21961341.906 9 115407597.395 9      2553.503 9        55.309 9  21961342.237 6         0.000 6      1989.744 6        37.977 6
> 2019 07 03 12 00 25.0000000  0  8       0.000000000000
G07  25361370.098 9 133274853.174 9      2227.664 9        54.127 9  25361370.776 6         0.000 6      1735.843 6        37.977 6
G10  23832673.283 9 125241488.373 9      3516.956 9        54.661 9  23832677.033 6         0.000 6      2740.488 6        37.977 6
G21  21162733.106 9 111210892.434 9     -1257.750 9        55.713 9  21162732.390 6         0.000 6      -980.065 6        37.977 6
G29  24279387.672 9 127588987.335 9     -3173.879 9        54.482 9  24279389.225 6         0.000 6     -2473.155 6        37.977 6
G27  22021038.753 9 115721312.607 9      2551.414 9        55.368 9  22021040.691 6         0.000 6      1988.116 6        37.977 6
G16  20500913.700 9 107733008.315 9       598.915 9        55.975 9  20500912.873 6         0.000 6       466.687 6        37.977 6
G26  20644880.254 9 108489555.761 9     -1457.541 9        55.877 9  20644883.067 6         0.000 6     -1135.746 6        37.977 6
G20  21960856.035 9 115405044.127 9      2553.049 9        55.309 9  21960856.366 6         0.000 6      1989.390 6        37.977 6
> 2019 07 03 12 00 26.0000000  0  8       0.000000000000
G07  25360946.230 9 133272625.735 9      2227.227 9        54.127 9  25360946.907 6         0.000 6      1735.503 6        37.977 6
G10  23832004.042 9 125237971.496 9      3516.810 9        54.661 9  23832007.791 6         0.000 6      2740.374 6        37.977 6
G21  21162972.484 9 111212150.372 9     -1258.131 9        55.712 9  21162971.768 6         0.000 6      -980.362 6        37.977 6
G29  24279991.652 9 127592161.258 9     -3173.988 9        54.482 9  24279993.205 6         0.000 6     -2473.240 6        37.977 6
G27  22020553.256 9 115718761.310 9      2551.183 9        55.368 9  22020555.195 6         0.000 6      1987.936 6        37.977 6
G16  20500799.788 9 107732409.704 9       598.299 9        55.975 9  20500798.961 6         0.000 6       466.207 6        37.977 6
G26  20645157.669 9 108491013.586 9     -1458.122 9        55.877 9  20645160.482 6         0.000 6     -1136.199 6        37.977 6
G20  21960370.248 9 115402491.305 9      2552.595 9        55.309 9  21960370.579 6         0.000 6      1989.036 6        37.977 6
> 2019 07 03 12 00 27.0000000  0  8       0.000000000000
G07  25360522.445 9 133270398.736 9      2226.782 9        54.127 9  25360523.122 6         0.000 6      1735.156 6        37.977 6
G10  23831334.828 9 125234454.765 9      3516.674 9        54.661 9  23831338.576 6         0.000 6      2740.268 6        37.977 6
G21  21163211.933 9 111213408.688 9     -1258.505 9        55.712 9  21163211.218 6         0.000 6      -980.654 6        37.977 6
G29  24280595.650 9 127595335.281 9     -3174.088 9        54.482 9  24280597.204 6         0.000 6     -2473.318 6        37.977 6
G27  22020067.806 9 115716210.252 9      2550.947 9        55.368 9  22020069.744 6         0.000 6      1987.751 6        37.977 6
G16  20500685.994 9 107731811.716 9       597.684 9        55.975 9  20500685.167 6         0.000 6       465.728 6        37.977 6
G26  20645435.196 9 108492471.997 9     -1458.698 9        55.877 9  20645438.009 6         0.000 6     -1136.648 6        37.977 6
G20  21959884.547 9 115399938.936 9      2552.150 9        55.309 9  21959884.878 6         0.000 6      1988.690 6        37.977 6
> 2019 07 03 12 00 28.0000000  0  8       0.000000000000
G07  25360098.747 9 133268172.190 9      2226.290 9        54.127 9  25360099.424 6         0.000 6      1734.772 6        37.977 6
G10  23830665.639 9 125230938.163 9      3516.567 9        54.662 9  23830669.387 6         0.000 6      2740.185 6        37.977 6
G21  21163451.453 9 111214667.372 9     -1258.844 9        55.712 9  21163450.738 6         0.000 6      -980.918 6        37.977 6
G29  24281199.664 9 127598509.387 9     -3174.078 9        54.482 9  24281201.219 6         0.000 6     -2473.310 6        37.977 6
G27  22019582.402 9 115713659.442 9      2550.625 9        55.368 9  22019584.340 6         0.000 6      1987.501 6        37.977 6
G16  20500572.319 9 107731214.347 9       597.027 9        55.975 9  20500571.492 6         0.000 6       465.216 6        37.977 6
G26  20645712.832 9 108493930.983 9     -1459.289 9        55.877 9  20645715.645 6         0.000 6     -1137.108 6        37.977 6
G20  21959398.929 9 115397387.002 9      2551.756 9        55.310 9  21959399.260 6         0.000 6      1988.383 6        37.977 6
> 2019 07 03 12 00 29.0000000  0  8       0.000000000000
G07  25359675.151 9 133265946.184 9      2226.283 9        54.127 9  25359675.828 6         0.000 6      1734.767 6        37.977 6
G10  23829996.468 9 125227421.653 9      3515.922 9        54.662 9  23830000.214 6         0.000 6      2739.682 6        37.977 6
G21  21163691.023 9 111215926.322 9     -1258.972 9        55.712 9  21163690.308 6         0.000 6      -981.017 6        37.977 6
G29  24281803.637 9 127601683.278 9     -3173.733 9        54.481 9  24281805.193 6         0.000 6     -2473.041 6        37.977 6
G27  22019097.089 9 115711109.106 9      2550.191 9        55.369 9  22019099.027 6         0.000 6      1987.162 6        37.977 6
G16  20500458.783 9 107730617.710 9       596.292 9        55.975 9  20500457.956 6         0.000 6       464.643 6        37.977 6
G26  20645990.589 9 108495390.604 9     -1460.211 9        55.877 9  20645993.402 6         0.000 6     -1137.827 6        37.977 6
G20  21958913.374 9 115394835.393 9      2551.094 9        55.310 9  21958913.703 6         0.000 6      1987.867 6        37.977 6
> 2019 07 03 12 00 30.0000000  0  8       0.000000000000
G07  25359252.377 9 133263724.493 9      2214.781 9        54.127 9  25359253.054 6         0.000 6      1725.805 6        37.977 6
G10  23829326.608 9 125223901.529 9      3526.552 9        54.662 9  23829330.354 6         0.000 6      2747.965 6        37.977 6
G21  21163930.708 9 111217185.874 9     -1260.129 9        55.712 9  21163929.993 6         0.000 6      -981.919 6        37.977 6
G29  24282407.454 9 127604856.342 9     -3171.514 9        54.481 9  24282409.009 6         0.000 6     -2471.312 6        37.977 6
G27  22018612.110 9 115708560.528 9      2545.827 9        55.369 9  22018614.048 6         0.000 6      1983.762 6        37.977 6
G16  20500345.476 9 107730022.279 9       594.104 9        55.975 9  20500344.649 6         0.000 6       462.938 6        37.977 6
G26  20646268.167 9 108496849.286 9     -1456.350 9        55.877 9  20646270.981 6         0.000 6     -1134.819 6        37.977 6
G20  21958427.369 9 115392281.428 9      2558.593 9        55.310 9  21958427.699 6         0.000 6      1993.710 6        37.977 6
> 2019 07 03 12 00 31.0000000  0  8       0.000000000000
G07  25358832.367 9 133261517.328 9      2199.742 9        54.127 9  25358833.043 6         0.000 6      1714.086 6        37.977 6
G10  23828654.236 9 125220368.200 9      3539.776 9        54.662 9  23828657.981 6         0.000 6      2758.269 6        37.977 6
G21  21164170.460 9 111218445.778 9     -1259.213 9        55.712 9  21164169.745 6         0.000 6      -981.205 6        37.977 6
G29  24283010.249 9 127608024.046 9     -3162.823 9        54.481 9  24283011.806 6         0.000 6     -2464.540 6        37.977 6
G27  22018128.495 9 115706019.119 9      2536.308 9        55.369 9  22018130.433 6         0.000 6      1976.344 6        37.977 6
G16  20500232.826 9 107729430.301 9       589.498 9        55.975 9  20500231.999 6         0.000 6       459.349 6        37.977 6
G26  20646544.928 9 108498303.671 9     -1452.854 9        55.876 9  20646547.741 6         0.000 6     -1132.095 6        37.977 6
G20  21957939.436 9 115389717.327 9      2569.690 9        55.310 9  21957939.766 6         0.000 6      2002.357 6        37.977 6
> 2019 07 03 12 00 32.0000000  0  8       0.000000000000
G07  25358415.173 9 133259324.964 9      2187.604 9        54.128 9  25358415.849 6         0.000 6      1704.627 6        37.977 6
G10  23827979.509 9 125216822.499 9      3549.296 9        54.663 9  23827983.254 6         0.000 6      2765.688 6        37.977 6
G21  21164409.717 9 111219703.079 9     -1255.704 9        55.712 9  21164409.001 6         0.000 6      -978.471 6        37.977 6
G29  24283610.613 9 127611178.969 9     -3148.842 9        54.481 9  24283612.170 6         0.000 6     -2453.646 6        37.977 6
G27  22017647.204 9 115703489.916 9      2523.923 9        55.369 9  22017649.141 6         0.000 6      1966.694 6        37.977 6
G16  20500121.312 9 107728844.289 9       583.326 9        55.975 9  20500120.485 6         0.000 6       454.540 6        37.977 6
G26  20646821.289 9 108499755.957 9     -1452.368 9        55.876 9  20646824.102 6         0.000 6     -1131.716 6        37.977 6
G20  21957449.280 9 115387141.543 9      2579.786 9        55.310 9  21957449.609 6         0.000 6      2010.224 6        37.977 6
> 2019 07 03 12 00 33.0000000  0  8       0.000000000000
G07  25357999.120 9 133257138.592 9      2185.638 9        54.128 9  25357999.796 6         0.000 6      1703.096 6        37.977 6
G10  23827303.974 9 125213272.548 9      3550.262 9        54.663 9  23827307.718 6         0.000 6      2766.441 6        37.977 6
G21  21164648.592 9 111220958.375 9     -1255.168 9        55.712 9  21164647.876 6         0.000 6      -978.053 6        37.977 6
G29  24284209.475 9 127614325.999 9     -3146.107 9        54.480 9  24284211.033 6         0.000 6     -2451.515 6        37.977 6
G27  22017167.219 9 115700967.584 9      2521.440 9        55.369 9  22017169.157 6         0.000 6      1964.759 6        37.977 6
G16  20500010.498 9 107728261.957 9       581.661 9        55.975 9  20500009.671 6         0.000 6       453.243 6        37.977 6
G26  20647097.740 9 108501208.716 9     -1453.112 9        55.876 9  20647100.554 6         0.000 6     -1132.296 6        37.977 6
G20  21956958.211 9 115384560.961 9      2580.890 9        55.310 9  21956958.539 6         0.000 6      2011.084 6        37.977 6
> 2019 07 03 12 00 34.0000000  0  8       0.000000000000
G07  25357583.275 9 133254953.316 9      2184.983 9        54.128 9  25357583.950 6         0.000 6      1702.585 6        37.977 6
G10  23826628.376 9 125209722.266 9      3550.280 9        54.663 9  23826632.119 6         0.000 6      2766.455 6        37.977 6
G21  21164887.465 9 111222213.660 9     -1255.438 9        55.712 9  21164886.749 6         0.000 6      -978.264 6        37.977 6
G29  24284808.125 9 127617471.914 9     -3145.860 9        54.480 9  24284809.683 6         0.000 6     -2451.322 6        37.977 6
G27  22016687.463 9 115698446.451 9      2520.928 9        55.369 9  22016689.400 6         0.000 6      1964.360 6        37.977 6
G16  20499899.886 9 107727680.688 9       580.926 9        55.975 9  20499899.059 6         0.000 6       452.669 6        37.977 6
G26  20647374.314 9 108502662.122 9     -1453.690 9        55.876 9  20647377.128 6         0.000 6     -1132.746 6        37.977 6
G20  21956467.102 9 115381980.169 9      2580.642 9        55.311 9  21956467.430 6         0.000 6      2010.891 6        37.977 6
> 2019 07 03 12 00 35.0000000  0  8       0.000000000000
G07  25357167.534 9 133252768.588 9      2184.485 9        54.128 9  25357168.210 6         0.000 6      1702.197 6        37.977 6
G10  23825952.789 9 125206172.043 9      3550.186 9        54.663 9  23825956.532 6         0.000 6      2766.381 6        37.977 6
G21  21165126.402 9 111223469.283 9     -1255.806 9        55.712 9  21165125.687 6         0.000 6      -978.550 6        37.977 6
G29  24285406.767 9 127620617.787 9     -3145.916 9        54.480 9  24285408.326 6         0.000 6     -2451.366 6        37.977 6
G27  22016207.774 9 115695925.668 9      2520.656 9        55.370 9  22016209.710 6         0.000 6      1964.148 6        37.977 6
G16  20499789.400 9 107727100.079 9       580.303 9        55.975 9  20499788.573 6         0.000 6       452.184 6        37.977 6
G26  20647650.996 9 108504116.091 9     -1454.246 9        55.876 9  20647653.810 6         0.000 6     -1133.179 6        37.977 6
G20  21955976.061 9 115379399.736 9      2580.232 9        55.311 9  21955976.389 6         0.000 6      2010.572 6        37.977 6
> 2019 07 03 12 00 36.0000000  0  8       0.000000000000
G07  25356751.886 9 133250584.347 9      2184.007 9        54.128 9  25356752.561 6         0.000 6      1701.824 6        37.977 6
G10  23825277.222 9 125202621.924 9      3550.071 9        54.664 9  23825280.964 6         0.000 6      2766.292 6        37.977 6
G21  21165365.410 9 111224725.276 9     -1256.183 9        55.712 9  21165364.694 6         0.000 6      -978.844 6        37.977 6
G29  24286005.422 9 127623763.731 9     -3145.992 9        54.480 9  24286006.981 6         0.000 6     -2451.425 6        37.977 6
G27  22015728.133 9 115693405.142 9      2520.398 9        55.370 9  22015730.070 6         0.000 6      1963.947 6        37.977 6
G16  20499679.030 9 107726520.085 9       579.683 9        55.976 9  20499678.203 6         0.000 6       451.701 6        37.977 6
G26  20647927.783 9 108505570.615 9     -1454.810 9        55.876 9  20647930.597 6         0.000 6     -1133.619 6        37.977 6
G20  21955485.099 9 115376819.721 9      2579.802 9        55.311 9  21955485.427 6         0.000 6      2010.236 6        37.977 6
> 2019 07 03 12 00 37.0000000  0  8       0.000000000000
G07  25356336.328 9 133248400.578 9      2183.541 9        54.128 9  25356337.003 6         0.000 6      1701.461 6        37.977 6
G10  23824601.677 9 125199071.922 9      3549.949 9        54.664 9  23824605.418 6         0.000 6      2766.197 6        37.977 6
G21  21165604.489 9 111225981.643 9     -1256.556 9        55.711 9  21165603.773 6         0.000 6      -979.135 6        37.977 6
G29  24286604.092 9 127626909.755 9     -3146.076 9        54.480 9  24286605.652 6         0.000 6     -2451.491 6        37.977 6
G27  22015248.540 9 115690884.868 9      2520.154 9        55.370 9  22015250.477 6         0.000 6      1963.757 6        37.977 6
G16  20499568.778 9 107725940.704 9       579.074 9        55.976 9  20499567.951 6         0.000 6       451.226 6        37.977 6
G26  20648204.677 9 108507025.701 9     -1455.370 9        55.876 9  20648207.491 6         0.000 6     -1134.055 6        37.977 6
G20  21954994.220 9 115374240.140 9      2579.365 9        55.311 9  21954994.548 6         0.000 6      2009.896 6        37.977 6
> 2019 07 03 12 00 38.0000000  0  8       0.000000000000
G07  25355920.857 9 133246217.266 9      2183.084 9        54.128 9  25355921.532 6         0.000 6      1701.106 6        37.977 6
G10  23823926.157 9 125195522.053 9      3549.816 9        54.664 9  23823929.898 6         0.000 6      2766.093 6        37.977 6
G21  21165843.639 9 111227238.385 9     -1256.930 9        55.711 9  21165842.923 6         0.000 6      -979.426 6        37.977 6
G29  24287202.778 9 127630055.862 9     -3146.160 9        54.479 9  24287204.339 6         0.000 6     -2451.556 6        37.977 6
G27  22014768.994 9 115688364.838 9      2519.909 9        55.370 9  22014770.930 6         0.000 6      1963.566 6        37.977 6
G16  20499458.642 9 107725361.936 9       578.462 9        55.976 9  20499457.815 6         0.000 6       450.750 6        37.977 6
G26  20648481.679 9 108508481.355 9     -1455.938 9        55.876 9  20648484.493 6         0.000 6     -1134.498 6        37.977 6
G20  21954503.426 9 115371661.004 9      2578.921 9        55.311 9  21954503.754 6         0.000 6      2009.550 6        37.977 6
> 2019 07 03 12 00 39.0000000  0  8       0.000000000000
G07  25355505.474 9 133244034.420 9      2182.625 9        54.129 9  25355506.149 6         0.000 6      1700.747 6        37.977 6
G10  23823250.661 9 125191972.309 9      3549.685 9        54.664 9  23823254.401 6         0.000 6      2765.991 6        37.977 6
G21  21166082.860 9 111228495.499 9     -1257.301 9        55.711 9  21166082.145 6         0.000 6      -979.715 6        37.977 6
G29  24287801.480 9 127633202.049 9     -3146.238 9        54.479 9  24287803.041 6         0.000 6     -2451.617 6        37.977 6
G27  22014289.495 9 115685845.059 9      2519.661 9        55.370 9  22014291.432 6         0.000 6      1963.373 6        37.977 6
G16  20499348.623 9 107724783.781 9       577.849 9        55.976 9  20499347.796 6         0.000 6       450.272 6        37.977 6
G26  20648758.788 9 108509937.573 9     -1456.505 9        55.875 9  20648761.603 6         0.000 6     -1134.940 6        37.977 6
G20  21954012.715 9 115369082.305 9      2578.479 9        55.312 9  21954013.042 6         0.000 6      2009.206 6        37.977 6
> 2019 07 03 12 00 40.0000000  0  8       0.000000000000
G07  25355090.178 9 133241852.024 9      2182.168 9        54.129 9  25355090.852 6         0.000 6      1700.391 6        37.977 6
G10  23822575.192 9 125188422.703 9      3549.552 9        54.665 9  23822578.931 6         0.000 6      2765.887 6        37.977 6
G21  21166322.152 9 111229752.985 9     -1257.675 9        55.711 9  21166321.436 6         0.000 6      -980.007 6        37.977 6
G29  24288400.198 9 127636348.323 9     -3146.322 9        54.479 9  24288401.760 6         0.000 6     -2451.682 6        37.977 6
G27  22013810.042 9 115683325.517 9      2519.416 9        55.371 9  22013811.978 6         0.000 6      1963.182 6        37.977 6
G16  20499238.719 9 107724206.233 9       577.237 9        55.976 9  20499237.892 6         0.000 6       449.795 6        37.977 6
G26  20649036.006 9 108511394.357 9     -1457.073 9        55.875 9  20649038.820 6         0.000 6     -1135.382 6        37.977 6
G20  21953522.089 9 115366504.053 9      2578.035 9        55.312 9  21953522.416 6         0.000 6      2008.859 6        37.977 6
> 2019 07 03 12 00 41.0000000  0  8       0.000000000000
G07  25354674.968 9 133239670.085 9      2181.717 9        54.129 9  25354675.642 6         0.000 6      1700.040 6        37.977 6
G10  23821899.748 9 125184873.232 9      3549.412 9        54.665 9  23821903.486 6         0.000 6      2765.778 6        37.977 6
G21  21166561.515 9 111231010.845 9     -1258.047 9        55.711 9  21166560.799 6         0.000 6      -980.296 6        37.977 6
G29  24288998.931 9 127639494.676 9     -3146.405 9        54.479 9  24289000.494 6         0.000 6     -2451.746 6        37.977 6
G27  22013330.636 9 115680806.225 9      2519.172 9        55.371 9  22013332.572 6         0.000 6      1962.992 6        37.977 6
G16  20499128.933 9 107723629.301 9       576.626 9        55.976 9  20499128.106 6         0.000 6       449.319 6        37.977 6
G26  20649313.332 9 108512851.714 9     -1457.643 9        55.875 9  20649316.146 6         0.000 6     -1135.826 6        37.977 6
G20  21953031.548 9 115363926.247 9      2577.586 9        55.312 9  21953031.875 6         0.000 6      2008.510 6        37.977 6
> 2019 07 03 12 00 42.0000000  0  8       0.000000000000
G07  25354259.844 9 133237488.601 9      2181.263 9        54.129 9  25354260.518 6         0.000 6      1699.686 6        37.977 6
G10  23821224.329 9 125181323.896 9      3549.277 9        54.665 9  23821228.068 6         0.000 6      2765.673 6        37.977 6
G21  21166800.948 9 111232269.075 9     -1258.416 9        55.711 9  21166800.233 6         0.000 6      -980.584 6        37.977 6
G29  24289597.680 9 127642641.112 9     -3146.487 9        54.479 9  24289599.243 6         0.000 6     -2451.811 6        37.977 6
G27  22012851.276 9 115678287.176 9      2518.931 9        55.371 9  22012853.212 6         0.000 6      1962.804 6        37.977 6
G16  20499019.262 9 107723052.978 9       576.018 9        55.976 9  20499018.435 6         0.000 6       448.845 6        37.977 6
G26  20649590.765 9 108514309.635 9     -1458.209 9        55.875 9  20649593.580 6         0.000 6     -1136.267 6        37.977 6
G20  21952541.092 9 115361348.886 9      2577.142 9        55.312 9  21952541.418 6         0.000 6      2008.164 6        37.977 6
> 2019 07 03 12 00 43.0000000  0  8       0.000000000000
G07  25353844.791 9 133235307.484 9      2181.037 9        54.129 9  25353845.465 6         0.000 6      1699.510 6        37.977 6
G10  23820548.954 9 125177774.785 9      3548.910 9        54.665 9  23820552.692 6         0.000 6      2765.387 6        37.977 6
G21  21167040.450 9 111233527.668 9     -1258.758 9        55.711 9  21167039.735 6         0.000 6      -980.851 6        37.977 6
G29  24290196.444 9 127645787.632 9     -3146.577 9        54.478 9  24290198.008 6         0.000 6     -2451.881 6        37.977 6
G27  22012371.960 9 115675768.354 9      2518.741 9        55.371 9  22012373.896 6         0.000 6      1962.656 6        37.977 6
G16  20498909.707 9 107722477.264 9       575.421 9        55.976 9  20498908.880 6         0.000 6       448.380 6        37.977 6
G26  20649868.316 9 108515768.171 9     -1458.886 9        55.875 9  20649871.130 6         0.000 6     -1136.795 6        37.977 6
G20  21952050.732 9 115358772.033 9      2576.537 9        55.312 9  21952051.058 6         0.000 6      2007.692 6        37.977 6
> 2019 07 03 12 00 44.0000000  0  8       0.000000000000
G07  25353429.852 9 133233126.967 9      2178.712 9        54.129 9  25353430.525 6         0.000 6      1697.699 6        37.977 6
G10  23819873.608 9 125174225.830 9      3549.772 9        54.666 9  23819877.345 6         0.000 6      2766.059 6        37.977 6
G21  21167279.940 9 111234786.193 9     -1257.009 9        55.711 9  21167279.225 6         0.000 6      -979.488 6        37.977 6
G29  24290795.010 9 127648933.108 9     -3140.738 9        54.478 9  24290796.575 6         0.000 6     -2447.331 6        37.977 6
G27  22011892.839 9 115673250.560 9      2514.106 9        55.371 9  22011894.775 6         0.000 6      1959.044 6        37.977 6
G16  20498800.342 9 107721902.547 9       572.693 9        55.976 9  20498799.515 6         0.000 6       446.254 6        37.977 6
G26  20650146.028 9 108517227.556 9     -1460.434 9        55.875 9  20650148.843 6         0.000 6     -1138.001 6        37.977 6
G20  21951560.399 9 115356195.316 9      2578.455 9        55.313 9  21951560.724 6         0.000 6      2009.187 6        37.977 6
> 2019 07 03 12 00 45.0000000  0  8       0.000000000000
G07  25353015.405 9 133230949.038 9      2178.492 9        54.129 9  25353016.078 6         0.000 6      1697.527 6        37.977 6
G10  23819198.211 9 125170676.605 9      3547.464 9        54.666 9  23819201.948 6         0.000 6      2764.261 6        37.977 6
G21  21167518.663 9 111236040.689 9     -1252.068 9        55.711 9  21167517.948 6         0.000 6      -975.637 6        37.977 6
G29  24291391.379 9 127652067.037 9     -3127.873 9        54.478 9  24291392.945 6         0.000 6     -2437.306 6        37.977 6
G27  22011415.338 9 115670741.278 9      2505.265 9        55.372 9  22011417.274 6         0.000 6      1952.155 6        37.977 6
G16  20498691.865 9 107721332.499 9       567.744 9        55.976 9  20498691.039 6         0.000 6       442.398 6        37.977 6
G26  20650424.354 9 108518690.167 9     -1465.187 9        55.875 9  20650427.169 6         0.000 6     -1141.705 6        37.977 6
G20  21951069.466 9 115353615.453 9      2580.239 9        55.313 9  21951069.792 6         0.000 6      2010.577 6        37.977 6
> 2019 07 03 12 00 46.0000000  0  8       0.000000000000
G07  25352600.111 9 133228766.657 9      2187.957 9        54.130 9  25352600.784 6         0.000 6      1704.903 6        37.977 6
G10  23818524.088 9 125167134.073 9      3536.109 9        54.666 9  23818527.823 6         0.000 6      2755.412 6        37.977 6
G21  21167756.463 9 111237290.338 9     -1247.461 9        55.711 9  21167755.748 6         0.000 6      -972.048 6        37.977 6
G29  24291985.693 9 127655190.164 9     -3119.605 9        54.478 9  24291987.259 6         0.000 6     -2430.864 6        37.977 6
G27  22010939.049 9 115668238.366 9      2501.756 9        55.372 9  22010940.985 6         0.000 6      1949.421 6        37.977 6
G16  20498584.136 9 107720766.377 9       565.011 9        55.976 9  20498583.309 6         0.000 6       440.268 6        37.977 6
G26  20650703.877 9 108520159.072 9     -1473.048 9        55.875 9  20650706.692 6         0.000 6     -1147.830 6        37.977 6
G20  21950578.869 9 115351037.352 9      2574.607 9        55.313 9  21950579.194 6         0.000 6      2006.188 6        37.977 6
> 2019 07 03 12 00 47.0000000  0  8       0.000000000000
G07  25352183.286 9 133226576.231 9      2191.721 9        54.130 9  25352183.959 6         0.000 6      1707.836 6        37.977 6
G10  23817851.730 9 125163600.820 9      3531.645 9        54.666 9  23817855.465 6         0.000 6      2751.934 6        37.977 6
G21  21167993.768 9 111238537.381 9     -1246.933 9        55.710 9  21167993.053 6         0.000 6      -971.636 6        37.977 6
G29  24292579.262 9 127658309.382 9     -3119.136 9        54.477 9  24292580.828 6         0.000 6     -2430.498 6        37.977 6
G27  22010462.937 9 115665736.383 9      2502.129 9        55.372 9  22010464.872 6         0.000 6      1949.712 6        37.977 6
G16  20498476.668 9 107720201.629 9       564.497 9        55.976 9  20498475.841 6         0.000 6       439.868 6        37.977 6
G26  20650984.511 9 108521633.809 9     -1475.786 9        55.875 9  20650987.326 6         0.000 6     -1149.964 6        37.977 6
G20  21950089.313 9 115348464.725 9      2571.401 9        55.313 9  21950089.638 6         0.000 6      2003.691 6        37.977 6
> 2019 07 03 12 00 48.0000000  0  8       0.000000000000
G07  25351766.184 9 133224384.346 9      2191.837 9        54.130 9  25351766.856 6         0.000 6      1707.926 6        37.977 6
G10  23817179.769 9 125160069.654 9      3530.929 9        54.667 9  23817183.504 6         0.000 6      2751.376 6        37.977 6
G21  21168231.073 9 111239784.427 9     -1247.187 9        55.710 9  21168230.358 6         0.000 6      -971.834 6        37.977 6
G29  24293172.819 9 127661428.537 9     -3119.187 9        54.477 9  24293174.387 6         0.000 6     -2430.538 6        37.977 6
G27  22009986.805 9 115663234.293 9      2502.005 9        55.372 9  22009988.740 6         0.000 6      1949.615 6        37.977 6
G16  20498369.302 9 107719637.417 9       563.913 9        55.976 9  20498368.475 6         0.000 6       439.413 6        37.977 6
G26  20651265.435 9 108523110.072 9     -1476.639 9        55.874 9  20651268.250 6         0.000 6     -1150.628 6        37.977 6
G20  21949600.085 9 115345893.816 9      2570.579 9        55.313 9  21949600.409 6         0.000 6      2003.050 6        37.977 6
> 2019 07 03 12 00 49.0000000  0  8       0.000000000000
G07  25351349.129 9 133222192.713 9      2191.426 9        54.130 9  25351349.801 6         0.000 6      1707.605 6        37.977 6
G10  23816507.875 9 125156538.834 9      3530.742 9        54.667 9  23816511.608 6         0.000 6      2751.230 6        37.977 6
G21  21168468.437 9 111241031.783 9     -1247.533 9        55.710 9  21168467.722 6         0.000 6      -972.104 6        37.977 6
G29  24293766.386 9 127664547.742 9     -3119.251 9        54.477 9  24293767.954 6         0.000 6     -2430.588 6        37.977 6
G27  22009510.712 9 115660732.411 9      2501.764 9        55.372 9  22009512.647 6         0.000 6      1949.427 6        37.977 6
G16  20498262.052 9 107719073.815 9       563.292 9        55.976 9  20498261.225 6         0.000 6       438.929 6        37.977 6
G26  20651546.488 9 108524587.015 9     -1477.244 9        55.874 9  20651549.303 6         0.000 6     -1151.100 6        37.977 6
G20  21949110.965 9 115343323.479 9      2570.108 9        55.314 9  21949111.289 6         0.000 6      2002.683 6        37.977 6
> 2019 07 03 12 00 50.0000000  0  8       0.000000000000
G07  25350932.158 9 133220001.520 9      2190.966 9        54.130 9  25350932.830 6         0.000 6      1707.247 6        37.977 6
G10  23815836.010 9 125153008.173 9      3530.606 9        54.667 9  23815839.743 6         0.000 6      2751.125 6        37.977 6
G21  21168705.868 9 111242279.490 9     -1247.886 9        55.710 9  21168705.153 6         0.000 6      -972.379 6        37.977 6
G29  24294359.966 9 127667667.015 9     -3119.320 9        54.477 9  24294361.535 6         0.000 6     -2430.642 6        37.977 6
G27  22009034.666 9 115658230.774 9      2501.518 9        55.373 9  22009036.600 6         0.000 6      1949.236 6        37.977 6
G16  20498154.920 9 107718510.833 9       562.673 9        55.976 9  20498154.093 6         0.000 6       438.447 6        37.977 6
G26  20651827.653 9 108526064.547 9     -1477.822 9        55.874 9  20651830.469 6         0.000 6     -1151.550 6        37.977 6
G20  21948621.931 9 115340753.594 9      2569.672 9        55.314 9  21948622.255 6         0.000 6      2002.343 6        37.977 6
> 2019 07 03 12 00 51.0000000  0  8       0.000000000000
G07  25350515.275 9 133217810.787 9      2190.504 9        54.130 9  25350515.947 6         0.000 6      1706.887 6        37.977 6
G10  23815164.172 9 125149477.647 9      3530.470 9        54.667 9  23815167.904 6         0.000 6      2751.019 6        37.977 6
G21  21168943.367 9 111243527.557 9     -1248.246 9        55.710 9  21168942.652 6         0.000 6      -972.659 6        37.977 6
G29  24294953.560 9 127670786.363 9     -3119.396 9        54.477 9  24294955.129 6         0.000 6     -2430.701 6        37.977 6
G27  22008558.666 9 115655729.382 9      2501.272 9        55.373 9  22008560.601 6         0.000 6      1949.044 6        37.977 6
G16  20498047.907 9 107717948.472 9       562.051 9        55.976 9  20498047.080 6         0.000 6       437.962 6        37.977 6
G26  20652108.929 9 108527542.659 9     -1478.401 9        55.874 9  20652111.744 6         0.000 6     -1152.001 6        37.977 6
G20  21948132.981 9 115338184.149 9      2569.231 9        55.314 9  21948133.305 6         0.000 6      2002.000 6        37.977 6
> 2019 07 03 12 00 52.0000000  0  8       0.000000000000
G07  25350098.480 9 133215620.518 9      2190.040 9        54.130 9  25350099.152 6         0.000 6      1706.526 6        37.977 6
G10  23814492.358 9 125145947.253 9      3530.339 9        54.668 9  23814496.089 6         0.000 6      2750.916 6        37.977 6
G21  21169180.934 9 111244775.980 9     -1248.603 9        55.710 9  21169180.219 6         0.000 6      -972.937 6        37.977 6
G29  24295547.169 9 127673905.786 9     -3119.471 9        54.476 9  24295548.738 6         0.000 6     -2430.759 6        37.977 6
G27  22008082.713 9 115653228.234 9      2501.028 9        55.373 9  22008084.647 6         0.000 6      1948.854 6        37.977 6
G16  20497941.011 9 107717386.730 9       561.433 9        55.976 9  20497940.184 6         0.000 6       437.480 6        37.977 6
G26  20652390.314 9 108529021.346 9     -1478.976 9        55.874 9  20652393.130 6         0.000 6     -1152.449 6        37.977 6
G20  21947644.114 9 115335615.140 9      2568.795 9        55.314 9  21947644.438 6         0.000 6      2001.660 6        37.977 6
> 2019 07 03 12 00 53.0000000  0  8       0.000000000000
G07  25349681.773 9 133213430.714 9      2189.579 9        54.131 9  25349682.445 6         0.000 6      1706.166 6        37.977 6
G10  23813820.569 9 125142416.991 9      3530.204 9        54.668 9  23813824.300 6         0.000 6      2750.811 6        37.977 6
G21  21169418.569 9 111246024.761 9     -1248.962 9        55.710 9  21169417.855 6         0.000 6      -973.217 6        37.977 6
G29  24296140.791 9 127677025.285 9     -3119.552 9        54.476 9  24296142.362 6         0.000 6     -2430.822 6        37.977 6
G27  22007606.807 9 115650727.331 9      2500.788 9        55.373 9  22007608.741 6         0.000 6      1948.667 6        37.977 6
G16  20497834.232 9 107716825.606 9       560.816 9        55.976 9  20497833.405 6         0.000 6       436.999 6        37.977 6
G26  20652671.808 9 108530500.607 9     -1479.551 9        55.874 9  20652674.624 6         0.000 6     -1152.897 6        37.977 6
G20  21947155.330 9 115333046.567 9      2568.356 9        55.314 9  21947155.654 6         0.000 6      2001.318 6        37.977 6
> 2019 07 03 12 00 54.0000000  0  8       0.000000000000
G07  25349265.154 9 133211241.369 9      2189.120 9        54.131 9  25349265.825 6         0.000 6      1705.809 6        37.977 6
G10  23813148.807 9 125138886.866 9      3530.068 9        54.668 9  23813152.537 6         0.000 6      2750.705 6        37.977 6
G21  21169656.274 9 111247273.909 9     -1249.323 9        55.710 9  21169655.560 6         0.000 6      -973.499 6        37.977 6
G29  24296734.432 9 127680144.875 9     -3119.637 9        54.476 9  24296736.003 6         0.000 6     -2430.889 6        37.977 6
G27  22007130.945 9 115648226.663 9      2500.552 9        55.373 9  22007132.879 6         0.000 6      1948.482 6        37.977 6
G16  20497727.572 9 107716265.101 9       560.200 9        55.976 9  20497726.745 6         0.000 6       436.519 6        37.977 6
G26  20652953.413 9 108531980.446 9     -1480.126 9        55.874 9  20652956.229 6         0.000 6     -1153.345 6        37.977 6
G20  21946666.631 9 115330478.441 9      2567.913 9        55.315 9  21946666.954 6         0.000 6      2000.973 6        37.977 6
> 2019 07 03 12 00 55.0000000  0  8       0.000000000000
G07  25348848.622 9 133209052.481 9      2188.678 9        54.131 9  25348849.293 6         0.000 6      1705.464 6        37.977 6
G10  23812477.070 9 125135356.877 9      3529.920 9        54.668 9  23812480.800 6         0.000 6      2750.590 6        37.977 6
G21  21169894.047 9 111248523.412 9     -1249.697 9        55.710 9  21169893.332 6         0.000 6      -973.790 6        37.977 6
G29  24297328.087 9 127683264.545 9     -3119.759 9        54.476 9  24297329.659 6         0.000 6     -2430.984 6        37.977 6
G27  22006655.128 9 115645726.232 9      2500.343 9        55.373 9  22006657.062 6         0.000 6      1948.320 6        37.977 6
G16  20497621.028 9 107715705.209 9       559.597 9        55.976 9  20497620.201 6         0.000 6       436.050 6        37.977 6
G26  20653235.126 9 108533460.857 9     -1480.697 9        55.874 9  20653237.942 6         0.000 6     -1153.791 6        37.977 6
G20  21946178.016 9 115327910.753 9      2567.452 9        55.315 9  21946178.338 6         0.000 6      2000.613 6        37.977 6
> 2019 07 03 12 00 56.0000000  0  8       0.000000000000
G07  25348432.192 9 133206864.129 9      2188.172 9        54.131 9  25348432.863 6         0.000 6      1705.070 6        37.977 6
G10  23811805.341 9 125131826.926 9      3529.863 9        54.668 9  23811809.070 6         0.000 6      2750.546 6        37.977 6
G21  21170131.903 9 111249773.354 9     -1250.164 9        55.710 9  21170131.189 6         0.000 6      -974.154 6        37.977 6
G29  24297921.788 9 127686384.457 9     -3120.080 9        54.476 9  24297923.361 6         0.000 6     -2431.233 6        37.977 6
G27  22006179.340 9 115643225.953 9      2500.249 9        55.374 9  22006181.274 6         0.000 6      1948.247 6        37.977 6
G16  20497514.592 9 107715145.888 9       559.053 9        55.976 9  20497513.766 6         0.000 6       435.626 6        37.977 6
G26  20653516.933 9 108534941.760 9     -1481.180 9        55.873 9  20653519.749 6         0.000 6     -1154.167 6        37.977 6
G20  21945689.480 9 115325343.487 9      2566.995 9        55.315 9  21945689.803 6         0.000 6      2000.257 6        37.977 6
> 2019 07 03 12 00 57.0000000  0  8       0.000000000000
G07  25348014.618 9 133204669.767 9      2201.527 9        54.131 9  25348015.288 6         0.000 6      1715.477 6        37.977 6
G10  23811134.838 9 125128303.419 9      3516.378 9        54.669 9  23811138.566 6         0.000 6      2740.037 6        37.977 6
G21  21170369.733 9 111251023.157 9     -1249.787 9        55.709 9  21170369.019 6         0.000 6      -973.860 6        37.977 6
G29  24298515.754 9 127689505.755 9     -3123.745 9        54.475 9  24298517.327 6         0.000 6     -2434.090 6        37.977 6
G27  22005703.146 9 115640723.538 9      2505.614 9        55.374 9  22005705.079 6         0.000 6      1952.427 6        37.977 6
G16  20497408.108 9 107714586.310 9       560.567 9        55.976 9  20497407.281 6         0.000 6       436.806 6        37.977 6
G26  20653799.352 9 108536425.884 9     -1487.153 9        55.873 9  20653802.168 6         0.000 6     -1158.821 6        37.977 6
G20  21945201.909 9 115322781.285 9      2556.537 9        55.315 9  21945202.231 6         0.000 6      1992.108 6        37.977 6
> 2019 07 03 12 00 58.0000000  0  8       0.000000000000
G07  25347594.303 9 133202461.003 9      2215.889 9        54.131 9  25347594.974 6         0.000 6      1726.668 6        37.977 6
G10  23810466.999 9 125124793.916 9      3502.955 9        54.669 9  23810470.727 6         0.000 6      2729.578 6        37.977 6
G21  21170607.737 9 111252273.876 9     -1252.181 9        55.709 9  21170607.023 6         0.000 6      -975.725 6        37.977 6
G29  24299111.095 9 127692634.284 9     -3134.577 9        54.475 9  24299112.668 6         0.000 6     -2442.530 6        37.977 6
G27  22005225.433 9 115638213.142 9      2515.987 9        55.374 9  22005227.366 6         0.000 6      1960.510 6        37.977 6
G16  20497301.096 9 107714023.957 9       564.549 9        55.977 9  20497300.269 6         0.000 6       439.908 6        37.977 6
G26  20654082.790 9 108537915.357 9     -1491.350 9        55.873 9  20654085.606 6         0.000 6     -1162.092 6        37.977 6
G20  21944716.587 9 115320230.909 9      2544.075 9        55.315 9  21944716.909 6         0.000 6      1982.397 6        37.977 6
> 2019 07 03 12 00 59.0000000  0  8       0.000000000000
G07  25347171.486 9 133200239.089 9      2224.566 9        54.131 9  25347172.157 6         0.000 6      1733.429 6        37.977 6
G10  23809801.393 9 125121296.141 9      3495.484 9        54.669 9  23809805.120 6         0.000 6      2723.757 6        37.977 6
G21  21170846.480 9 111253528.479 9     -1256.133 9        55.709 9  21170845.766 6         0.000 6      -978.805 6        37.977 6
G29  24299709.101 9 127695776.815 9     -3146.994 9        54.475 9  24299710.675 6         0.000 6     -2452.205 6        37.977 6
G27  22004745.398 9 115635690.541 9      2526.087 9        55.374 9  22004747.330 6         0.000 6      1968.380 6        37.977 6
G16  20497193.139 9 107713456.638 9       568.674 9        55.977 9  20497192.312 6         0.000 6       443.123 6        37.977 6
G26  20654366.727 9 108539407.456 9     -1492.367 9        55.873 9  20654369.544 6         0.000 6     -1162.884 6        37.977 6
G20  21944233.592 9 115317692.756 9      2535.172 9        55.315 9  21944233.914 6         0.000 6      1975.460 6        37.977 6
> 2019 07 03 12 01  0.0000000  0  8       0.000000000000
G07  25346748.092 9 133198014.140 9      2225.026 9        54.132 9  25346748.762 6         0.000 6      1733.788 6        37.977 6
G10  23809136.320 9 125117801.171 9      3494.701 9        54.669 9  23809140.047 6         0.000 6      2723.146 6        37.977 6
G21  21171085.625 9 111254785.191 9     -1257.094 9        55.709 9  21171084.910 6         0.000 6      -979.554 6        37.977 6
G29  24300308.194 9 127698925.064 9     -3148.913 9        54.475 9  24300309.769 6         0.000 6     -2453.701 6        37.977 6
G27  22004264.540 9 115633163.618 9      2527.280 9        55.374 9  22004266.472 6         0.000 6      1969.310 6        37.977 6
G16  20497084.897 9 107712887.824 9       568.725 9        55.977 9  20497084.070 6         0.000 6       443.162 6        37.977 6
G26  20654650.753 9 108540900.018 9     -1492.808 9        55.873 9  20654653.569 6         0.000 6     -1163.227 6        37.977 6
G20  21943751.328 9 115315158.449 9      2533.776 9        55.316 9  21943751.650 6         0.000 6      1974.372 6        37.977 6
> 2019 07 03 12 01  1.0000000  0  8       0.000000000000
G07  25346324.714 9 133195789.279 9      2224.673 9        54.132 9  25346325.384 6         0.000 6      1733.513 6        37.977 6
G10  23808471.323 9 125114306.598 9      3494.489 9        54.670 9  23808475.049 6         0.000 6      2722.981 6        37.977 6
G21  21171324.884 9 111256042.509 9     -1257.514 9        55.709 9  21171324.170 6         0.000 6      -979.881 6        37.977 6
G29  24300907.446 9 127702074.141 9     -3149.193 9        54.474 9  24300909.021 6         0.000 6     -2453.919 6        37.977 6
G27  22003783.618 9 115630636.361 9      2527.193 9        55.375 9  22003785.551 6         0.000 6      1969.242 6        37.977 6
G16  20496976.723 9 107712319.367 9       568.171 9        55.977 9  20496975.897 6         0.000 6       442.731 6        37.977 6
G26  20654934.879 9 108542393.110 9     -1493.380 9        55.873 9  20654937.696 6         0.000 6     -1163.673 6        37.977 6
G20  21943269.222 9 115312624.967 9      2533.233 9        55.316 9  21943269.543 6         0.000 6      1973.949 6        37.977 6
> 2019 07 03 12 01  2.0000000  0  8       0.000000000000
G07  25345901.414 9 133193564.823 9      2224.239 9        54.132 9  25345902.083 6         0.000 6      1733.174 6        37.977 6
G10  23807806.359 9 125110812.200 9      3494.332 9        54.670 9  23807810.084 6         0.000 6      2722.859 6        37.977 6
G21  21171564.217 9 111257300.208 9     -1257.880 9        55.709 9  21171563.502 6         0.000 6      -980.166 6        37.977 6
G29  24301506.729 9 127705223.384 9     -3149.304 9        54.474 9  24301508.305 6         0.000 6     -2454.005 6        37.977 6
G27  22003302.730 9 115628109.279 9      2526.970 9        55.375 9  22003304.662 6         0.000 6      1969.069 6        37.977 6
G16  20496868.663 9 107711751.505 9       567.551 9        55.977 9  20496867.836 6         0.000 6       442.248 6        37.977 6
G26  20655219.116 9 108543886.784 9     -1493.971 9        55.873 9  20655221.933 6         0.000 6     -1164.133 6        37.977 6
G20  21942787.208 9 115310091.971 9      2532.775 9        55.316 9  21942787.529 6         0.000 6      1973.592 6        37.977 6
> 2019 07 03 12 01  3.0000000  0  8       0.000000000000
G07  25345478.199 9 133191340.817 9      2223.788 9        54.132 9  25345478.868 6         0.000 6      1732.823 6        37.977 6
G10  23807141.423 9 125107317.947 9      3494.190 9        54.670 9  23807145.147 6         0.000 6      2722.748 6        37.977 6
G21  21171803.618 9 111258558.267 9     -1258.238 9        55.709 9  21171802.903 6         0.000 6      -980.446 6        37.977 6
G29  24302106.030 9 127708372.723 9     -3149.394 9        54.474 9  24302107.607 6         0.000 6     -2454.076 6        37.977 6
G27  22002821.886 9 115625582.431 9      2526.732 9        55.375 9  22002823.818 6         0.000 6      1968.883 6        37.977 6
G16  20496760.721 9 107711184.268 9       566.925 9        55.977 9  20496759.894 6         0.000 6       441.760 6        37.977 6
G26  20655503.465 9 108545381.045 9     -1494.558 9        55.873 9  20655506.282 6         0.000 6     -1164.591 6        37.977 6
G20  21942305.279 9 115307559.420 9      2532.333 9        55.316 9  21942305.599 6         0.000 6      1973.247 6        37.977 6
> 2019 07 03 12 01  4.0000000  0  8       0.000000000000
G07  25345055.069 9 133189117.258 9      2223.336 9        54.132 9  25345055.738 6         0.000 6      1732.470 6        37.977 6
G10  23806476.514 9 125103823.840 9      3494.048 9        54.670 9  23806480.238 6         0.000 6      2722.637 6        37.977 6
G21  21172043.087 9 111259816.688 9     -1258.603 9        55.709 9  21172042.373 6         0.000 6      -980.730 6        37.977 6
G29  24302705.348 9 127711522.153 9     -3149.491 9        54.474 9  24302706.926 6         0.000 6     -2454.151 6        37.977 6
G27  22002341.088 9 115623055.824 9      2526.494 9        55.375 9  22002343.020 6         0.000 6      1968.697 6        37.977 6
G16  20496652.899 9 107710617.659 9       566.296 9        55.977 9  20496652.072 6         0.000 6       441.270 6        37.977 6
G26  20655787.926 9 108546875.898 9     -1495.147 9        55.873 9  20655790.743 6         0.000 6     -1165.050 6        37.977 6
G20  21941823.434 9 115305027.315 9      2531.887 9        55.316 9  21941823.754 6         0.000 6      1972.900 6        37.977 6
> 2019 07 03 12 01  5.0000000  0  8       0.000000000000
G07  25344632.025 9 133186894.152 9      2222.881 9        54.132 9  25344632.694 6         0.000 6      1732.116 6        37.977 6
G10  23805811.633 9 125100329.872 9      3493.910 9        54.671 9  23805815.356 6         0.000 6      2722.530 6        37.977 6
G21  21172282.625 9 111261075.466 9     -1258.960 9        55.709 9  21172281.911 6         0.000 6      -981.008 6        37.977 6
G29  24303304.685 9 127714671.679 9     -3149.581 9        54.474 9  24303306.263 6         0.000 6     -2454.222 6        37.977 6
G27  22001860.335 9 115620529.449 9      2526.257 9        55.375 9  22001862.266 6         0.000 6      1968.513 6        37.977 6
G16  20496545.195 9 107710051.673 9       565.673 9        55.977 9  20496544.369 6         0.000 6       440.785 6        37.977 6
G26  20656072.498 9 108548371.333 9     -1495.729 9        55.872 9  20656075.315 6         0.000 6     -1165.504 6        37.977 6
G20  21941341.674 9 115302495.651 9      2531.449 9        55.317 9  21941341.994 6         0.000 6      1972.559 6        37.977 6
> 2019 07 03 12 01  6.0000000  0  8       0.000000000000
G07  25344209.068 9 133184671.503 9      2222.426 9        54.132 9  25344209.737 6         0.000 6      1731.762 6        37.977 6
G10  23805146.777 9 125096836.041 9      3493.769 9        54.671 9  23805150.499 6         0.000 6      2722.420 6        37.977 6
G21  21172522.231 9 111262334.605 9     -1259.322 9        55.709 9  21172521.517 6         0.000 6      -981.290 6        37.977 6
G29  24303904.039 9 127717821.295 9     -3149.672 9        54.473 9  24303905.618 6         0.000 6     -2454.293 6        37.977 6
G27  22001379.627 9 115618003.315 9      2526.016 9        55.376 9  22001381.558 6         0.000 6      1968.325 6        37.977 6
G16  20496437.611 9 107709486.313 9       565.043 9        55.977 9  20496436.784 6         0.000 6       440.294 6        37.977 6
G26  20656357.182 9 108549867.353 9     -1496.318 9        55.872 9  20656359.999 6         0.000 6     -1165.963 6        37.977 6
G20  21940859.997 9 115299964.426 9      2531.006 9        55.317 9  21940860.317 6         0.000 6      1972.214 6        37.977 6
> 2019 07 03 12 01  7.0000000  0  8       0.000000000000
G07  25343786.198 9 133182449.309 9      2221.968 9        54.133 9  25343786.867 6         0.000 6      1731.405 6        37.977 6
G10  23804481.947 9 125093342.351 9      3493.633 9        54.671 9  23804485.669 6         0.000 6      2722.314 6        37.977 6
G21  21172761.906 9 111263594.107 9     -1259.682 9        55.708 9  21172761.192 6         0.000 6      -981.571 6        37.977 6
G29  24304503.411 9 127720971.003 9     -3149.764 9        54.473 9  24304504.990 6         0.000 6     -2454.364 6        37.977 6
G27  22000898.965 9 115615477.422 9      2525.776 9        55.376 9  22000900.896 6         0.000 6      1968.138 6        37.977 6
G16  20496330.146 9 107708921.583 9       564.416 9        55.977 9  20496329.320 6         0.000 6       439.805 6        37.977 6
G26  20656641.977 9 108551363.962 9     -1496.903 9        55.872 9  20656644.795 6         0.000 6     -1166.418 6        37.977 6
G20  21940378.404 9 115297433.644 9      2530.567 9        55.317 9  21940378.724 6         0.000 6      1971.872 6        37.977 6
> 2019 07 03 12 01  8.0000000  0  8       0.000000000000
G07  25343363.415 9 133180227.570 9      2221.514 9        54.133 9  25343364.083 6         0.000 6      1731.051 6        37.977 6
G10  23803817.144 9 125089848.798 9      3493.495 9        54.671 9  23803820.866 6         0.000 6      2722.207 6        37.977 6
G21  21173001.650 9 111264853.965 9     -1260.038 9        55.708 9  21173000.936 6         0.000 6      -981.848 6        37.977 6
G29  24305102.799 9 127724120.801 9     -3149.854 9        54.473 9  24305104.379 6         0.000 6     -2454.434 6        37.977 6
G27  22000418.348 9 115612951.766 9      2525.539 9        55.376 9  22000420.279 6         0.000 6      1967.953 6        37.977 6
G16  20496222.801 9 107708357.476 9       563.793 9        55.977 9  20496221.974 6         0.000 6       439.320 6        37.977 6
G26  20656926.884 9 108552861.153 9     -1497.485 9        55.872 9  20656929.701 6         0.000 6     -1166.872 6        37.977 6
G20  21939896.895 9 115294903.300 9      2530.129 9        55.317 9  21939897.214 6         0.000 6      1971.530 6        37.977 6
> 2019 07 03 12 01  9.0000000  0  8       0.000000000000
G07  25342940.719 9 133178006.295 9      2221.056 9        54.133 9  25342941.387 6         0.000 6      1730.694 6        37.977 6
G10  23803152.366 9 125086355.376 9      3493.359 9        54.672 9  23803156.087 6         0.000 6      2722.100 6        37.977 6
G21  21173241.461 9 111266114.184 9     -1260.399 9        55.708 9  21173240.748 6         0.000 6      -982.129 6        37.977 6
G29  24305702.205 9 127727270.691 9     -3149.945 9        54.473 9  24305703.786 6         0.000 6     -2454.505 6        37.977 6
G27  21999937.777 9 115610426.351 9      2525.299 9        55.376 9  21999939.708 6         0.000 6      1967.766 6        37.977 6
G16  20496115.574 9 107707793.997 9       563.166 9        55.977 9  20496114.747 6         0.000 6       438.831 6        37.977 6
G26  20657211.901 9 108554358.925 9     -1498.069 9        55.872 9  20657214.718 6         0.000 6     -1167.327 6        37.977 6
G20  21939415.468 9 115292373.391 9      2529.690 9        55.317 9  21939415.787 6         0.000 6      1971.188 6        37.977 6
> 2019 07 03 12 01 10.0000000  0  8       0.000000000000
G07  25342518.122 9 133175785.533 9      2220.357 9        54.133 9  25342518.789 6         0.000 6      1730.150 6        37.977 6
G10  23802487.604 9 125082862.036 9      3493.424 9        54.672 9  23802491.323 6         0.000 6      2722.152 6        37.977 6
G21  21173481.343 9 111267374.768 9     -1260.694 9        55.708 9  21173480.629 6         0.000 6      -982.359 6        37.977 6
G29  24306301.627 9 127730420.662 9     -3149.781 9        54.473 9  24306303.208 6         0.000 6     -2454.377 6        37.977 6
G27  21999457.255 9 115607901.194 9      2524.832 9        55.376 9  21999459.186 6         0.000 6      1967.402 6        37.977 6
G16  20496008.468 9 107707231.150 9       562.436 9        55.977 9  20496007.641 6         0.000 6       438.262 6        37.977 6
G26  20657497.024 9 108555857.258 9     -1498.622 9        55.872 9  20657499.842 6         0.000 6     -1167.757 6        37.977 6
G20  21938934.118 9 115289843.881 9      2529.460 9        55.318 9  21938934.436 6         0.000 6      1971.009 6        37.977 6
> 2019 07 03 12 01 11.0000000  0  8       0.000000000000
G07  25342095.438 9 133173564.319 9      2222.719 9        54.133 9  25342096.105 6         0.000 6      1731.990 6        37.977 6
G10  23801822.954 9 125079369.289 9      3491.931 9        54.672 9  23801826.673 6         0.000 6      2720.988 6        37.977 6
G21  21173721.506 9 111268636.835 9     -1264.637 9        55.708 9  21173720.792 6         0.000 6      -985.432 6        37.977 6
G29  24306901.650 9 127733573.797 9     -3159.687 9        54.472 9  24306903.232 6         0.000 6     -2462.096 6        37.977 6
G27  21998976.351 9 115605374.030 9      2531.774 9        55.376 9  21998978.282 6         0.000 6      1972.812 6        37.977 6
G16  20495901.275 9 107706667.848 9       565.292 9        55.977 9  20495900.448 6         0.000 6       440.487 6        37.977 6
G26  20657782.158 9 108557355.644 9     -1497.440 9        55.872 9  20657784.976 6         0.000 6     -1166.837 6        37.977 6
G20  21938453.077 9 115287315.999 9      2525.300 9        55.318 9  21938453.395 6         0.000 6      1967.768 6        37.977 6
> 2019 07 03 12 01 12.0000000  0  8       0.000000000000
G07  25341672.606 9 133171342.327 9      2219.907 9        54.133 9  25341673.274 6         0.000 6      1729.799 6        37.977 6
G10  23801158.196 9 125075875.971 9      3495.973 9        54.672 9  23801161.914 6         0.000 6      2724.137 6        37.977 6
G21  21173962.712 9 111269904.380 9     -1270.333 9        55.708 9  21173961.998 6         0.000 6      -989.870 6        37.977 6
G29  24307504.151 9 127736739.951 9     -3171.807 9        54.472 9  24307505.734 6         0.000 6     -2471.540 6        37.977 6
G27  21998493.801 9 115602838.218 9      2538.980 9        55.377 9  21998495.732 6         0.000 6      1978.427 6        37.977 6
G16  20495793.358 9 107706100.739 9       568.556 9        55.977 9  20495792.531 6         0.000 6       443.031 6        37.977 6
G26  20658066.735 9 108558851.103 9     -1493.098 9        55.872 9  20658069.552 6         0.000 6     -1163.454 6        37.977 6
G20  21937972.733 9 115284791.778 9      2524.227 9        55.318 9  21937973.051 6         0.000 6      1966.931 6        37.977 6
> 2019 07 03 12 01 13.0000000  0  8       0.000000000000
G07  25341251.245 9 133169128.063 9      2209.016 9        54.133 9  25341251.912 6         0.000 6      1721.312 6        37.977 6
G10  23800491.798 9 125072374.035 9      3507.236 9        54.673 9  23800495.515 6         0.000 6      2732.914 6        37.977 6
G21  21174204.961 9 111271177.405 9     -1274.867 9        55.708 9  21174204.247 6         0.000 6      -993.403 6        37.977 6
G29  24308108.492 9 127739915.771 9     -3177.925 9        54.472 9  24308110.075 6         0.000 6     -2476.308 6        37.977 6
G27  21998010.408 9 115600297.974 9      2540.316 9        55.377 9  21998012.339 6         0.000 6      1979.468 6        37.977 6
G16  20495685.035 9 107705531.502 9       569.289 9        55.977 9  20495684.209 6         0.000 6       443.602 6        37.977 6
G26  20658350.187 9 108560340.653 9     -1486.803 9        55.871 9  20658353.005 6         0.000 6     -1158.549 6        37.977 6
G20  21937491.874 9 115282264.852 9      2529.724 9        55.318 9  21937492.192 6         0.000 6      1971.214 6        37.977 6
> 2019 07 03 12 01 14.0000000  0  8       0.000000000000
G07  25340831.259 9 133166921.024 9      2205.877 9        54.134 9  25340831.926 6         0.000 6      1718.866 6        37.977 6
G10  23799824.068 9 125068865.104 9      3509.822 9        54.673 9  23799827.785 6         0.000 6      2734.929 6        37.977 6
G21  21174447.660 9 111272452.799 9     -1275.746 9        55.708 9  21174446.947 6         0.000 6      -994.088 6        37.977 6
G29  24308713.266 9 127743093.871 9     -3178.191 9        54.472 9  24308714.850 6         0.000 6     -2476.515 6        37.977 6
G27  21997527.086 9 115597758.099 9      2539.561 9        55.377 9  21997529.016 6         0.000 6      1978.879 6        37.977 6
G16  20495576.776 9 107704962.593 9       568.551 9        55.977 9  20495575.949 6         0.000 6       443.027 6        37.977 6
G26  20658633.005 9 108561826.871 9     -1486.050 9        55.871 9  20658635.823 6         0.000 6     -1157.961 6        37.977 6
G20  21937010.307 9 115279734.204 9      2531.059 9        55.318 9  21937010.624 6         0.000 6      1972.255 6        37.977 6
> 2019 07 03 12 01 15.0000000  0  8       0.000000000000
G07  25340411.580 9 133164715.599 9      2205.107 9        54.134 9  25340412.246 6         0.000 6      1718.266 6        37.977 6
G10  23799156.142 9 125065355.139 9      3510.002 9        54.673 9  23799159.859 6         0.000 6      2735.069 6        37.977 6
G21  21174690.469 9 111273728.768 9     -1276.172 9        55.708 9  21174689.756 6         0.000 6      -994.420 6        37.977 6
G29  24309318.065 9 127746272.100 9     -3178.288 9        54.471 9  24309319.649 6         0.000 6     -2476.591 6        37.977 6
G27  21997043.856 9 115595218.715 9      2539.244 9        55.377 9  21997045.787 6         0.000 6      1978.633 6        37.977 6
G16  20495468.646 9 107704394.367 9       567.910 9        55.977 9  20495467.819 6         0.000 6       442.527 6        37.977 6
G26  20658915.826 9 108563313.103 9     -1486.475 9        55.871 9  20658918.644 6         0.000 6     -1158.293 6        37.977 6
G20  21936528.676 9 115277203.224 9      2530.825 9        55.319 9  21936528.994 6         0.000 6      1972.072 6        37.977 6
> 2019 07 03 12 01 16.0000000  0  8       0.000000000000
G07  25339992.008 9 133162510.737 9      2204.630 9        54.134 9  25339992.674 6         0.000 6      1717.895 6        37.977 6
G10  23798488.221 9 125061845.203 9      3509.887 9        54.673 9  23798491.937 6         0.000 6      2734.979 6        37.977 6
G21  21174933.353 9 111275005.131 9     -1276.548 9        55.708 9  21174932.640 6         0.000 6      -994.713 6        37.977 6
G29  24309922.883 9 127749450.429 9     -3178.384 9        54.471 9  24309924.468 6         0.000 6     -2476.666 6        37.977 6
G27  21996560.678 9 115592679.597 9      2538.997 9        55.377 9  21996562.608 6         0.000 6      1978.440 6        37.977 6
G16  20495360.636 9 107703826.770 9       567.288 9        55.977 9  20495359.809 6         0.000 6       442.043 6        37.977 6
G26  20659198.746 9 108564799.858 9     -1487.039 9        55.871 9  20659201.565 6         0.000 6     -1158.732 6        37.977 6
G20  21936047.117 9 115274672.619 9      2530.394 9        55.319 9  21936047.434 6         0.000 6      1971.737 6        37.977 6
> 2019 07 03 12 01 17.0000000  0  8       0.000000000000
G07  25339572.525 9 133160306.343 9      2204.175 9        54.134 9  25339573.191 6         0.000 6      1717.540 6        37.977 6
G10  23797820.324 9 125058335.391 9      3509.749 9        54.674 9  23797824.040 6         0.000 6      2734.872 6        37.977 6
G21  21175176.308 9 111276281.865 9     -1276.922 9        55.707 9  21175175.594 6         0.000 6      -995.004 6        37.977 6
G29  24310527.718 9 127752628.848 9     -3178.478 9        54.471 9  24310529.303 6         0.000 6     -2476.739 6        37.977 6
G27  21996077.547 9 115590140.728 9      2538.752 9        55.378 9  21996079.477 6         0.000 6      1978.249 6        37.977 6
G16  20495252.744 9 107703259.794 9       566.666 9        55.977 9  20495251.917 6         0.000 6       441.558 6        37.977 6
G26  20659481.775 9 108566287.181 9     -1487.615 9        55.871 9  20659484.593 6         0.000 6     -1159.181 6        37.977 6
G20  21935565.641 9 115272142.449 9      2529.948 9        55.319 9  21935565.958 6         0.000 6      1971.389 6        37.977 6
> 2019 07 03 12 01 18.0000000  0  8       0.000000000000
G07  25339153.127 9 133158102.397 9      2203.726 9        54.134 9  25339153.793 6         0.000 6      1717.190 6        37.977 6
G10  23797152.455 9 125054825.724 9      3509.605 9        54.674 9  23797156.169 6         0.000 6      2734.760 6        37.977 6
G21  21175419.333 9 111277558.971 9     -1277.293 9        55.707 9  21175418.620 6         0.000 6      -995.294 6        37.977 6
G29  24311132.570 9 127755807.360 9     -3178.571 9        54.471 9  24311134.156 6         0.000 6     -2476.811 6        37.977 6
G27  21995594.462 9 115587602.103 9      2538.507 9        55.378 9  21995596.392 6         0.000 6      1978.058 6        37.977 6
G16  20495144.970 9 107702693.440 9       566.044 9        55.977 9  20495144.143 6         0.000 6       441.074 6        37.977 6
G26  20659764.914 9 108567775.084 9     -1488.194 9        55.871 9  20659767.732 6         0.000 6     -1159.632 6        37.977 6
G20  21935084.251 9 115269612.729 9      2529.498 9        55.319 9  21935084.567 6         0.000 6      1971.038 6        37.977 6
> 2019 07 03 12 01 19.0000000  0  8       0.000000000000
G07  25338733.815 9 133155898.900 9      2203.274 9        54.134 9  25338734.481 6         0.000 6      1716.838 6        37.977 6
G10  23796484.612 9 125051316.198 9      3509.463 9        54.674 9  23796488.326 6         0.000 6      2734.649 6        37.977 6
G21  21175662.428 9 111278836.441 9     -1277.662 9        55.707 9  21175661.714 6         0.000 6      -995.581 6        37.977 6
G29  24311737.440 9 127758985.963 9     -3178.658 9        54.471 9  24311739.027 6         0.000 6     -2476.879 6        37.977 6
G27  21995111.423 9 115585063.717 9      2538.260 9        55.378 9  21995113.352 6         0.000 6      1977.865 6        37.977 6
G16  20495037.313 9 107702127.700 9       565.421 9        55.978 9  20495036.486 6         0.000 6       440.588 6        37.977 6
G26  20660048.161 9 108569263.558 9     -1488.772 9        55.871 9  20660050.980 6         0.000 6     -1160.083 6        37.977 6
G20  21934602.945 9 115267083.455 9      2529.051 9        55.319 9  21934603.261 6         0.000 6      1970.690 6        37.977 6
> 2019 07 03 12 01 20.0000000  0  8       0.000000000000
G07  25338314.589 9 133153695.853 9      2202.825 9        54.134 9  25338315.254 6         0.000 6      1716.488 6        37.977 6
G10  23795816.797 9 125047806.818 9      3509.319 9        54.674 9  23795820.511 6         0.000 6      2734.537 6        37.977 6
G21  21175905.594 9 111280114.290 9     -1278.034 9        55.707 9  21175904.881 6         0.000 6      -995.871 6        37.977 6
G29  24312342.328 9 127762164.660 9     -3178.751 9        54.470 9  24312343.916 6         0.000 6     -2476.952 6        37.977 6
G27  21994628.431 9 115582525.581 9      2538.015 9        55.378 9  21994630.360 6         0.000 6      1977.675 6        37.977 6
G16  20494929.776 9 107701562.589 9       564.799 9        55.978 9  20494928.949 6         0.000 6       440.103 6        37.977 6
G26  20660331.520 9 108570752.618 9     -1489.351 9        55.871 9  20660334.339 6         0.000 6     -1160.534 6        37.977 6
G20  21934121.726 9 115264554.635 9      2528.601 9        55.319 9  21934122.042 6         0.000 6      1970.339 6        37.977 6
> 2019 07 03 12 01 21.0000000  0  8       0.000000000000
G07  25337895.448 9 133151493.258 9      2202.372 9        54.135 9  25337896.113 6         0.000 6      1716.135 6        37.977 6
G10  23795149.010 9 125044297.581 9      3509.177 9        54.675 9  23795152.722 6         0.000 6      2734.426 6        37.977 6
G21  21176148.831 9 111281392.508 9     -1278.403 9        55.707 9  21176148.118 6         0.000 6      -996.158 6        37.977 6
G29  24312947.233 9 127765343.445 9     -3178.839 9        54.470 9  24312948.821 6         0.000 6     -2477.020 6        37.977 6
G27  21994145.486 9 115579987.692 9      2537.767 9        55.378 9  21994147.415 6         0.000 6      1977.482 6        37.977 6
G16  20494822.358 9 107700998.101 9       564.176 9        55.978 9  20494821.531 6         0.000 6       439.618 6        37.977 6
G26  20660614.989 9 108572242.256 9     -1489.930 9        55.871 9  20660617.808 6         0.000 6     -1160.984 6        37.977 6
G20  21933640.592 9 115262026.263 9      2528.153 9        55.320 9  21933640.907 6         0.000 6      1969.991 6        37.977 6
> 2019 07 03 12 01 22.0000000  0  8       0.000000000000
G07  25337476.395 9 133149291.123 9      2201.895 9        54.135 9  25337477.060 6         0.000 6      1715.764 6        37.977 6
G10  23794481.248 9 125040788.478 9      3509.053 9        54.675 9  23794484.960 6         0.000 6      2734.329 6        37.977 6
G21  21176392.137 9 111282671.088 9     -1278.753 9        55.707 9  21176391.424 6         0.000 6      -996.431 6        37.977 6
G29  24313552.152 9 127768522.307 9     -3178.875 9        54.470 9  24313553.741 6         0.000 6     -2477.048 6        37.977 6
G27  21993662.590 9 115577450.057 9      2537.481 9        55.379 9  21993664.519 6         0.000 6      1977.258 6        37.977 6
G16  20494715.058 9 107700434.236 9       563.536 9        55.978 9  20494714.231 6         0.000 6       439.119 6        37.977 6
G26  20660898.568 9 108573732.468 9     -1490.510 9        55.870 9  20660901.386 6         0.000 6     -1161.437 6        37.977 6
G20  21933159.541 9 115259498.327 9      2527.734 9        55.320 9  21933159.856 6         0.000 6      1969.664 6        37.977 6
> 2019 07 03 12 01 23.0000000  0  8       0.000000000000
G07  25337057.469 9 133147089.658 9      2198.629 9        54.135 9  25337058.134 6         0.000 6      1713.219 6        37.977 6
G10  23793813.475 9 125037279.320 9      3511.687 9        54.675 9  23793817.186 6         0.000 6      2736.382 6        37.977 6
G21  21176635.512 9 111283950.029 9     -1279.436 9        55.707 9  21176634.798 6         0.000 6      -996.963 6        37.977 6
G29  24314157.065 9 127771701.135 9     -3178.613 9        54.470 9  24314158.654 6         0.000 6     -2476.844 6        37.977 6
G27  21993179.766 9 115574912.807 9      2536.348 9        55.379 9  21993181.695 6         0.000 6      1976.376 6        37.977 6
G16  20494607.888 9 107699871.057 9       562.621 9        55.978 9  20494607.061 6         0.000 6       438.406 6        37.977 6
G26  20661182.245 9 108575223.202 9     -1489.854 9        55.870 9  20661185.064 6         0.000 6     -1160.925 6        37.977 6
G20  21932678.544 9 115256970.675 9      2529.251 9        55.320 9  21932678.858 6         0.000 6      1970.846 6        37.977 6
> 2019 07 03 12 01 24.0000000  0  8       0.000000000000
G07  25336640.556 9 133144898.766 9      2183.073 9        54.135 9  25336641.220 6         0.000 6      1701.097 6        37.977 6
G10  23793143.864 9 125033760.502 9      3525.875 9        54.675 9  23793147.575 6         0.000 6      2747.437 6        37.977 6
G21  21176879.073 9 111285229.954 9     -1279.943 9        55.707 9  21176878.360 6         0.000 6      -997.358 6        37.977 6
G29  24314761.521 9 127774877.560 9     -3173.059 9        54.470 9  24314763.110 6         0.000 6     -2472.516 6        37.977 6
G27  21992697.752 9 115572379.804 9      2528.840 9        55.379 9  21992699.680 6         0.000 6      1970.526 6        37.977 6
G16  20494501.115 9 107699309.961 9       559.155 9        55.978 9  20494500.288 6         0.000 6       435.705 6        37.977 6
G26  20661465.261 9 108576710.457 9     -1485.007 9        55.870 9  20661468.080 6         0.000 6     -1157.149 6        37.977 6
G20  21932196.244 9 115254436.176 9      2540.032 9        55.320 9  21932196.558 6         0.000 6      1979.247 6        37.977 6
> 2019 07 03 12 01 25.0000000  0  8       0.000000000000
G07  25336226.614 9 133142723.489 9      2166.885 9        54.135 9  25336227.278 6         0.000 6      1688.482 6        37.977 6
G10  23792471.652 9 125030228.012 9      3539.368 9        54.676 9  23792475.362 6         0.000 6      2757.951 6        37.977 6
G21  21177122.435 9 111286508.828 9     -1276.907 9        55.707 9  21177121.722 6         0.000 6      -994.993 6        37.977 6
G29  24315364.196 9 127778044.632 9     -3158.697 9        54.469 9  24315365.787 6         0.000 6     -2461.325 6        37.977 6
G27  21992217.647 9 115569856.841 9      2515.352 9        55.379 9  21992219.576 6         0.000 6      1960.016 6        37.977 6
G16  20494395.245 9 107698753.609 9       552.702 9        55.978 9  20494394.418 6         0.000 6       430.677 6        37.977 6
G26  20661747.578 9 108578194.042 9     -1482.641 9        55.870 9  20661750.397 6         0.000 6     -1155.305 6        37.977 6
G20  21931711.751 9 115251890.156 9      2552.869 9        55.320 9  21931712.066 6         0.000 6      1989.249 6        37.977 6
> 2019 07 03 12 01 26.0000000  0  8       0.000000000000
G07  25335814.915 9 133140560.002 9      2161.835 9        54.135 9  25335815.579 6         0.000 6      1684.548 6        37.977 6
G10  23791797.681 9 125026686.284 9      3542.718 9        54.676 9  23791801.391 6         0.000 6      2760.562 6        37.977 6
G21  21177365.171 9 111287784.415 9     -1274.953 9        55.707 9  21177364.458 6         0.000 6      -993.470 6        37.977 6
G29  24315964.354 9 127781198.469 9     -3151.343 9        54.469 9  24315965.945 6         0.000 6     -2455.595 6        37.977 6
G27  21991739.772 9 115567345.595 9      2509.106 9        55.379 9  21991741.701 6         0.000 6      1955.148 6        37.977 6
G16  20494290.479 9 107698203.057 9       549.301 9        55.978 9  20494289.652 6         0.000 6       428.027 6        37.977 6
G26  20662029.777 9 108579677.005 9     -1483.373 9        55.870 9  20662032.596 6         0.000 6     -1155.876 6        37.977 6
G20  21931225.421 9 115249334.478 9      2556.891 9        55.321 9  21931225.735 6         0.000 6      1992.383 6        37.977 6
> 2019 07 03 12 01 27.0000000  0  8       0.000000000000
G07  25335403.639 9 133138398.734 9      2160.891 9        54.135 9  25335404.303 6         0.000 6      1683.812 6        37.977 6
G10  23791123.494 9 125023143.415 9      3542.913 9        54.676 9  23791127.202 6         0.000 6      2760.714 6        37.977 6
G21  21177607.779 9 111289059.323 9     -1274.985 9        55.706 9  21177607.065 6         0.000 6      -993.495 6        37.977 6
G29  24316563.911 9 127784349.156 9     -3150.413 9        54.469 9  24316565.503 6         0.000 6     -2454.870 6        37.977 6
G27  21991262.430 9 115564837.149 9      2508.075 9        55.380 9  21991264.359 6         0.000 6      1954.344 6        37.977 6
G16  20494186.057 9 107697654.315 9       548.316 9        55.978 9  20494185.230 6         0.000 6       427.259 6        37.977 6
G26  20662312.118 9 108581160.719 9     -1484.031 9        55.870 9  20662314.938 6         0.000 6     -1156.388 6        37.977 6
G20  21930738.837 9 115246777.466 9      2556.954 9        55.321 9  21930739.151 6         0.000 6      1992.433 6        37.977 6
> 2019 07 03 12 01 28.0000000  0  8       0.000000000000
G07  25334992.484 9 133136238.104 9      2160.389 9        54.136 9  25334993.148 6         0.000 6      1683.421 6        37.977 6
G10  23790449.309 9 125019600.562 9      3542.802 9        54.676 9  23790453.017 6         0.000 6      2760.628 6        37.977 6
G21  21177850.431 9 111290334.468 9     -1275.324 9        55.706 9  21177849.718 6         0.000 6      -993.759 6        37.977 6
G29  24317163.411 9 127787499.537 9     -3150.402 9        54.469 9  24317165.003 6         0.000 6     -2454.861 6        37.977 6
G27  21990785.192 9 115562329.245 9      2507.756 9        55.380 9  21990787.120 6         0.000 6      1954.096 6        37.977 6
G16  20494081.777 9 107697106.325 9       547.668 9        55.978 9  20494080.951 6         0.000 6       426.754 6        37.977 6
G26  20662594.575 9 108582645.034 9     -1484.607 9        55.870 9  20662597.394 6         0.000 6     -1156.837 6        37.977 6
G20  21930252.301 9 115244220.708 9      2556.550 9        55.321 9  21930252.615 6         0.000 6      1992.118 6        37.977 6
> 2019 07 03 12 01 29.0000000  0  8       0.000000000000
G07  25334581.420 9 133134077.952 9      2159.922 9        54.136 9  25334582.083 6         0.000 6      1683.057 6        37.977 6
G10  23789775.149 9 125016057.839 9      3542.668 9        54.677 9  23789778.857 6         0.000 6      2760.523 6        37.977 6
G21  21178093.151 9 111291609.972 9     -1275.691 9        55.706 9  21178092.438 6         0.000 6      -994.045 6        37.977 6
G29  24317762.918 9 127790649.959 9     -3150.474 9        54.468 9  24317764.511 6         0.000 6     -2454.917 6        37.977 6
G27  21990308.006 9 115559821.622 9      2507.502 9        55.380 9  21990309.934 6         0.000 6      1953.898 6        37.977 6
G16  20493977.619 9 107696558.966 9       547.052 9        55.978 9  20493976.792 6         0.000 6       426.274 6        37.977 6
G26  20662877.140 9 108584129.923 9     -1485.172 9        55.870 9  20662879.959 6         0.000 6     -1157.277 6        37.977 6
G20  21929765.848 9 115241664.382 9      2556.107 9        55.321 9  21929766.161 6         0.000 6      1991.773 6        37.977 6
> 2019 07 03 12 01 30.0000000  0  8       0.000000000000
G07  25334170.444 9 133131918.260 9      2159.465 9        54.136 9  25334171.107 6         0.000 6      1682.701 6        37.977 6
G10  23789101.016 9 125012515.254 9      3542.525 9        54.677 9  23789104.723 6         0.000 6      2760.412 6        37.977 6
G21  21178335.942 9 111292885.846 9     -1276.057 9        55.706 9  21178335.229 6         0.000 6      -994.331 6        37.977 6
G29  24318362.441 9 127793800.464 9     -3150.550 9        54.468 9  24318364.035 6         0.000 6     -2454.977 6        37.977 6
G27  21989830.868 9 115557314.246 9      2507.253 9        55.380 9  21989832.796 6         0.000 6      1953.704 6        37.977 6
G16  20493873.576 9 107696012.221 9       546.437 9        55.978 9  20493872.749 6         0.000 6       425.795 6        37.977 6
G26  20663159.813 9 108585615.377 9     -1485.740 9        55.869 9  20663162.632 6         0.000 6     -1157.720 6        37.977 6
G20  21929279.480 9 115239108.506 9      2555.657 9        55.321 9  21929279.793 6         0.000 6      1991.422 6        37.977 6
> 2019 07 03 12 01 31.0000000  0  8       0.000000000000
G07  25333759.555 9 133129759.029 9      2159.008 9        54.136 9  25333760.218 6         0.000 6      1682.345 6        37.977 6
G10  23788426.909 9 125008972.807 9      3542.385 9        54.677 9  23788430.615 6         0.000 6      2760.303 6        37.977 6
G21  21178578.802 9 111294162.085 9     -1276.424 9        55.706 9  21178578.089 6         0.000 6      -994.616 6        37.977 6
G29  24318961.979 9 127796951.044 9     -3150.632 9        54.468 9  24318963.573 6         0.000 6     -2455.040 6        37.977 6
G27  21989353.777 9 115554807.116 9      2507.009 9        55.380 9  21989355.704 6         0.000 6      1953.514 6        37.977 6
G16  20493769.651 9 107695466.087 9       545.828 9        55.978 9  20493768.824 6         0.000 6       425.320 6        37.977 6
G26  20663442.593 9 108587101.395 9     -1486.304 9        55.869 9  20663445.413 6         0.000 6     -1158.159 6        37.977 6
G20  21928793.197 9 115236553.076 9      2555.208 9        55.322 9  21928793.510 6         0.000 6      1991.072 6        37.977 6
> 2019 07 03 12 01 32.0000000  0  8       0.000000000000
G07  25333348.753 9 133127600.252 9      2158.553 9        54.136 9  25333349.415 6         0.000 6      1681.990 6        37.977 6
G10  23787752.829 9 125005430.505 9      3542.240 9        54.677 9  23787756.534 6         0.000 6      2760.190 6        37.977 6
G21  21178821.733 9 111295438.692 9     -1276.793 9        55.706 9  21178821.020 6         0.000 6      -994.904 6        37.977 6
G29  24319561.532 9 127800101.706 9     -3150.713 9        54.468 9  24319563.127 6         0.000 6     -2455.104 6        37.977 6
G27  21988876.732 9 115552300.233 9      2506.764 9        55.380 9  21988878.659 6         0.000 6      1953.323 6        37.977 6
G16  20493665.841 9 107694920.566 9       545.215 9        55.978 9  20493665.014 6         0.000 6       424.843 6        37.977 6
G26  20663725.481 9 108588587.982 9     -1486.872 9        55.869 9  20663728.301 6         0.000 6     -1158.602 6        37.977 6
G20  21928307.000 9 115233998.099 9      2554.755 9        55.322 9  21928307.313 6         0.000 6      1990.719 6        37.977 6
> 2019 07 03 12 01 33.0000000  0  8       0.000000000000
G07  25332938.038 9 133125441.933 9      2158.095 9        54.136 9  25332938.700 6         0.000 6      1681.633 6        37.977 6
G10  23787078.777 9 125001888.346 9      3542.097 9        54.678 9  23787082.481 6         0.000 6      2760.078 6        37.977 6
G21  21179064.734 9 111296715.673 9     -1277.166 9        55.706 9  21179064.021 6         0.000 6      -995.194 6        37.977 6
G29  24320161.101 9 127803252.451 9     -3150.795 9        54.468 9  24320162.696 6         0.000 6     -2455.168 6        37.977 6
G27  21988399.735 9 115549793.598 9      2506.515 9        55.381 9  21988401.662 6         0.000 6      1953.129 6        37.977 6
G16  20493562.149 9 107694375.662 9       544.598 9        55.978 9  20493561.322 6         0.000 6       424.362 6        37.977 6
G26  20664008.478 9 108590075.139 9     -1487.443 9        55.869 9  20664011.298 6         0.000 6     -1159.047 6        37.977 6
G20  21927820.890 9 115231443.576 9      2554.301 9        55.322 9  21927821.202 6         0.000 6      1990.365 6        37.977 6
> 2019 07 03 12 01 34.0000000  0  8       0.000000000000
G07  25332527.409 9 133123284.069 9      2157.640 9        54.136 9  25332528.071 6         0.000 6      1681.279 6        37.977 6
G10  23786404.752 9 124998346.333 9      3541.952 9        54.678 9  23786408.456 6         0.000 6      2759.965 6        37.977 6
G21  21179307.806 9 111297993.022 9     -1277.534 9        55.706 9  21179307.093 6         0.000 6      -995.482 6        37.977 6
G29  24320760.685 9 127806403.277 9     -3150.877 9        54.467 9  24320762.281 6         0.000 6     -2455.231 6        37.977 6
G27  21987922.784 9 115547287.208 9      2506.269 9        55.381 9  21987924.711 6         0.000 6      1952.938 6        37.977 6
G16  20493458.574 9 107693831.371 9       543.984 9        55.978 9  20493457.747 6         0.000 6       423.884 6        37.977 6
G26  20664291.583 9 108591562.864 9     -1488.011 9        55.869 9  20664294.403 6         0.000 6     -1159.490 6        37.977 6
G20  21927334.866 9 115228889.506 9      2553.847 9        55.322 9  21927335.177 6         0.000 6      1990.012 6        37.977 6
> 2019 07 03 12 01 35.0000000  0  8       0.000000000000
G07  25332116.866 9 133121126.657 9      2157.185 9        54.137 9  25332117.529 6         0.000 6      1680.924 6        37.977 6
G10  23785730.755 9 124994804.466 9      3541.806 9        54.678 9  23785734.458 6         0.000 6      2759.852 6        37.977 6
G21  21179550.947 9 111299270.736 9     -1277.903 9        55.706 9  21179550.234 6         0.000 6      -995.769 6        37.977 6
G29  24321360.284 9 127809554.183 9     -3150.958 9        54.467 9  24321361.881 6         0.000 6     -2455.295 6        37.977 6
G27  21987445.880 9 115544781.061 9      2506.024 9        55.381 9  21987447.807 6         0.000 6      1952.746 6        37.977 6
G16  20493355.115 9 107693287.689 9       543.371 9        55.978 9  20493354.288 6         0.000 6       423.406 6        37.977 6
G26  20664574.796 9 108593051.155 9     -1488.580 9        55.869 9  20664577.616 6         0.000 6     -1159.933 6        37.977 6
G20  21926848.928 9 115226335.890 9      2553.394 9        55.322 9  21926849.239 6         0.000 6      1989.659 6        37.977 6
> 2019 07 03 12 01 36.0000000  0  8       0.000000000000
G07  25331706.411 9 133118969.703 9      2156.736 9        54.137 9  25331707.073 6         0.000 6      1680.575 6        37.977 6
G10  23785056.785 9 124991262.743 9      3541.655 9        54.678 9  23785060.488 6         0.000 6      2759.734 6        37.977 6
G21  21179794.159 9 111300548.822 9     -1278.270 9        55.706 9  21179793.446 6         0.000 6      -996.055 6        37.977 6
G29  24321959.900 9 127812705.172 9     -3151.039 9        54.467 9  24321961.497 6         0.000 6     -2455.358 6        37.977 6
G27  21986969.023 9 115542275.163 9      2505.779 9        55.381 9  21986970.949 6         0.000 6      1952.556 6        37.977 6
G16  20493251.773 9 107692744.624 9       542.759 9        55.978 9  20493250.946 6         0.000 6       422.929 6        37.977 6
G26  20664858.117 9 108594540.017 9     -1489.151 9        55.869 9  20664860.938 6         0.000 6     -1160.377 6        37.977 6
G20  21926363.076 9 115223782.727 9      2552.936 9        55.323 9  21926363.387 6         0.000 6      1989.302 6        37.977 6
> 2019 07 03 12 01 37.0000000  0  8       0.000000000000
G07  25331296.017 9 133116813.070 9      2156.402 9        54.137 9  25331296.679 6         0.000 6      1680.314 6        37.977 6
G10  23784382.864 9 124987721.274 9      3541.396 9        54.679 9  23784386.567 6         0.000 6      2759.532 6        37.977 6
G21  21180037.450 9 111301827.327 9     -1278.639 9        55.705 9  21180036.738 6         0.000 6      -996.342 6        37.977 6
G29  24322559.563 9 127815856.412 9     -3151.172 9        54.467 9  24322561.161 6         0.000 6     -2455.461 6        37.977 6
G27  21986492.185 9 115539769.368 9      2505.596 9        55.381 9  21986494.112 6         0.000 6      1952.413 6        37.977 6
G16  20493148.536 9 107692202.108 9       542.171 9        55.978 9  20493147.709 6         0.000 6       422.471 6        37.977 6
G26  20665141.549 9 108596029.458 9     -1489.760 9        55.869 9  20665144.369 6         0.000 6     -1160.852 6        37.977 6
G20  21925877.334 9 115221230.140 9      2552.392 9        55.323 9  21925877.645 6         0.000 6      1988.878 6        37.977 6
> 2019 07 03 12 01 38.0000000  0  8       0.000000000000
G07  25330886.086 9 133114658.871 9      2152.978 9        54.137 9  25330886.747 6         0.000 6      1677.646 6        37.977 6
G10  23783708.787 9 124984178.987 9      3542.168 9        54.679 9  23783712.489 6         0.000 6      2760.134 6        37.977 6
G21  21180280.340 9 111303103.719 9     -1273.843 9        55.705 9  21180279.627 6         0.000 6      -992.605 6        37.977 6
G29  24323157.957 9 127819000.984 9     -3137.648 9        54.467 9  24323159.556 6         0.000 6     -2444.923 6        37.977 6
G27  21986016.331 9 115537268.742 9      2495.659 9        55.382 9  21986018.258 6         0.000 6      1944.670 6        37.977 6
G16  20493045.869 9 107691662.592 9       536.803 9        55.978 9  20493045.043 6         0.000 6       418.288 6        37.977 6
G26  20665425.316 9 108597520.664 9     -1493.235 9        55.868 9  20665428.137 6         0.000 6     -1163.560 6        37.977 6
G20  21925391.187 9 115218675.425 9      2556.455 9        55.323 9  21925391.498 6         0.000 6      1992.044 6        37.977 6
> 2019 07 03 12 01 39.0000000  0  8       0.000000000000
G07  25330476.105 9 133112504.412 9      2157.490 9        54.137 9  25330476.766 6         0.000 6      1681.162 6        37.977 6
G10  23783035.243 9 124980639.498 9      3535.396 9        54.679 9  23783038.944 6         0.000 6      2754.856 6        37.977 6
G21  21180522.268 9 111304375.061 9     -1268.923 9        55.705 9  21180521.556 6         0.000 6      -988.771 6        37.977 6
G29  24323753.942 9 127822132.896 9     -3126.998 9        54.466 9  24323755.541 6         0.000 6     -2436.624 6        37.977 6
G27  21985542.096 9 115534776.620 9      2489.475 9        55.382 9  21985544.022 6         0.000 6      1939.851 6        37.977 6
G16  20492944.127 9 107691127.930 9       532.877 9        55.978 9  20492943.300 6         0.000 6       415.229 6        37.977 6
G26  20665710.029 9 108599016.838 9     -1499.612 9        55.868 9  20665712.850 6         0.000 6     -1168.529 6        37.977 6
G20  21924904.769 9 115216119.284 9      2554.645 9        55.323 9  21924905.079 6         0.000 6      1990.633 6        37.977 6
> 2019 07 03 12 01 40.0000000  0  8       0.000000000000
G07  25330064.474 9 133110341.282 9      2166.337 9        54.137 9  25330065.136 6         0.000 6      1688.055 6        37.977 6
G10  23782363.694 9 124977110.497 9      3525.369 9        54.679 9  23782367.395 6         0.000 6      2747.044 6        37.977 6
G21  21180763.376 9 111305642.091 9     -1266.311 9        55.705 9  21180762.664 6         0.000 6      -986.736 6        37.977 6
G29  24324348.492 9 127825257.269 9     -3123.634 9        54.466 9  24324350.092 6         0.000 6     -2434.003 6        37.977 6
G27  21985068.463 9 115532287.663 9      2489.119 9        55.382 9  21985070.389 6         0.000 6      1939.574 6        37.977 6
G16  20492842.886 9 107690595.908 9       531.656 9        55.978 9  20492842.059 6         0.000 6       414.278 6        37.977 6
G26  20665996.150 9 108600520.410 9     -1505.760 9        55.868 9  20665998.970 6         0.000 6     -1173.320 6        37.977 6
G20  21924419.338 9 115213568.333 9      2548.569 9        55.323 9  21924419.648 6         0.000 6      1985.899 6        37.977 6
> 2019 07 03 12 01 41.0000000  0  8       0.000000000000
G07  25329652.083 9 133108174.155 9      2167.418 9        54.137 9  25329652.744 6         0.000 6      1688.898 6        37.977 6
G10  23781693.049 9 124973586.242 9      3523.673 9        54.679 9  23781696.749 6         0.000 6      2745.722 6        37.977 6
G21  21181004.346 9 111306908.392 9     -1266.394 9        55.705 9  21181003.633 6         0.000 6      -986.801 6        37.977 6
G29  24324942.901 9 127828380.900 9     -3123.680 9        54.466 9  24324944.502 6         0.000 6     -2434.039 6        37.977 6
G27  21984594.780 9 115529798.446 9      2489.218 9        55.382 9  21984596.706 6         0.000 6      1939.651 6        37.977 6
G16  20492741.764 9 107690064.506 9       531.123 9        55.978 9  20492740.937 6         0.000 6       413.862 6        37.977 6
G26  20666282.836 9 108602026.954 9     -1507.084 9        55.868 9  20666285.657 6         0.000 6     -1174.351 6        37.977 6
G20  21923934.534 9 115211020.672 9      2547.093 9        55.323 9  21923934.844 6         0.000 6      1984.749 6        37.977 6
> 2019 07 03 12 01 42.0000000  0  8       0.000000000000
G07  25329239.661 9 133106006.864 9      2167.112 9        54.138 9  25329240.321 6         0.000 6      1688.660 6        37.977 6
G10  23781022.551 9 124970062.761 9      3523.372 9        54.680 9  23781026.250 6         0.000 6      2745.487 6        37.977 6
G21  21181245.364 9 111308174.950 9     -1266.730 9        55.705 9  21181244.651 6         0.000 6      -987.062 6        37.977 6
G29  24325537.326 9 127831504.611 9     -3123.764 9        54.466 9  24325538.927 6         0.000 6     -2434.104 6        37.977 6
G27  21984121.116 9 115527309.328 9      2489.012 9        55.382 9  21984123.042 6         0.000 6      1939.491 6        37.977 6
G16  20492640.753 9 107689533.689 9       530.510 9        55.979 9  20492639.926 6         0.000 6       413.385 6        37.977 6
G26  20666569.689 9 108603534.378 9     -1507.737 9        55.868 9  20666572.510 6         0.000 6     -1174.860 6        37.977 6
G20  21923449.895 9 115208473.882 9      2546.538 9        55.324 9  21923450.204 6         0.000 6      1984.317 6        37.977 6
> 2019 07 03 12 01 43.0000000  0  8       0.000000000000
G07  25328827.315 9 133103839.977 9      2166.666 9        54.138 9  25328827.976 6         0.000 6      1688.312 6        37.977 6
G10  23780352.091 9 124966539.481 9      3523.214 9        54.680 9  23780355.789 6         0.000 6      2745.364 6        37.977 6
G21  21181486.447 9 111309441.852 9     -1267.081 9        55.705 9  21181485.735 6         0.000 6      -987.336 6        37.977 6
G29  24326131.765 9 127834628.400 9     -3123.841 9        54.465 9  24326133.367 6         0.000 6     -2434.164 6        37.977 6
G27  21983647.496 9 115524820.439 9      2488.774 9        55.383 9  21983649.421 6         0.000 6      1939.305 6        37.977 6
G16  20492539.859 9 107689003.488 9       529.893 9        55.979 9  20492539.032 6         0.000 6       412.904 6        37.977 6
G26  20666856.658 9 108605042.405 9     -1508.318 9        55.868 9  20666859.479 6         0.000 6     -1175.313 6        37.977 6
G20  21922965.348 9 115205927.576 9      2546.083 9        55.324 9  21922965.657 6         0.000 6      1983.962 6        37.977 6
> 2019 07 03 12 01 44.0000000  0  8       0.000000000000
G07  25328415.056 9 133101673.546 9      2166.203 9        54.138 9  25328415.717 6         0.000 6      1687.951 6        37.977 6
G10  23779681.659 9 124963016.348 9      3523.072 9        54.680 9  23779685.357 6         0.000 6      2745.254 6        37.977 6
G21  21181727.599 9 111310709.111 9     -1267.439 9        55.705 9  21181726.886 6         0.000 6      -987.615 6        37.977 6
G29  24326726.220 9 127837752.273 9     -3123.925 9        54.465 9  24326727.823 6         0.000 6     -2434.230 6        37.977 6
G27  21983173.920 9 115522331.786 9      2488.536 9        55.383 9  21983175.846 6         0.000 6      1939.119 6        37.977 6
G16  20492439.082 9 107688473.904 9       529.275 9        55.979 9  20492438.255 6         0.000 6       412.422 6        37.977 6
G26  20667143.736 9 108606551.008 9     -1508.891 9        55.868 9  20667146.557 6         0.000 6     -1175.760 6        37.977 6
G20  21922480.887 9 115203381.721 9      2545.636 9        55.324 9  21922481.196 6         0.000 6      1983.613 6        37.977 6
> 2019 07 03 12 01 45.0000000  0  8       0.000000000000
G07  25328002.885 9 133099507.575 9      2165.738 9        54.138 9  25328003.545 6         0.000 6      1687.589 6        37.977 6
G10  23779011.255 9 124959493.362 9      3522.932 9        54.680 9  23779014.952 6         0.000 6      2745.145 6        37.977 6
G21  21181968.819 9 111311976.731 9     -1267.795 9        55.705 9  21181968.107 6         0.000 6      -987.893 6        37.977 6
G29  24327320.691 9 127840876.230 9     -3124.005 9        54.465 9  24327322.295 6         0.000 6     -2434.292 6        37.977 6
G27  21982700.391 9 115519843.374 9      2488.294 9        55.383 9  21982702.316 6         0.000 6      1938.931 6        37.977 6
G16  20492338.424 9 107687944.940 9       528.656 9        55.979 9  20492337.597 6         0.000 6       411.940 6        37.977 6
G26  20667430.923 9 108608060.188 9     -1509.464 9        55.868 9  20667433.745 6         0.000 6     -1176.206 6        37.977 6
G20  21921996.512 9 115200836.318 9      2545.191 9        55.324 9  21921996.821 6         0.000 6      1983.267 6        37.977 6
> 2019 07 03 12 01 46.0000000  0  8       0.000000000000
G07  25327590.803 9 133097342.073 9      2165.275 9        54.138 9  25327591.463 6         0.000 6      1687.228 6        37.977 6
G10  23778340.877 9 124955970.511 9      3522.791 9        54.681 9  23778344.573 6         0.000 6      2745.034 6        37.977 6
G21  21182210.106 9 111313244.705 9     -1268.153 9        55.705 9  21182209.394 6         0.000 6      -988.172 6        37.977 6
G29  24327915.178 9 127844000.267 9     -3124.089 9        54.465 9  24327916.782 6         0.000 6     -2434.358 6        37.977 6
G27  21982226.907 9 115517355.203 9      2488.055 9        55.383 9  21982228.832 6         0.000 6      1938.745 6        37.977 6
G16  20492237.883 9 107687416.593 9       528.038 9        55.979 9  20492237.056 6         0.000 6       411.458 6        37.977 6
G26  20667718.219 9 108609569.937 9     -1510.037 9        55.868 9  20667721.041 6         0.000 6     -1176.653 6        37.977 6
G20  21921512.221 9 115198291.355 9      2544.744 9        55.324 9  21921512.529 6         0.000 6      1982.918 6        37.977 6
> 2019 07 03 12 01 47.0000000  0  8       0.000000000000
G07  25327178.809 9 133095177.033 9      2164.812 9        54.138 9  25327179.469 6         0.000 6      1686.868 6        37.977 6
G10  23777670.526 9 124952447.805 9      3522.648 9        54.681 9  23777674.222 6         0.000 6      2744.924 6        37.977 6
G21  21182451.463 9 111314513.043 9     -1268.512 9        55.704 9  21182450.751 6         0.000 6      -988.451 6        37.977 6
G29  24328509.680 9 127847124.388 9     -3124.173 9        54.465 9  24328511.285 6         0.000 6     -2434.423 6        37.977 6
G27  21981753.469 9 115514867.275 9      2487.816 9        55.383 9  21981755.394 6         0.000 6      1938.559 6        37.977 6
G16  20492137.461 9 107686888.871 9       527.421 9        55.979 9  20492136.634 6         0.000 6       410.977 6        37.977 6
G26  20668005.626 9 108611080.266 9     -1510.610 9        55.867 9  20668008.447 6         0.000 6     -1177.099 6        37.977 6
G20  21921028.016 9 115195746.844 9      2544.296 9        55.325 9  21921028.324 6         0.000 6      1982.570 6        37.977 6
> 2019 07 03 12 01 48.0000000  0  8       0.000000000000
G07  25326766.903 9 133093012.456 9      2164.349 9        54.138 9  25326767.562 6         0.000 6      1686.507 6        37.977 6
G10  23777000.202 9 124948925.238 9      3522.506 9        54.681 9  23777003.897 6         0.000 6      2744.813 6        37.977 6
G21  21182692.887 9 111315781.733 9     -1268.870 9        55.704 9  21182692.175 6         0.000 6      -988.730 6        37.977 6
G29  24329104.199 9 127850248.594 9     -3124.258 9        54.464 9  24329105.804 6         0.000 6     -2434.489 6        37.977 6
G27  21981280.076 9 115512379.580 9      2487.578 9        55.384 9  21981282.001 6         0.000 6      1938.373 6        37.977 6
G16  20492037.155 9 107686361.759 9       526.803 9        55.979 9  20492036.328 6         0.000 6       410.496 6        37.977 6
G26  20668293.140 9 108612591.161 9     -1511.183 9        55.867 9  20668295.962 6         0.000 6     -1177.546 6        37.977 6
G20  21920543.895 9 115193202.776 9      2543.848 9        55.325 9  21920544.203 6         0.000 6      1982.221 6        37.977 6
> 2019 07 03 12 01 49.0000000  0  8       0.000000000000
G07  25326355.084 9 133090848.333 9      2163.909 9        54.139 9  25326355.743 6         0.000 6      1686.164 6        37.977 6
G10  23776329.906 9 124945402.820 9      3522.348 9        54.681 9  23776333.601 6         0.000 6      2744.689 6        37.977 6
G21  21182934.380 9 111317050.788 9     -1269.245 9        55.704 9  21182933.668 6         0.000 6      -989.022 6        37.977 6
G29  24329698.736 9 127853372.899 9     -3124.389 9        54.464 9  24329700.342 6         0.000 6     -2434.591 6        37.977 6
G27  21980806.727 9 115509892.114 9      2487.374 9        55.384 9  21980808.651 6         0.000 6      1938.214 6        37.977 6
G16  20491936.965 9 107685835.262 9       526.200 9        55.979 9  20491936.138 6         0.000 6       410.026 6        37.977 6
G26  20668580.763 9 108614102.630 9     -1511.754 9        55.867 9  20668583.585 6         0.000 6     -1177.991 6        37.977 6
G20  21920059.861 9 115190659.165 9      2543.376 9        55.325 9  21920060.169 6         0.000 6      1981.853 6        37.977 6
> 2019 07 03 12 01 50.0000000  0  8       0.000000000000
G07  25325943.036 9 133088683.014 9      2170.554 9        54.139 9  25325943.695 6         0.000 6      1691.341 6        37.977 6
G10  23775659.947 9 124941882.171 9      3515.240 9        54.682 9  23775663.641 6         0.000 6      2739.151 6        37.977 6
G21  21183175.911 9 111318320.039 9     -1268.917 9        55.704 9  21183175.199 6         0.000 6      -988.766 6        37.977 6
G29  24330293.343 9 127856497.566 9     -3125.671 9        54.464 9  24330294.949 6         0.000 6     -2435.590 6        37.977 6
G27  21980333.314 9 115507404.316 9      2489.579 9        55.384 9  21980335.238 6         0.000 6      1939.932 6        37.977 6
G16  20491836.858 9 107685309.192 9       526.396 9        55.979 9  20491836.031 6         0.000 6       410.179 6        37.977 6
G26  20668868.631 9 108615615.385 9     -1515.379 9        55.867 9  20668871.453 6         0.000 6     -1180.815 6        37.977 6
G20  21919576.134 9 115188117.169 9      2537.929 9        55.325 9  21919576.442 6         0.000 6      1977.609 6        37.977 6
> 2019 07 03 12 01 51.0000000  0  8       0.000000000000
G07  25325528.566 9 133086504.959 9      2185.318 9        54.139 9  25325529.224 6         0.000 6      1702.846 6        37.977 6
G10  23774992.415 9 124938374.276 9      3500.981 9        54.682 9  23774996.108 6         0.000 6      2728.040 6        37.977 6
G21  21183417.434 9 111319589.251 9     -1269.996 9        55.704 9  21183416.722 6         0.000 6      -989.607 6        37.977 6
G29  24330888.789 9 127859626.647 9     -3133.585 9        54.464 9  24330890.396 6         0.000 6     -2441.757 6        37.977 6
G27  21979858.819 9 115504910.830 9      2498.051 9        55.384 9  21979860.743 6         0.000 6      1946.534 6        37.977 6
G16  20491736.445 9 107684781.521 9       529.292 9        55.979 9  20491735.618 6         0.000 6       412.435 6        37.977 6
G26  20669157.559 9 108617133.709 9     -1520.811 9        55.867 9  20669160.381 6         0.000 6     -1185.048 6        37.977 6
G20  21919094.333 9 115185585.290 9      2525.803 9        55.325 9  21919094.640 6         0.000 6      1968.160 6        37.977 6
> 2019 07 03 12 01 52.0000000  0  8       0.000000000000
G07  25325111.300 9 133084312.215 9      2198.854 9        54.139 9  25325111.958 6         0.000 6      1713.394 6        37.977 6
G10  23774327.459 9 124934879.922 9      3489.111 9        54.682 9  23774331.152 6         0.000 6      2718.791 6        37.977 6
G21  21183659.499 9 111320861.308 9     -1274.432 9        55.704 9  21183658.786 6         0.000 6      -993.064 6        37.977 6
G29  24331486.540 9 127862767.841 9     -3149.048 9        54.464 9  24331488.148 6         0.000 6     -2453.806 6        37.977 6
G27  21979382.188 9 115502406.120 9      2511.215 9        55.384 9  21979384.112 6         0.000 6      1956.792 6        37.977 6
G16  20491635.215 9 107684249.550 9       534.650 9        55.979 9  20491634.388 6         0.000 6       416.610 6        37.977 6
G26  20669447.259 9 108618656.090 9     -1523.243 9        55.867 9  20669450.081 6         0.000 6     -1186.943 6        37.977 6
G20  21918614.977 9 115183066.263 9      2513.109 9        55.326 9  21918615.284 6         0.000 6      1958.268 6        37.977 6
> 2019 07 03 12 01 53.0000000  0  8       0.000000000000
G07  25324692.633 9 133082112.111 9      2200.616 9        54.139 9  25324693.291 6         0.000 6      1714.767 6        37.977 6
G10  23773663.723 9 124931391.975 9      3487.363 9        54.682 9  23773667.415 6         0.000 6      2717.428 6        37.977 6
G21  21183902.213 9 111322136.780 9     -1276.133 9        55.704 9  21183901.501 6         0.000 6      -994.390 6        37.977 6
G29  24332086.300 9 127865919.590 9     -3153.247 9        54.463 9  24332087.908 6         0.000 6     -2457.078 6        37.977 6
G27  21978903.942 9 115499892.921 9      2514.204 9        55.384 9  21978905.865 6         0.000 6      1959.120 6        37.977 6
G16  20491533.346 9 107683714.228 9       535.534 9        55.979 9  20491532.519 6         0.000 6       417.299 6        37.977 6
G26  20669737.151 9 108620179.483 9     -1523.585 9        55.867 9  20669739.973 6         0.000 6     -1187.210 6        37.977 6
G20  21918137.074 9 115180554.868 9      2510.412 9        55.326 9  21918137.380 6         0.000 6      1956.166 6        37.977 6
> 2019 07 03 12 01 54.0000000  0  8       0.000000000000
G07  25324273.882 9 133079911.564 9      2200.393 9        54.139 9  25324274.540 6         0.000 6      1714.593 6        37.977 6
G10  23773000.135 9 124927904.808 9      3487.059 9        54.683 9  23773003.826 6         0.000 6      2717.191 6        37.977 6
G21  21184145.110 9 111323413.210 9     -1276.664 9        55.704 9  21184144.398 6         0.000 6      -994.804 6        37.977 6
G29  24332686.417 9 127869073.219 9     -3153.845 9        54.463 9  24332688.026 6         0.000 6     -2457.544 6        37.977 6
G27  21978425.477 9 115497378.575 9      2514.351 9        55.385 9  21978427.401 6         0.000 6      1959.235 6        37.977 6
G16  20491431.474 9 107683178.884 9       535.088 9        55.979 9  20491430.647 6         0.000 6       416.952 6        37.977 6
G26  20670027.130 9 108621703.329 9     -1524.123 9        55.867 9  20670029.952 6         0.000 6     -1187.628 6        37.977 6
G20  21917659.434 9 115178044.859 9      2509.714 9        55.326 9  21917659.740 6         0.000 6      1955.622 6        37.977 6
> 2019 07 03 12 01 55.0000000  0  8       0.000000000000
G07  25323855.201 9 133077711.385 9      2199.960 9        54.139 9  25323855.859 6         0.000 6      1714.255 6        37.977 6
G10  23772336.586 9 124924417.845 9      3486.898 9        54.683 9  23772340.277 6         0.000 6      2717.066 6        37.977 6
G21  21184388.086 9 111324690.061 9     -1277.037 9        55.704 9  21184387.375 6         0.000 6      -995.094 6        37.977 6
G29  24333286.588 9 127872227.128 9     -3153.986 9        54.463 9  24333288.198 6         0.000 6     -2457.654 6        37.977 6
G27  21977947.030 9 115494864.323 9      2514.151 9        55.385 9  21977948.954 6         0.000 6      1959.079 6        37.977 6
G16  20491329.707 9 107682644.099 9       534.480 9        55.979 9  20491328.880 6         0.000 6       416.478 6        37.977 6
G26  20670317.216 9 108623227.740 9     -1524.701 9        55.866 9  20670320.038 6         0.000 6     -1188.079 6        37.977 6
G20  21917181.897 9 115175535.390 9      2509.243 9        55.326 9  21917182.203 6         0.000 6      1955.256 6        37.977 6
> 2019 07 03 12 01 56.0000000  0  8       0.000000000000
G07  25323436.606 9 133075511.657 9      2199.504 9        54.140 9  25323437.264 6         0.000 6      1713.900 6        37.977 6
G10  23771673.066 9 124920931.031 9      3486.750 9        54.683 9  23771676.755 6         0.000 6      2716.950 6        37.977 6
G21  21184631.133 9 111325967.278 9     -1277.399 9        55.704 9  21184630.421 6         0.000 6      -995.376 6        37.977 6
G29  24333886.782 9 127875381.154 9     -3154.081 9        54.463 9  24333888.392 6         0.000 6     -2457.728 6        37.977 6
G27  21977468.625 9 115492350.292 9      2513.911 9        55.385 9  21977470.549 6         0.000 6      1958.892 6        37.977 6
G16  20491228.059 9 107682109.932 9       533.849 9        55.979 9  20491227.232 6         0.000 6       415.986 6        37.977 6
G26  20670607.412 9 108624752.730 9     -1525.288 9        55.866 9  20670610.235 6         0.000 6     -1188.537 6        37.977 6
G20  21916704.447 9 115173026.376 9      2508.793 9        55.326 9  21916704.752 6         0.000 6      1954.904 6        37.977 6
> 2019 07 03 12 01 57.0000000  0  8       0.000000000000
G07  25323018.099 9 133073312.391 9      2199.042 9        54.140 9  25323018.757 6         0.000 6      1713.540 6        37.977 6
G10  23771009.572 9 124917444.361 9      3486.608 9        54.683 9  23771013.261 6         0.000 6      2716.840 6        37.977 6
G21  21184874.248 9 111327244.853 9     -1277.756 9        55.703 9  21184873.536 6         0.000 6      -995.655 6        37.977 6
G29  24334486.991 9 127878535.264 9     -3154.171 9        54.463 9  24334488.602 6         0.000 6     -2457.798 6        37.977 6
G27  21976990.268 9 115489836.509 9      2513.669 9        55.385 9  21976992.191 6         0.000 6      1958.704 6        37.977 6
G16  20491126.531 9 107681576.399 9       533.220 9        55.979 9  20491125.704 6         0.000 6       415.496 6        37.977 6
G26  20670897.720 9 108626278.308 9     -1525.871 9        55.866 9  20670900.543 6         0.000 6     -1188.991 6        37.977 6
G20  21916227.081 9 115170517.806 9      2508.349 9        55.326 9  21916227.386 6         0.000 6      1954.559 6        37.977 6
> 2019 07 03 12 01 58.0000000  0  8       0.000000000000
G07  25322599.679 9 133071113.580 9      2198.583 9        54.140 9  25322600.336 6         0.000 6      1713.183 6        37.977 6
G10  23770346.107 9 124913957.835 9      3486.465 9        54.684 9  23770349.795 6         0.000 6      2716.729 6        37.977 6
G21  21185117.430 9 111328522.784 9     -1278.110 9        55.703 9  21185116.718 6         0.000 6      -995.930 6        37.977 6
G29  24335087.218 9 127881689.469 9     -3154.260 9        54.462 9  24335088.829 6         0.000 6     -2457.868 6        37.977 6
G27  21976511.955 9 115487322.961 9      2513.430 9        55.385 9  21976513.878 6         0.000 6      1958.518 6        37.977 6
G16  20491025.121 9 107681043.489 9       532.595 9        55.979 9  20491024.294 6         0.000 6       415.009 6        37.977 6
G26  20671188.139 9 108627804.466 9     -1526.451 9        55.866 9  20671190.962 6         0.000 6     -1189.443 6        37.977 6
G20  21915749.800 9 115168009.682 9      2507.906 9        55.327 9  21915750.105 6         0.000 6      1954.214 6        37.977 6
> 2019 07 03 12 01 59.0000000  0  8       0.000000000000
G07  25322181.347 9 133068915.235 9      2198.121 9        54.140 9  25322182.004 6         0.000 6      1712.823 6        37.977 6
G10  23769682.667 9 124910471.450 9      3486.323 9        54.684 9  23769686.355 6         0.000 6      2716.618 6        37.977 6
G21  21185360.681 9 111329801.076 9     -1278.467 9        55.703 9  21185359.969 6         0.000 6      -996.208 6        37.977 6
G29  24335687.462 9 127884843.765 9     -3154.350 9        54.462 9  24335689.075 6         0.000 6     -2457.938 6        37.977 6
G27  21976033.689 9 115484809.658 9      2513.188 9        55.386 9  21976035.612 6         0.000 6      1958.329 6        37.977 6
G16  20490923.832 9 107680511.213 9       531.966 9        55.979 9  20490923.005 6         0.000 6       414.519 6        37.977 6
G26  20671478.669 9 108629331.208 9     -1527.033 9        55.866 9  20671481.492 6         0.000 6     -1189.897 6        37.977 6
G20  21915272.604 9 115165502.003 9      2507.463 9        55.327 9  21915272.909 6         0.000 6      1953.868 6        37.977 6
> 2019 07 03 12 02  0.0000000  0  8       0.000000000000
G07  25321763.102 9 133066717.347 9      2197.659 9        54.140 9  25321763.759 6         0.000 6      1712.463 6        37.977 6
G10  23769019.256 9 124906985.209 9      3486.182 9        54.684 9  23769022.943 6         0.000 6      2716.508 6        37.977 6
G21  21185603.999 9 111331079.720 9     -1278.824 9        55.703 9  21185603.287 6         0.000 6      -996.487 6        37.977 6
G29  24336287.724 9 127887998.149 9     -3154.440 9        54.462 9  24336289.336 6         0.000 6     -2458.008 6        37.977 6
G27  21975555.468 9 115482296.593 9      2512.946 9        55.386 9  21975557.391 6         0.000 6      1958.141 6        37.977 6
G16  20490822.662 9 107679979.560 9       531.337 9        55.979 9  20490821.835 6         0.000 6       414.029 6        37.977 6
G26  20671769.309 9 108630858.531 9     -1527.616 9        55.866 9  20671772.132 6         0.000 6     -1190.350 6        37.977 6
G20  21914795.492 9 115162994.767 9      2507.019 9        55.327 9  21914795.796 6         0.000 6      1953.523 6        37.977 6
