     3.00           Observation Data    M (Mixed)           RINEX VERSION / TYPE
SimGEN V6.06.00     Spirent             03-Jul-19 12:00     PGM / RUN BY / DATE 
                                                            MARKER NAME         
1                                                           MARKER NUMBER       
GROUND_CRAFT                                                MARKER TYPE         
jin4hi              Spirent                                 OBSERVER / AGENCY   
rec_num             rec_type            rec_vers            REC # / TYPE / VERS 
1                   ant_type                                ANT # / TYPE        
  1000.000                                                  INTERVAL            
  2019     7     3    12     0    0.0000000     GPS         TIME OF FIRST OBS   
  4162620.0800   664400.3900  4770578.3210                  APPROX POSITION XYZ 
        0.0000        0.0000        0.0000                  ANTENNA: DELTA H/E/N
G    8 C1C L1C D1C S1C C2C L2C D2C S2C                      SYS / # / OBS TYPES 
        0.0000        0.0000        0.0000                  ANTENNA: DELTA X/Y/Z
DBHZ                                                        SIGNAL STRENGTH UNIT
                                                            END OF HEADER       
> 2019 07 03 12 00  0.0000000  0  8       0.000000000000
G07  25371961.103 9 133330509.190 9      2239.607 9        54.123 9  25371961.787 6         0.000 6      1745.148 6        37.977 6
G10  23849432.110 9 125329556.329 9      3515.493 9        54.655 9  23849435.875 6         0.000 6      2739.345 6        37.977 6
G21  21156805.137 9 111179740.764 9     -1237.401 9        55.715 9  21156804.420 6         0.000 6      -964.209 6        37.977 6
G29  24264389.696 9 127510172.689 9     -3144.308 9        54.488 9  24264391.233 6         0.000 6     -2450.110 6        37.977 6
G27  22033118.896 9 115784794.118 9      2539.271 9        55.363 9  22033120.839 6         0.000 6      1978.653 6        37.977 6
G16  20503765.081 9 107747992.424 9       605.294 9        55.974 9  20503764.254 6         0.000 6       471.658 6        37.977 6
G26  20637966.323 9 108453222.849 9     -1451.885 9        55.880 9  20637969.133 6         0.000 6     -1131.339 6        37.977 6
G20  21973068.468 9 115469220.784 9      2568.551 9        55.304 9  21973068.806 6         0.000 6      2001.469 6        37.977 6
> 2019 07 03 12 00  1.0000000  0  8       0.000000000000
G07  25371534.612 9 133328267.965 9      2244.121 9        54.123 9  25371535.295 6         0.000 6      1748.667 6        37.977 6
G10  23848763.452 9 125326042.520 9      3511.085 9        54.655 9  23848767.217 6         0.000 6      2735.913 6        37.977 6
G21  21157040.681 9 111180978.557 9     -1238.770 9        55.715 9  21157039.965 6         0.000 6      -965.276 6        37.977 6
G29  24264988.277 9 127513318.249 9     -3148.770 9        54.487 9  24264989.815 6         0.000 6     -2453.589 6        37.977 6
G27  22032635.479 9 115782253.749 9      2543.102 9        55.363 9  22032637.422 6         0.000 6      1981.639 6        37.977 6
G16  20503649.855 9 107747386.906 9       606.504 9        55.974 9  20503649.028 6         0.000 6       472.601 6        37.977 6
G26  20638242.750 9 108454675.485 9     -1453.388 9        55.880 9  20638245.561 6         0.000 6     -1132.511 6        37.977 6
G20  21972580.004 9 115466653.894 9      2563.965 9        55.304 9  21972580.342 6         0.000 6      1997.896 6        37.977 6
> 2019 07 03 12 00  2.0000000  0  8       0.000000000000
G07  25371107.213 9 133326021.975 9      2247.106 9        54.123 9  25371107.896 6         0.000 6      1750.993 6        37.977 6
G10  23848095.616 9 125322533.030 9      3508.702 9        54.655 9  23848099.381 6         0.000 6      2734.056 6        37.977 6
G21  21157276.694 9 111182218.809 9     -1241.890 9        55.715 9  21157275.977 6         0.000 6      -967.706 6        37.977 6
G29  24265588.243 9 127516471.079 9     -3157.024 9        54.487 9  24265589.781 6         0.000 6     -2460.021 6        37.977 6
G27  22032150.957 9 115779707.572 9      2549.161 9        55.363 9  22032152.900 6         0.000 6      1986.360 6        37.977 6
G16  20503534.213 9 107746779.204 9       608.887 9        55.974 9  20503533.386 6         0.000 6       474.457 6        37.977 6
G26  20638519.323 9 108456128.883 9     -1453.018 9        55.880 9  20638522.133 6         0.000 6     -1132.222 6        37.977 6
G20  21972092.554 9 115464092.329 9      2559.679 9        55.305 9  21972092.891 6         0.000 6      1994.556 6        37.977 6
> 2019 07 03 12 00  3.0000000  0  8       0.000000000000
G07  25370679.750 9 133323775.646 9      2244.152 9        54.123 9  25370680.433 6         0.000 6      1748.691 6        37.977 6
G10  23847427.723 9 125319023.239 9      3512.292 9        54.656 9  23847431.487 6         0.000 6      2736.854 6        37.977 6
G21  21157513.385 9 111183462.631 9     -1245.920 9        55.715 9  21157512.668 6         0.000 6      -970.847 6        37.977 6
G29  24266189.805 9 127519632.298 9     -3165.299 9        54.487 9  24266191.344 6         0.000 6     -2466.469 6        37.977 6
G27  22031665.382 9 115777155.859 9      2553.849 9        55.364 9  22031667.324 6         0.000 6      1990.013 6        37.977 6
G16  20503418.146 9 107746169.269 9       610.824 9        55.974 9  20503417.320 6         0.000 6       475.967 6        37.977 6
G26  20638795.584 9 108457580.640 9     -1449.897 9        55.880 9  20638798.394 6         0.000 6     -1129.790 6        37.977 6
G20  21971605.579 9 115461533.263 9      2559.445 9        55.305 9  21971605.916 6         0.000 6      1994.374 6        37.977 6
> 2019 07 03 12 00  4.0000000  0  8       0.000000000000
G07  25370253.476 9 133321535.565 9      2237.598 9        54.124 9  25370254.159 6         0.000 6      1743.583 6        37.977 6
G10  23846758.561 9 125315506.779 9      3518.864 9        54.656 9  23846762.324 6         0.000 6      2741.975 6        37.977 6
G21  21157750.822 9 111184710.370 9     -1248.773 9        55.715 9  21157750.105 6         0.000 6      -973.070 6        37.977 6
G29  24266792.647 9 127522800.244 9     -3169.255 9        54.487 9  24266794.187 6         0.000 6     -2469.552 6        37.977 6
G27  22031179.259 9 115774601.271 9      2554.786 9        55.364 9  22031181.202 6         0.000 6      1990.743 6        37.977 6
G16  20503301.858 9 107745558.173 9       611.035 9        55.974 9  20503301.032 6         0.000 6       476.131 6        37.977 6
G26  20639071.053 9 108459028.240 9     -1446.456 9        55.880 9  20639073.864 6         0.000 6     -1127.109 6        37.977 6
G20  21971118.167 9 115458971.901 9      2562.460 9        55.305 9  21971118.504 6         0.000 6      1996.723 6        37.977 6
> 2019 07 03 12 00  5.0000000  0  8       0.000000000000
G07  25369827.855 9 133319298.914 9      2236.105 9        54.124 9  25369828.537 6         0.000 6      1742.420 6        37.977 6
G10  23846088.803 9 125311987.186 9      3519.932 9        54.656 9  23846092.565 6         0.000 6      2742.807 6        37.977 6
G21  21157988.555 9 111185959.663 9     -1249.713 9        55.715 9  21157987.838 6         0.000 6      -973.803 6        37.977 6
G29  24267395.851 9 127525970.095 9     -3170.365 9        54.486 9  24267397.392 6         0.000 6     -2470.417 6        37.977 6
G27  22030693.083 9 115772046.399 9      2554.986 9        55.364 9  22030695.025 6         0.000 6      1990.899 6        37.977 6
G16  20503185.616 9 107744947.314 9       610.679 9        55.974 9  20503184.789 6         0.000 6       475.854 6        37.977 6
G26  20639346.263 9 108460474.478 9     -1446.236 9        55.879 9  20639349.074 6         0.000 6     -1126.937 6        37.977 6
G20  21970630.515 9 115456409.278 9      2562.547 9        55.305 9  21970630.852 6         0.000 6      1996.791 6        37.977 6
> 2019 07 03 12 00  6.0000000  0  8       0.000000000000
G07  25369402.378 9 133317063.021 9      2235.734 9        54.124 9  25369403.060 6         0.000 6      1742.131 6        37.977 6
G10  23845418.988 9 125308467.297 9      3519.814 9        54.656 9  23845422.750 6         0.000 6      2742.715 6        37.977 6
G21  21158226.428 9 111187209.694 9     -1250.328 9        55.714 9  21158225.711 6         0.000 6      -974.282 6        37.977 6
G29  24267999.224 9 127529140.830 9     -3171.083 9        54.486 9  24268000.765 6         0.000 6     -2470.976 6        37.977 6
G27  22030206.865 9 115769491.309 9      2555.181 9        55.364 9  22030208.807 6         0.000 6      1991.051 6        37.977 6
G16  20503069.445 9 107744336.831 9       610.275 9        55.974 9  20503068.618 6         0.000 6       475.539 6        37.977 6
G26  20639621.509 9 108461920.905 9     -1446.656 9        55.879 9  20639624.320 6         0.000 6     -1127.265 6        37.977 6
G20  21970142.934 9 115453847.028 9      2561.939 9        55.305 9  21970143.271 6         0.000 6      1996.317 6        37.977 6
> 2019 07 03 12 00  7.0000000  0  8       0.000000000000
G07  25368976.960 9 133314827.435 9      2235.440 9        54.124 9  25368977.641 6         0.000 6      1741.902 6        37.977 6
G10  23844749.212 9 125304947.611 9      3519.586 9        54.656 9  23844752.973 6         0.000 6      2742.537 6        37.977 6
G21  21158464.408 9 111188460.288 9     -1250.841 9        55.714 9  21158463.692 6         0.000 6      -974.682 6        37.977 6
G29  24268602.712 9 127532312.167 9     -3171.579 9        54.486 9  24268604.253 6         0.000 6     -2471.363 6        37.977 6
G27  22029720.622 9 115766936.089 9      2555.246 9        55.364 9  22029722.564 6         0.000 6      1991.101 6        37.977 6
G16  20502953.358 9 107743726.790 9       609.803 9        55.974 9  20502952.531 6         0.000 6       475.171 6        37.977 6
G26  20639896.849 9 108463367.822 9     -1447.182 9        55.879 9  20639899.660 6         0.000 6     -1127.675 6        37.977 6
G20  21969655.474 9 115451285.411 9      2561.319 9        55.305 9  21969655.810 6         0.000 6      1995.834 6        37.977 6
> 2019 07 03 12 00  8.0000000  0  8       0.000000000000
G07  25368551.600 9 133312592.158 9      2235.109 9        54.124 9  25368552.281 6         0.000 6      1741.644 6        37.977 6
G10  23844079.478 9 125301428.144 9      3519.376 9        54.657 9  23844083.238 6         0.000 6      2742.374 6        37.977 6
G21  21158702.480 9 111189711.362 9     -1251.301 9        55.714 9  21158701.763 6         0.000 6      -975.040 6        37.977 6
G29  24269206.279 9 127535483.926 9     -3171.932 9        54.486 9  24269207.821 6         0.000 6     -2471.638 6        37.977 6
G27  22029234.377 9 115764380.855 9      2555.207 9        55.365 9  22029236.318 6         0.000 6      1991.071 6        37.977 6
G16  20502837.365 9 107743117.242 9       609.283 9        55.974 9  20502836.538 6         0.000 6       474.766 6        37.977 6
G26  20640172.291 9 108464815.276 9     -1447.731 9        55.879 9  20640175.101 6         0.000 6     -1128.103 6        37.977 6
G20  21969168.126 9 115448724.385 9      2560.754 9        55.306 9  21969168.462 6         0.000 6      1995.394 6        37.977 6
> 2019 07 03 12 00  9.0000000  0  8       0.000000000000
G07  25368126.307 9 133310357.233 9      2234.738 9        54.124 9  25368126.988 6         0.000 6      1741.355 6        37.977 6
G10  23843409.781 9 125297908.876 9      3519.188 9        54.657 9  23843413.541 6         0.000 6      2742.227 6        37.977 6
G21  21158940.636 9 111190962.881 9     -1251.738 9        55.714 9  21158939.920 6         0.000 6      -975.380 6        37.977 6
G29  24269809.905 9 127538655.991 9     -3172.198 9        54.486 9  24269811.448 6         0.000 6     -2471.845 6        37.977 6
G27  22028748.146 9 115761825.697 9      2555.095 9        55.365 9  22028750.087 6         0.000 6      1990.984 6        37.977 6
G16  20502721.474 9 107742508.233 9       608.722 9        55.974 9  20502720.647 6         0.000 6       474.329 6        37.977 6
G26  20640447.838 9 108466263.285 9     -1448.298 9        55.879 9  20640450.649 6         0.000 6     -1128.544 6        37.977 6
G20  21968680.882 9 115446163.904 9      2560.225 9        55.306 9  21968681.217 6         0.000 6      1994.982 6        37.977 6
> 2019 07 03 12 00 10.0000000  0  8       0.000000000000
G07  25367701.088 9 133308122.697 9      2234.338 9        54.124 9  25367701.769 6         0.000 6      1741.044 6        37.977 6
G10  23842740.118 9 125294389.782 9      3519.024 9        54.657 9  23842743.877 6         0.000 6      2742.099 6        37.977 6
G21  21159178.873 9 111192214.823 9     -1252.145 9        55.714 9  21159178.156 6         0.000 6      -975.698 6        37.977 6
G29  24270413.573 9 127541828.280 9     -3172.396 9        54.485 9  24270415.117 6         0.000 6     -2472.000 6        37.977 6
G27  22028261.942 9 115759270.683 9      2554.935 9        55.365 9  22028263.883 6         0.000 6      1990.859 6        37.977 6
G16  20502605.693 9 107741899.800 9       608.144 9        55.974 9  20502604.866 6         0.000 6       473.878 6        37.977 6
G26  20640723.494 9 108467711.865 9     -1448.864 9        55.879 9  20640726.305 6         0.000 6     -1128.986 6        37.977 6
G20  21968193.734 9 115443603.930 9      2559.734 9        55.306 9  21968194.069 6         0.000 6      1994.599 6        37.977 6
> 2019 07 03 12 00 11.0000000  0  8       0.000000000000
G07  25367275.948 9 133305888.575 9      2233.908 9        54.125 9  25367276.629 6         0.000 6      1740.708 6        37.977 6
G10  23842070.484 9 125290870.843 9      3518.878 9        54.657 9  23842074.242 6         0.000 6      2741.985 6        37.977 6
G21  21159417.185 9 111193467.163 9     -1252.531 9        55.714 9  21159416.469 6         0.000 6      -975.998 6        37.977 6
G29  24271017.274 9 127545000.737 9     -3172.522 9        54.485 9  24271018.818 6         0.000 6     -2472.097 6        37.977 6
G27  22027775.774 9 115756715.853 9      2554.718 9        55.365 9  22027777.715 6         0.000 6      1990.690 6        37.977 6
G16  20502490.024 9 107741291.956 9       607.536 9        55.974 9  20502489.197 6         0.000 6       473.405 6        37.977 6
G26  20640999.258 9 108469161.014 9     -1449.442 9        55.879 9  20641002.069 6         0.000 6     -1129.436 6        37.977 6
G20  21967706.677 9 115441044.432 9      2559.276 9        55.306 9  21967707.012 6         0.000 6      1994.242 6        37.977 6
> 2019 07 03 12 00 12.0000000  0  8       0.000000000000
G07  25366850.892 9 133303654.895 9      2233.461 9        54.125 9  25366851.573 6         0.000 6      1740.360 6        37.977 6
G10  23841400.877 9 125287352.044 9      3518.743 9        54.658 9  23841404.635 6         0.000 6      2741.880 6        37.977 6
G21  21159655.569 9 111194719.880 9     -1252.904 9        55.714 9  21159654.853 6         0.000 6      -976.289 6        37.977 6
G29  24271620.993 9 127548173.293 9     -3172.611 9        54.485 9  24271622.538 6         0.000 6     -2472.167 6        37.977 6
G27  22027289.650 9 115754161.260 9      2554.473 9        55.365 9  22027291.591 6         0.000 6      1990.499 6        37.977 6
G16  20502374.473 9 107740684.730 9       606.916 9        55.974 9  20502373.646 6         0.000 6       472.921 6        37.977 6
G26  20641275.133 9 108470610.745 9     -1450.023 9        55.879 9  20641277.944 6         0.000 6     -1129.889 6        37.977 6
G20  21967219.705 9 115438485.382 9      2558.835 9        55.306 9  21967220.040 6         0.000 6      1993.899 6        37.977 6
> 2019 07 03 12 00 13.0000000  0  8       0.000000000000
G07  25366425.920 9 133301421.655 9      2233.014 9        54.125 9  25366426.601 6         0.000 6      1740.012 6        37.977 6
G10  23840731.296 9 125283833.384 9      3518.608 9        54.658 9  23840735.053 6         0.000 6      2741.775 6        37.977 6
G21  21159894.024 9 111195972.967 9     -1253.277 9        55.714 9  21159893.308 6         0.000 6      -976.580 6        37.977 6
G29  24272224.730 9 127551345.943 9     -3172.700 9        54.485 9  24272226.276 6         0.000 6     -2472.237 6        37.977 6
G27  22026803.572 9 115751606.906 9      2554.228 9        55.365 9  22026805.513 6         0.000 6      1990.308 6        37.977 6
G16  20502259.039 9 107740078.119 9       606.295 9        55.974 9  20502258.212 6         0.000 6       472.438 6        37.977 6
G26  20641551.118 9 108472061.055 9     -1450.604 9        55.878 9  20641553.930 6         0.000 6     -1130.341 6        37.977 6
G20  21966732.817 9 115435926.774 9      2558.394 9        55.307 9  21966733.152 6         0.000 6      1993.555 6        37.977 6
> 2019 07 03 12 00 14.0000000  0  8       0.000000000000
G07  25366001.086 9 133299189.138 9      2229.395 9        54.125 9  25366001.766 6         0.000 6      1737.192 6        37.977 6
G10  23840061.689 9 125280314.589 9      3521.617 9        54.658 9  23840065.446 6         0.000 6      2744.120 6        37.977 6
G21  21160132.556 9 111197226.457 9     -1254.009 9        55.714 9  21160131.839 6         0.000 6      -977.150 6        37.977 6
G29  24272828.476 9 127554518.640 9     -3172.483 9        54.485 9  24272830.022 6         0.000 6     -2472.067 6        37.977 6
G27  22026317.559 9 115749052.894 9      2553.041 9        55.366 9  22026319.500 6         0.000 6      1989.384 6        37.977 6
G16  20502143.730 9 107739472.169 9       605.340 9        55.974 9  20502142.904 6         0.000 6       471.694 6        37.977 6
G26  20641827.193 9 108473511.836 9     -1449.804 9        55.878 9  20641830.004 6         0.000 6     -1129.718 6        37.977 6
G20  21966245.977 9 115433368.414 9      2560.175 9        55.307 9  21966246.311 6         0.000 6      1994.943 6        37.977 6
> 2019 07 03 12 00 15.0000000  0  8       0.000000000000
G07  25365578.324 9 133296967.513 9      2213.830 9        54.125 9  25365579.004 6         0.000 6      1725.063 6        37.977 6
G10  23839390.183 9 125276785.809 9      3535.827 9        54.658 9  23839393.939 6         0.000 6      2755.193 6        37.977 6
G21  21160371.267 9 111198480.896 9     -1254.390 9        55.714 9  21160370.551 6         0.000 6      -977.447 6        37.977 6
G29  24273431.756 9 127557688.884 9     -3166.834 9        54.484 9  24273433.302 6         0.000 6     -2467.666 6        37.977 6
G27  22025832.380 9 115746503.262 9      2545.425 9        55.366 9  22025834.320 6         0.000 6      1983.449 6        37.977 6
G16  20502028.849 9 107738868.464 9       601.675 9        55.975 9  20502028.022 6         0.000 6       468.838 6        37.977 6
G26  20642102.606 9 108474959.139 9     -1445.154 9        55.878 9  20642105.418 6         0.000 6     -1126.094 6        37.977 6
G20  21965757.776 9 115430802.908 9      2571.094 9        55.307 9  21965758.110 6         0.000 6      2003.451 6        37.977 6
> 2019 07 03 12 00 16.0000000  0  8       0.000000000000
G07  25365158.526 9 133294761.465 9      2197.754 9        54.125 9  25365159.206 6         0.000 6      1712.536 6        37.977 6
G10  23838716.077 9 125273243.372 9      3549.244 9        54.659 9  23838719.833 6         0.000 6      2765.648 6        37.977 6
G21  21160609.757 9 111199734.168 9     -1251.286 9        55.713 9  21160609.041 6         0.000 6      -975.028 6        37.977 6
G29  24274033.229 9 127560849.636 9     -3152.343 9        54.484 9  24274034.776 6         0.000 6     -2456.374 6        37.977 6
G27  22025349.142 9 115743963.829 9      2531.753 9        55.366 9  22025351.082 6         0.000 6      1972.795 6        37.977 6
G16  20501914.910 9 107738269.711 9       595.010 9        55.975 9  20501914.083 6         0.000 6       463.645 6        37.977 6
G26  20642377.360 9 108476402.980 9     -1443.018 9        55.878 9  20642380.172 6         0.000 6     -1124.430 6        37.977 6
G20  21965267.361 9 115428225.765 9      2583.990 9        55.307 9  21965267.695 6         0.000 6      2013.500 6        37.977 6
> 2019 07 03 12 00 17.0000000  0  8       0.000000000000
G07  25364740.904 9 133292566.850 9      2193.060 9        54.125 9  25364741.584 6         0.000 6      1708.879 6        37.977 6
G10  23838040.264 9 125269691.962 9      3552.338 9        54.659 9  23838044.019 6         0.000 6      2768.058 6        37.977 6
G21  21160847.639 9 111200984.243 9     -1249.492 9        55.713 9  21160846.923 6         0.000 6      -973.630 6        37.977 6
G29  24274632.236 9 127563997.428 9     -3145.431 9        54.484 9  24274633.783 6         0.000 6     -2450.988 6        37.977 6
G27  22024868.104 9 115741435.960 9      2525.821 9        55.366 9  22024870.044 6         0.000 6      1968.173 6        37.977 6
G16  20501802.076 9 107737676.765 9       591.734 9        55.975 9  20501801.249 6         0.000 6       461.092 6        37.977 6
G26  20642652.028 9 108477846.366 9     -1443.804 9        55.878 9  20642654.839 6         0.000 6     -1125.042 6        37.977 6
G20  21964775.149 9 115425639.178 9      2587.725 9        55.307 9  21964775.483 6         0.000 6      2016.410 6        37.977 6
> 2019 07 03 12 00 18.0000000  0  8       0.000000000000
G07  25364323.680 9 133290374.328 9      2192.151 9        54.126 9  25364324.360 6         0.000 6      1708.171 6        37.977 6
G10  23837364.249 9 125266139.486 9      3552.522 9        54.659 9  23837368.003 6         0.000 6      2768.201 6        37.977 6
G21  21161085.404 9 111202233.706 9     -1249.552 9        55.713 9  21161084.688 6         0.000 6      -973.677 6        37.977 6
G29  24275230.676 9 127567142.246 9     -3144.561 9        54.484 9  24275232.225 6         0.000 6     -2450.310 6        37.977 6
G27  22024387.575 9 115738910.766 9      2524.831 9        55.366 9  22024389.515 6         0.000 6      1967.401 6        37.977 6
G16  20501689.576 9 107737085.574 9       590.769 9        55.975 9  20501688.749 6         0.000 6       460.340 6        37.977 6
G26  20642926.839 9 108479290.509 9     -1444.460 9        55.878 9  20642929.651 6         0.000 6     -1125.553 6        37.977 6
G20  21964282.701 9 115423051.349 9      2587.767 9        55.308 9  21964283.034 6         0.000 6      2016.443 6        37.977 6
> 2019 07 03 12 00 19.0000000  0  8       0.000000000000
G07  25363906.577 9 133288182.438 9      2191.655 9        54.126 9  25363907.256 6         0.000 6      1707.784 6        37.977 6
G10  23836688.235 9 125262587.020 9      3552.420 9        54.659 9  23836691.988 6         0.000 6      2768.122 6        37.977 6
G21  21161323.218 9 111203483.425 9     -1249.895 9        55.713 9  21161322.502 6         0.000 6      -973.945 6        37.977 6
G29  24275829.063 9 127570286.777 9     -3144.557 9        54.483 9  24275830.612 6         0.000 6     -2450.307 6        37.977 6
G27  22023907.148 9 115736386.109 9      2524.520 9        55.367 9  22023909.088 6         0.000 6      1967.159 6        37.977 6
G16  20501577.219 9 107736495.134 9       590.128 9        55.975 9  20501576.392 6         0.000 6       459.840 6        37.977 6
G26  20643201.766 9 108480735.256 9     -1445.034 9        55.878 9  20643204.578 6         0.000 6     -1126.001 6        37.977 6
G20  21963790.301 9 115420463.776 9      2587.371 9        55.308 9  21963790.634 6         0.000 6      2016.134 6        37.977 6
> 2019 07 03 12 00 20.0000000  0  8       0.000000000000
G07  25363489.562 9 133285991.014 9      2191.197 9        54.126 9  25363490.241 6         0.000 6      1707.427 6        37.977 6
G10  23836012.244 9 125259034.677 9      3552.289 9        54.660 9  23836015.997 6         0.000 6      2768.020 6        37.977 6
G21  21161561.100 9 111204733.504 9     -1250.268 9        55.713 9  21161560.384 6         0.000 6      -974.235 6        37.977 6
G29  24276427.459 9 127573431.360 9     -3144.631 9        54.483 9  24276429.009 6         0.000 6     -2450.364 6        37.977 6
G27  22023426.772 9 115733861.717 9      2524.266 9        55.367 9  22023428.711 6         0.000 6      1966.961 6        37.977 6
G16  20501464.980 9 107735905.312 9       589.511 9        55.975 9  20501464.153 6         0.000 6       459.359 6        37.977 6
G26  20643476.801 9 108482180.574 9     -1445.606 9        55.878 9  20643479.613 6         0.000 6     -1126.447 6        37.977 6
G20  21963297.983 9 115417876.630 9      2586.930 9        55.308 9  21963298.315 6         0.000 6      2015.791 6        37.977 6
> 2019 07 03 12 00 21.0000000  0  8       0.000000000000
G07  25363072.636 9 133283800.055 9      2190.738 9        54.126 9  25363073.314 6         0.000 6      1707.070 6        37.977 6
G10  23835336.278 9 125255482.459 9      3552.160 9        54.660 9  23835340.030 6         0.000 6      2767.920 6        37.977 6
G21  21161799.053 9 111205983.957 9     -1250.641 9        55.713 9  21161798.337 6         0.000 6      -974.525 6        37.977 6
G29  24277025.869 9 127576576.018 9     -3144.710 9        54.483 9  24277027.420 6         0.000 6     -2450.426 6        37.977 6
G27  22022946.444 9 115731337.580 9      2524.018 9        55.367 9  22022948.383 6         0.000 6      1966.768 6        37.977 6
G16  20501352.858 9 107735316.109 9       588.898 9        55.975 9  20501352.031 6         0.000 6       458.882 6        37.977 6
G26  20643751.944 9 108483626.461 9     -1446.174 9        55.878 9  20643754.757 6         0.000 6     -1126.890 6        37.977 6
G20  21962805.748 9 115415289.920 9      2586.491 9        55.308 9  21962806.080 6         0.000 6      2015.448 6        37.977 6
> 2019 07 03 12 00 22.0000000  0  8       0.000000000000
G07  25362655.794 9 133281609.543 9      2190.289 9        54.126 9  25362656.473 6         0.000 6      1706.719 6        37.977 6
G10  23834660.338 9 125251930.381 9      3552.022 9        54.660 9  23834664.089 6         0.000 6      2767.812 6        37.977 6
G21  21162037.078 9 111207234.786 9     -1251.013 9        55.713 9  21162036.362 6         0.000 6      -974.816 6        37.977 6
G29  24277624.297 9 127579720.765 9     -3144.793 9        54.483 9  24277625.848 6         0.000 6     -2450.491 6        37.977 6
G27  22022466.161 9 115728813.682 9      2523.776 9        55.367 9  22022468.101 6         0.000 6      1966.579 6        37.977 6
G16  20501240.852 9 107734727.514 9       588.288 9        55.975 9  20501240.026 6         0.000 6       458.406 6        37.977 6
G26  20644027.197 9 108485072.919 9     -1446.745 9        55.877 9  20644030.009 6         0.000 6     -1127.334 6        37.977 6
G20  21962313.598 9 115412703.661 9      2586.044 9        55.308 9  21962313.930 6         0.000 6      2015.100 6        37.977 6
> 2019 07 03 12 00 23.0000000  0  8       0.000000000000
G07  25362239.039 9 133279419.482 9      2189.837 9        54.126 9  25362239.717 6         0.000 6      1706.367 6        37.977 6
G10  23833984.423 9 125248378.438 9      3551.889 9        54.660 9  23833988.174 6         0.000 6      2767.709 6        37.977 6
G21  21162275.174 9 111208485.985 9     -1251.384 9        55.713 9  21162274.458 6         0.000 6      -975.104 6        37.977 6
G29  24278222.739 9 127582865.589 9     -3144.876 9        54.483 9  24278224.290 6         0.000 6     -2450.555 6        37.977 6
G27  22021985.926 9 115726290.031 9      2523.535 9        55.367 9  22021987.865 6         0.000 6      1966.391 6        37.977 6
G16  20501128.963 9 107734139.531 9       587.681 9        55.975 9  20501128.136 6         0.000 6       457.933 6        37.977 6
G26  20644302.557 9 108486519.948 9     -1447.311 9        55.877 9  20644305.370 6         0.000 6     -1127.775 6        37.977 6
G20  21961821.533 9 115410117.845 9      2585.601 9        55.309 9  21961821.864 6         0.000 6      2014.755 6        37.977 6
> 2019 07 03 12 00 24.0000000  0  8       0.000000000000
G07  25361822.370 9 133277229.874 9      2189.387 9        54.126 9  25361823.048 6         0.000 6      1706.017 6        37.977 6
G10  23833308.534 9 125244826.628 9      3551.751 9        54.661 9  23833312.284 6         0.000 6      2767.601 6        37.977 6
G21  21162513.340 9 111209737.554 9     -1251.756 9        55.713 9  21162512.624 6         0.000 6      -975.395 6        37.977 6
G29  24278821.197 9 127586010.496 9     -3144.959 9        54.482 9  24278822.749 6         0.000 6     -2450.620 6        37.977 6
G27  22021505.736 9 115723766.620 9      2523.292 9        55.368 9  22021507.675 6         0.000 6      1966.202 6        37.977 6
G16  20501017.189 9 107733552.156 9       587.070 9        55.975 9  20501016.362 6         0.000 6       457.457 6        37.977 6
G26  20644578.026 9 108487967.543 9     -1447.882 9        55.877 9  20644580.838 6         0.000 6     -1128.220 6        37.977 6
G20  21961329.552 9 115407532.472 9      2585.154 9        55.309 9  21961329.883 6         0.000 6      2014.407 6        37.977 6
> 2019 07 03 12 00 25.0000000  0  8       0.000000000000
G07  25361405.787 9 133275040.719 9      2188.934 9        54.127 9  25361406.464 6         0.000 6      1705.664 6        37.977 6
G10  23832632.671 9 125241274.955 9      3551.615 9        54.661 9  23832636.421 6         0.000 6      2767.495 6        37.977 6
G21  21162751.577 9 111210989.500 9     -1252.133 9        55.713 9  21162750.861 6         0.000 6      -975.688 6        37.977 6
G29  24279419.671 9 127589155.488 9     -3145.043 9        54.482 9  24279421.224 6         0.000 6     -2450.686 6        37.977 6
G27  22021025.594 9 115721243.456 9      2523.045 9        55.368 9  22021027.532 6         0.000 6      1966.010 6        37.977 6
G16  20500905.532 9 107732965.395 9       586.456 9        55.975 9  20500904.705 6         0.000 6       456.979 6        37.977 6
G26  20644853.603 9 108489415.710 9     -1448.455 9        55.877 9  20644856.416 6         0.000 6     -1128.667 6        37.977 6
G20  21960837.656 9 115404947.546 9      2584.707 9        55.309 9  21960837.987 6         0.000 6      2014.059 6        37.977 6
> 2019 07 03 12 00 26.0000000  0  8       0.000000000000
G07  25360989.289 9 133272852.010 9      2188.484 9        54.127 9  25360989.966 6         0.000 6      1705.313 6        37.977 6
G10  23831956.835 9 125237723.421 9      3551.477 9        54.661 9  23831960.584 6         0.000 6      2767.388 6        37.977 6
G21  21162989.885 9 111212241.815 9     -1252.506 9        55.712 9  21162989.169 6         0.000 6      -975.979 6        37.977 6
G29  24280018.160 9 127592300.562 9     -3145.126 9        54.482 9  24280019.714 6         0.000 6     -2450.750 6        37.977 6
G27  22020545.497 9 115718720.532 9      2522.802 9        55.368 9  22020547.435 6         0.000 6      1965.821 6        37.977 6
G16  20500793.991 9 107732379.240 9       585.845 9        55.975 9  20500793.164 6         0.000 6       456.503 6        37.977 6
G26  20645129.289 9 108490864.447 9     -1449.026 9        55.877 9  20645132.102 6         0.000 6     -1129.111 6        37.977 6
G20  21960345.845 9 115402363.066 9      2584.260 9        55.309 9  21960346.176 6         0.000 6      2013.710 6        37.977 6
> 2019 07 03 12 00 27.0000000  0  8       0.000000000000
G07  25360572.877 9 133270663.754 9      2188.035 9        54.127 9  25360573.554 6         0.000 6      1704.963 6        37.977 6
G10  23831281.024 9 125234172.024 9      3551.339 9        54.661 9  23831284.772 6         0.000 6      2767.280 6        37.977 6
G21  21163228.264 9 111213494.506 9     -1252.878 9        55.712 9  21163227.548 6         0.000 6      -976.269 6        37.977 6
G29  24280616.666 9 127595445.719 9     -3145.209 9        54.482 9  24280618.220 6         0.000 6     -2450.815 6        37.977 6
G27  22020065.447 9 115716197.854 9      2522.559 9        55.368 9  22020067.385 6         0.000 6      1965.631 6        37.977 6
G16  20500682.566 9 107731793.700 9       585.235 9        55.975 9  20500681.739 6         0.000 6       456.027 6        37.977 6
G26  20645405.084 9 108492313.756 9     -1449.596 9        55.877 9  20645407.897 6         0.000 6     -1129.556 6        37.977 6
G20  21959854.119 9 115399779.035 9      2583.813 9        55.309 9  21959854.450 6         0.000 6      2013.362 6        37.977 6
> 2019 07 03 12 00 28.0000000  0  8       0.000000000000
G07  25360156.535 9 133268475.870 9      2187.534 9        54.127 9  25360157.212 6         0.000 6      1704.573 6        37.977 6
G10  23830605.250 9 125230620.817 9      3551.225 9        54.662 9  23830608.998 6         0.000 6      2767.191 6        37.977 6
G21  21163466.724 9 111214747.622 9     -1253.180 9        55.712 9  21163466.009 6         0.000 6      -976.504 6        37.977 6
G29  24281215.219 9 127598591.125 9     -3145.102 9        54.482 9  24281216.773 6         0.000 6     -2450.732 6        37.977 6
G27  22019585.418 9 115713675.287 9      2522.178 9        55.368 9  22019587.356 6         0.000 6      1965.334 6        37.977 6
G16  20500571.245 9 107731208.706 9       584.558 9        55.975 9  20500570.419 6         0.000 6       455.500 6        37.977 6
G26  20645680.983 9 108493763.617 9     -1450.201 9        55.877 9  20645683.796 6         0.000 6     -1130.027 6        37.977 6
G20  21959362.494 9 115397195.531 9      2583.437 9        55.310 9  21959362.824 6         0.000 6      2013.069 6        37.977 6
> 2019 07 03 12 00 29.0000000  0  8       0.000000000000
G07  25359740.668 9 133266290.473 9      2184.335 9        54.127 9  25359741.344 6         0.000 6      1702.080 6        37.977 6
G10  23829929.314 9 125227068.761 9      3551.804 9        54.662 9  23829933.061 6         0.000 6      2767.643 6        37.977 6
G21  21163704.765 9 111215998.531 9     -1248.392 9        55.712 9  21163704.049 6         0.000 6      -972.774 6        37.977 6
G29  24281812.427 9 127601729.466 9     -3131.402 9        54.481 9  24281813.982 6         0.000 6     -2440.056 6        37.977 6
G27  22019106.437 9 115711158.229 9      2512.061 9        55.369 9  22019108.375 6         0.000 6      1957.451 6        37.977 6
G16  20500460.526 9 107730626.872 9       579.122 9        55.975 9  20500459.699 6         0.000 6       451.264 6        37.977 6
G26  20645957.237 9 108495215.336 9     -1453.801 9        55.877 9  20645960.050 6         0.000 6     -1132.833 6        37.977 6
G20  21958870.439 9 115394609.770 9      2587.405 9        55.310 9  21958870.769 6         0.000 6      2016.161 6        37.977 6
> 2019 07 03 12 00 30.0000000  0  8       0.000000000000
G07  25359324.682 9 133264104.456 9      2189.289 9        54.127 9  25359325.358 6         0.000 6      1705.940 6        37.977 6
G10  23829253.970 9 125223519.811 9      3544.648 9        54.662 9  23829257.716 6         0.000 6      2762.066 6        37.977 6
G21  21163941.864 9 111217244.495 9     -1243.603 9        55.712 9  21163941.148 6         0.000 6      -969.042 6        37.977 6
G29  24282407.231 9 127604855.174 9     -3120.828 9        54.481 9  24282408.787 6         0.000 6     -2431.817 6        37.977 6
G27  22018629.076 9 115708649.686 9      2505.936 9        55.369 9  22018631.014 6         0.000 6      1952.678 6        37.977 6
G16  20500350.722 9 107730049.847 9       575.314 9        55.975 9  20500349.895 6         0.000 6       448.297 6        37.977 6
G26  20646234.453 9 108496672.114 9     -1460.241 9        55.877 9  20646237.266 6         0.000 6     -1137.851 6        37.977 6
G20  21958378.162 9 115392022.840 9      2585.248 9        55.310 9  21958378.491 6         0.000 6      2014.480 6        37.977 6
> 2019 07 03 12 00 31.0000000  0  8       0.000000000000
G07  25358906.998 9 133261909.518 9      2197.992 9        54.127 9  25358907.675 6         0.000 6      1712.722 6        37.977 6
G10  23828580.654 9 125219981.526 9      3534.827 9        54.662 9  23828584.400 6         0.000 6      2754.413 6        37.977 6
G21  21164178.178 9 111218486.335 9     -1241.229 9        55.712 9  21164177.463 6         0.000 6      -967.191 6        37.977 6
G29  24283000.631 9 127607973.500 9     -3117.675 9        54.481 9  24283002.188 6         0.000 6     -2429.359 6        37.977 6
G27  22018152.298 9 115706144.200 9      2505.660 9        55.369 9  22018154.235 6         0.000 6      1952.463 6        37.977 6
G16  20500241.383 9 107729475.268 9       574.268 9        55.975 9  20500240.556 6         0.000 6       447.481 6        37.977 6
G26  20646513.055 9 108498136.180 9     -1466.110 9        55.876 9  20646515.869 6         0.000 6     -1142.424 6        37.977 6
G20  21957886.919 9 115389441.347 9      2579.176 9        55.310 9  21957887.248 6         0.000 6      2009.749 6        37.977 6
> 2019 07 03 12 00 32.0000000  0  8       0.000000000000
G07  25358488.593 9 133259710.785 9      2198.993 9        54.128 9  25358489.269 6         0.000 6      1713.502 6        37.977 6
G10  23827908.198 9 125216447.757 9      3533.224 9        54.663 9  23827911.943 6         0.000 6      2753.164 6        37.977 6
G21  21164414.379 9 111219727.579 9     -1241.349 9        55.712 9  21164413.664 6         0.000 6      -967.285 6        37.977 6
G29  24283593.908 9 127611091.180 9     -3117.729 9        54.481 9  24283595.465 6         0.000 6     -2429.402 6        37.977 6
G27  22017675.469 9 115703638.451 9      2505.745 9        55.369 9  22017677.407 6         0.000 6      1952.529 6        37.977 6
G16  20500132.150 9 107728901.244 9       573.750 9        55.975 9  20500131.323 6         0.000 6       447.078 6        37.977 6
G26  20646792.189 9 108499603.035 9     -1467.373 9        55.876 9  20646795.003 6         0.000 6     -1143.408 6        37.977 6
G20  21957396.285 9 115386863.050 9      2577.752 9        55.310 9  21957396.614 6         0.000 6      2008.639 6        37.977 6
> 2019 07 03 12 00 33.0000000  0  8       0.000000000000
G07  25358070.162 9 133257511.922 9      2198.685 9        54.128 9  25358070.838 6         0.000 6      1713.262 6        37.977 6
G10  23827235.881 9 125212914.715 9      3532.940 9        54.663 9  23827239.625 6         0.000 6      2752.943 6        37.977 6
G21  21164650.632 9 111220969.096 9     -1241.688 9        55.712 9  21164649.917 6         0.000 6      -967.550 6        37.977 6
G29  24284187.200 9 127614208.941 9     -3117.814 9        54.480 9  24284188.758 6         0.000 6     -2429.468 6        37.977 6
G27  22017198.660 9 115701132.807 9      2505.542 9        55.369 9  22017200.598 6         0.000 6      1952.371 6        37.977 6
G16  20500023.027 9 107728327.799 9       573.144 9        55.975 9  20500022.200 6         0.000 6       446.606 6        37.977 6
G26  20647071.486 9 108501070.747 9     -1468.020 9        55.876 9  20647074.299 6         0.000 6     -1143.912 6        37.977 6
G20  21956905.810 9 115384285.594 9      2577.210 9        55.310 9  21956906.139 6         0.000 6      2008.217 6        37.977 6
> 2019 07 03 12 00 34.0000000  0  8       0.000000000000
G07  25357651.808 9 133255313.461 9      2198.243 9        54.128 9  25357652.484 6         0.000 6      1712.917 6        37.977 6
G10  23826563.599 9 125209381.862 9      3532.791 9        54.663 9  23826567.343 6         0.000 6      2752.827 6        37.977 6
G21  21164886.952 9 111222210.965 9     -1242.049 9        55.712 9  21164886.237 6         0.000 6      -967.831 6        37.977 6
G29  24284780.509 9 127617326.793 9     -3117.904 9        54.480 9  24284782.068 6         0.000 6     -2429.538 6        37.977 6
G27  22016721.893 9 115698627.380 9      2505.313 9        55.369 9  22016723.830 6         0.000 6      1952.192 6        37.977 6
G16  20499914.019 9 107727754.960 9       572.532 9        55.975 9  20499913.193 6         0.000 6       446.129 6        37.977 6
G26  20647350.896 9 108502539.056 9     -1468.601 9        55.876 9  20647353.709 6         0.000 6     -1144.365 6        37.977 6
G20  21956415.427 9 115381708.616 9      2576.759 9        55.311 9  21956415.755 6         0.000 6      2007.865 6        37.977 6
> 2019 07 03 12 00 35.0000000  0  8       0.000000000000
G07  25357233.539 9 133253115.448 9      2197.786 9        54.128 9  25357234.215 6         0.000 6      1712.561 6        37.977 6
G10  23825891.345 9 125205849.153 9      3532.657 9        54.663 9  23825895.088 6         0.000 6      2752.722 6        37.977 6
G21  21165123.341 9 111223453.197 9     -1242.412 9        55.712 9  21165122.626 6         0.000 6      -968.113 6        37.977 6
G29  24285373.835 9 127620444.730 9     -3117.990 9        54.480 9  24285375.394 6         0.000 6     -2429.605 6        37.977 6
G27  22016245.171 9 115696122.190 9      2505.077 9        55.370 9  22016247.108 6         0.000 6      1952.009 6        37.977 6
G16  20499805.129 9 107727182.739 9       571.917 9        55.975 9  20499804.303 6         0.000 6       445.650 6        37.977 6
G26  20647630.417 9 108504007.947 9     -1469.177 9        55.876 9  20647633.231 6         0.000 6     -1144.813 6        37.977 6
G20  21955925.128 9 115379132.086 9      2576.318 9        55.311 9  21955925.457 6         0.000 6      2007.522 6        37.977 6
> 2019 07 03 12 00 36.0000000  0  8       0.000000000000
G07  25356815.359 9 133250917.897 9      2197.328 9        54.128 9  25356816.034 6         0.000 6      1712.205 6        37.977 6
G10  23825219.115 9 125202316.572 9      3532.522 9        54.664 9  23825222.857 6         0.000 6      2752.617 6        37.977 6
G21  21165359.798 9 111224695.787 9     -1242.774 9        55.712 9  21165359.083 6         0.000 6      -968.395 6        37.977 6
G29  24285967.176 9 127623562.747 9     -3118.076 9        54.480 9  24285968.736 6         0.000 6     -2429.672 6        37.977 6
G27  22015768.493 9 115693617.238 9      2504.841 9        55.370 9  22015770.430 6         0.000 6      1951.825 6        37.977 6
G16  20499696.356 9 107726611.131 9       571.302 9        55.976 9  20499695.529 6         0.000 6       445.170 6        37.977 6
G26  20647910.047 9 108505477.410 9     -1469.752 9        55.876 9  20647912.861 6         0.000 6     -1145.262 6        37.977 6
G20  21955434.913 9 115376555.990 9      2575.877 9        55.311 9  21955435.241 6         0.000 6      2007.178 6        37.977 6
> 2019 07 03 12 00 37.0000000  0  8       0.000000000000
G07  25356397.265 9 133248720.801 9      2196.871 9        54.128 9  25356397.940 6         0.000 6      1711.848 6        37.977 6
G10  23824546.911 9 125198784.128 9      3532.387 9        54.664 9  23824550.653 6         0.000 6      2752.512 6        37.977 6
G21  21165596.325 9 111225938.741 9     -1243.136 9        55.711 9  21165595.609 6         0.000 6      -968.678 6        37.977 6
G29  24286560.534 9 127626680.857 9     -3118.162 9        54.480 9  24286562.095 6         0.000 6     -2429.739 6        37.977 6
G27  22015291.861 9 115691112.518 9      2504.605 9        55.370 9  22015293.797 6         0.000 6      1951.641 6        37.977 6
G16  20499587.699 9 107726040.137 9       570.687 9        55.976 9  20499586.873 6         0.000 6       444.691 6        37.977 6
G26  20648189.786 9 108506947.448 9     -1470.328 9        55.876 9  20648192.600 6         0.000 6     -1145.711 6        37.977 6
G20  21954944.782 9 115373980.338 9      2575.436 9        55.311 9  21954945.109 6         0.000 6      2006.834 6        37.977 6
> 2019 07 03 12 00 38.0000000  0  8       0.000000000000
G07  25355979.258 9 133246524.163 9      2196.413 9        54.128 9  25355979.932 6         0.000 6      1711.492 6        37.977 6
G10  23823874.734 9 125195251.821 9      3532.252 9        54.664 9  23823878.474 6         0.000 6      2752.407 6        37.977 6
G21  21165832.921 9 111227182.064 9     -1243.498 9        55.711 9  21165832.206 6         0.000 6      -968.960 6        37.977 6
G29  24287153.909 9 127629799.053 9     -3118.248 9        54.479 9  24287155.470 6         0.000 6     -2429.807 6        37.977 6
G27  22014815.274 9 115688608.038 9      2504.369 9        55.370 9  22014817.210 6         0.000 6      1951.457 6        37.977 6
G16  20499479.161 9 107725469.765 9       570.071 9        55.976 9  20499478.334 6         0.000 6       444.212 6        37.977 6
G26  20648469.636 9 108508418.069 9     -1470.904 9        55.876 9  20648472.450 6         0.000 6     -1146.159 6        37.977 6
G20  21954454.735 9 115371405.132 9      2574.995 9        55.311 9  21954455.063 6         0.000 6      2006.491 6        37.977 6
> 2019 07 03 12 00 39.0000000  0  8       0.000000000000
G07  25355561.338 9 133244327.982 9      2195.959 9        54.129 9  25355562.012 6         0.000 6      1711.138 6        37.977 6
G10  23823202.581 9 125191719.647 9      3532.113 9        54.664 9  23823206.321 6         0.000 6      2752.299 6        37.977 6
G21  21166069.586 9 111228425.742 9     -1243.862 9        55.711 9  21166068.870 6         0.000 6      -969.244 6        37.977 6
G29  24287747.300 9 127632917.334 9     -3118.334 9        54.479 9  24287748.862 6         0.000 6     -2429.874 6        37.977 6
G27  22014338.730 9 115686103.790 9      2504.131 9        55.370 9  22014340.667 6         0.000 6      1951.272 6        37.977 6
G16  20499370.739 9 107724900.001 9       569.453 9        55.976 9  20499369.912 6         0.000 6       443.730 6        37.977 6
G26  20648749.595 9 108509889.259 9     -1471.484 9        55.875 9  20648752.409 6         0.000 6     -1146.611 6        37.977 6
G20  21953964.772 9 115368830.362 9      2574.550 9        55.312 9  21953965.099 6         0.000 6      2006.144 6        37.977 6
> 2019 07 03 12 00 40.0000000  0  8       0.000000000000
G07  25355143.504 9 133242132.256 9      2195.501 9        54.129 9  25355144.178 6         0.000 6      1710.781 6        37.977 6
G10  23822530.455 9 125188187.612 9      3531.978 9        54.665 9  23822534.195 6         0.000 6      2752.193 6        37.977 6
G21  21166306.319 9 111229669.785 9     -1244.225 9        55.711 9  21166305.604 6         0.000 6      -969.526 6        37.977 6
G29  24288340.708 9 127636035.701 9     -3118.420 9        54.479 9  24288342.270 6         0.000 6     -2429.941 6        37.977 6
G27  22013862.233 9 115683599.780 9      2503.895 9        55.371 9  22013864.169 6         0.000 6      1951.088 6        37.977 6
G16  20499262.434 9 107724330.856 9       568.838 9        55.976 9  20499261.607 6         0.000 6       443.250 6        37.977 6
G26  20649029.663 9 108511361.029 9     -1472.059 9        55.875 9  20649032.478 6         0.000 6     -1147.060 6        37.977 6
G20  21953474.894 9 115366256.038 9      2574.108 9        55.312 9  21953475.220 6         0.000 6      2005.800 6        37.977 6
> 2019 07 03 12 00 41.0000000  0  8       0.000000000000
G07  25354725.392 9 133239935.066 9      2202.751 9        54.129 9  25354726.066 6         0.000 6      1716.430 6        37.977 6
G10  23821858.714 9 125184657.599 9      3524.292 9        54.665 9  23821862.453 6         0.000 6      2746.204 6        37.977 6
G21  21166543.084 9 111230913.993 9     -1243.908 9        55.711 9  21166542.369 6         0.000 6      -969.279 6        37.977 6
G29  24288934.183 9 127639154.424 9     -3119.817 9        54.479 9  24288935.746 6         0.000 6     -2431.029 6        37.977 6
G27  22013385.660 9 115681095.375 9      2506.329 9        55.371 9  22013387.596 6         0.000 6      1952.984 6        37.977 6
G16  20499154.202 9 107723762.095 9       569.201 9        55.976 9  20499153.376 6         0.000 6       443.533 6        37.977 6
G26  20649309.996 9 108512834.185 9     -1475.840 9        55.875 9  20649312.810 6         0.000 6     -1150.006 6        37.977 6
G20  21952985.356 9 115363683.504 9      2568.193 9        55.312 9  21952985.682 6         0.000 6      2001.190 6        37.977 6
> 2019 07 03 12 00 42.0000000  0  8       0.000000000000
G07  25354304.789 9 133237724.788 9      2217.549 9        54.129 9  25354305.463 6         0.000 6      1727.961 6        37.977 6
G10  23821189.462 9 125181140.668 9      3510.023 9        54.665 9  23821193.200 6         0.000 6      2735.085 6        37.977 6
G21  21166779.864 9 111232158.281 9     -1245.149 9        55.711 9  21166779.149 6         0.000 6      -970.246 6        37.977 6
G29  24289528.536 9 127642277.760 9     -3127.958 9        54.479 9  24289530.099 6         0.000 6     -2437.372 6        37.977 6
G27  22012907.957 9 115678585.033 9      2515.024 9        55.371 9  22012909.893 6         0.000 6      1959.760 6        37.977 6
G16  20499045.621 9 107723191.495 9       572.347 9        55.976 9  20499044.794 6         0.000 6       445.985 6        37.977 6
G26  20649591.380 9 108514312.864 9     -1481.055 9        55.875 9  20649594.194 6         0.000 6     -1154.069 6        37.977 6
G20  21952497.812 9 115361121.449 9      2555.910 9        55.312 9  21952498.138 6         0.000 6      1991.619 6        37.977 6
> 2019 07 03 12 00 43.0000000  0  8       0.000000000000
G07  25353881.399 9 133235499.860 9      2230.671 9        54.129 9  25353882.073 6         0.000 6      1738.186 6        37.977 6
G10  23820522.776 9 125177637.221 9      3498.512 9        54.665 9  23820526.514 6         0.000 6      2726.116 6        37.977 6
G21  21167017.213 9 111233405.555 9     -1249.576 9        55.711 9  21167016.498 6         0.000 6      -973.696 6        37.977 6
G29  24290125.244 9 127645413.473 9     -3143.285 9        54.478 9  24290126.808 6         0.000 6     -2449.315 6        37.977 6
G27  22012428.067 9 115676063.198 9      2528.132 9        55.371 9  22012430.003 6         0.000 6      1969.974 6        37.977 6
G16  20498936.172 9 107722616.335 9       577.787 9        55.976 9  20498935.345 6         0.000 6       450.224 6        37.977 6
G26  20649873.489 9 108515795.357 9     -1483.229 9        55.875 9  20649876.304 6         0.000 6     -1155.763 6        37.977 6
G20  21952012.735 9 115358572.354 9      2543.442 9        55.312 9  21952013.061 6         0.000 6      1981.904 6        37.977 6
> 2019 07 03 12 00 44.0000000  0  8       0.000000000000
G07  25353456.704 9 133233268.076 9      2232.230 9        54.129 9  25353457.378 6         0.000 6      1739.401 6        37.977 6
G10  23819857.232 9 125174139.769 9      3496.921 9        54.666 9  23819860.968 6         0.000 6      2724.877 6        37.977 6
G21  21167255.185 9 111234656.104 9     -1251.170 9        55.711 9  21167254.470 6         0.000 6      -974.938 6        37.977 6
G29  24290723.870 9 127648559.262 9     -3147.183 9        54.478 9  24290725.434 6         0.000 6     -2452.353 6        37.977 6
G27  22011946.629 9 115673533.224 9      2530.907 9        55.371 9  22011948.564 6         0.000 6      1972.136 6        37.977 6
G16  20498826.106 9 107722037.937 9       578.582 9        55.976 9  20498825.279 6         0.000 6       450.843 6        37.977 6
G26  20650155.766 9 108517278.732 9     -1483.563 9        55.875 9  20650158.581 6         0.000 6     -1156.024 6        37.977 6
G20  21951529.036 9 115356030.503 9      2540.936 9        55.313 9  21951529.361 6         0.000 6      1979.951 6        37.977 6
> 2019 07 03 12 00 45.0000000  0  8       0.000000000000
G07  25353031.940 9 133231035.931 9      2231.990 9        54.129 9  25353032.614 6         0.000 6      1739.214 6        37.977 6
G10  23819191.821 9 125170643.026 9      3496.639 9        54.666 9  23819195.558 6         0.000 6      2724.657 6        37.977 6
G21  21167493.329 9 111235907.558 9     -1251.687 9        55.711 9  21167492.614 6         0.000 6      -975.341 6        37.977 6
G29  24291322.827 9 127651706.795 9     -3147.740 9        54.478 9  24291324.393 6         0.000 6     -2452.787 6        37.977 6
G27  22011464.989 9 115671002.194 9      2531.029 9        55.372 9  22011466.924 6         0.000 6      1972.231 6        37.977 6
G16  20498716.043 9 107721459.551 9       578.126 9        55.976 9  20498715.216 6         0.000 6       450.488 6        37.977 6
G26  20650438.129 9 108518762.555 9     -1484.104 9        55.875 9  20650440.943 6         0.000 6     -1156.445 6        37.977 6
G20  21951045.583 9 115353489.947 9      2540.266 9        55.313 9  21951045.908 6         0.000 6      1979.429 6        37.977 6
> 2019 07 03 12 00 46.0000000  0  8       0.000000000000
G07  25352607.248 9 133228804.160 9      2231.550 9        54.130 9  25352607.921 6         0.000 6      1738.871 6        37.977 6
G10  23818526.448 9 125167146.473 9      3496.496 9        54.666 9  23818530.183 6         0.000 6      2724.545 6        37.977 6
G21  21167731.553 9 111237159.436 9     -1252.061 9        55.711 9  21167730.838 6         0.000 6      -975.632 6        37.977 6
G29  24291921.837 9 127654854.602 9     -3147.873 9        54.478 9  24291923.403 6         0.000 6     -2452.890 6        37.977 6
G27  22010983.368 9 115668471.263 9      2530.823 9        55.372 9  22010985.303 6         0.000 6      1972.071 6        37.977 6
G16  20498606.086 9 107720881.726 9       577.518 9        55.976 9  20498605.260 6         0.000 6       450.014 6        37.977 6
G26  20650720.599 9 108520246.946 9     -1484.682 9        55.875 9  20650723.414 6         0.000 6     -1156.895 6        37.977 6
G20  21950562.231 9 115350949.919 9      2539.812 9        55.313 9  21950562.556 6         0.000 6      1979.075 6        37.977 6
> 2019 07 03 12 00 47.0000000  0  8       0.000000000000
G07  25352182.642 9 133226572.845 9      2231.096 9        54.130 9  25352183.315 6         0.000 6      1738.517 6        37.977 6
G10  23817861.099 9 125163650.053 9      3496.360 9        54.666 9  23817864.834 6         0.000 6      2724.439 6        37.977 6
G21  21167969.848 9 111238411.681 9     -1252.424 9        55.710 9  21167969.133 6         0.000 6      -975.915 6        37.977 6
G29  24292520.866 9 127658002.511 9     -3147.970 9        54.477 9  24292522.433 6         0.000 6     -2452.966 6        37.977 6
G27  22010501.792 9 115665940.566 9      2530.588 9        55.372 9  22010503.727 6         0.000 6      1971.887 6        37.977 6
G16  20498496.249 9 107720304.526 9       576.893 9        55.976 9  20498495.422 6         0.000 6       449.527 6        37.977 6
G26  20651003.181 9 108521731.921 9     -1485.267 9        55.875 9  20651005.996 6         0.000 6     -1157.351 6        37.977 6
G20  21950078.962 9 115348410.330 9      2539.372 9        55.313 9  21950079.287 6         0.000 6      1978.733 6        37.977 6
> 2019 07 03 12 00 48.0000000  0  8       0.000000000000
G07  25351758.122 9 133224341.981 9      2230.640 9        54.130 9  25351758.794 6         0.000 6      1738.162 6        37.977 6
G10  23817195.777 9 125160153.771 9      3496.225 9        54.667 9  23817199.511 6         0.000 6      2724.334 6        37.977 6
G21  21168208.210 9 111239664.285 9     -1252.786 9        55.710 9  21168207.495 6         0.000 6      -976.197 6        37.977 6
G29  24293119.914 9 127661150.517 9     -3148.061 9        54.477 9  24293121.481 6         0.000 6     -2453.037 6        37.977 6
G27  22010020.260 9 115663410.101 9      2530.348 9        55.372 9  22010022.195 6         0.000 6      1971.701 6        37.977 6
G16  20498386.529 9 107719727.946 9       576.267 9        55.976 9  20498385.702 6         0.000 6       449.039 6        37.977 6
G26  20651285.873 9 108523217.479 9     -1485.852 9        55.874 9  20651288.689 6         0.000 6     -1157.807 6        37.977 6
G20  21949595.777 9 115345871.181 9      2538.935 9        55.313 9  21949596.102 6         0.000 6      1978.392 6        37.977 6
> 2019 07 03 12 00 49.0000000  0  8       0.000000000000
G07  25351333.688 9 133222111.571 9      2230.183 9        54.130 9  25351334.361 6         0.000 6      1737.806 6        37.977 6
G10  23816530.481 9 125156657.628 9      3496.091 9        54.667 9  23816534.214 6         0.000 6      2724.229 6        37.977 6
G21  21168446.642 9 111240917.253 9     -1253.147 9        55.710 9  21168445.928 6         0.000 6      -976.478 6        37.977 6
G29  24293718.979 9 127664298.614 9     -3148.153 9        54.477 9  24293720.546 6         0.000 6     -2453.109 6        37.977 6
G27  22009538.774 9 115660879.877 9      2530.109 9        55.372 9  22009540.709 6         0.000 6      1971.514 6        37.977 6
G16  20498276.929 9 107719151.996 9       575.641 9        55.976 9  20498276.103 6         0.000 6       448.551 6        37.977 6
G26  20651568.678 9 108524703.626 9     -1486.437 9        55.874 9  20651571.493 6         0.000 6     -1158.263 6        37.977 6
G20  21949112.677 9 115343332.473 9      2538.498 9        55.314 9  21949113.001 6         0.000 6      1978.052 6        37.977 6
> 2019 07 03 12 00 50.0000000  0  8       0.000000000000
G07  25350909.342 9 133219881.620 9      2229.727 9        54.130 9  25350910.014 6         0.000 6      1737.450 6        37.977 6
G10  23815865.209 9 125153161.615 9      3495.957 9        54.667 9  23815868.942 6         0.000 6      2724.125 6        37.977 6
G21  21168685.143 9 111242170.580 9     -1253.508 9        55.710 9  21168684.428 6         0.000 6      -976.760 6        37.977 6
G29  24294318.061 9 127667446.803 9     -3148.245 9        54.477 9  24294319.629 6         0.000 6     -2453.180 6        37.977 6
G27  22009057.333 9 115658349.890 9      2529.870 9        55.373 9  22009059.267 6         0.000 6      1971.328 6        37.977 6
G16  20498167.448 9 107718576.668 9       575.014 9        55.976 9  20498166.621 6         0.000 6       448.063 6        37.977 6
G26  20651851.593 9 108526190.353 9     -1487.022 9        55.874 9  20651854.409 6         0.000 6     -1158.719 6        37.977 6
G20  21948629.658 9 115340794.198 9      2538.061 9        55.314 9  21948629.982 6         0.000 6      1977.711 6        37.977 6
> 2019 07 03 12 00 51.0000000  0  8       0.000000000000
G07  25350485.084 9 133217652.132 9      2229.270 9        54.130 9  25350485.756 6         0.000 6      1737.094 6        37.977 6
G10  23815199.963 9 125149665.732 9      3495.822 9        54.667 9  23815203.695 6         0.000 6      2724.020 6        37.977 6
G21  21168923.712 9 111243424.270 9     -1253.869 9        55.710 9  21168922.997 6         0.000 6      -977.041 6        37.977 6
G29  24294917.160 9 127670595.079 9     -3148.336 9        54.477 9  24294918.729 6         0.000 6     -2453.252 6        37.977 6
G27  22008575.939 9 115655820.149 9      2529.631 9        55.373 9  22008577.873 6         0.000 6      1971.142 6        37.977 6
G16  20498058.087 9 107718001.972 9       574.388 9        55.976 9  20498057.260 6         0.000 6       447.575 6        37.977 6
G26  20652134.620 9 108527677.668 9     -1487.606 9        55.874 9  20652137.436 6         0.000 6     -1159.174 6        37.977 6
G20  21948146.722 9 115338256.358 9      2537.624 9        55.314 9  21948147.046 6         0.000 6      1977.370 6        37.977 6
> 2019 07 03 12 00 52.0000000  0  8       0.000000000000
G07  25350060.911 9 133215423.094 9      2228.813 9        54.130 9  25350061.583 6         0.000 6      1736.738 6        37.977 6
G10  23814534.743 9 125146169.988 9      3495.687 9        54.667 9  23814538.475 6         0.000 6      2723.915 6        37.977 6
G21  21169162.350 9 111244678.319 9     -1254.230 9        55.710 9  21169161.635 6         0.000 6      -977.322 6        37.977 6
G29  24295516.277 9 127673743.450 9     -3148.428 9        54.476 9  24295517.847 6         0.000 6     -2453.323 6        37.977 6
G27  22008094.589 9 115653290.641 9      2529.391 9        55.373 9  22008096.523 6         0.000 6      1970.955 6        37.977 6
G16  20497948.844 9 107717427.897 9       573.762 9        55.976 9  20497948.018 6         0.000 6       447.087 6        37.977 6
G26  20652417.758 9 108529165.565 9     -1488.191 9        55.874 9  20652420.574 6         0.000 6     -1159.630 6        37.977 6
G20  21947663.870 9 115335718.957 9      2537.186 9        55.314 9  21947664.194 6         0.000 6      1977.030 6        37.977 6
> 2019 07 03 12 00 53.0000000  0  8       0.000000000000
G07  25349636.826 9 133213194.513 9      2228.356 9        54.131 9  25349637.497 6         0.000 6      1736.382 6        37.977 6
G10  23813869.549 9 125142674.379 9      3495.553 9        54.668 9  23813873.280 6         0.000 6      2723.810 6        37.977 6
G21  21169401.056 9 111245932.729 9     -1254.591 9        55.710 9  21169400.341 6         0.000 6      -977.604 6        37.977 6
G29  24296115.412 9 127676891.914 9     -3148.519 9        54.476 9  24296116.982 6         0.000 6     -2453.394 6        37.977 6
G27  22007613.284 9 115650761.372 9      2529.152 9        55.373 9  22007615.218 6         0.000 6      1970.769 6        37.977 6
G16  20497839.721 9 107716854.449 9       573.135 9        55.976 9  20497838.894 6         0.000 6       446.599 6        37.977 6
G26  20652701.007 9 108530654.047 9     -1488.776 9        55.874 9  20652703.823 6         0.000 6     -1160.086 6        37.977 6
G20  21947181.101 9 115333181.994 9      2536.749 9        55.314 9  21947181.424 6         0.000 6      1976.689 6        37.977 6
> 2019 07 03 12 00 54.0000000  0  8       0.000000000000
G07  25349212.827 9 133210966.387 9      2227.899 9        54.131 9  25349213.498 6         0.000 6      1736.026 6        37.977 6
G10  23813204.381 9 125139178.909 9      3495.418 9        54.668 9  23813208.111 6         0.000 6      2723.705 6        37.977 6
G21  21169639.832 9 111247187.502 9     -1254.952 9        55.710 9  21169639.117 6         0.000 6      -977.885 6        37.977 6
G29  24296714.564 9 127680040.469 9     -3148.611 9        54.476 9  24296716.135 6         0.000 6     -2453.466 6        37.977 6
G27  22007132.026 9 115648232.344 9      2528.913 9        55.373 9  22007133.960 6         0.000 6      1970.582 6        37.977 6
G16  20497730.717 9 107716281.630 9       572.509 9        55.976 9  20497729.890 6         0.000 6       446.111 6        37.977 6
G26  20652984.368 9 108532143.118 9     -1489.361 9        55.874 9  20652987.184 6         0.000 6     -1160.541 6        37.977 6
G20  21946698.416 9 115330645.473 9      2536.312 9        55.315 9  21946698.739 6         0.000 6      1976.348 6        37.977 6
> 2019 07 03 12 00 55.0000000  0  8       0.000000000000
G07  25348788.881 9 133208738.540 9      2229.001 9        54.131 9  25348789.552 6         0.000 6      1736.885 6        37.977 6
G10  23812539.258 9 125135683.673 9      3494.352 9        54.668 9  23812542.987 6         0.000 6      2722.874 6        37.977 6
G21  21169878.711 9 111248442.821 9     -1256.807 9        55.710 9  21169877.996 6         0.000 6      -979.330 6        37.977 6
G29  24297313.832 9 127683189.634 9     -3152.956 9        54.476 9  24297315.403 6         0.000 6     -2456.852 6        37.977 6
G27  22006650.739 9 115645703.169 9      2531.872 9        55.373 9  22006652.673 6         0.000 6      1972.888 6        37.977 6
G16  20497621.797 9 107715709.251 9       573.415 9        55.976 9  20497620.970 6         0.000 6       446.817 6        37.977 6
G26  20653267.825 9 108533632.695 9     -1489.343 9        55.874 9  20653270.641 6         0.000 6     -1160.528 6        37.977 6
G20  21946215.856 9 115328109.604 9      2534.030 9        55.315 9  21946216.178 6         0.000 6      1974.570 6        37.977 6
> 2019 07 03 12 00 56.0000000  0  8       0.000000000000
G07  25348364.575 9 133206508.804 9      2229.101 9        54.131 9  25348365.246 6         0.000 6      1736.963 6        37.977 6
G10  23811874.299 9 125132189.303 9      3495.694 9        54.668 9  23811878.028 6         0.000 6      2723.920 6        37.977 6
G21  21170118.435 9 111249702.577 9     -1262.645 9        55.710 9  21170117.720 6         0.000 6      -983.880 6        37.977 6
G29  24297915.187 9 127686349.766 9     -3166.644 9        54.476 9  24297916.759 6         0.000 6     -2467.517 6        37.977 6
G27  22006168.014 9 115643166.435 9      2540.825 9        55.374 9  22006169.948 6         0.000 6      1979.864 6        37.977 6
G16  20497512.270 9 107715133.685 9       577.395 9        55.976 9  20497511.443 6         0.000 6       449.918 6        37.977 6
G26  20653550.953 9 108535120.536 9     -1485.906 9        55.873 9  20653553.769 6         0.000 6     -1157.849 6        37.977 6
G20  21945734.063 9 115325577.773 9      2530.702 9        55.315 9  21945734.386 6         0.000 6      1971.977 6        37.977 6
> 2019 07 03 12 00 57.0000000  0  8       0.000000000000
G07  25347941.121 9 133204283.541 9      2219.180 9        54.131 9  25347941.792 6         0.000 6      1729.232 6        37.977 6
G10  23811208.269 9 125128689.301 9      3506.459 9        54.669 9  23811211.997 6         0.000 6      2732.308 6        37.977 6
G21  21170359.245 9 111250968.043 9     -1268.304 9        55.709 9  21170358.531 6         0.000 6      -988.289 6        37.977 6
G29  24298518.750 9 127689521.502 9     -3175.977 9        54.475 9  24298520.323 6         0.000 6     -2474.790 6        37.977 6
G27  22005684.052 9 115640623.197 9      2544.541 9        55.374 9  22005685.985 6         0.000 6      1982.760 6        37.977 6
G16  20497402.177 9 107714555.140 9       579.242 9        55.976 9  20497401.350 6         0.000 6       451.357 6        37.977 6
G26  20653833.138 9 108536603.426 9     -1479.100 9        55.873 9  20653835.954 6         0.000 6     -1152.546 6        37.977 6
G20  21945252.241 9 115323045.781 9      2534.967 9        55.315 9  21945252.563 6         0.000 6      1975.300 6        37.977 6
> 2019 07 03 12 00 58.0000000  0  8       0.000000000000
G07  25347519.495 9 133202067.882 9      2213.598 9        54.131 9  25347520.165 6         0.000 6      1724.882 6        37.977 6
G10  23810540.378 9 125125179.523 9      3511.592 9        54.669 9  23810544.106 6         0.000 6      2736.308 6        37.977 6
G21  21170600.777 9 111252237.302 9     -1269.807 9        55.709 9  21170600.063 6         0.000 6      -989.460 6        37.977 6
G29  24299123.241 9 127692698.114 9     -3176.832 9        54.475 9  24299124.815 6         0.000 6     -2475.456 6        37.977 6
G27  22005199.935 9 115638079.147 9      2543.610 9        55.374 9  22005201.868 6         0.000 6      1982.035 6        37.977 6
G16  20497292.014 9 107713976.229 9       578.531 9        55.977 9  20497291.187 6         0.000 6       450.803 6        37.977 6
G26  20654114.324 9 108538081.070 9     -1477.015 9        55.873 9  20654117.140 6         0.000 6     -1150.922 6        37.977 6
G20  21944769.492 9 115320508.923 9      2537.855 9        55.315 9  21944769.813 6         0.000 6      1977.551 6        37.977 6
> 2019 07 03 12 00 59.0000000  0  8       0.000000000000
G07  25347098.399 9 133199855.011 9      2212.412 9        54.131 9  25347099.069 6         0.000 6      1723.959 6        37.977 6
G10  23809872.062 9 125121667.511 9      3512.192 9        54.669 9  23809875.789 6         0.000 6      2736.775 6        37.977 6
G21  21170842.464 9 111253507.376 9     -1270.292 9        55.709 9  21170841.750 6         0.000 6      -989.838 6        37.977 6
G29  24299727.781 9 127695874.983 9     -3176.918 9        54.475 9  24299729.355 6         0.000 6     -2475.523 6        37.977 6
G27  22004715.947 9 115635535.778 9      2543.193 9        55.374 9  22004717.880 6         0.000 6      1981.709 6        37.977 6
G16  20497181.988 9 107713398.043 9       577.860 9        55.977 9  20497181.162 6         0.000 6       450.281 6        37.977 6
G26  20654395.401 9 108539558.139 9     -1477.246 9        55.873 9  20654398.218 6         0.000 6     -1151.101 6        37.977 6
G20  21944286.532 9 115317970.959 9      2537.909 9        55.315 9  21944286.854 6         0.000 6      1977.593 6        37.977 6
> 2019 07 03 12 01  0.0000000  0  8       0.000000000000
G07  25346677.442 9 133197642.873 9      2211.891 9        54.132 9  25346678.112 6         0.000 6      1723.552 6        37.977 6
G10  23809203.719 9 125118155.352 9      3512.122 9        54.669 9  23809207.445 6         0.000 6      2736.721 6        37.977 6
G21  21171084.229 9 111254777.856 9     -1270.673 9        55.709 9  21171083.514 6         0.000 6      -990.135 6        37.977 6
G29  24300332.337 9 127699051.935 9     -3177.004 9        54.475 9  24300333.912 6         0.000 6     -2475.590 6        37.977 6
G27  22004232.018 9 115632992.719 9      2542.927 9        55.374 9  22004233.951 6         0.000 6      1981.502 6        37.977 6
G16  20497072.084 9 107712820.493 9       577.232 9        55.977 9  20497071.257 6         0.000 6       449.791 6        37.977 6
G26  20654676.562 9 108541035.647 9     -1477.793 9        55.873 9  20654679.378 6         0.000 6     -1151.528 6        37.977 6
G20  21943803.620 9 115315433.243 9      2537.512 9        55.316 9  21943803.941 6         0.000 6      1977.283 6        37.977 6
> 2019 07 03 12 01  1.0000000  0  8       0.000000000000
G07  25346256.577 9 133195431.217 9      2211.434 9        54.132 9  25346257.247 6         0.000 6      1723.196 6        37.977 6
G10  23808535.396 9 125114643.304 9      3511.988 9        54.670 9  23808539.122 6         0.000 6      2736.617 6        37.977 6
G21  21171326.065 9 111256048.716 9     -1271.046 9        55.709 9  21171325.351 6         0.000 6      -990.425 6        37.977 6
G29  24300936.909 9 127702228.973 9     -3177.093 9        54.474 9  24300938.485 6         0.000 6     -2475.659 6        37.977 6
G27  22003748.139 9 115630449.920 9      2542.678 9        55.375 9  22003750.072 6         0.000 6      1981.308 6        37.977 6
G16  20496962.300 9 107712243.573 9       576.608 9        55.977 9  20496961.473 6         0.000 6       449.305 6        37.977 6
G26  20654957.831 9 108542513.726 9     -1478.370 9        55.873 9  20654960.648 6         0.000 6     -1151.977 6        37.977 6
G20  21943320.789 9 115312895.954 9      2537.071 9        55.316 9  21943321.110 6         0.000 6      1976.939 6        37.977 6
> 2019 07 03 12 01  2.0000000  0  8       0.000000000000
G07  25345835.798 9 133193220.012 9      2210.983 9        54.132 9  25345836.468 6         0.000 6      1722.845 6        37.977 6
G10  23807867.100 9 125111131.397 9      3511.848 9        54.670 9  23807870.825 6         0.000 6      2736.508 6        37.977 6
G21  21171567.973 9 111257319.946 9     -1271.416 9        55.709 9  21171567.258 6         0.000 6      -990.714 6        37.977 6
G29  24301541.498 9 127705406.100 9     -3177.181 9        54.474 9  24301543.074 6         0.000 6     -2475.728 6        37.977 6
G27  22003264.307 9 115627907.369 9      2542.431 9        55.375 9  22003266.240 6         0.000 6      1981.116 6        37.977 6
G16  20496852.634 9 107711667.276 9       575.986 9        55.977 9  20496851.808 6         0.000 6       448.820 6        37.977 6
G26  20655239.211 9 108543992.383 9     -1478.949 9        55.873 9  20655242.028 6         0.000 6     -1152.428 6        37.977 6
G20  21942838.043 9 115310359.111 9      2536.625 9        55.316 9  21942838.364 6         0.000 6      1976.592 6        37.977 6
> 2019 07 03 12 01  3.0000000  0  8       0.000000000000
G07  25345415.105 9 133191009.257 9      2210.533 9        54.132 9  25345415.774 6         0.000 6      1722.494 6        37.977 6
G10  23807198.831 9 125107619.627 9      3511.708 9        54.670 9  23807202.555 6         0.000 6      2736.399 6        37.977 6
G21  21171809.949 9 111258591.539 9     -1271.786 9        55.709 9  21171809.235 6         0.000 6      -991.002 6        37.977 6
G29  24302146.104 9 127708583.313 9     -3177.269 9        54.474 9  24302147.680 6         0.000 6     -2475.796 6        37.977 6
G27  22002780.521 9 115625365.059 9      2542.184 9        55.375 9  22002782.453 6         0.000 6      1980.923 6        37.977 6
G16  20496743.086 9 107711091.594 9       575.363 9        55.977 9  20496742.259 6         0.000 6       448.335 6        37.977 6
G26  20655520.699 9 108545471.614 9     -1479.528 9        55.873 9  20655523.516 6         0.000 6     -1152.880 6        37.977 6
G20  21942355.381 9 115307822.708 9      2536.180 9        55.316 9  21942355.701 6         0.000 6      1976.245 6        37.977 6
> 2019 07 03 12 01  4.0000000  0  8       0.000000000000
G07  25344994.497 9 133188798.953 9      2210.082 9        54.132 9  25344995.166 6         0.000 6      1722.143 6        37.977 6
G10  23806530.588 9 125104107.999 9      3511.568 9        54.670 9  23806534.312 6         0.000 6      2736.289 6        37.977 6
G21  21172051.997 9 111259863.510 9     -1272.156 9        55.709 9  21172051.283 6         0.000 6      -991.291 6        37.977 6
G29  24302750.726 9 127711760.616 9     -3177.357 9        54.474 9  24302752.304 6         0.000 6     -2475.865 6        37.977 6
G27  22002296.783 9 115622823.001 9      2541.937 9        55.375 9  22002298.715 6         0.000 6      1980.730 6        37.977 6
G16  20496633.657 9 107710516.542 9       574.741 9        55.977 9  20496632.830 6         0.000 6       447.850 6        37.977 6
G26  20655802.299 9 108546951.430 9     -1480.107 9        55.873 9  20655805.116 6         0.000 6     -1153.331 6        37.977 6
G20  21941872.804 9 115305286.756 9      2535.734 9        55.316 9  21941873.124 6         0.000 6      1975.898 6        37.977 6
> 2019 07 03 12 01  5.0000000  0  8       0.000000000000
G07  25344573.976 9 133186589.103 9      2209.628 9        54.132 9  25344574.645 6         0.000 6      1721.789 6        37.977 6
G10  23805862.372 9 125100596.508 9      3511.432 9        54.671 9  23805866.095 6         0.000 6      2736.183 6        37.977 6
G21  21172294.115 9 111261135.848 9     -1272.524 9        55.709 9  21172293.401 6         0.000 6      -991.577 6        37.977 6
G29  24303355.366 9 127714938.006 9     -3177.445 9        54.474 9  24303356.943 6         0.000 6     -2475.933 6        37.977 6
G27  22001813.092 9 115620281.189 9      2541.691 9        55.375 9  22001815.024 6         0.000 6      1980.539 6        37.977 6
G16  20496524.346 9 107709942.110 9       574.121 9        55.977 9  20496523.519 6         0.000 6       447.367 6        37.977 6
G26  20656084.009 9 108548431.820 9     -1480.682 9        55.872 9  20656086.826 6         0.000 6     -1153.778 6        37.977 6
G20  21941390.312 9 115302751.245 9      2535.293 9        55.317 9  21941390.632 6         0.000 6      1975.554 6        37.977 6
> 2019 07 03 12 01  6.0000000  0  8       0.000000000000
G07  25344153.540 9 133184379.698 9      2209.177 9        54.132 9  25344154.208 6         0.000 6      1721.438 6        37.977 6
G10  23805194.183 9 125097085.164 9      3511.291 9        54.671 9  23805197.906 6         0.000 6      2736.074 6        37.977 6
G21  21172536.304 9 111262408.560 9     -1272.894 9        55.709 9  21172535.590 6         0.000 6      -991.866 6        37.977 6
G29  24303960.023 9 127718115.489 9     -3177.533 9        54.473 9  24303961.601 6         0.000 6     -2476.002 6        37.977 6
G27  22001329.448 9 115617739.623 9      2541.444 9        55.376 9  22001331.379 6         0.000 6      1980.347 6        37.977 6
G16  20496415.154 9 107709368.301 9       573.499 9        55.977 9  20496414.327 6         0.000 6       446.882 6        37.977 6
G26  20656365.829 9 108549912.795 9     -1481.261 9        55.872 9  20656368.646 6         0.000 6     -1154.230 6        37.977 6
G20  21940907.905 9 115300216.187 9      2534.847 9        55.317 9  21940908.225 6         0.000 6      1975.207 6        37.977 6
> 2019 07 03 12 01  7.0000000  0  8       0.000000000000
G07  25343733.169 9 133182170.636 9      2209.325 9        54.133 9  25343733.837 6         0.000 6      1721.553 6        37.977 6
G10  23804526.042 9 125093574.071 9      3510.547 9        54.671 9  23804529.764 6         0.000 6      2735.494 6        37.977 6
G21  21172778.560 9 111263681.622 9     -1273.169 9        55.708 9  21172777.846 6         0.000 6      -992.080 6        37.977 6
G29  24304564.695 9 127721293.054 9     -3177.617 9        54.473 9  24304566.274 6         0.000 6     -2476.068 6        37.977 6
G27  22000845.846 9 115615198.283 9      2541.331 9        55.376 9  22000847.777 6         0.000 6      1980.259 6        37.977 6
G16  20496306.079 9 107708795.110 9       572.911 9        55.977 9  20496305.253 6         0.000 6       446.424 6        37.977 6
G26  20656647.770 9 108551394.401 9     -1482.128 9        55.872 9  20656650.587 6         0.000 6     -1154.905 6        37.977 6
G20  21940425.597 9 115297681.646 9      2533.995 9        55.317 9  21940425.917 6         0.000 6      1974.543 6        37.977 6
> 2019 07 03 12 01  8.0000000  0  8       0.000000000000
G07  25343313.911 9 133179967.429 9      2195.598 9        54.133 9  25343314.579 6         0.000 6      1710.856 6        37.977 6
G10  23803856.922 9 125090057.831 9      3523.275 9        54.671 9  23803860.643 6         0.000 6      2745.412 6        37.977 6
G21  21173020.975 9 111264955.523 9     -1274.374 9        55.708 9  21173020.261 6         0.000 6      -993.019 6        37.977 6
G29  24305169.199 9 127724469.733 9     -3174.536 9        54.473 9  24305170.779 6         0.000 6     -2473.667 6        37.977 6
G27  22000362.654 9 115612659.093 9      2535.886 9        55.376 9  22000364.585 6         0.000 6      1976.016 6        37.977 6
G16  20496197.252 9 107708223.220 9       570.358 9        55.977 9  20496196.425 6         0.000 6       444.434 6        37.977 6
G26  20656929.391 9 108552874.328 9     -1477.407 9        55.872 9  20656932.208 6         0.000 6     -1151.227 6        37.977 6
G20  21939942.645 9 115295143.717 9      2543.111 9        55.317 9  21939942.964 6         0.000 6      1981.646 6        37.977 6
> 2019 07 03 12 01  9.0000000  0  8       0.000000000000
G07  25342897.592 9 133177779.661 9      2180.135 9        54.133 9  25342898.260 6         0.000 6      1698.807 6        37.977 6
G10  23803185.156 9 125086527.686 9      3536.664 9        54.672 9  23803188.876 6         0.000 6      2755.844 6        37.977 6
G21  21173263.388 9 111266229.411 9     -1272.891 9        55.708 9  21173262.674 6         0.000 6      -991.864 6        37.977 6
G29  24305772.426 9 127727639.702 9     -3164.235 9        54.473 9  24305774.006 6         0.000 6     -2465.640 6        37.977 6
G27  21999881.032 9 115610128.158 9      2525.240 9        55.376 9  21999882.963 6         0.000 6      1967.720 6        37.977 6
G16  20496089.163 9 107707655.207 9       565.275 9        55.977 9  20496088.336 6         0.000 6       440.474 6        37.977 6
G26  20657210.176 9 108554349.860 9     -1474.133 9        55.872 9  20657212.993 6         0.000 6     -1148.675 6        37.977 6
G20  21939457.609 9 115292594.841 9      2554.734 9        55.317 9  21939457.928 6         0.000 6      1990.703 6        37.977 6
> 2019 07 03 12 01 10.0000000  0  8       0.000000000000
G07  25342484.036 9 133175606.409 9      2169.690 9        54.133 9  25342484.703 6         0.000 6      1690.669 6        37.977 6
G10  23802511.126 9 125082985.645 9      3544.591 9        54.672 9  23802514.846 6         0.000 6      2762.022 6        37.977 6
G21  21173505.213 9 111267500.210 9     -1269.480 9        55.708 9  21173504.500 6         0.000 6      -989.205 6        37.977 6
G29  24306373.016 9 127730795.817 9     -3151.201 9        54.473 9  24306374.598 6         0.000 6     -2455.484 6        37.977 6
G27  21999401.845 9 115607610.016 9      2513.943 9        55.376 9  21999403.776 6         0.000 6      1958.917 6        37.977 6
G16  20495982.258 9 107707093.415 9       559.602 9        55.977 9  20495981.431 6         0.000 6       436.053 6        37.977 6
G26  20657490.638 9 108555823.699 9     -1474.107 9        55.872 9  20657493.456 6         0.000 6     -1148.655 6        37.977 6
G20  21938970.360 9 115290034.335 9      2563.462 9        55.318 9  21938970.679 6         0.000 6      1997.504 6        37.977 6
> 2019 07 03 12 01 11.0000000  0  8       0.000000000000
G07  25342071.332 9 133173437.641 9      2168.210 9        54.133 9  25342071.999 6         0.000 6      1689.515 6        37.977 6
G10  23801836.533 9 125079440.648 9      3545.168 9        54.672 9  23801840.252 6         0.000 6      2762.472 6        37.977 6
G21  21173746.736 9 111268769.417 9     -1269.160 9        55.708 9  21173746.022 6         0.000 6      -988.956 6        37.977 6
G29  24306972.415 9 127733945.668 9     -3149.205 9        54.472 9  24306973.997 6         0.000 6     -2453.929 6        37.977 6
G27  21998923.686 9 115605097.277 9      2512.078 9        55.377 9  21998925.617 6         0.000 6      1957.464 6        37.977 6
G16  20495875.924 9 107706534.627 9       558.225 9        55.977 9  20495875.097 6         0.000 6       434.981 6        37.977 6
G26  20657771.226 9 108557298.196 9     -1474.845 9        55.872 9  20657774.043 6         0.000 6     -1149.230 6        37.977 6
G20  21938482.455 9 115287470.380 9      2564.090 9        55.318 9  21938482.773 6         0.000 6      1997.993 6        37.977 6
> 2019 07 03 12 01 12.0000000  0  8       0.000000000000
G07  25341658.791 9 133171269.726 9      2167.660 9        54.133 9  25341659.458 6         0.000 6      1689.087 6        37.977 6
G10  23801161.915 9 125075895.518 9      3545.090 9        54.672 9  23801165.634 6         0.000 6      2762.410 6        37.977 6
G21  21173988.273 9 111270038.705 9     -1269.457 9        55.708 9  21173987.559 6         0.000 6      -989.187 6        37.977 6
G29  24307571.667 9 127737094.748 9     -3149.070 9        54.472 9  24307573.249 6         0.000 6     -2453.823 6        37.977 6
G27  21998445.699 9 115602585.440 9      2511.666 9        55.377 9  21998447.630 6         0.000 6      1957.143 6        37.977 6
G16  20495769.766 9 107705976.762 9       557.533 9        55.977 9  20495768.939 6         0.000 6       434.441 6        37.977 6
G26  20658051.936 9 108558773.338 9     -1475.437 9        55.872 9  20658054.754 6         0.000 6     -1149.692 6        37.977 6
G20  21937994.553 9 115284906.445 9      2563.743 9        55.318 9  21937994.871 6         0.000 6      1997.723 6        37.977 6
> 2019 07 03 12 01 13.0000000  0  8       0.000000000000
G07  25341246.344 9 133169102.305 9      2167.199 9        54.133 9  25341247.011 6         0.000 6      1688.727 6        37.977 6
G10  23800487.319 9 125072350.503 9      3544.952 9        54.673 9  23800491.037 6         0.000 6      2762.303 6        37.977 6
G21  21174229.877 9 111271308.339 9     -1269.821 9        55.708 9  21174229.163 6         0.000 6      -989.471 6        37.977 6
G29  24308170.920 9 127740243.833 9     -3149.131 9        54.472 9  24308172.503 6         0.000 6     -2453.871 6        37.977 6
G27  21997967.771 9 115600073.911 9      2511.404 9        55.377 9  21997969.701 6         0.000 6      1956.939 6        37.977 6
G16  20495663.730 9 107705419.540 9       556.912 9        55.977 9  20495662.903 6         0.000 6       433.957 6        37.977 6
G26  20658332.757 9 108560249.057 9     -1476.010 9        55.871 9  20658335.575 6         0.000 6     -1150.138 6        37.977 6
G20  21937506.730 9 115282342.922 9      2563.300 9        55.318 9  21937507.048 6         0.000 6      1997.378 6        37.977 6
> 2019 07 03 12 01 14.0000000  0  8       0.000000000000
G07  25340833.983 9 133166935.336 9      2166.742 9        54.134 9  25340834.649 6         0.000 6      1688.372 6        37.977 6
G10  23799812.751 9 125068805.634 9      3544.811 9        54.673 9  23799816.468 6         0.000 6      2762.193 6        37.977 6
G21  21174471.551 9 111272578.344 9     -1270.188 9        55.708 9  21174470.837 6         0.000 6      -989.757 6        37.977 6
G29  24308770.188 9 127743392.995 9     -3149.208 9        54.472 9  24308771.771 6         0.000 6     -2453.931 6        37.977 6
G27  21997489.890 9 115597562.632 9      2511.156 9        55.377 9  21997491.820 6         0.000 6      1956.745 6        37.977 6
G16  20495557.811 9 107704862.934 9       556.298 9        55.977 9  20495556.984 6         0.000 6       433.479 6        37.977 6
G26  20658613.686 9 108561725.350 9     -1476.579 9        55.871 9  20658616.504 6         0.000 6     -1150.582 6        37.977 6
G20  21937018.993 9 115279779.852 9      2562.852 9        55.318 9  21937019.311 6         0.000 6      1997.029 6        37.977 6
> 2019 07 03 12 01 15.0000000  0  8       0.000000000000
G07  25340421.708 9 133164768.824 9      2166.289 9        54.134 9  25340422.375 6         0.000 6      1688.018 6        37.977 6
G10  23799138.210 9 125065260.905 9      3544.668 9        54.673 9  23799141.926 6         0.000 6      2762.081 6        37.977 6
G21  21174713.295 9 111273848.716 9     -1270.558 9        55.708 9  21174712.581 6         0.000 6      -990.045 6        37.977 6
G29  24309369.470 9 127746542.233 9     -3149.290 9        54.471 9  24309371.054 6         0.000 6     -2453.995 6        37.977 6
G27  21997012.056 9 115595051.601 9      2510.911 9        55.377 9  21997013.986 6         0.000 6      1956.555 6        37.977 6
G16  20495452.010 9 107704306.943 9       555.685 9        55.977 9  20495451.183 6         0.000 6       433.002 6        37.977 6
G26  20658894.724 9 108563202.212 9     -1477.148 9        55.871 9  20658897.542 6         0.000 6     -1151.025 6        37.977 6
G20  21936531.342 9 115277217.230 9      2562.400 9        55.319 9  21936531.659 6         0.000 6      1996.677 6        37.977 6
> 2019 07 03 12 01 16.0000000  0  8       0.000000000000
G07  25340009.520 9 133162602.762 9      2165.836 9        54.134 9  25340010.186 6         0.000 6      1687.665 6        37.977 6
G10  23798463.696 9 125061716.321 9      3544.524 9        54.673 9  23798467.412 6         0.000 6      2761.970 6        37.977 6
G21  21174955.108 9 111275119.455 9     -1270.928 9        55.708 9  21174954.395 6         0.000 6      -990.334 6        37.977 6
G29  24309968.767 9 127749691.553 9     -3149.372 9        54.471 9  24309970.352 6         0.000 6     -2454.058 6        37.977 6
G27  21996534.268 9 115592540.812 9      2510.666 9        55.377 9  21996536.198 6         0.000 6      1956.364 6        37.977 6
G16  20495346.324 9 107703751.560 9       555.073 9        55.977 9  20495345.497 6         0.000 6       432.524 6        37.977 6
G26  20659175.870 9 108564679.641 9     -1477.717 9        55.871 9  20659178.688 6         0.000 6     -1151.468 6        37.977 6
G20  21936043.776 9 115274655.060 9      2561.948 9        55.319 9  21936044.093 6         0.000 6      1996.325 6        37.977 6
> 2019 07 03 12 01 17.0000000  0  8       0.000000000000
G07  25339597.419 9 133160437.159 9      2165.382 9        54.134 9  25339598.085 6         0.000 6      1687.312 6        37.977 6
G10  23797789.208 9 125058171.875 9      3544.381 9        54.674 9  23797792.923 6         0.000 6      2761.858 6        37.977 6
G21  21175196.993 9 111276390.564 9     -1271.298 9        55.707 9  21175196.279 6         0.000 6      -990.622 6        37.977 6
G29  24310568.081 9 127752840.955 9     -3149.454 9        54.471 9  24310569.666 6         0.000 6     -2454.122 6        37.977 6
G27  21996056.527 9 115590030.269 9      2510.421 9        55.378 9  21996058.457 6         0.000 6      1956.173 6        37.977 6
G16  20495240.754 9 107703196.790 9       554.460 9        55.977 9  20495239.927 6         0.000 6       432.047 6        37.977 6
G26  20659457.123 9 108566157.636 9     -1478.286 9        55.871 9  20659459.942 6         0.000 6     -1151.912 6        37.977 6
G20  21935556.296 9 115272093.338 9      2561.496 9        55.319 9  21935556.612 6         0.000 6      1995.972 6        37.977 6
> 2019 07 03 12 01 18.0000000  0  8       0.000000000000
G07  25339185.403 9 133158272.008 9      2164.928 9        54.134 9  25339186.069 6         0.000 6      1686.958 6        37.977 6
G10  23797114.749 9 125054627.576 9      3544.237 9        54.674 9  23797118.463 6         0.000 6      2761.746 6        37.977 6
G21  21175438.948 9 111277662.046 9     -1271.667 9        55.707 9  21175438.234 6         0.000 6      -990.910 6        37.977 6
G29  24311167.409 9 127755990.439 9     -3149.535 9        54.471 9  24311168.996 6         0.000 6     -2454.186 6        37.977 6
G27  21995578.833 9 115587519.973 9      2510.176 9        55.378 9  21995580.763 6         0.000 6      1955.982 6        37.977 6
G16  20495135.302 9 107702642.635 9       553.848 9        55.977 9  20495134.475 6         0.000 6       431.570 6        37.977 6
G26  20659738.486 9 108567636.204 9     -1478.855 9        55.871 9  20659741.304 6         0.000 6     -1152.355 6        37.977 6
G20  21935068.902 9 115269532.072 9      2561.044 9        55.319 9  21935069.219 6         0.000 6      1995.620 6        37.977 6
> 2019 07 03 12 01 19.0000000  0  8       0.000000000000
G07  25338773.474 9 133156107.310 9      2164.475 9        54.134 9  25338774.140 6         0.000 6      1686.605 6        37.977 6
G10  23796440.316 9 125051083.421 9      3544.094 9        54.674 9  23796444.030 6         0.000 6      2761.634 6        37.977 6
G21  21175680.973 9 111278933.897 9     -1272.037 9        55.707 9  21175680.260 6         0.000 6      -991.198 6        37.977 6
G29  24311766.754 9 127759140.005 9     -3149.617 9        54.471 9  24311768.341 6         0.000 6     -2454.250 6        37.977 6
G27  21995101.186 9 115585009.923 9      2509.931 9        55.378 9  21995103.115 6         0.000 6      1955.791 6        37.977 6
G16  20495029.967 9 107702089.094 9       553.235 9        55.978 9  20495029.140 6         0.000 6       431.092 6        37.977 6
G26  20660019.957 9 108569115.342 9     -1479.424 9        55.871 9  20660022.775 6         0.000 6     -1152.798 6        37.977 6
G20  21934581.595 9 115266971.258 9      2560.592 9        55.319 9  21934581.911 6         0.000 6      1995.268 6        37.977 6
> 2019 07 03 12 01 20.0000000  0  8       0.000000000000
G07  25338361.631 9 133153943.062 9      2164.021 9        54.134 9  25338362.296 6         0.000 6      1686.251 6        37.977 6
G10  23795765.912 9 125047539.412 9      3543.950 9        54.674 9  23795769.625 6         0.000 6      2761.522 6        37.977 6
G21  21175923.068 9 111280206.113 9     -1272.406 9        55.707 9  21175922.355 6         0.000 6      -991.486 6        37.977 6
G29  24312366.114 9 127762289.652 9     -3149.699 9        54.470 9  24312367.701 6         0.000 6     -2454.314 6        37.977 6
G27  21994623.585 9 115582500.114 9      2509.686 9        55.378 9  21994625.514 6         0.000 6      1955.600 6        37.977 6
G16  20494924.747 9 107701536.161 9       552.623 9        55.978 9  20494923.920 6         0.000 6       430.615 6        37.977 6
G26  20660301.535 9 108570595.046 9     -1479.993 9        55.871 9  20660304.354 6         0.000 6     -1153.242 6        37.977 6
G20  21934094.373 9 115264410.896 9      2560.140 9        55.319 9  21934094.689 6         0.000 6      1994.915 6        37.977 6
> 2019 07 03 12 01 21.0000000  0  8       0.000000000000
G07  25337949.875 9 133151779.271 9      2163.567 9        54.135 9  25337950.540 6         0.000 6      1685.897 6        37.977 6
G10  23795091.534 9 125043995.544 9      3543.806 9        54.675 9  23795095.247 6         0.000 6      2761.410 6        37.977 6
G21  21176165.234 9 111281478.704 9     -1272.776 9        55.707 9  21176164.521 6         0.000 6      -991.773 6        37.977 6
G29  24312965.489 9 127765439.382 9     -3149.781 9        54.470 9  24312967.077 6         0.000 6     -2454.377 6        37.977 6
G27  21994146.031 9 115579990.553 9      2509.441 9        55.378 9  21994147.960 6         0.000 6      1955.409 6        37.977 6
G16  20494819.645 9 107700983.845 9       552.010 9        55.978 9  20494818.818 6         0.000 6       430.138 6        37.977 6
G26  20660583.223 9 108572075.322 9     -1480.561 9        55.871 9  20660586.042 6         0.000 6     -1153.685 6        37.977 6
G20  21933607.238 9 115261850.986 9      2559.688 9        55.320 9  21933607.553 6         0.000 6      1994.563 6        37.977 6
> 2019 07 03 12 01 22.0000000  0  8       0.000000000000
G07  25337538.372 9 133149616.812 9      2160.461 9        54.135 9  25337539.037 6         0.000 6      1683.477 6        37.977 6
G10  23794417.091 9 125040451.334 9      3544.979 9        54.675 9  23794420.803 6         0.000 6      2762.324 6        37.977 6
G21  21176407.290 9 111282750.718 9     -1269.876 9        55.707 9  21176406.577 6         0.000 6      -989.514 6        37.977 6
G29  24313564.380 9 127768586.564 9     -3140.914 9        54.470 9  24313565.969 6         0.000 6     -2447.468 6        37.977 6
G27  21993668.894 9 115577483.185 9      2502.644 9        55.379 9  21993670.823 6         0.000 6      1950.113 6        37.977 6
G16  20494714.838 9 107700433.078 9       548.226 9        55.978 9  20494714.011 6         0.000 6       427.189 6        37.977 6
G26  20660865.097 9 108573556.578 9     -1482.698 9        55.870 9  20660867.916 6         0.000 6     -1155.350 6        37.977 6
G20  21933119.983 9 115259290.449 9      2562.683 9        55.320 9  21933120.298 6         0.000 6      1996.897 6        37.977 6
> 2019 07 03 12 01 23.0000000  0  8       0.000000000000
G07  25337127.229 9 133147456.249 9      2162.044 9        54.135 9  25337127.894 6         0.000 6      1684.711 6        37.977 6
G10  23793742.771 9 125036907.770 9      3540.925 9        54.675 9  23793746.483 6         0.000 6      2759.165 6        37.977 6
G21  21176648.448 9 111284018.009 9     -1264.831 9        55.707 9  21176647.735 6         0.000 6      -985.583 6        37.977 6
G29  24314160.833 9 127771720.933 9     -3128.701 9        54.470 9  24314162.422 6         0.000 6     -2437.951 6        37.977 6
G27  21993193.496 9 115574984.954 9      2494.716 9        55.379 9  21993195.425 6         0.000 6      1943.936 6        37.977 6
G16  20494610.990 9 107699887.353 9       543.604 9        55.978 9  20494610.163 6         0.000 6       423.588 6        37.977 6
G26  20661147.728 9 108575041.810 9     -1488.146 9        55.870 9  20661150.546 6         0.000 6     -1159.594 6        37.977 6
G20  21932632.175 9 115256727.008 9      2563.129 9        55.320 9  21932632.490 6         0.000 6      1997.244 6        37.977 6
> 2019 07 03 12 01 24.0000000  0  8       0.000000000000
G07  25336714.844 9 133145289.150 9      2172.109 9        54.135 9  25336715.508 6         0.000 6      1692.554 6        37.977 6
G10  23793070.100 9 125033372.866 9      3529.237 9        54.675 9  23793073.810 6         0.000 6      2750.058 6        37.977 6
G21  21176888.682 9 111285280.449 9     -1260.830 9        55.707 9  21176887.969 6         0.000 6      -982.465 6        37.977 6
G29  24314755.426 9 127774845.531 9     -3122.390 9        54.470 9  24314757.016 6         0.000 6     -2433.034 6        37.977 6
G27  21992719.078 9 115572491.873 9      2492.685 9        55.379 9  21992721.006 6         0.000 6      1942.353 6        37.977 6
G16  20494507.805 9 107699345.116 9       541.499 9        55.978 9  20494506.978 6         0.000 6       421.948 6        37.977 6
G26  20661431.697 9 108576534.078 9     -1495.772 9        55.870 9  20661434.516 6         0.000 6     -1165.537 6        37.977 6
G20  21932145.004 9 115254166.910 9      2556.765 9        55.320 9  21932145.319 6         0.000 6      1992.286 6        37.977 6
> 2019 07 03 12 01 25.0000000  0  8       0.000000000000
G07  25336301.191 9 133143115.396 9      2174.553 9        54.135 9  25336301.855 6         0.000 6      1694.458 6        37.977 6
G10  23792398.885 9 125029845.621 9      3526.150 9        54.676 9  23792402.595 6         0.000 6      2747.652 6        37.977 6
G21  21177128.575 9 111286541.090 9     -1260.642 9        55.707 9  21177127.861 6         0.000 6      -982.318 6        37.977 6
G29  24315349.577 9 127777967.804 9     -3122.296 9        54.469 9  24315351.167 6         0.000 6     -2432.960 6        37.977 6
G27  21992244.694 9 115569998.972 9      2493.004 9        55.379 9  21992246.622 6         0.000 6      1942.601 6        37.977 6
G16  20494404.807 9 107698803.858 9       541.003 9        55.978 9  20494403.980 6         0.000 6       421.561 6        37.977 6
G26  20661716.568 9 108578031.081 9     -1497.791 9        55.870 9  20661719.387 6         0.000 6     -1167.111 6        37.977 6
G20  21931658.747 9 115251611.614 9      2554.393 9        55.320 9  21931659.061 6         0.000 6      1990.437 6        37.977 6
> 2019 07 03 12 01 26.0000000  0  8       0.000000000000
G07  25335887.386 9 133140940.836 9      2174.446 9        54.135 9  25335888.050 6         0.000 6      1694.375 6        37.977 6
G10  23791727.941 9 125026319.794 9      3525.654 9        54.676 9  23791731.650 6         0.000 6      2747.265 6        37.977 6
G21  21177368.494 9 111287801.873 9     -1260.946 9        55.707 9  21177367.781 6         0.000 6      -982.556 6        37.977 6
G29  24315943.738 9 127781090.132 9     -3122.384 9        54.469 9  24315945.329 6         0.000 6     -2433.029 6        37.977 6
G27  21991770.303 9 115567506.035 9      2492.849 9        55.379 9  21991772.232 6         0.000 6      1942.481 6        37.977 6
G16  20494301.914 9 107698263.150 9       540.408 9        55.978 9  20494301.087 6         0.000 6       421.097 6        37.977 6
G26  20662001.665 9 108579529.275 9     -1498.536 9        55.870 9  20662004.484 6         0.000 6     -1167.691 6        37.977 6
G20  21931172.735 9 115249057.612 9      2553.706 9        55.321 9  21931173.049 6         0.000 6      1989.902 6        37.977 6
> 2019 07 03 12 01 27.0000000  0  8       0.000000000000
G07  25335473.642 9 133138766.603 9      2174.016 9        54.135 9  25335474.306 6         0.000 6      1694.039 6        37.977 6
G10  23791057.048 9 125022794.242 9      3525.482 9        54.676 9  23791060.757 6         0.000 6      2747.132 6        37.977 6
G21  21177608.478 9 111289062.996 9     -1261.303 9        55.706 9  21177607.764 6         0.000 6      -982.834 6        37.977 6
G29  24316537.916 9 127784212.551 9     -3122.471 9        54.469 9  24316539.508 6         0.000 6     -2433.097 6        37.977 6
G27  21991295.951 9 115565013.299 9      2492.619 9        55.380 9  21991297.879 6         0.000 6      1942.301 6        37.977 6
G16  20494199.136 9 107697723.048 9       539.791 9        55.978 9  20494198.309 6         0.000 6       420.617 6        37.977 6
G26  20662286.883 9 108581028.104 9     -1499.125 9        55.870 9  20662289.702 6         0.000 6     -1168.150 6        37.977 6
G20  21930686.826 9 115246504.147 9      2553.238 9        55.321 9  21930687.140 6         0.000 6      1989.537 6        37.977 6
> 2019 07 03 12 01 28.0000000  0  8       0.000000000000
G07  25335059.983 9 133136592.815 9      2173.558 9        54.136 9  25335060.647 6         0.000 6      1693.682 6        37.977 6
G10  23790386.186 9 125019268.847 9      3525.341 9        54.676 9  23790389.894 6         0.000 6      2747.021 6        37.977 6
G21  21177848.529 9 111290324.476 9     -1261.658 9        55.706 9  21177847.816 6         0.000 6      -983.111 6        37.977 6
G29  24317132.111 9 127787335.054 9     -3122.555 9        54.469 9  24317133.703 6         0.000 6     -2433.163 6        37.977 6
G27  21990821.644 9 115562520.801 9      2492.384 9        55.380 9  21990823.572 6         0.000 6      1942.118 6        37.977 6
G16  20494096.476 9 107697183.565 9       539.178 9        55.978 9  20494095.649 6         0.000 6       420.139 6        37.977 6
G26  20662572.212 9 108582527.517 9     -1499.697 9        55.870 9  20662575.031 6         0.000 6     -1168.596 6        37.977 6
G20  21930201.004 9 115243951.141 9      2552.793 9        55.321 9  21930201.318 6         0.000 6      1989.190 6        37.977 6
> 2019 07 03 12 01 29.0000000  0  8       0.000000000000
G07  25334646.413 9 133134419.495 9      2173.096 9        54.136 9  25334647.077 6         0.000 6      1693.323 6        37.977 6
G10  23789715.349 9 125015743.584 9      3525.200 9        54.677 9  23789719.056 6         0.000 6      2746.912 6        37.977 6
G21  21178088.649 9 111291586.311 9     -1262.018 9        55.706 9  21178087.936 6         0.000 6      -983.390 6        37.977 6
G29  24317726.321 9 127790457.636 9     -3122.640 9        54.468 9  24317727.914 6         0.000 6     -2433.229 6        37.977 6
G27  21990347.382 9 115560028.542 9      2492.146 9        55.380 9  21990349.310 6         0.000 6      1941.933 6        37.977 6
G16  20493993.933 9 107696644.697 9       538.561 9        55.978 9  20493993.106 6         0.000 6       419.658 6        37.977 6
G26  20662857.649 9 108584027.499 9     -1500.271 9        55.870 9  20662860.469 6         0.000 6     -1169.043 6        37.977 6
G20  21929715.266 9 115241398.572 9      2552.347 9        55.321 9  21929715.579 6         0.000 6      1988.843 6        37.977 6
> 2019 07 03 12 01 30.0000000  0  8       0.000000000000
G07  25334232.931 9 133132246.632 9      2172.635 9        54.136 9  25334233.594 6         0.000 6      1692.963 6        37.977 6
G10  23789044.539 9 125012218.465 9      3525.060 9        54.677 9  23789048.245 6         0.000 6      2746.803 6        37.977 6
G21  21178328.837 9 111292848.508 9     -1262.377 9        55.706 9  21178328.124 6         0.000 6      -983.670 6        37.977 6
G29  24318320.547 9 127793580.309 9     -3122.725 9        54.468 9  24318322.141 6         0.000 6     -2433.295 6        37.977 6
G27  21989873.165 9 115557536.518 9      2491.908 9        55.380 9  21989875.093 6         0.000 6      1941.747 6        37.977 6
G16  20493891.507 9 107696106.444 9       537.944 9        55.978 9  20493890.680 6         0.000 6       419.177 6        37.977 6
G26  20663143.196 9 108585528.055 9     -1500.845 9        55.869 9  20663146.016 6         0.000 6     -1169.490 6        37.977 6
G20  21929229.613 9 115238846.453 9      2551.901 9        55.321 9  21929229.926 6         0.000 6      1988.495 6        37.977 6
> 2019 07 03 12 01 31.0000000  0  8       0.000000000000
G07  25333819.536 9 133130074.229 9      2172.173 9        54.136 9  25333820.199 6         0.000 6      1692.603 6        37.977 6
G10  23788373.756 9 125008693.490 9      3524.920 9        54.677 9  23788377.462 6         0.000 6      2746.693 6        37.977 6
G21  21178569.094 9 111294111.066 9     -1262.736 9        55.706 9  21178568.381 6         0.000 6      -983.950 6        37.977 6
G29  24318914.790 9 127796703.066 9     -3122.810 9        54.468 9  24318916.385 6         0.000 6     -2433.361 6        37.977 6
G27  21989398.994 9 115555044.734 9      2491.670 9        55.380 9  21989400.921 6         0.000 6      1941.562 6        37.977 6
G16  20493789.199 9 107695568.812 9       537.326 9        55.978 9  20493788.372 6         0.000 6       418.696 6        37.977 6
G26  20663428.853 9 108587029.190 9     -1501.418 9        55.869 9  20663431.672 6         0.000 6     -1169.937 6        37.977 6
G20  21928744.046 9 115236294.784 9      2551.455 9        55.322 9  21928744.358 6         0.000 6      1988.148 6        37.977 6
> 2019 07 03 12 01 32.0000000  0  8       0.000000000000
G07  25333406.229 9 133127902.294 9      2171.714 9        54.136 9  25333406.892 6         0.000 6      1692.246 6        37.977 6
G10  23787702.999 9 125005168.649 9      3524.775 9        54.677 9  23787706.705 6         0.000 6      2746.580 6        37.977 6
G21  21178809.419 9 111295373.984 9     -1263.097 9        55.706 9  21178808.707 6         0.000 6      -984.232 6        37.977 6
G29  24319509.049 9 127799825.909 9     -3122.895 9        54.468 9  24319510.644 6         0.000 6     -2433.427 6        37.977 6
G27  21988924.868 9 115552553.188 9      2491.430 9        55.380 9  21988926.796 6         0.000 6      1941.375 6        37.977 6
G16  20493687.008 9 107695031.799 9       536.706 9        55.978 9  20493686.181 6         0.000 6       418.212 6        37.977 6
G26  20663714.618 9 108588530.895 9     -1501.997 9        55.869 9  20663717.438 6         0.000 6     -1170.388 6        37.977 6
G20  21928258.562 9 115233743.557 9      2551.004 9        55.322 9  21928258.875 6         0.000 6      1987.797 6        37.977 6
> 2019 07 03 12 01 33.0000000  0  8       0.000000000000
G07  25332993.010 9 133125730.814 9      2171.253 9        54.136 9  25332993.672 6         0.000 6      1691.886 6        37.977 6
G10  23787032.270 9 125001643.955 9      3524.634 9        54.678 9  23787035.975 6         0.000 6      2746.471 6        37.977 6
G21  21179049.813 9 111296637.261 9     -1263.456 9        55.706 9  21179049.100 6         0.000 6      -984.512 6        37.977 6
G29  24320103.325 9 127802948.836 9     -3122.979 9        54.468 9  24320104.920 6         0.000 6     -2433.493 6        37.977 6
G27  21988450.787 9 115550061.880 9      2491.192 9        55.381 9  21988452.715 6         0.000 6      1941.189 6        37.977 6
G16  20493584.935 9 107694495.401 9       536.089 9        55.978 9  20493584.108 6         0.000 6       417.731 6        37.977 6
G26  20664000.493 9 108590033.177 9     -1502.571 9        55.869 9  20664003.313 6         0.000 6     -1170.835 6        37.977 6
G20  21927773.165 9 115231192.781 9      2550.558 9        55.322 9  21927773.477 6         0.000 6      1987.449 6        37.977 6
> 2019 07 03 12 01 34.0000000  0  8       0.000000000000
G07  25332579.859 9 133123559.698 9      2173.178 9        54.136 9  25332580.522 6         0.000 6      1693.387 6        37.977 6
G10  23786361.586 9 124998119.496 9      3522.128 9        54.678 9  23786365.290 6         0.000 6      2744.518 6        37.977 6
G21  21179290.273 9 111297900.886 9     -1263.514 9        55.706 9  21179289.560 6         0.000 6      -984.556 6        37.977 6
G29  24320697.620 9 127806071.868 9     -3123.289 9        54.467 9  24320699.216 6         0.000 6     -2433.734 6        37.977 6
G27  21987976.744 9 115547570.770 9      2491.660 9        55.381 9  21987978.671 6         0.000 6      1941.554 6        37.977 6
G16  20493482.977 9 107693959.605 9       535.694 9        55.978 9  20493482.150 6         0.000 6       417.424 6        37.977 6
G26  20664286.484 9 108591536.069 9     -1504.216 9        55.869 9  20664289.304 6         0.000 6     -1172.117 6        37.977 6
G20  21927287.865 9 115228642.518 9      2548.463 9        55.322 9  21927288.177 6         0.000 6      1985.817 6        37.977 6
> 2019 07 03 12 01 35.0000000  0  8       0.000000000000
G07  25332164.932 9 133121379.244 9      2187.879 9        54.137 9  25332165.594 6         0.000 6      1704.842 6        37.977 6
G10  23785692.735 9 124994604.671 9      3507.581 9        54.678 9  23785696.439 6         0.000 6      2733.182 6        37.977 6
G21  21179530.680 9 111299164.232 9     -1263.669 9        55.706 9  21179529.967 6         0.000 6      -984.678 6        37.977 6
G29  24321292.379 9 127809197.341 9     -3128.903 9        54.467 9  24321293.976 6         0.000 6     -2438.109 6        37.977 6
G27  21987502.016 9 115545076.060 9      2498.608 9        55.381 9  21987503.943 6         0.000 6      1946.968 6        37.977 6
G16  20493380.872 9 107693423.040 9       537.851 9        55.978 9  20493380.045 6         0.000 6       419.105 6        37.977 6
G26  20664573.337 9 108593043.489 9     -1510.313 9        55.869 9  20664576.157 6         0.000 6     -1176.868 6        37.977 6
G20  21926803.989 9 115226099.737 9      2536.781 9        55.322 9  21926804.301 6         0.000 6      1976.714 6        37.977 6
> 2019 07 03 12 01 36.0000000  0  8       0.000000000000
G07  25331747.194 9 133119184.017 9      2203.219 9        54.137 9  25331747.856 6         0.000 6      1716.795 6        37.977 6
G10  23785026.558 9 124991103.895 9      3493.721 9        54.678 9  23785030.261 6         0.000 6      2722.383 6        37.977 6
G21  21179771.413 9 111300429.292 9     -1267.344 9        55.706 9  21179770.700 6         0.000 6      -987.541 6        37.977 6
G29  24321888.927 9 127812332.208 9     -3143.263 9        54.467 9  24321890.524 6         0.000 6     -2449.298 6        37.977 6
G27  21987025.487 9 115542571.886 9      2511.494 9        55.381 9  21987027.414 6         0.000 6      1957.009 6        37.977 6
G16  20493278.115 9 107692883.048 9       542.986 9        55.978 9  20493277.288 6         0.000 6       423.106 6        37.977 6
G26  20664861.129 9 108594555.845 9     -1513.935 9        55.869 9  20664863.950 6         0.000 6     -1179.690 6        37.977 6
G20  21926322.479 9 115223569.386 9      2523.058 9        55.323 9  21926322.790 6         0.000 6      1966.020 6        37.977 6
> 2019 07 03 12 01 37.0000000  0  8       0.000000000000
G07  25331327.328 9 133116977.612 9      2207.689 9        54.137 9  25331327.990 6         0.000 6      1720.278 6        37.977 6
G10  23784362.242 9 124987612.904 9      3489.818 9        54.679 9  23784365.944 6         0.000 6      2719.341 6        37.977 6
G21  21180012.918 9 111301698.408 9     -1270.159 9        55.705 9  21180012.205 6         0.000 6      -989.735 6        37.977 6
G29  24322488.067 9 127815480.702 9     -3151.223 9        54.467 9  24322489.665 6         0.000 6     -2455.501 6        37.977 6
G27  21986546.783 9 115540056.280 9      2517.607 9        55.381 9  21986548.709 6         0.000 6      1961.773 6        37.977 6
G16  20493174.476 9 107692338.422 9       545.301 9        55.978 9  20493173.649 6         0.000 6       424.910 6        37.977 6
G26  20665149.275 9 108596070.057 9     -1514.383 9        55.869 9  20665152.095 6         0.000 6     -1180.039 6        37.977 6
G20  21925843.020 9 115221049.819 9      2517.838 9        55.323 9  21925843.331 6         0.000 6      1961.953 6        37.977 6
> 2019 07 03 12 01 38.0000000  0  8       0.000000000000
G07  25330907.197 9 133114769.812 9      2207.736 9        54.137 9  25330907.858 6         0.000 6      1720.315 6        37.977 6
G10  23783698.210 9 124984123.401 9      3489.332 9        54.679 9  23783701.911 6         0.000 6      2718.962 6        37.977 6
G21  21180254.701 9 111302968.987 9     -1270.874 9        55.705 9  21180253.988 6         0.000 6      -990.292 6        37.977 6
G29  24323087.871 9 127818632.683 9     -3152.378 9        54.467 9  24323089.470 6         0.000 6     -2456.401 6        37.977 6
G27  21986067.614 9 115537538.234 9      2518.191 9        55.382 9  21986069.541 6         0.000 6      1962.227 6        37.977 6
G16  20493070.717 9 107691793.167 9       545.064 9        55.978 9  20493069.890 6         0.000 6       424.725 6        37.977 6
G26  20665437.495 9 108597584.662 9     -1514.868 9        55.868 9  20665440.315 6         0.000 6     -1180.417 6        37.977 6
G20  21925364.003 9 115218532.569 9      2516.860 9        55.323 9  21925364.313 6         0.000 6      1961.191 6        37.977 6
> 2019 07 03 12 01 39.0000000  0  8       0.000000000000
G07  25330487.117 9 133112562.279 9      2207.323 9        54.137 9  25330487.778 6         0.000 6      1719.993 6        37.977 6
G10  23783034.229 9 124980634.171 9      3489.160 9        54.679 9  23783037.930 6         0.000 6      2718.829 6        37.977 6
G21  21180496.579 9 111304240.062 9     -1271.269 9        55.705 9  21180495.866 6         0.000 6      -990.599 6        37.977 6
G29  24323687.770 9 127821785.164 9     -3152.572 9        54.466 9  24323689.370 6         0.000 6     -2456.552 6        37.977 6
G27  21985588.432 9 115535020.115 9      2518.028 9        55.382 9  21985590.358 6         0.000 6      1962.101 6        37.977 6
G16  20492967.050 9 107691248.393 9       544.473 9        55.978 9  20492966.223 6         0.000 6       424.265 6        37.977 6
G26  20665725.819 9 108599099.813 9     -1515.442 9        55.868 9  20665728.639 6         0.000 6     -1180.864 6        37.977 6
G20  21924885.108 9 115216015.968 9      2516.367 9        55.323 9  21924885.419 6         0.000 6      1960.806 6        37.977 6
> 2019 07 03 12 01 40.0000000  0  8       0.000000000000
G07  25330067.121 9 133110355.190 9      2206.865 9        54.137 9  25330067.782 6         0.000 6      1719.636 6        37.977 6
G10  23782370.277 9 124977145.089 9      3489.020 9        54.679 9  23782373.977 6         0.000 6      2718.720 6        37.977 6
G21  21180738.527 9 111305511.509 9     -1271.629 9        55.705 9  21180737.815 6         0.000 6      -990.880 6        37.977 6
G29  24324287.694 9 127824937.776 9     -3152.673 9        54.466 9  24324289.294 6         0.000 6     -2456.631 6        37.977 6
G27  21985109.289 9 115532502.205 9      2517.797 9        55.382 9  21985111.215 6         0.000 6      1961.920 6        37.977 6
G16  20492863.499 9 107690704.229 9       543.851 9        55.978 9  20492862.672 6         0.000 6       423.780 6        37.977 6
G26  20666014.252 9 108600615.540 9     -1516.020 9        55.868 9  20666017.073 6         0.000 6     -1181.315 6        37.977 6
G20  21924406.302 9 115213499.826 9      2515.923 9        55.323 9  21924406.612 6         0.000 6      1960.460 6        37.977 6
> 2019 07 03 12 01 41.0000000  0  8       0.000000000000
G07  25329647.212 9 133108148.559 9      2206.405 9        54.137 9  25329647.873 6         0.000 6      1719.277 6        37.977 6
G10  23781706.352 9 124973656.149 9      3488.881 9        54.679 9  23781710.051 6         0.000 6      2718.611 6        37.977 6
G21  21180980.544 9 111306783.317 9     -1271.987 9        55.705 9  21180979.832 6         0.000 6      -991.159 6        37.977 6
G29  24324887.637 9 127828090.484 9     -3152.763 9        54.466 9  24324889.237 6         0.000 6     -2456.701 6        37.977 6
G27  21984630.191 9 115529984.532 9      2517.555 9        55.382 9  21984632.117 6         0.000 6      1961.732 6        37.977 6
G16  20492760.068 9 107690160.693 9       543.223 9        55.978 9  20492759.241 6         0.000 6       423.290 6        37.977 6
G26  20666302.797 9 108602131.850 9     -1516.603 9        55.868 9  20666305.618 6         0.000 6     -1181.769 6        37.977 6
G20  21923927.580 9 115210984.129 9      2515.481 9        55.323 9  21923927.890 6         0.000 6      1960.116 6        37.977 6
> 2019 07 03 12 01 42.0000000  0  8       0.000000000000
G07  25329227.391 9 133105942.386 9      2205.944 9        54.138 9  25329228.052 6         0.000 6      1718.918 6        37.977 6
G10  23781042.454 9 124970167.353 9      3488.741 9        54.680 9  23781046.153 6         0.000 6      2718.502 6        37.977 6
G21  21181222.630 9 111308055.485 9     -1272.345 9        55.705 9  21181221.918 6         0.000 6      -991.438 6        37.977 6
G29  24325487.596 9 127831243.282 9     -3152.854 9        54.466 9  24325489.198 6         0.000 6     -2456.772 6        37.977 6
G27  21984151.139 9 115527467.102 9      2517.314 9        55.382 9  21984153.065 6         0.000 6      1961.544 6        37.977 6
G16  20492656.756 9 107689617.788 9       542.594 9        55.979 9  20492655.929 6         0.000 6       422.801 6        37.977 6
G26  20666591.453 9 108603648.748 9     -1517.186 9        55.868 9  20666594.274 6         0.000 6     -1182.224 6        37.977 6
G20  21923448.942 9 115208468.878 9      2515.039 9        55.324 9  21923449.252 6         0.000 6      1959.772 6        37.977 6
> 2019 07 03 12 01 43.0000000  0  8       0.000000000000
G07  25328807.659 9 133103736.682 9      2205.483 9        54.138 9  25328808.319 6         0.000 6      1718.559 6        37.977 6
G10  23780378.581 9 124966678.689 9      3488.601 9        54.680 9  23780382.280 6         0.000 6      2718.393 6        37.977 6
G21  21181464.784 9 111309328.010 9     -1272.704 9        55.705 9  21181464.071 6         0.000 6      -991.717 6        37.977 6
G29  24326087.572 9 127834396.166 9     -3152.944 9        54.466 9  24326089.174 6         0.000 6     -2456.842 6        37.977 6
G27  21983672.135 9 115524949.918 9      2517.073 9        55.383 9  21983674.060 6         0.000 6      1961.356 6        37.977 6
G16  20492553.565 9 107689075.513 9       541.966 9        55.979 9  20492552.738 6         0.000 6       422.311 6        37.977 6
G26  20666880.220 9 108605166.226 9     -1517.769 9        55.868 9  20666883.041 6         0.000 6     -1182.678 6        37.977 6
G20  21922970.388 9 115205954.062 9      2514.597 9        55.324 9  21922970.697 6         0.000 6      1959.427 6        37.977 6
> 2019 07 03 12 01 44.0000000  0  8       0.000000000000
G07  25328388.013 9 133101531.433 9      2205.022 9        54.138 9  25328388.673 6         0.000 6      1718.200 6        37.977 6
G10  23779714.736 9 124963190.169 9      3488.461 9        54.680 9  23779718.434 6         0.000 6      2718.284 6        37.977 6
G21  21181707.005 9 111310600.893 9     -1273.062 9        55.705 9  21181706.293 6         0.000 6      -991.996 6        37.977 6
G29  24326687.566 9 127837549.145 9     -3153.034 9        54.465 9  24326689.168 6         0.000 6     -2456.912 6        37.977 6
G27  21983193.175 9 115522432.969 9      2516.831 9        55.383 9  21983195.100 6         0.000 6      1961.168 6        37.977 6
G16  20492450.492 9 107688533.861 9       541.338 9        55.979 9  20492449.665 6         0.000 6       421.822 6        37.977 6
G26  20667169.097 9 108606684.285 9     -1518.352 9        55.868 9  20667171.919 6         0.000 6     -1183.132 6        37.977 6
G20  21922491.918 9 115203439.691 9      2514.154 9        55.324 9  21922492.227 6         0.000 6      1959.083 6        37.977 6
> 2019 07 03 12 01 45.0000000  0  8       0.000000000000
G07  25327968.455 9 133099326.645 9      2204.561 9        54.138 9  25327969.115 6         0.000 6      1717.841 6        37.977 6
G10  23779050.917 9 124959701.788 9      3488.321 9        54.680 9  23779054.614 6         0.000 6      2718.175 6        37.977 6
G21  21181949.295 9 111311874.133 9     -1273.420 9        55.705 9  21181948.583 6         0.000 6      -992.276 6        37.977 6
G29  24327287.577 9 127840702.214 9     -3153.124 9        54.465 9  24327289.180 6         0.000 6     -2456.983 6        37.977 6
G27  21982714.261 9 115519916.261 9      2516.590 9        55.383 9  21982716.186 6         0.000 6      1960.980 6        37.977 6
G16  20492347.538 9 107687992.838 9       540.709 9        55.979 9  20492346.711 6         0.000 6       421.332 6        37.977 6
G26  20667458.086 9 108608202.927 9     -1518.935 9        55.868 9  20667460.907 6         0.000 6     -1183.586 6        37.977 6
G20  21922013.533 9 115200925.762 9      2513.712 9        55.324 9  21922013.841 6         0.000 6      1958.738 6        37.977 6
> 2019 07 03 12 01 46.0000000  0  8       0.000000000000
G07  25327548.985 9 133097122.318 9      2204.100 9        54.138 9  25327549.645 6         0.000 6      1717.482 6        37.977 6
G10  23778387.125 9 124956213.548 9      3488.180 9        54.681 9  23778390.822 6         0.000 6      2718.065 6        37.977 6
G21  21182191.653 9 111313147.731 9     -1273.778 9        55.705 9  21182190.941 6         0.000 6      -992.555 6        37.977 6
G29  24327887.605 9 127843855.373 9     -3153.215 9        54.465 9  24327889.209 6         0.000 6     -2457.053 6        37.977 6
G27  21982235.392 9 115517399.795 9      2516.348 9        55.383 9  21982237.317 6         0.000 6      1960.792 6        37.977 6
G16  20492244.705 9 107687452.443 9       540.081 9        55.979 9  20492243.878 6         0.000 6       420.842 6        37.977 6
G26  20667747.185 9 108609722.152 9     -1519.518 9        55.868 9  20667750.006 6         0.000 6     -1184.040 6        37.977 6
G20  21921535.231 9 115198412.275 9      2513.270 9        55.324 9  21921535.540 6         0.000 6      1958.393 6        37.977 6
> 2019 07 03 12 01 47.0000000  0  8       0.000000000000
G07  25327129.603 9 133094918.452 9      2203.639 9        54.138 9  25327130.262 6         0.000 6      1717.122 6        37.977 6
G10  23777723.361 9 124952725.451 9      3488.040 9        54.681 9  23777727.056 6         0.000 6      2717.956 6        37.977 6
G21  21182434.080 9 111314421.694 9     -1274.136 9        55.704 9  21182433.368 6         0.000 6      -992.834 6        37.977 6
G29  24328487.651 9 127847008.623 9     -3153.305 9        54.465 9  24328489.255 6         0.000 6     -2457.123 6        37.977 6
G27  21981756.571 9 115514883.575 9      2516.107 9        55.383 9  21981758.496 6         0.000 6      1960.603 6        37.977 6
G16  20492141.992 9 107686912.683 9       539.452 9        55.979 9  20492141.165 6         0.000 6       420.353 6        37.977 6
G26  20668036.396 9 108611241.966 9     -1520.101 9        55.867 9  20668039.218 6         0.000 6     -1184.495 6        37.977 6
G20  21921057.015 9 115195899.236 9      2512.827 9        55.325 9  21921057.323 6         0.000 6      1958.048 6        37.977 6
> 2019 07 03 12 01 48.0000000  0  8       0.000000000000
G07  25326710.322 9 133092715.122 9      2203.061 9        54.138 9  25326710.982 6         0.000 6      1716.672 6        37.977 6
G10  23777059.612 9 124949237.439 9      3487.986 9        54.681 9  23777063.307 6         0.000 6      2717.914 6        37.977 6
G21  21182676.563 9 111315695.952 9     -1274.432 9        55.704 9  21182675.851 6         0.000 6      -993.064 6        37.977 6
G29  24329087.683 9 127850161.802 9     -3153.196 9        54.464 9  24329089.288 6         0.000 6     -2457.038 6        37.977 6
G27  21981277.818 9 115512367.713 9      2515.706 9        55.384 9  21981279.743 6         0.000 6      1960.291 6        37.977 6
G16  20492039.408 9 107686373.600 9       538.749 9        55.979 9  20492038.581 6         0.000 6       419.804 6        37.977 6
G26  20668325.720 9 108612762.369 9     -1520.692 9        55.867 9  20668328.541 6         0.000 6     -1184.955 6        37.977 6
G20  21920578.866 9 115193386.551 9      2512.500 9        55.325 9  21920579.174 6         0.000 6      1957.793 6        37.977 6
> 2019 07 03 12 01 49.0000000  0  8       0.000000000000
G07  25326290.758 9 133090510.303 9      2205.648 9        54.139 9  25326291.417 6         0.000 6      1718.688 6        37.977 6
G10  23776396.074 9 124945750.537 9      3486.853 9        54.681 9  23776399.769 6         0.000 6      2717.031 6        37.977 6
G21  21182919.572 9 111316972.972 9     -1279.949 9        55.704 9  21182918.860 6         0.000 6      -997.363 6        37.977 6
G29  24329688.975 9 127853321.603 9     -3166.868 9        54.464 9  24329690.580 6         0.000 6     -2467.692 6        37.977 6
G27  21980798.205 9 115509847.331 9      2525.140 9        55.384 9  21980800.129 6         0.000 6      1967.643 6        37.977 6
G16  20491936.505 9 107685832.841 9       542.869 9        55.979 9  20491935.678 6         0.000 6       423.014 6        37.977 6
G26  20668614.937 9 108614282.216 9     -1518.408 9        55.867 9  20668617.759 6         0.000 6     -1183.175 6        37.977 6
G20  21920101.282 9 115190876.834 9      2507.494 9        55.325 9  21920101.590 6         0.000 6      1953.893 6        37.977 6
> 2019 07 03 12 01 50.0000000  0  8       0.000000000000
G07  25325871.398 9 133088306.552 9      2200.338 9        54.139 9  25325872.057 6         0.000 6      1714.550 6        37.977 6
G10  23775732.075 9 124942261.205 9      3493.240 9        54.682 9  23775735.769 6         0.000 6      2722.008 6        37.977 6
G21  21183163.688 9 111318255.805 9     -1285.636 9        55.704 9  21183162.975 6         0.000 6     -1001.794 6        37.977 6
G29  24330292.724 9 127856494.318 9     -3177.774 9        54.464 9  24330294.331 6         0.000 6     -2476.190 6        37.977 6
G27  21980317.053 9 115507318.865 9      2530.907 9        55.384 9  21980318.977 6         0.000 6      1972.136 6        37.977 6
G16  20491832.906 9 107685288.427 9       545.599 9        55.979 9  20491832.079 6         0.000 6       425.142 6        37.977 6
G26  20668903.430 9 108615798.252 9     -1513.190 9        55.867 9  20668906.252 6         0.000 6     -1179.109 6        37.977 6
G20  21919624.156 9 115188369.526 9      2508.307 9        55.325 9  21919624.463 6         0.000 6      1954.526 6        37.977 6
> 2019 07 03 12 01 51.0000000  0  8       0.000000000000
G07  25325453.853 9 133086112.345 9      2190.465 9        54.139 9  25325454.512 6         0.000 6      1706.857 6        37.977 6
G10  23775066.140 9 124938761.703 9      3503.106 9        54.682 9  23775069.833 6         0.000 6      2729.696 6        37.977 6
G21  21183408.775 9 111319543.746 9     -1289.054 9        55.704 9  21183408.063 6         0.000 6     -1004.458 6        37.977 6
G29  24330897.961 9 127859674.846 9     -3181.406 9        54.464 9  24330899.568 6         0.000 6     -2479.020 6        37.977 6
G27  21979835.381 9 115504787.664 9      2530.808 9        55.384 9  21979837.305 6         0.000 6      1972.059 6        37.977 6
G16  20491729.033 9 107684742.572 9       545.620 9        55.979 9  20491728.206 6         0.000 6       425.159 6        37.977 6
G26  20669190.728 9 108617308.014 9     -1508.086 9        55.867 9  20669193.550 6         0.000 6     -1175.133 6        37.977 6
G20  21919146.226 9 115185857.989 9      2513.530 9        55.325 9  21919146.533 6         0.000 6      1958.596 6        37.977 6
> 2019 07 03 12 01 52.0000000  0  8       0.000000000000
G07  25325037.266 9 133083923.166 9      2188.422 9        54.139 9  25325037.924 6         0.000 6      1705.265 6        37.977 6
G10  23774399.332 9 124935257.615 9      3504.561 9        54.682 9  23774403.024 6         0.000 6      2730.829 6        37.977 6
G21  21183654.145 9 111320833.176 9     -1289.703 9        55.704 9  21183653.433 6         0.000 6     -1004.963 6        37.977 6
G29  24331503.376 9 127862856.317 9     -3181.524 9        54.464 9  24331504.984 6         0.000 6     -2479.112 6        37.977 6
G27  21979353.851 9 115502257.211 9      2530.207 9        55.384 9  21979355.775 6         0.000 6      1971.591 6        37.977 6
G16  20491625.275 9 107684197.318 9       544.911 9        55.979 9  20491624.448 6         0.000 6       424.606 6        37.977 6
G26  20669477.664 9 108618815.871 9     -1507.890 9        55.867 9  20669480.486 6         0.000 6     -1174.979 6        37.977 6
G20  21918667.826 9 115183343.987 9      2514.139 9        55.326 9  21918668.133 6         0.000 6      1959.071 6        37.977 6
> 2019 07 03 12 01 53.0000000  0  8       0.000000000000
G07  25324620.889 9 133081735.094 9      2187.802 9        54.139 9  25324621.547 6         0.000 6      1704.782 6        37.977 6
G10  23773732.427 9 124931753.017 9      3504.583 9        54.682 9  23773736.119 6         0.000 6      2730.847 6        37.977 6
G21  21183899.605 9 111322123.074 9     -1290.093 9        55.704 9  21183898.893 6         0.000 6     -1005.268 6        37.977 6
G29  24332108.807 9 127866037.865 9     -3181.607 9        54.463 9  24332110.415 6         0.000 6     -2479.177 6        37.977 6
G27  21978872.398 9 115499727.162 9      2529.920 9        55.384 9  21978874.322 6         0.000 6      1971.367 6        37.977 6
G16  20491521.642 9 107683652.725 9       544.280 9        55.979 9  20491520.815 6         0.000 6       424.114 6        37.977 6
G26  20669764.650 9 108620323.989 9     -1508.384 9        55.867 9  20669767.472 6         0.000 6     -1175.365 6        37.977 6
G20  21918189.428 9 115180829.993 9      2513.804 9        55.326 9  21918189.735 6         0.000 6      1958.809 6        37.977 6
> 2019 07 03 12 01 54.0000000  0  8       0.000000000000
G07  25324204.609 9 133079547.533 9      2187.328 9        54.139 9  25324205.267 6         0.000 6      1704.413 6        37.977 6
G10  23773065.539 9 124928248.509 9      3504.454 9        54.683 9  23773069.230 6         0.000 6      2730.746 6        37.977 6
G21  21184145.137 9 111323413.356 9     -1290.466 9        55.704 9  21184144.425 6         0.000 6     -1005.558 6        37.977 6
G29  24332714.255 9 127869219.506 9     -3181.691 9        54.463 9  24332715.864 6         0.000 6     -2479.242 6        37.977 6
G27  21978390.995 9 115497197.374 9      2529.661 9        55.385 9  21978392.919 6         0.000 6      1971.165 6        37.977 6
G16  20491418.130 9 107683108.762 9       543.649 9        55.979 9  20491417.303 6         0.000 6       423.622 6        37.977 6
G26  20670051.740 9 108621832.659 9     -1508.958 9        55.867 9  20670054.563 6         0.000 6     -1175.812 6        37.977 6
G20  21917711.109 9 115178316.416 9      2513.364 9        55.326 9  21917711.416 6         0.000 6      1958.466 6        37.977 6
> 2019 07 03 12 01 55.0000000  0  8       0.000000000000
G07  25323788.418 9 133077360.435 9      2186.874 9        54.139 9  25323789.075 6         0.000 6      1704.058 6        37.977 6
G10  23772398.678 9 124924744.138 9      3504.308 9        54.683 9  23772402.368 6         0.000 6      2730.633 6        37.977 6
G21  21184390.740 9 111324704.005 9     -1290.833 9        55.704 9  21184390.028 6         0.000 6     -1005.844 6        37.977 6
G29  24333319.719 9 127872401.230 9     -3181.778 9        54.463 9  24333321.328 6         0.000 6     -2479.310 6        37.977 6
G27  21977909.640 9 115494667.840 9      2529.412 9        55.385 9  21977911.564 6         0.000 6      1970.971 6        37.977 6
G16  20491314.736 9 107682565.425 9       543.024 9        55.979 9  20491313.909 6         0.000 6       423.136 6        37.977 6
G26  20670338.940 9 108623341.904 9     -1509.535 9        55.866 9  20670341.763 6         0.000 6     -1176.262 6        37.977 6
G20  21917232.875 9 115175803.281 9      2512.913 9        55.326 9  21917233.181 6         0.000 6      1958.115 6        37.977 6
> 2019 07 03 12 01 56.0000000  0  8       0.000000000000
G07  25323372.313 9 133075173.792 9      2186.419 9        54.140 9  25323372.970 6         0.000 6      1703.704 6        37.977 6
G10  23771731.843 9 124921239.911 9      3504.163 9        54.683 9  23771735.533 6         0.000 6      2730.519 6        37.977 6
G21  21184636.411 9 111325995.015 9     -1291.201 9        55.704 9  21184635.699 6         0.000 6     -1006.131 6        37.977 6
G29  24333925.199 9 127875583.040 9     -3181.864 9        54.463 9  24333926.809 6         0.000 6     -2479.377 6        37.977 6
G27  21977428.332 9 115492138.550 9      2529.163 9        55.385 9  21977430.255 6         0.000 6      1970.777 6        37.977 6
G16  20491211.460 9 107682022.706 9       542.400 9        55.979 9  20491210.633 6         0.000 6       422.649 6        37.977 6
G26  20670626.249 9 108624851.719 9     -1510.112 9        55.866 9  20670629.072 6         0.000 6     -1176.711 6        37.977 6
G20  21916754.726 9 115173290.593 9      2512.463 9        55.326 9  21916755.031 6         0.000 6      1957.764 6        37.977 6
> 2019 07 03 12 01 57.0000000  0  8       0.000000000000
G07  25322956.294 9 133072987.604 9      2185.964 9        54.140 9  25322956.951 6         0.000 6      1703.350 6        37.977 6
G10  23771065.037 9 124917735.832 9      3504.017 9        54.683 9  23771068.726 6         0.000 6      2730.405 6        37.977 6
G21  21184882.153 9 111327286.399 9     -1291.568 9        55.703 9  21184881.441 6         0.000 6     -1006.417 6        37.977 6
G29  24334530.696 9 127878764.937 9     -3181.951 9        54.462 9  24334532.307 6         0.000 6     -2479.445 6        37.977 6
G27  21976947.072 9 115489609.515 9      2528.913 9        55.385 9  21976948.995 6         0.000 6      1970.582 6        37.977 6
G16  20491108.304 9 107681480.619 9       541.775 9        55.979 9  20491107.477 6         0.000 6       422.162 6        37.977 6
G26  20670913.669 9 108626362.118 9     -1510.689 9        55.866 9  20670916.491 6         0.000 6     -1177.161 6        37.977 6
G20  21916276.663 9 115170778.360 9      2512.012 9        55.326 9  21916276.968 6         0.000 6      1957.413 6        37.977 6
> 2019 07 03 12 01 58.0000000  0  8       0.000000000000
G07  25322540.363 9 133070801.873 9      2185.509 9        54.140 9  25322541.020 6         0.000 6      1702.995 6        37.977 6
G10  23770398.258 9 124914231.894 9      3503.871 9        54.684 9  23770401.947 6         0.000 6      2730.292 6        37.977 6
G21  21185127.965 9 111328578.147 9     -1291.935 9        55.703 9  21185127.253 6         0.000 6     -1006.703 6        37.977 6
G29  24335136.209 9 127881946.921 9     -3182.037 9        54.462 9  24335137.821 6         0.000 6     -2479.512 6        37.977 6
G27  21976465.859 9 115487080.728 9      2528.664 9        55.385 9  21976467.782 6         0.000 6      1970.388 6        37.977 6
G16  20491005.267 9 107680939.153 9       541.150 9        55.979 9  20491004.440 6         0.000 6       421.676 6        37.977 6
G26  20671201.197 9 108627873.089 9     -1511.267 9        55.866 9  20671204.020 6         0.000 6     -1177.611 6        37.977 6
G20  21915798.685 9 115168266.573 9      2511.562 9        55.327 9  21915798.990 6         0.000 6      1957.062 6        37.977 6
> 2019 07 03 12 01 59.0000000  0  8       0.000000000000
G07  25322124.517 9 133068616.595 9      2185.052 9        54.140 9  25322125.174 6         0.000 6      1702.638 6        37.977 6
G10  23769731.508 9 124910728.107 9      3503.729 9        54.684 9  23769735.195 6         0.000 6      2730.181 6        37.977 6
G21  21185373.847 9 111329870.265 9     -1292.300 9        55.703 9  21185373.135 6         0.000 6     -1006.987 6        37.977 6
G29  24335741.739 9 127885128.991 9     -3182.124 9        54.462 9  24335743.351 6         0.000 6     -2479.580 6        37.977 6
G27  21975984.694 9 115484552.191 9      2528.416 9        55.386 9  21975986.617 6         0.000 6      1970.195 6        37.977 6
G16  20490902.349 9 107680398.315 9       540.529 9        55.979 9  20490901.522 6         0.000 6       421.191 6        37.977 6
G26  20671488.837 9 108629384.642 9     -1511.839 9        55.866 9  20671491.660 6         0.000 6     -1178.057 6        37.977 6
G20  21915320.793 9 115165755.241 9      2511.115 9        55.327 9  21915321.098 6         0.000 6      1956.714 6        37.977 6
> 2019 07 03 12 02  0.0000000  0  8       0.000000000000
G07  25321708.759 9 133066431.773 9      2184.597 9        54.140 9  25321709.416 6         0.000 6      1702.284 6        37.977 6
G10  23769064.784 9 124907224.463 9      3503.583 9        54.684 9  23769068.472 6         0.000 6      2730.067 6        37.977 6
G21  21185619.799 9 111331162.749 9     -1292.667 9        55.703 9  21185619.087 6         0.000 6     -1007.273 6        37.977 6
G29  24336347.286 9 127888311.150 9     -3182.211 9        54.462 9  24336348.899 6         0.000 6     -2479.647 6        37.977 6
G27  21975503.576 9 115482023.902 9      2528.167 9        55.386 9  21975505.499 6         0.000 6      1970.001 6        37.977 6
G16  20490799.549 9 107679858.099 9       539.904 9        55.979 9  20490798.722 6         0.000 6       420.705 6        37.977 6
G26  20671776.585 9 108630896.769 9     -1512.416 9        55.866 9  20671779.408 6         0.000 6     -1178.506 6        37.977 6
G20  21914842.987 9 115163244.357 9      2510.664 9        55.327 9  21914843.292 6         0.000 6      1956.363 6        37.977 6
