     3.00           Observation Data    M (Mixed)           RINEX VERSION / TYPE
SimGEN V6.06.00     Spirent             03-Jul-19 12:00     PGM / RUN BY / DATE 
                                                            MARKER NAME         
1                                                           MARKER NUMBER       
GROUND_CRAFT                                                MARKER TYPE         
jin4hi              Spirent                                 OBSERVER / AGENCY   
rec_num             rec_type            rec_vers            REC # / TYPE / VERS 
1                   ant_type                                ANT # / TYPE        
  1000.000                                                  INTERVAL            
  2019     7     3    12     0    0.0000000     GPS         TIME OF FIRST OBS   
  4162684.4440   664344.9880  4770530.1970                  APPROX POSITION XYZ 
        0.0000        0.0000        0.0000                  ANTENNA: DELTA H/E/N
G    8 C1C L1C D1C S1C C2C L2C D2C S2C                      SYS / # / OBS TYPES 
        0.0000        0.0000        0.0000                  ANTENNA: DELTA X/Y/Z
DBHZ                                                        SIGNAL STRENGTH UNIT
                                                            END OF HEADER       
> 2019 07 03 12 00  0.0000000  0  8       0.000000000000
G07  25371998.322 9 133330704.775 9      2213.624 9        54.123 9  25371999.005 6         0.000 6      1724.902 6        37.977 6
G10  23849385.600 9 125329311.920 9      3537.300 9        54.655 9  23849389.366 6         0.000 6      2756.338 6        37.977 6
G21  21156835.606 9 111179900.879 9     -1229.628 9        55.715 9  21156834.889 6         0.000 6      -958.152 6        37.977 6
G29  24264451.661 9 127510498.317 9     -3114.915 9        54.487 9  24264453.198 6         0.000 6     -2427.206 6        37.977 6
G27  22033085.804 9 115784620.220 9      2513.382 9        55.363 9  22033087.747 6         0.000 6      1958.479 6        37.977 6
G16  20503747.119 9 107747898.032 9       593.465 9        55.974 9  20503746.292 6         0.000 6       462.440 6        37.977 6
G26  20637929.882 9 108453031.352 9     -1448.977 9        55.880 9  20637932.692 6         0.000 6     -1129.073 6        37.977 6
G20  21973054.478 9 115469147.266 9      2591.696 9        55.304 9  21973054.816 6         0.000 6      2019.503 6        37.977 6
> 2019 07 03 12 00  1.0000000  0  8       0.000000000000
G07  25371576.882 9 133328490.096 9      2214.521 9        54.123 9  25371577.565 6         0.000 6      1725.601 6        37.977 6
G10  23848712.641 9 125325775.508 9      3536.314 9        54.655 9  23848716.406 6         0.000 6      2755.572 6        37.977 6
G21  21157069.807 9 111181131.611 9     -1230.964 9        55.715 9  21157069.090 6         0.000 6      -959.193 6        37.977 6
G29  24265044.948 9 127513616.054 9     -3117.940 9        54.487 9  24265046.486 6         0.000 6     -2429.566 6        37.977 6
G27  22032607.137 9 115782104.807 9      2515.415 9        55.363 9  22032609.079 6         0.000 6      1960.064 6        37.977 6
G16  20503634.050 9 107747303.853 9       593.929 9        55.974 9  20503633.224 6         0.000 6       462.802 6        37.977 6
G26  20638205.613 9 108454480.327 9     -1449.248 9        55.880 9  20638208.423 6         0.000 6     -1129.284 6        37.977 6
G20  21972561.592 9 115466557.138 9      2589.842 9        55.304 9  21972561.930 6         0.000 6      2018.060 6        37.977 6
> 2019 07 03 12 00  2.0000000  0  8       0.000000000000
G07  25371155.553 9 133326276.004 9      2213.614 9        54.123 9  25371156.236 6         0.000 6      1724.895 6        37.977 6
G10  23848039.690 9 125322239.136 9      3536.488 9        54.655 9  23848043.454 6         0.000 6      2755.708 6        37.977 6
G21  21157304.058 9 111182362.609 9     -1230.990 9        55.715 9  21157303.341 6         0.000 6      -959.213 6        37.977 6
G29  24265638.197 9 127516733.588 9     -3117.014 9        54.487 9  24265639.736 6         0.000 6     -2428.844 6        37.977 6
G27  22032128.556 9 115779589.853 9      2514.392 9        55.363 9  22032130.499 6         0.000 6      1959.268 6        37.977 6
G16  20503521.118 9 107746710.391 9       592.941 9        55.974 9  20503520.292 6         0.000 6       462.032 6        37.977 6
G26  20638481.459 9 108455929.905 9     -1449.930 9        55.880 9  20638484.269 6         0.000 6     -1129.816 6        37.977 6
G20  21972068.762 9 115463967.303 9      2589.900 9        55.305 9  21972069.100 6         0.000 6      2018.105 6        37.977 6
> 2019 07 03 12 00  3.0000000  0  8       0.000000000000
G07  25370734.417 9 133324062.919 9      2212.576 9        54.123 9  25370735.099 6         0.000 6      1724.086 6        37.977 6
G10  23847366.692 9 125318702.520 9      3536.752 9        54.656 9  23847370.456 6         0.000 6      2755.913 6        37.977 6
G21  21157538.300 9 111183593.556 9     -1230.917 9        55.715 9  21157537.583 6         0.000 6      -959.156 6        37.977 6
G29  24266231.226 9 127519849.967 9     -3115.792 9        54.487 9  24266232.765 6         0.000 6     -2427.892 6        37.977 6
G27  22031650.204 9 115777076.099 9      2513.142 9        55.364 9  22031652.147 6         0.000 6      1958.293 6        37.977 6
G16  20503408.390 9 107746118.002 9       591.845 9        55.974 9  20503407.564 6         0.000 6       461.178 6        37.977 6
G26  20638757.439 9 108457380.189 9     -1450.643 9        55.880 9  20638760.249 6         0.000 6     -1130.372 6        37.977 6
G20  21971575.900 9 115461377.297 9      2590.103 9        55.305 9  21971576.237 6         0.000 6      2018.264 6        37.977 6
> 2019 07 03 12 00  4.0000000  0  8       0.000000000000
G07  25370313.437 9 133321850.661 9      2212.264 9        54.124 9  25370314.120 6         0.000 6      1723.843 6        37.977 6
G10  23846693.673 9 125315165.789 9      3536.523 9        54.656 9  23846697.436 6         0.000 6      2755.735 6        37.977 6
G21  21157772.556 9 111184824.583 9     -1231.388 9        55.715 9  21157771.840 6         0.000 6      -959.523 6        37.977 6
G29  24266824.110 9 127522965.580 9     -3116.194 9        54.487 9  24266825.649 6         0.000 6     -2428.206 6        37.977 6
G27  22031172.023 9 115774563.241 9      2513.150 9        55.364 9  22031173.965 6         0.000 6      1958.300 6        37.977 6
G16  20503295.840 9 107745526.543 9       591.345 9        55.974 9  20503295.013 6         0.000 6       460.788 6        37.977 6
G26  20639033.547 9 108458831.146 9     -1451.190 9        55.880 9  20639036.358 6         0.000 6     -1130.798 6        37.977 6
G20  21971083.042 9 115458787.320 9      2589.508 9        55.305 9  21971083.379 6         0.000 6      2017.800 6        37.977 6
> 2019 07 03 12 00  5.0000000  0  8       0.000000000000
G07  25369892.456 9 133319638.396 9      2212.160 9        54.124 9  25369893.139 6         0.000 6      1723.762 6        37.977 6
G10  23846020.737 9 125311629.498 9      3536.156 9        54.656 9  23846024.499 6         0.000 6      2755.449 6        37.977 6
G21  21158006.949 9 111186056.326 9     -1232.015 9        55.715 9  21158006.233 6         0.000 6      -960.012 6        37.977 6
G29  24267417.210 9 127526082.335 9     -3117.073 9        54.486 9  24267418.751 6         0.000 6     -2428.890 6        37.977 6
G27  22030693.730 9 115772049.800 9      2513.531 9        55.364 9  22030695.672 6         0.000 6      1958.596 6        37.977 6
G16  20503183.331 9 107744935.308 9       591.025 9        55.974 9  20503182.505 6         0.000 6       460.539 6        37.977 6
G26  20639309.743 9 108460282.563 9     -1451.681 9        55.879 9  20639312.554 6         0.000 6     -1131.180 6        37.977 6
G20  21970590.365 9 115456198.290 9      2588.686 9        55.305 9  21970590.702 6         0.000 6      2017.159 6        37.977 6
> 2019 07 03 12 00  6.0000000  0  8       0.000000000000
G07  25369471.550 9 133317426.519 9      2211.543 9        54.124 9  25369472.232 6         0.000 6      1723.282 6        37.977 6
G10  23845347.835 9 125308093.384 9      3536.134 9        54.656 9  23845351.597 6         0.000 6      2755.432 6        37.977 6
G21  21158241.421 9 111187288.484 9     -1232.258 9        55.714 9  21158240.705 6         0.000 6      -960.201 6        37.977 6
G29  24268010.355 9 127529199.322 9     -3116.797 9        54.486 9  24268011.896 6         0.000 6     -2428.676 6        37.977 6
G27  22030215.461 9 115769536.482 9      2513.015 9        55.364 9  22030217.403 6         0.000 6      1958.194 6        37.977 6
G16  20503070.930 9 107744344.635 9       590.278 9        55.974 9  20503070.103 6         0.000 6       459.957 6        37.977 6
G26  20639586.046 9 108461734.545 9     -1452.295 9        55.879 9  20639588.857 6         0.000 6     -1131.659 6        37.977 6
G20  21970097.786 9 115453609.771 9      2588.426 9        55.305 9  21970098.122 6         0.000 6      2016.956 6        37.977 6
> 2019 07 03 12 00  7.0000000  0  8       0.000000000000
G07  25369050.783 9 133315215.377 9      2210.744 9        54.124 9  25369051.465 6         0.000 6      1722.659 6        37.977 6
G10  23844674.921 9 125304557.209 9      3536.239 9        54.657 9  23844678.682 6         0.000 6      2755.513 6        37.977 6
G21  21158475.923 9 111188520.801 9     -1232.376 9        55.714 9  21158475.207 6         0.000 6      -960.293 6        37.977 6
G29  24268603.400 9 127532315.786 9     -3116.141 9        54.486 9  24268604.942 6         0.000 6     -2428.164 6        37.977 6
G27  22029737.327 9 115767023.873 9      2512.199 9        55.364 9  22029739.269 6         0.000 6      1957.559 6        37.977 6
G16  20502958.688 9 107743754.799 9       589.387 9        55.974 9  20502957.861 6         0.000 6       459.263 6        37.977 6
G26  20639862.470 9 108463187.161 9     -1452.945 9        55.879 9  20639865.281 6         0.000 6     -1132.165 6        37.977 6
G20  21969605.231 9 115451021.384 9      2588.359 9        55.306 9  21969605.567 6         0.000 6      2016.904 6        37.977 6
> 2019 07 03 12 00  8.0000000  0  8       0.000000000000
G07  25368630.167 9 133313005.032 9      2209.956 9        54.124 9  25368630.849 6         0.000 6      1722.045 6        37.977 6
G10  23844001.987 9 125301020.930 9      3536.348 9        54.657 9  23844005.748 6         0.000 6      2755.599 6        37.977 6
G21  21158710.451 9 111189753.253 9     -1232.542 9        55.714 9  21158709.735 6         0.000 6      -960.422 6        37.977 6
G29  24269196.327 9 127535431.627 9     -3115.603 9        54.486 9  24269197.869 6         0.000 6     -2427.745 6        37.977 6
G27  22029259.344 9 115764512.060 9      2511.465 9        55.365 9  22029261.286 6         0.000 6      1956.986 6        37.977 6
G16  20502846.614 9 107743165.847 9       588.536 9        55.974 9  20502845.787 6         0.000 6       458.599 6        37.977 6
G26  20640139.017 9 108464640.423 9     -1453.564 9        55.879 9  20640141.828 6         0.000 6     -1132.648 6        37.977 6
G20  21969112.692 9 115448433.076 9      2588.261 9        55.306 9  21969113.028 6         0.000 6      2016.828 6        37.977 6
> 2019 07 03 12 00  9.0000000  0  8       0.000000000000
G07  25368209.705 9 133310795.491 9      2209.063 9        54.124 9  25368210.386 6         0.000 6      1721.349 6        37.977 6
G10  23843329.024 9 125297484.497 9      3536.614 9        54.657 9  23843332.784 6         0.000 6      2755.806 6        37.977 6
G21  21158945.022 9 111190985.926 9     -1232.852 9        55.714 9  21158944.305 6         0.000 6      -960.664 6        37.977 6
G29  24269789.181 9 127538547.083 9     -3115.394 9        54.486 9  24269790.724 6         0.000 6     -2427.582 6        37.977 6
G27  22028781.481 9 115762000.875 9      2510.930 9        55.365 9  22028783.423 6         0.000 6      1956.570 6        37.977 6
G16  20502734.691 9 107742577.687 9       587.792 9        55.974 9  20502733.864 6         0.000 6       458.019 6        37.977 6
G26  20640415.670 9 108466094.238 9     -1454.028 9        55.879 9  20640418.481 6         0.000 6     -1133.010 6        37.977 6
G20  21968620.173 9 115445844.876 9      2588.177 9        55.306 9  21968620.508 6         0.000 6      2016.763 6        37.977 6
> 2019 07 03 12 00 10.0000000  0  8       0.000000000000
G07  25367789.336 9 133308586.440 9      2209.974 9        54.124 9  25367790.017 6         0.000 6      1722.059 6        37.977 6
G10  23842656.083 9 125293948.179 9      3535.130 9        54.657 9  23842659.843 6         0.000 6      2754.649 6        37.977 6
G21  21159179.655 9 111192218.932 9     -1233.059 9        55.714 9  21159178.938 6         0.000 6      -960.825 6        37.977 6
G29  24270382.031 9 127541662.522 9     -3115.615 9        54.485 9  24270383.574 6         0.000 6     -2427.755 6        37.977 6
G27  22028303.679 9 115759490.007 9      2511.106 9        55.365 9  22028305.620 6         0.000 6      1956.707 6        37.977 6
G16  20502622.893 9 107741990.184 9       587.328 9        55.974 9  20502622.066 6         0.000 6       457.658 6        37.977 6
G26  20640692.436 9 108467548.653 9     -1455.194 9        55.879 9  20640695.247 6         0.000 6     -1133.918 6        37.977 6
G20  21968127.730 9 115443257.075 9      2586.783 9        55.306 9  21968128.065 6         0.000 6      2015.677 6        37.977 6
> 2019 07 03 12 00 11.0000000  0  8       0.000000000000
G07  25367368.009 9 133306372.356 9      2219.879 9        54.125 9  25367368.690 6         0.000 6      1729.777 6        37.977 6
G10  23841984.189 9 125290417.360 9      3524.968 9        54.657 9  23841987.947 6         0.000 6      2746.731 6        37.977 6
G21  21159414.273 9 111193451.860 9     -1232.888 9        55.714 9  21159413.557 6         0.000 6      -960.692 6        37.977 6
G29  24270975.087 9 127544779.045 9     -3118.306 9        54.485 9  24270976.631 6         0.000 6     -2429.851 6        37.977 6
G27  22027825.549 9 115756977.424 9      2515.029 9        55.365 9  22027827.490 6         0.000 6      1959.764 6        37.977 6
G16  20502511.069 9 107741402.545 9       588.359 9        55.974 9  20502510.242 6         0.000 6       458.461 6        37.977 6
G26  20640969.736 9 108469005.873 9     -1459.764 9        55.879 9  20640972.547 6         0.000 6     -1137.479 6        37.977 6
G20  21967636.117 9 115440673.637 9      2578.799 9        55.306 9  21967636.452 6         0.000 6      2009.455 6        37.977 6
> 2019 07 03 12 00 12.0000000  0  8       0.000000000000
G07  25366944.077 9 133304144.583 9      2235.795 9        54.125 9  25366944.758 6         0.000 6      1742.179 6        37.977 6
G10  23841314.854 9 125286899.995 9      3509.859 9        54.658 9  23841318.612 6         0.000 6      2734.958 6        37.977 6
G21  21159649.014 9 111194685.430 9     -1234.772 9        55.714 9  21159648.298 6         0.000 6      -962.160 6        37.977 6
G29  24271569.313 9 127547901.712 9     -3128.392 9        54.485 9  24271570.858 6         0.000 6     -2437.711 6        37.977 6
G27  22027346.065 9 115754457.718 9      2525.322 9        55.365 9  22027348.006 6         0.000 6      1967.784 6        37.977 6
G16  20502398.775 9 107740812.438 9       592.317 9        55.974 9  20502397.948 6         0.000 6       461.546 6        37.977 6
G26  20641248.035 9 108470468.346 9     -1464.821 9        55.879 9  20641250.847 6         0.000 6     -1141.419 6        37.977 6
G20  21967146.636 9 115438101.400 9      2565.356 9        55.306 9  21967146.970 6         0.000 6      1998.979 6        37.977 6
> 2019 07 03 12 00 13.0000000  0  8       0.000000000000
G07  25366517.456 9 133301902.678 9      2246.307 9        54.125 9  25366518.136 6         0.000 6      1750.370 6        37.977 6
G10  23840647.987 9 125283395.596 9      3500.578 9        54.658 9  23840651.745 6         0.000 6      2727.726 6        37.977 6
G21  21159884.346 9 111195922.105 9     -1238.557 9        55.714 9  21159883.629 6         0.000 6      -965.109 6        37.977 6
G29  24272165.909 9 127551036.834 9     -3141.152 9        54.485 9  24272167.454 6         0.000 6     -2447.654 6        37.977 6
G27  22026864.397 9 115751926.539 9      2536.153 9        55.365 9  22026866.338 6         0.000 6      1976.224 6        37.977 6
G16  20502285.602 9 107740217.709 9       596.766 9        55.974 9  20502284.775 6         0.000 6       465.012 6        37.977 6
G26  20641526.999 9 108471934.308 9     -1466.541 9        55.879 9  20641529.811 6         0.000 6     -1142.760 6        37.977 6
G20  21966659.564 9 115435541.823 9      2555.108 9        55.307 9  21966659.898 6         0.000 6      1990.994 6        37.977 6
> 2019 07 03 12 00 14.0000000  0  8       0.000000000000
G07  25366089.726 9 133299654.946 9      2248.201 9        54.125 9  25366090.406 6         0.000 6      1751.846 6        37.977 6
G10  23839982.088 9 125279896.282 9      3498.839 9        54.658 9  23839985.845 6         0.000 6      2726.371 6        37.977 6
G21  21160120.269 9 111197161.892 9     -1240.610 9        55.714 9  21160119.553 6         0.000 6      -966.709 6        37.977 6
G29  24272764.274 9 127554181.253 9     -3146.337 9        54.485 9  24272765.820 6         0.000 6     -2451.694 6        37.977 6
G27  22026381.320 9 115749387.954 9      2539.884 9        55.366 9  22026383.260 6         0.000 6      1979.131 6        37.977 6
G16  20502171.871 9 107739620.051 9       598.027 9        55.974 9  20502171.045 6         0.000 6       465.995 6        37.977 6
G26  20641806.083 9 108473400.904 9     -1466.628 9        55.878 9  20641808.895 6         0.000 6     -1142.827 6        37.977 6
G20  21966173.712 9 115432988.662 9      2552.135 9        55.307 9  21966174.046 6         0.000 6      1988.678 6        37.977 6
> 2019 07 03 12 00 15.0000000  0  8       0.000000000000
G07  25365662.013 9 133297407.301 9      2246.918 9        54.125 9  25365662.693 6         0.000 6      1750.846 6        37.977 6
G10  23839316.228 9 125276397.174 9      3499.520 9        54.658 9  23839319.984 6         0.000 6      2726.901 6        37.977 6
G21  21160356.402 9 111198402.778 9     -1241.040 9        55.714 9  21160355.686 6         0.000 6      -967.044 6        37.977 6
G29  24273363.033 9 127557327.741 9     -3146.279 9        54.484 9  24273364.579 6         0.000 6     -2451.648 6        37.977 6
G27  22025898.018 9 115746848.188 9      2539.351 9        55.366 9  22025899.958 6         0.000 6      1978.716 6        37.977 6
G16  20502058.127 9 107739022.321 9       597.288 9        55.975 9  20502057.300 6         0.000 6       465.419 6        37.977 6
G26  20642085.193 9 108474867.635 9     -1466.877 9        55.878 9  20642088.005 6         0.000 6     -1143.022 6        37.977 6
G20  21965688.060 9 115430436.547 9      2552.294 9        55.307 9  21965688.394 6         0.000 6      1988.802 6        37.977 6
> 2019 07 03 12 00 16.0000000  0  8       0.000000000000
G07  25365234.588 9 133295161.173 9      2245.401 9        54.125 9  25365235.268 6         0.000 6      1749.664 6        37.977 6
G10  23838650.209 9 125272897.231 9      3500.334 9        54.659 9  23838653.964 6         0.000 6      2727.535 6        37.977 6
G21  21160592.581 9 111199643.904 9     -1241.225 9        55.713 9  21160591.865 6         0.000 6      -967.189 6        37.977 6
G29  24273961.675 9 127560473.616 9     -3145.528 9        54.484 9  24273963.222 6         0.000 6     -2451.064 6        37.977 6
G27  22025414.898 9 115744309.382 9      2538.301 9        55.366 9  22025416.839 6         0.000 6      1977.898 6        37.977 6
G16  20501944.562 9 107738425.531 9       596.303 9        55.975 9  20501943.735 6         0.000 6       464.652 6        37.977 6
G26  20642364.363 9 108476334.677 9     -1467.231 9        55.878 9  20642367.174 6         0.000 6     -1143.297 6        37.977 6
G20  21965202.327 9 115427884.009 9      2552.742 9        55.307 9  21965202.661 6         0.000 6      1989.150 6        37.977 6
> 2019 07 03 12 00 17.0000000  0  8       0.000000000000
G07  25364807.413 9 133292916.355 9      2244.334 9        54.125 9  25364808.092 6         0.000 6      1748.832 6        37.977 6
G10  23837984.072 9 125269396.669 9      3500.736 9        54.659 9  23837987.827 6         0.000 6      2727.849 6        37.977 6
G21  21160828.800 9 111200885.245 9     -1241.461 9        55.713 9  21160828.084 6         0.000 6      -967.372 6        37.977 6
G29  24274560.199 9 127563618.874 9     -3145.068 9        54.484 9  24274561.747 6         0.000 6     -2450.705 6        37.977 6
G27  22024931.954 9 115741771.494 9      2537.547 9        55.366 9  22024933.894 6         0.000 6      1977.310 6        37.977 6
G16  20501831.174 9 107737829.675 9       595.445 9        55.975 9  20501830.347 6         0.000 6       463.983 6        37.977 6
G26  20642643.611 9 108477802.137 9     -1467.707 9        55.878 9  20642646.423 6         0.000 6     -1143.669 6        37.977 6
G20  21964716.543 9 115425331.197 9      2552.826 9        55.307 9  21964716.876 6         0.000 6      1989.216 6        37.977 6
> 2019 07 03 12 00 18.0000000  0  8       0.000000000000
G07  25364380.393 9 133290672.355 9      2243.737 9        54.126 9  25364381.073 6         0.000 6      1748.367 6        37.977 6
G10  23837317.900 9 125265895.922 9      3500.718 9        54.659 9  23837321.654 6         0.000 6      2727.835 6        37.977 6
G21  21161065.069 9 111202126.847 9     -1241.761 9        55.713 9  21161064.353 6         0.000 6      -967.606 6        37.977 6
G29  24275158.670 9 127566763.848 9     -3144.953 9        54.484 9  24275160.218 6         0.000 6     -2450.616 6        37.977 6
G27  22024449.118 9 115739234.177 9      2537.139 9        55.366 9  22024451.058 6         0.000 6      1976.992 6        37.977 6
G16  20501717.933 9 107737234.589 9       594.742 9        55.975 9  20501717.106 6         0.000 6       463.435 6        37.977 6
G26  20642922.960 9 108479270.124 9     -1468.290 9        55.878 9  20642925.772 6         0.000 6     -1144.122 6        37.977 6
G20  21964230.779 9 115422778.495 9      2552.528 9        55.308 9  21964231.112 6         0.000 6      1988.984 6        37.977 6
> 2019 07 03 12 00 19.0000000  0  8       0.000000000000
G07  25363953.455 9 133288428.786 9      2243.445 9        54.126 9  25363954.135 6         0.000 6      1748.140 6        37.977 6
G10  23836651.760 9 125262395.342 9      3500.435 9        54.659 9  23836655.513 6         0.000 6      2727.614 6        37.977 6
G21  21161301.404 9 111203368.792 9     -1242.131 9        55.713 9  21161300.688 6         0.000 6      -967.894 6        37.977 6
G29  24275757.148 9 127569908.863 9     -3145.124 9        54.483 9  24275758.697 6         0.000 6     -2450.749 6        37.977 6
G27  22023966.333 9 115736697.131 9      2536.991 9        55.367 9  22023968.273 6         0.000 6      1976.877 6        37.977 6
G16  20501604.815 9 107736640.150 9       594.155 9        55.975 9  20501603.988 6         0.000 6       462.978 6        37.977 6
G26  20643202.427 9 108480738.729 9     -1468.927 9        55.878 9  20643205.239 6         0.000 6     -1144.619 6        37.977 6
G20  21963745.100 9 115420226.239 9      2551.968 9        55.308 9  21963745.432 6         0.000 6      1988.548 6        37.977 6
> 2019 07 03 12 00 20.0000000  0  8       0.000000000000
G07  25363526.561 9 133286185.442 9      2243.249 9        54.126 9  25363527.239 6         0.000 6      1747.987 6        37.977 6
G10  23835985.683 9 125258895.096 9      3500.079 9        54.660 9  23835989.436 6         0.000 6      2727.337 6        37.977 6
G21  21161537.813 9 111204611.131 9     -1242.554 9        55.713 9  21161537.097 6         0.000 6      -968.224 6        37.977 6
G29  24276355.676 9 127573054.139 9     -3145.459 9        54.483 9  24276357.226 6         0.000 6     -2451.009 6        37.977 6
G27  22023483.562 9 115734160.154 9      2536.974 9        55.367 9  22023485.502 6         0.000 6      1976.863 6        37.977 6
G16  20501491.801 9 107736046.260 9       593.628 9        55.975 9  20501490.975 6         0.000 6       462.567 6        37.977 6
G26  20643482.015 9 108482207.972 9     -1469.560 9        55.878 9  20643484.827 6         0.000 6     -1145.112 6        37.977 6
G20  21963259.538 9 115417674.602 9      2551.312 9        55.308 9  21963259.871 6         0.000 6      1988.036 6        37.977 6
> 2019 07 03 12 00 21.0000000  0  8       0.000000000000
G07  25363099.709 9 133283942.323 9      2242.960 9        54.126 9  25363100.387 6         0.000 6      1747.762 6        37.977 6
G10  23835319.669 9 125255395.178 9      3499.804 9        54.660 9  23835323.421 6         0.000 6      2727.123 6        37.977 6
G21  21161774.301 9 111205853.883 9     -1242.951 9        55.713 9  21161773.585 6         0.000 6      -968.533 6        37.977 6
G29  24276954.264 9 127576199.730 9     -3145.700 9        54.483 9  24276955.814 6         0.000 6     -2451.197 6        37.977 6
G27  22023000.797 9 115731623.209 9      2536.875 9        55.367 9  22023002.736 6         0.000 6      1976.786 6        37.977 6
G16  20501378.888 9 107735452.898 9       593.065 9        55.975 9  20501378.062 6         0.000 6       462.129 6        37.977 6
G26  20643761.720 9 108483677.833 9     -1470.175 9        55.878 9  20643764.532 6         0.000 6     -1145.592 6        37.977 6
G20  21962774.097 9 115415123.594 9      2550.738 9        55.308 9  21962774.429 6         0.000 6      1987.589 6        37.977 6
> 2019 07 03 12 00 22.0000000  0  8       0.000000000000
G07  25362672.933 9 133281699.606 9      2242.448 9        54.126 9  25362673.611 6         0.000 6      1747.363 6        37.977 6
G10  23834653.691 9 125251895.450 9      3499.700 9        54.660 9  23834657.442 6         0.000 6      2727.042 6        37.977 6
G21  21162010.856 9 111207096.986 9     -1243.245 9        55.713 9  21162010.140 6         0.000 6      -968.762 6        37.977 6
G29  24277552.865 9 127579345.391 9     -3145.598 9        54.483 9  24277554.416 6         0.000 6     -2451.118 6        37.977 6
G27  22022518.079 9 115729086.509 9      2536.491 9        55.367 9  22022520.018 6         0.000 6      1976.488 6        37.977 6
G16  20501266.096 9 107734860.172 9       592.369 9        55.975 9  20501265.270 6         0.000 6       461.586 6        37.977 6
G26  20644041.545 9 108485148.319 9     -1470.797 9        55.877 9  20644044.357 6         0.000 6     -1146.076 6        37.977 6
G20  21962288.745 9 115412573.057 9      2550.377 9        55.308 9  21962289.077 6         0.000 6      1987.308 6        37.977 6
> 2019 07 03 12 00 23.0000000  0  8       0.000000000000
G07  25362246.274 9 133279457.502 9      2241.779 9        54.126 9  25362246.952 6         0.000 6      1746.842 6        37.977 6
G10  23833987.717 9 125248395.747 9      3499.722 9        54.660 9  23833991.468 6         0.000 6      2727.059 6        37.977 6
G21  21162247.457 9 111208340.333 9     -1243.466 9        55.713 9  21162246.741 6         0.000 6      -968.934 6        37.977 6
G29  24278151.416 9 127582490.788 9     -3145.263 9        54.483 9  24278152.968 6         0.000 6     -2450.857 6        37.977 6
G27  22022035.458 9 115726550.325 9      2535.919 9        55.367 9  22022037.397 6         0.000 6      1976.041 6        37.977 6
G16  20501153.448 9 107734268.203 9       591.588 9        55.975 9  20501152.622 6         0.000 6       460.977 6        37.977 6
G26  20644321.488 9 108486619.427 9     -1471.414 9        55.877 9  20644324.300 6         0.000 6     -1146.557 6        37.977 6
G20  21961803.442 9 115410022.780 9      2550.169 9        55.309 9  21961803.774 6         0.000 6      1987.146 6        37.977 6
> 2019 07 03 12 00 24.0000000  0  8       0.000000000000
G07  25361819.681 9 133277215.745 9      2242.037 9        54.126 9  25361820.359 6         0.000 6      1747.042 6        37.977 6
G10  23833321.779 9 125244896.231 9      3499.147 9        54.661 9  23833325.529 6         0.000 6      2726.611 6        37.977 6
G21  21162484.150 9 111209584.161 9     -1244.458 9        55.713 9  21162483.434 6         0.000 6      -969.708 6        37.977 6
G29  24278750.051 9 127585636.623 9     -3147.188 9        54.482 9  24278751.603 6         0.000 6     -2452.357 6        37.977 6
G27  22021552.834 9 115724014.117 9      2537.077 9        55.368 9  22021554.772 6         0.000 6      1976.944 6        37.977 6
G16  20501040.895 9 107733676.729 9       591.632 9        55.975 9  20501040.068 6         0.000 6       461.012 6        37.977 6
G26  20644601.530 9 108488091.059 9     -1471.756 9        55.877 9  20644604.343 6         0.000 6     -1146.824 6        37.977 6
G20  21961318.248 9 115407473.072 9      2548.913 9        55.309 9  21961318.579 6         0.000 6      1986.167 6        37.977 6
> 2019 07 03 12 00 25.0000000  0  8       0.000000000000
G07  25361392.875 9 133274972.867 9      2243.710 9        54.127 9  25361393.553 6         0.000 6      1748.347 6        37.977 6
G10  23832656.029 9 125241397.700 9      3498.142 9        54.661 9  23832659.778 6         0.000 6      2725.827 6        37.977 6
G21  21162721.245 9 111210830.104 9     -1247.946 9        55.713 9  21162720.529 6         0.000 6      -972.426 6        37.977 6
G29  24279349.641 9 127588787.480 9     -3155.818 9        54.482 9  24279351.194 6         0.000 6     -2459.082 6        37.977 6
G27  22021069.555 9 115721474.477 9      2543.059 9        55.368 9  22021071.494 6         0.000 6      1981.605 6        37.977 6
G16  20500928.123 9 107733084.113 9       594.028 9        55.975 9  20500927.297 6         0.000 6       462.879 6        37.977 6
G26  20644881.531 9 108489562.471 9     -1470.664 9        55.877 9  20644884.344 6         0.000 6     -1145.973 6        37.977 6
G20  21960833.514 9 115404925.782 9      2545.453 9        55.309 9  21960833.845 6         0.000 6      1983.471 6        37.977 6
> 2019 07 03 12 00 26.0000000  0  8       0.000000000000
G07  25360966.023 9 133272729.750 9      2241.212 9        54.127 9  25360966.701 6         0.000 6      1746.400 6        37.977 6
G10  23831990.119 9 125237898.331 9      3501.928 9        54.661 9  23831993.868 6         0.000 6      2728.778 6        37.977 6
G21  21162959.255 9 111212080.856 9     -1253.719 9        55.712 9  21162958.539 6         0.000 6      -976.924 6        37.977 6
G29  24279951.389 9 127591949.677 9     -3168.481 9        54.482 9  24279952.942 6         0.000 6     -2468.949 6        37.977 6
G27  22020584.857 9 115718927.372 9      2550.768 9        55.368 9  22020586.796 6         0.000 6      1987.612 6        37.977 6
G16  20500814.743 9 107732488.294 9       597.474 9        55.975 9  20500813.916 6         0.000 6       465.564 6        37.977 6
G26  20645161.035 9 108491031.273 9     -1466.365 9        55.877 9  20645163.848 6         0.000 6     -1142.623 6        37.977 6
G20  21960349.348 9 115402381.475 9      2544.087 9        55.309 9  21960349.679 6         0.000 6      1982.406 6        37.977 6
> 2019 07 03 12 00 27.0000000  0  8       0.000000000000
G07  25360540.362 9 133270492.891 9      2232.132 9        54.127 9  25360541.040 6         0.000 6      1739.324 6        37.977 6
G10  23831322.830 9 125234391.715 9      3511.482 9        54.661 9  23831326.578 6         0.000 6      2736.222 6        37.977 6
G21  21163198.309 9 111213337.092 9     -1258.193 9        55.712 9  21163197.593 6         0.000 6      -980.410 6        37.977 6
G29  24280555.136 9 127595122.379 9     -3175.407 9        54.482 9  24280556.690 6         0.000 6     -2474.346 6        37.977 6
G27  22020099.134 9 115716374.881 9      2553.100 9        55.368 9  22020101.072 6         0.000 6      1989.430 6        37.977 6
G16  20500700.896 9 107731890.023 9       598.526 9        55.975 9  20500700.069 6         0.000 6       466.384 6        37.977 6
G26  20645439.515 9 108492494.694 9     -1460.781 9        55.877 9  20645442.328 6         0.000 6     -1138.272 6        37.977 6
G20  21959864.879 9 115399835.579 9      2548.258 9        55.309 9  21959865.209 6         0.000 6      1985.657 6        37.977 6
> 2019 07 03 12 00 28.0000000  0  8       0.000000000000
G07  25360116.264 9 133268264.241 9      2226.276 9        54.127 9  25360116.941 6         0.000 6      1734.761 6        37.977 6
G10  23830653.995 9 125230876.970 9      3516.845 9        54.662 9  23830657.742 6         0.000 6      2740.402 6        37.977 6
G21  21163437.902 9 111214596.160 9     -1259.583 9        55.712 9  21163437.186 6         0.000 6      -981.493 6        37.977 6
G29  24281159.493 9 127598298.289 9     -3175.937 9        54.482 9  24281161.048 6         0.000 6     -2474.759 6        37.977 6
G27  22019613.402 9 115713822.347 9      2551.892 9        55.368 9  22019615.340 6         0.000 6      1988.488 6        37.977 6
G16  20500587.073 9 107731291.881 9       597.662 9        55.975 9  20500586.246 6         0.000 6       465.711 6        37.977 6
G26  20645717.230 9 108493954.094 9     -1458.701 9        55.877 9  20645720.043 6         0.000 6     -1136.650 6        37.977 6
G20  21959379.598 9 115397285.416 9      2551.413 9        55.310 9  21959379.929 6         0.000 6      1988.115 6        37.977 6
> 2019 07 03 12 00 29.0000000  0  8       0.000000000000
G07  25359692.754 9 133266038.685 9      2225.293 9        54.127 9  25359693.431 6         0.000 6      1733.995 6        37.977 6
G10  23829984.691 9 125227359.766 9      3517.131 9        54.662 9  23829988.438 6         0.000 6      2740.625 6        37.977 6
G21  21163677.614 9 111215855.853 9     -1259.720 9        55.712 9  21163676.898 6         0.000 6      -981.600 6        37.977 6
G29  24281763.791 9 127601473.883 9     -3175.245 9        54.481 9  24281765.346 6         0.000 6     -2474.219 6        37.977 6
G27  22019127.887 9 115711270.949 9      2550.999 9        55.369 9  22019129.825 6         0.000 6      1987.792 6        37.977 6
G16  20500473.432 9 107730694.692 9       596.743 9        55.975 9  20500472.605 6         0.000 6       464.994 6        37.977 6
G26  20645994.846 9 108495412.973 9     -1459.273 9        55.877 9  20645997.659 6         0.000 6     -1137.096 6        37.977 6
G20  21958894.046 9 115394733.825 9      2551.480 9        55.310 9  21958894.376 6         0.000 6      1988.168 6        37.977 6
> 2019 07 03 12 00 30.0000000  0  8       0.000000000000
G07  25359269.297 9 133263813.409 9      2225.234 9        54.127 9  25359269.974 6         0.000 6      1733.949 6        37.977 6
G10  23829315.468 9 125223842.985 9      3516.490 9        54.662 9  23829319.214 6         0.000 6      2740.124 6        37.977 6
G21  21163917.329 9 111217115.565 9     -1259.719 9        55.712 9  21163916.613 6         0.000 6      -981.599 6        37.977 6
G29  24282367.952 9 127604648.761 9     -3174.562 9        54.481 9  24282369.508 6         0.000 6     -2473.688 6        37.977 6
G27  22018642.513 9 115708720.296 9      2550.328 9        55.369 9  22018644.451 6         0.000 6      1987.269 6        37.977 6
G16  20500359.958 9 107730098.381 9       595.891 9        55.975 9  20500359.131 6         0.000 6       464.331 6        37.977 6
G26  20646272.634 9 108496872.760 9     -1460.276 9        55.877 9  20646275.447 6         0.000 6     -1137.878 6        37.977 6
G20  21958408.571 9 115392182.641 9      2550.916 9        55.310 9  21958408.900 6         0.000 6      1987.728 6        37.977 6
> 2019 07 03 12 00 31.0000000  0  8       0.000000000000
G07  25358845.876 9 133261588.318 9      2224.909 9        54.127 9  25358846.552 6         0.000 6      1733.696 6        37.977 6
G10  23828646.339 9 125220326.699 9      3516.159 9        54.662 9  23828650.084 6         0.000 6      2739.867 6        37.977 6
G21  21164157.058 9 111218375.348 9     -1259.890 9        55.712 9  21164156.342 6         0.000 6      -981.732 6        37.977 6
G29  24282972.010 9 127607823.096 9     -3174.196 9        54.481 9  24282973.566 6         0.000 6     -2473.402 6        37.977 6
G27  22018157.254 9 115706170.248 9      2549.803 9        55.369 9  22018159.192 6         0.000 6      1986.860 6        37.977 6
G16  20500246.637 9 107729502.880 9       595.122 9        55.975 9  20500245.811 6         0.000 6       463.732 6        37.977 6
G26  20646550.593 9 108498333.443 9     -1461.060 9        55.876 9  20646553.407 6         0.000 6     -1138.489 6        37.977 6
G20  21957923.191 9 115389631.958 9      2550.472 9        55.310 9  21957923.520 6         0.000 6      1987.382 6        37.977 6
> 2019 07 03 12 00 32.0000000  0  8       0.000000000000
G07  25358422.536 9 133259363.654 9      2224.414 9        54.128 9  25358423.212 6         0.000 6      1733.310 6        37.977 6
G10  23827977.248 9 125216810.613 9      3516.054 9        54.663 9  23827980.992 6         0.000 6      2739.785 6        37.977 6
G21  21164396.837 9 111219635.396 9     -1260.226 9        55.712 9  21164396.122 6         0.000 6      -981.995 6        37.977 6
G29  24283576.034 9 127610997.252 9     -3174.181 9        54.481 9  24283577.591 6         0.000 6     -2473.390 6        37.977 6
G27  22017672.077 9 115703620.626 9      2549.477 9        55.369 9  22017674.014 6         0.000 6      1986.606 6        37.977 6
G16  20500133.454 9 107728908.096 9       594.463 9        55.975 9  20500132.627 6         0.000 6       463.218 6        37.977 6
G26  20646828.682 9 108499794.808 9     -1461.650 9        55.876 9  20646831.495 6         0.000 6     -1138.948 6        37.977 6
G20  21957437.890 9 115387081.687 9      2550.081 9        55.310 9  21957438.219 6         0.000 6      1987.077 6        37.977 6
> 2019 07 03 12 00 33.0000000  0  8       0.000000000000
G07  25357999.289 9 133257139.480 9      2223.984 9        54.128 9  25357999.964 6         0.000 6      1732.976 6        37.977 6
G10  23827308.174 9 125213294.620 9      3515.916 9        54.663 9  23827311.918 6         0.000 6      2739.678 6        37.977 6
G21  21164636.689 9 111220895.825 9     -1260.637 9        55.712 9  21164635.973 6         0.000 6      -982.315 6        37.977 6
G29  24284180.076 9 127614171.507 9     -3174.381 9        54.480 9  24284181.634 6         0.000 6     -2473.547 6        37.977 6
G27  22017186.946 9 115701071.250 9      2549.313 9        55.369 9  22017188.884 6         0.000 6      1986.478 6        37.977 6
G16  20500020.388 9 107728313.930 9       593.885 9        55.975 9  20500019.561 6         0.000 6       462.767 6        37.977 6
G26  20647106.876 9 108501256.727 9     -1462.200 9        55.876 9  20647109.690 6         0.000 6     -1139.377 6        37.977 6
G20  21956952.668 9 115384531.832 9      2549.607 9        55.310 9  21956952.996 6         0.000 6      1986.708 6        37.977 6
> 2019 07 03 12 00 34.0000000  0  8       0.000000000000
G07  25357576.099 9 133254915.608 9      2223.811 9        54.128 9  25357576.775 6         0.000 6      1732.840 6        37.977 6
G10  23826639.151 9 125209778.887 9      3515.527 9        54.663 9  23826642.894 6         0.000 6      2739.374 6        37.977 6
G21  21164876.619 9 111222156.664 9     -1261.037 9        55.712 9  21164875.903 6         0.000 6      -982.626 6        37.977 6
G29  24284784.165 9 127617346.007 9     -3174.640 9        54.480 9  24284785.724 6         0.000 6     -2473.748 6        37.977 6
G27  22016701.836 9 115698521.980 9      2549.243 9        55.369 9  22016703.773 6         0.000 6      1986.423 6        37.977 6
G16  20499907.427 9 107727720.320 9       593.338 9        55.975 9  20499906.601 6         0.000 6       462.341 6        37.977 6
G26  20647385.185 9 108502719.244 9     -1462.858 9        55.876 9  20647387.998 6         0.000 6     -1139.890 6        37.977 6
G20  21956467.554 9 115381982.545 9      2548.945 9        55.311 9  21956467.882 6         0.000 6      1986.192 6        37.977 6
> 2019 07 03 12 00 35.0000000  0  8       0.000000000000
G07  25357152.923 9 133252691.806 9      2223.800 9        54.128 9  25357153.598 6         0.000 6      1732.832 6        37.977 6
G10  23825970.221 9 125206263.649 9      3514.966 9        54.663 9  23825973.964 6         0.000 6      2738.937 6        37.977 6
G21  21165116.620 9 111223417.878 9     -1261.392 9        55.712 9  21165115.905 6         0.000 6      -982.903 6        37.977 6
G29  24285388.300 9 127620520.747 9     -3174.851 9        54.480 9  24285389.859 6         0.000 6     -2473.913 6        37.977 6
G27  22016216.736 9 115695972.767 9      2549.179 9        55.370 9  22016218.673 6         0.000 6      1986.374 6        37.977 6
G16  20499794.571 9 107727127.254 9       592.785 9        55.975 9  20499793.744 6         0.000 6       461.911 6        37.977 6
G26  20647663.628 9 108504182.471 9     -1463.608 9        55.876 9  20647666.441 6         0.000 6     -1140.474 6        37.977 6
G20  21955982.578 9 115379433.987 9      2548.180 9        55.311 9  21955982.906 6         0.000 6      1985.596 6        37.977 6
> 2019 07 03 12 00 36.0000000  0  8       0.000000000000
G07  25356729.810 9 133250468.334 9      2222.748 9        54.128 9  25356730.485 6         0.000 6      1732.013 6        37.977 6
G10  23825301.338 9 125202748.657 9      3515.438 9        54.664 9  23825305.080 6         0.000 6      2739.305 6        37.977 6
G21  21165356.694 9 111224679.476 9     -1261.861 9        55.712 9  21165355.979 6         0.000 6      -983.269 6        37.977 6
G29  24285992.467 9 127623695.655 9     -3174.951 9        54.480 9  24285994.027 6         0.000 6     -2473.990 6        37.977 6
G27  22015731.668 9 115693423.719 9      2548.801 9        55.370 9  22015733.605 6         0.000 6      1986.079 6        37.977 6
G16  20499681.826 9 107726534.774 9       592.127 9        55.976 9  20499680.999 6         0.000 6       461.398 6        37.977 6
G26  20647942.187 9 108505646.309 9     -1463.900 9        55.876 9  20647945.001 6         0.000 6     -1140.702 6        37.977 6
G20  21955497.705 9 115376885.966 9      2548.146 9        55.311 9  21955498.033 6         0.000 6      1985.569 6        37.977 6
> 2019 07 03 12 00 37.0000000  0  8       0.000000000000
G07  25356307.296 9 133248248.016 9      2216.540 9        54.128 9  25356307.971 6         0.000 6      1727.175 6        37.977 6
G10  23824631.972 9 125199231.124 9      3520.959 9        54.664 9  23824635.713 6         0.000 6      2743.607 6        37.977 6
G21  21165596.900 9 111225941.763 9     -1262.772 9        55.711 9  21165596.184 6         0.000 6      -983.978 6        37.977 6
G29  24286596.600 9 127626870.382 9     -3174.155 9        54.480 9  24286598.160 6         0.000 6     -2473.370 6        37.977 6
G27  22015246.801 9 115690875.729 9      2546.626 9        55.370 9  22015248.738 6         0.000 6      1984.384 6        37.977 6
G16  20499569.253 9 107725943.201 9       590.807 9        55.976 9  20499568.426 6         0.000 6       460.369 6        37.977 6
G26  20648220.632 9 108507109.548 9     -1462.055 9        55.876 9  20648223.446 6         0.000 6     -1139.264 6        37.977 6
G20  21955012.558 9 115374336.504 9      2551.781 9        55.311 9  21955012.885 6         0.000 6      1988.402 6        37.977 6
> 2019 07 03 12 00 38.0000000  0  8       0.000000000000
G07  25355886.770 9 133246038.137 9      2202.152 9        54.128 9  25355887.445 6         0.000 6      1715.964 6        37.977 6
G10  23823960.804 9 125195704.126 9      3533.948 9        54.664 9  23823964.545 6         0.000 6      2753.728 6        37.977 6
G21  21165837.246 9 111227204.793 9     -1262.918 9        55.711 9  21165836.531 6         0.000 6      -984.092 6        37.977 6
G29  24287200.189 9 127630042.257 9     -3168.312 9        54.479 9  24287201.750 6         0.000 6     -2468.817 6        37.977 6
G27  22014762.798 9 115688332.279 9      2539.168 9        55.370 9  22014764.734 6         0.000 6      1978.574 6        37.977 6
G16  20499457.120 9 107725353.939 9       587.216 9        55.976 9  20499456.293 6         0.000 6       457.571 6        37.977 6
G26  20648498.473 9 108508569.607 9     -1457.959 9        55.876 9  20648501.287 6         0.000 6     -1136.073 6        37.977 6
G20  21954526.100 9 115371780.156 9      2561.898 9        55.311 9  21954526.428 6         0.000 6      1996.286 6        37.977 6
> 2019 07 03 12 00 39.0000000  0  8       0.000000000000
G07  25355469.263 9 133243844.128 9      2186.847 9        54.129 9  25355469.938 6         0.000 6      1704.038 6        37.977 6
G10  23823286.991 9 125192163.221 9      3546.820 9        54.664 9  23823290.731 6         0.000 6      2763.758 6        37.977 6
G21  21166077.365 9 111228466.625 9     -1260.386 9        55.711 9  21166076.650 6         0.000 6      -982.119 6        37.977 6
G29  24287801.932 9 127633204.427 9     -3155.511 9        54.479 9  24287803.494 6         0.000 6     -2458.842 6        37.977 6
G27  22014280.770 9 115685799.205 9      2526.843 9        55.370 9  22014282.706 6         0.000 6      1968.969 6        37.977 6
G16  20499345.935 9 107724769.657 9       581.226 9        55.976 9  20499345.108 6         0.000 6       452.903 6        37.977 6
G26  20648775.630 9 108510026.074 9     -1455.615 9        55.875 9  20648778.444 6         0.000 6     -1134.246 6        37.977 6
G20  21954037.389 9 115369211.969 9      2573.917 9        55.312 9  21954037.716 6         0.000 6      2005.650 6        37.977 6
> 2019 07 03 12 00 40.0000000  0  8       0.000000000000
G07  25355053.876 9 133241661.257 9      2180.435 9        54.129 9  25355054.550 6         0.000 6      1699.041 6        37.977 6
G10  23822611.501 9 125188613.512 9      3551.303 9        54.665 9  23822615.241 6         0.000 6      2767.252 6        37.977 6
G21  21166316.941 9 111229725.604 9     -1257.943 9        55.711 9  21166316.226 6         0.000 6      -980.216 6        37.977 6
G29  24288401.394 9 127636354.612 9     -3146.383 9        54.479 9  24288402.957 6         0.000 6     -2451.730 6        37.977 6
G27  22013800.798 9 115683276.940 9      2519.055 9        55.371 9  22013802.734 6         0.000 6      1962.901 6        37.977 6
G16  20499235.782 9 107724190.798 9       577.107 9        55.976 9  20499234.955 6         0.000 6       449.694 6        37.977 6
G26  20649052.663 9 108511481.895 9     -1456.275 9        55.875 9  20649055.478 6         0.000 6     -1134.760 6        37.977 6
G20  21953546.959 9 115366634.746 9      2579.220 9        55.312 9  21953547.286 6         0.000 6      2009.783 6        37.977 6
> 2019 07 03 12 00 41.0000000  0  8       0.000000000000
G07  25354639.046 9 133239481.313 9      2179.968 9        54.129 9  25354639.720 6         0.000 6      1698.677 6        37.977 6
G10  23821935.706 9 125185062.193 9      3550.984 9        54.665 9  23821939.445 6         0.000 6      2767.003 6        37.977 6
G21  21166556.278 9 111230983.325 9     -1257.784 9        55.711 9  21166555.562 6         0.000 6      -980.092 6        37.977 6
G29  24288999.928 9 127639499.919 9     -3145.154 9        54.479 9  24289001.491 6         0.000 6     -2450.772 6        37.977 6
G27  22013321.614 9 115680758.813 9      2517.930 9        55.371 9  22013323.550 6         0.000 6      1962.024 6        37.977 6
G16  20499126.095 9 107723614.388 9       576.055 9        55.976 9  20499125.268 6         0.000 6       448.874 6        37.977 6
G26  20649329.881 9 108512938.680 9     -1457.250 9        55.875 9  20649332.695 6         0.000 6     -1135.520 6        37.977 6
G20  21953056.120 9 115364055.373 9      2579.025 9        55.312 9  21953056.447 6         0.000 6      2009.631 6        37.977 6
> 2019 07 03 12 00 42.0000000  0  8       0.000000000000
G07  25354224.134 9 133237300.939 9      2180.766 9        54.129 9  25354224.807 6         0.000 6      1699.299 6        37.977 6
G10  23821260.095 9 125181511.846 9      3549.750 9        54.665 9  23821263.833 6         0.000 6      2766.041 6        37.977 6
G21  21166795.685 9 111232241.419 9     -1258.403 9        55.711 9  21166794.970 6         0.000 6      -980.574 6        37.977 6
G29  24289598.544 9 127642645.656 9     -3146.321 9        54.479 9  24289600.107 6         0.000 6     -2451.682 6        37.977 6
G27  22012842.392 9 115678240.490 9      2518.701 9        55.371 9  22012844.328 6         0.000 6      1962.625 6        37.977 6
G16  20499016.489 9 107723038.409 9       575.894 9        55.976 9  20499015.662 6         0.000 6       448.748 6        37.977 6
G26  20649607.264 9 108514396.337 9     -1458.067 9        55.875 9  20649610.078 6         0.000 6     -1136.156 6        37.977 6
G20  21952565.492 9 115361477.110 9      2577.527 9        55.312 9  21952565.818 6         0.000 6      2008.463 6        37.977 6
> 2019 07 03 12 00 43.0000000  0  8       0.000000000000
G07  25353809.105 9 133235119.950 9      2181.116 9        54.129 9  25353809.778 6         0.000 6      1699.572 6        37.977 6
G10  23820584.690 9 125177962.581 9      3548.890 9        54.665 9  23820588.428 6         0.000 6      2765.371 6        37.977 6
G21  21167035.199 9 111233500.071 9     -1258.877 9        55.711 9  21167034.484 6         0.000 6      -980.943 6        37.977 6
G29  24290197.341 9 127645792.342 9     -3146.969 9        54.478 9  24290198.905 6         0.000 6     -2452.186 6        37.977 6
G27  22012363.060 9 115675721.584 9      2519.023 9        55.371 9  22012364.996 6         0.000 6      1962.876 6        37.977 6
G16  20498906.931 9 107722462.676 9       575.530 9        55.976 9  20498906.104 6         0.000 6       448.465 6        37.977 6
G26  20649884.799 9 108515854.793 9     -1458.833 9        55.875 9  20649887.614 6         0.000 6     -1136.754 6        37.977 6
G20  21952075.118 9 115358900.180 9      2576.431 9        55.312 9  21952075.444 6         0.000 6      2007.610 6        37.977 6
> 2019 07 03 12 00 44.0000000  0  8       0.000000000000
G07  25353394.068 9 133232938.923 9      2180.866 9        54.129 9  25353394.742 6         0.000 6      1699.377 6        37.977 6
G10  23819909.398 9 125174413.908 9      3548.548 9        54.666 9  23819913.135 6         0.000 6      2765.105 6        37.977 6
G21  21167274.790 9 111234759.129 9     -1259.220 9        55.711 9  21167274.075 6         0.000 6      -981.210 6        37.977 6
G29  24290796.204 9 127648939.381 9     -3147.056 9        54.478 9  24290797.769 6         0.000 6     -2452.254 6        37.977 6
G27  22011883.718 9 115673202.630 9      2518.828 9        55.371 9  22011885.654 6         0.000 6      1962.724 6        37.977 6
G16  20498797.466 9 107721887.433 9       574.932 9        55.976 9  20498796.639 6         0.000 6       447.999 6        37.977 6
G26  20650162.471 9 108517313.967 9     -1459.498 9        55.875 9  20650165.286 6         0.000 6     -1137.272 6        37.977 6
G20  21951584.902 9 115356324.082 9      2575.845 9        55.313 9  21951585.228 6         0.000 6      2007.153 6        37.977 6
> 2019 07 03 12 00 45.0000000  0  8       0.000000000000
G07  25352979.121 9 133230758.363 9      2180.224 9        54.129 9  25352979.794 6         0.000 6      1698.876 6        37.977 6
G10  23819234.134 9 125170865.382 9      3548.558 9        54.666 9  23819237.871 6         0.000 6      2765.113 6        37.977 6
G21  21167514.438 9 111236018.489 9     -1259.498 9        55.711 9  21167513.723 6         0.000 6      -981.428 6        37.977 6
G29  24291395.051 9 127652086.334 9     -3146.844 9        54.478 9  24291396.617 6         0.000 6     -2452.089 6        37.977 6
G27  22011404.444 9 115670684.031 9      2518.346 9        55.372 9  22011406.380 6         0.000 6      1962.348 6        37.977 6
G16  20498688.127 9 107721312.853 9       574.213 9        55.976 9  20498687.300 6         0.000 6       447.438 6        37.977 6
G26  20650440.259 9 108518773.751 9     -1460.067 9        55.875 9  20650443.074 6         0.000 6     -1137.715 6        37.977 6
G20  21951094.763 9 115353748.388 9      2575.582 9        55.313 9  21951095.088 6         0.000 6      2006.948 6        37.977 6
> 2019 07 03 12 00 46.0000000  0  8       0.000000000000
G07  25352564.309 9 133228578.518 9      2179.477 9        54.130 9  25352564.982 6         0.000 6      1698.295 6        37.977 6
G10  23818558.856 9 125167316.782 9      3548.666 9        54.666 9  23818562.592 6         0.000 6      2765.197 6        37.977 6
G21  21167754.140 9 111237278.131 9     -1259.789 9        55.711 9  21167753.425 6         0.000 6      -981.654 6        37.977 6
G29  24291993.852 9 127655233.042 9     -3146.608 9        54.478 9  24291995.418 6         0.000 6     -2451.905 6        37.977 6
G27  22010925.271 9 115668165.960 9      2517.817 9        55.372 9  22010927.206 6         0.000 6      1961.936 6        37.977 6
G16  20498578.930 9 107720739.017 9       573.470 9        55.976 9  20498578.103 6         0.000 6       446.860 6        37.977 6
G26  20650718.153 9 108520234.089 9     -1460.602 9        55.875 9  20650720.967 6         0.000 6     -1138.132 6        37.977 6
G20  21950604.664 9 115351172.906 9      2575.390 9        55.313 9  21950604.989 6         0.000 6      2006.799 6        37.977 6
> 2019 07 03 12 00 47.0000000  0  8       0.000000000000
G07  25352149.632 9 133226399.377 9      2178.852 9        54.130 9  25352150.305 6         0.000 6      1697.808 6        37.977 6
G10  23817883.563 9 125163768.101 9      3548.684 9        54.666 9  23817887.298 6         0.000 6      2765.211 6        37.977 6
G21  21167993.902 9 111238538.089 9     -1260.145 9        55.710 9  21167993.187 6         0.000 6      -981.932 6        37.977 6
G29  24292592.624 9 127658379.601 9     -3146.586 9        54.477 9  24292594.191 6         0.000 6     -2451.887 6        37.977 6
G27  22010446.184 9 115665648.345 9      2517.463 9        55.372 9  22010448.119 6         0.000 6      1961.660 6        37.977 6
G16  20498469.866 9 107720165.886 9       572.811 9        55.976 9  20498469.040 6         0.000 6       446.346 6        37.977 6
G26  20650996.145 9 108521694.949 9     -1461.124 9        55.875 9  20650998.960 6         0.000 6     -1138.539 6        37.977 6
G20  21950114.609 9 115348597.657 9      2575.078 9        55.313 9  21950114.934 6         0.000 6      2006.556 6        37.977 6
> 2019 07 03 12 00 48.0000000  0  8       0.000000000000
G07  25351735.051 9 133224220.745 9      2178.463 9        54.130 9  25351735.724 6         0.000 6      1697.504 6        37.977 6
G10  23817208.283 9 125160219.491 9      3548.526 9        54.667 9  23817212.017 6         0.000 6      2765.088 6        37.977 6
G21  21168233.744 9 111239798.465 9     -1260.621 9        55.710 9  21168233.029 6         0.000 6      -982.302 6        37.977 6
G29  24293191.429 9 127661526.331 9     -3146.955 9        54.477 9  24293192.996 6         0.000 6     -2452.175 6        37.977 6
G27  22009967.135 9 115663130.929 9      2517.428 9        55.372 9  22009969.070 6         0.000 6      1961.632 6        37.977 6
G16  20498360.915 9 107719593.343 9       572.304 9        55.976 9  20498360.088 6         0.000 6       445.951 6        37.977 6
G26  20651274.236 9 108523156.325 9     -1461.630 9        55.874 9  20651277.051 6         0.000 6     -1138.933 6        37.977 6
G20  21949624.636 9 115346022.836 9      2574.536 9        55.313 9  21949624.961 6         0.000 6      2006.133 6        37.977 6
> 2019 07 03 12 00 49.0000000  0  8       0.000000000000
G07  25351320.524 9 133222042.393 9      2178.271 9        54.130 9  25351321.196 6         0.000 6      1697.355 6        37.977 6
G10  23816533.049 9 125156671.127 9      3548.209 9        54.667 9  23816536.783 6         0.000 6      2764.841 6        37.977 6
G21  21168473.686 9 111241059.367 9     -1261.188 9        55.710 9  21168472.971 6         0.000 6      -982.744 6        37.977 6
G29  24293790.334 9 127664673.587 9     -3147.612 9        54.477 9  24293791.902 6         0.000 6     -2452.687 6        37.977 6
G27  22009488.069 9 115660613.422 9      2517.626 9        55.372 9  22009490.004 6         0.000 6      1961.787 6        37.977 6
G16  20498252.050 9 107719021.251 9       571.901 9        55.976 9  20498251.223 6         0.000 6       445.637 6        37.977 6
G26  20651552.425 9 108524618.214 9     -1462.143 9        55.874 9  20651555.240 6         0.000 6     -1139.333 6        37.977 6
G20  21949134.787 9 115343448.662 9      2573.803 9        55.314 9  21949135.111 6         0.000 6      2005.562 6        37.977 6
> 2019 07 03 12 00 50.0000000  0  8       0.000000000000
G07  25350906.049 9 133219864.314 9      2177.727 9        54.130 9  25350906.721 6         0.000 6      1696.931 6        37.977 6
G10  23815857.866 9 125153123.027 9      3548.120 9        54.667 9  23815861.599 6         0.000 6      2764.772 6        37.977 6
G21  21168713.720 9 111242320.754 9     -1261.457 9        55.710 9  21168713.005 6         0.000 6      -982.954 6        37.977 6
G29  24294389.323 9 127667821.285 9     -3147.411 9        54.477 9  24294390.891 6         0.000 6     -2452.531 6        37.977 6
G27  22009008.995 9 115658095.874 9      2517.172 9        55.373 9  22009010.930 6         0.000 6      1961.433 6        37.977 6
G16  20498143.274 9 107718449.633 9       571.189 9        55.976 9  20498142.447 6         0.000 6       445.082 6        37.977 6
G26  20651830.715 9 108526080.639 9     -1462.757 9        55.874 9  20651833.531 6         0.000 6     -1139.811 6        37.977 6
G20  21948645.057 9 115340875.123 9      2573.470 9        55.314 9  21948645.382 6         0.000 6      2005.302 6        37.977 6
> 2019 07 03 12 00 51.0000000  0  8       0.000000000000
G07  25350491.817 9 133217687.514 9      2175.563 9        54.130 9  25350492.489 6         0.000 6      1695.245 6        37.977 6
G10  23815182.615 9 125149574.570 9      3548.959 9        54.667 9  23815186.348 6         0.000 6      2765.425 6        37.977 6
G21  21168953.677 9 111243581.737 9     -1260.078 9        55.710 9  21168952.962 6         0.000 6      -981.879 6        37.977 6
G29  24294987.904 9 127670966.842 9     -3142.539 9        54.477 9  24294989.473 6         0.000 6     -2448.734 6        37.977 6
G27  22008530.287 9 115655580.248 9      2513.221 9        55.373 9  22008532.221 6         0.000 6      1958.354 6        37.977 6
G16  20498034.769 9 107717879.431 9       568.793 9        55.976 9  20498033.942 6         0.000 6       443.215 6        37.977 6
G26  20652109.174 9 108527543.945 9     -1464.083 9        55.874 9  20652111.989 6         0.000 6     -1140.844 6        37.977 6
G20  21948155.229 9 115338301.061 9      2575.095 9        55.314 9  21948155.553 6         0.000 6      2006.568 6        37.977 6
> 2019 07 03 12 00 52.0000000  0  8       0.000000000000
G07  25350078.028 9 133215513.042 9      2174.118 9        54.130 9  25350078.700 6         0.000 6      1694.119 6        37.977 6
G10  23814507.275 9 125146025.645 9      3548.074 9        54.668 9  23814511.007 6         0.000 6      2764.736 6        37.977 6
G21  21169193.098 9 111244839.902 9     -1255.839 9        55.710 9  21169192.383 6         0.000 6      -978.576 6        37.977 6
G29  24295584.877 9 127674103.943 9     -3130.967 9        54.476 9  24295586.447 6         0.000 6     -2439.717 6        37.977 6
G27  22008052.793 9 115653071.001 9      2504.973 9        55.373 9  22008054.727 6         0.000 6      1951.928 6        37.977 6
G16  20497926.950 9 107717312.841 9       564.202 9        55.976 9  20497926.123 6         0.000 6       439.638 6        37.977 6
G26  20652388.084 9 108529009.627 9     -1467.850 9        55.874 9  20652390.900 6         0.000 6     -1143.780 6        37.977 6
G20  21947664.944 9 115335724.602 9      2577.474 9        55.314 9  21947665.268 6         0.000 6      2008.423 6        37.977 6
> 2019 07 03 12 00 53.0000000  0  8       0.000000000000
G07  25349663.892 9 133213336.749 9      2179.766 9        54.131 9  25349664.564 6         0.000 6      1698.520 6        37.977 6
G10  23813832.741 9 125142480.952 9      3540.204 9        54.668 9  23813836.472 6         0.000 6      2758.603 6        37.977 6
G21  21169431.580 9 111246093.134 9     -1250.877 9        55.710 9  21169430.866 6         0.000 6      -974.710 6        37.977 6
G29  24296179.566 9 127677229.048 9     -3120.387 9        54.476 9  24296181.137 6         0.000 6     -2431.473 6        37.977 6
G27  22007576.777 9 115650569.524 9      2499.040 9        55.373 9  22007578.711 6         0.000 6      1947.304 6        37.977 6
G16  20497819.990 9 107716750.764 9       560.420 9        55.976 9  20497819.163 6         0.000 6       436.691 6        37.977 6
G26  20652668.030 9 108530480.754 9     -1474.659 9        55.874 9  20652670.846 6         0.000 6     -1149.085 6        37.977 6
G20  21947174.613 9 115333147.899 9      2574.861 9        55.314 9  21947174.936 6         0.000 6      2006.386 6        37.977 6
> 2019 07 03 12 00 54.0000000  0  8       0.000000000000
G07  25349248.306 9 133211152.832 9      2187.345 9        54.131 9  25349248.977 6         0.000 6      1704.425 6        37.977 6
G10  23813159.969 9 125138945.522 9      3531.578 9        54.668 9  23813163.699 6         0.000 6      2751.882 6        37.977 6
G21  21169669.369 9 111247342.722 9     -1248.853 9        55.710 9  21169668.654 6         0.000 6      -973.133 6        37.977 6
G29  24296773.002 9 127680347.562 9     -3117.748 9        54.476 9  24296774.573 6         0.000 6     -2429.416 6        37.977 6
G27  22007101.297 9 115648070.862 9      2498.851 9        55.373 9  22007103.231 6         0.000 6      1947.157 6        37.977 6
G16  20497713.471 9 107716191.001 9       559.428 9        55.976 9  20497712.644 6         0.000 6       435.918 6        37.977 6
G26  20652949.212 9 108531958.372 9     -1479.888 9        55.874 9  20652952.028 6         0.000 6     -1153.160 6        37.977 6
G20  21946685.175 9 115330575.887 9      2569.471 9        55.315 9  21946685.498 6         0.000 6      2002.186 6        37.977 6
> 2019 07 03 12 00 55.0000000  0  8       0.000000000000
G07  25348831.801 9 133208964.087 9      2189.335 9        54.131 9  25348832.472 6         0.000 6      1705.976 6        37.977 6
G10  23812488.252 9 125135415.635 9      3529.060 9        54.668 9  23812491.981 6         0.000 6      2749.919 6        37.977 6
G21  21169907.017 9 111248591.571 9     -1249.041 9        55.710 9  21169906.303 6         0.000 6      -973.279 6        37.977 6
G29  24297366.334 9 127683465.533 9     -3118.365 9        54.476 9  24297367.905 6         0.000 6     -2429.897 6        37.977 6
G27  22006625.707 9 115645571.624 9      2499.540 9        55.373 9  22006627.641 6         0.000 6      1947.694 6        37.977 6
G16  20497607.040 9 107715631.704 9       559.157 9        55.976 9  20497606.213 6         0.000 6       435.707 6        37.977 6
G26  20653231.015 9 108533439.255 9     -1481.450 9        55.874 9  20653233.831 6         0.000 6     -1154.377 6        37.977 6
G20  21946196.480 9 115328007.783 9      2567.272 9        55.315 9  21946196.802 6         0.000 6      2000.472 6        37.977 6
> 2019 07 03 12 00 56.0000000  0  8       0.000000000000
G07  25348415.237 9 133206775.032 9      2188.675 9        54.131 9  25348415.908 6         0.000 6      1705.462 6        37.977 6
G10  23811816.686 9 125131886.546 9      3529.249 9        54.668 9  23811820.415 6         0.000 6      2750.066 6        37.977 6
G21  21170144.770 9 111249840.969 9     -1249.771 9        55.710 9  21170144.055 6         0.000 6      -973.848 6        37.977 6
G29  24297959.826 9 127686584.345 9     -3119.275 9        54.476 9  24297961.398 6         0.000 6     -2430.607 6        37.977 6
G27  22006150.033 9 115643071.940 9      2499.806 9        55.374 9  22006151.966 6         0.000 6      1947.902 6        37.977 6
G16  20497500.669 9 107715072.719 9       558.805 9        55.976 9  20497499.842 6         0.000 6       435.432 6        37.977 6
G26  20653512.951 9 108534920.839 9     -1481.671 9        55.873 9  20653515.767 6         0.000 6     -1154.549 6        37.977 6
G20  21945707.995 9 115325440.782 9      2566.813 9        55.315 9  21945708.317 6         0.000 6      2000.115 6        37.977 6
> 2019 07 03 12 00 57.0000000  0  8       0.000000000000
G07  25347998.817 9 133204586.734 9      2187.958 9        54.131 9  25347999.488 6         0.000 6      1704.903 6        37.977 6
G10  23811145.068 9 125128357.178 9      3529.465 9        54.669 9  23811148.796 6         0.000 6      2750.235 6        37.977 6
G21  21170382.658 9 111251091.080 9     -1250.432 9        55.709 9  21170381.944 6         0.000 6      -974.363 6        37.977 6
G29  24298553.478 9 127689703.996 9     -3119.990 9        54.475 9  24298555.051 6         0.000 6     -2431.164 6        37.977 6
G27  22005674.320 9 115640572.057 9      2499.928 9        55.374 9  22005676.253 6         0.000 6      1947.997 6        37.977 6
G16  20497394.370 9 107714514.113 9       558.382 9        55.977 9  20497393.543 6         0.000 6       435.103 6        37.977 6
G26  20653794.925 9 108536402.615 9     -1481.927 9        55.873 9  20653797.741 6         0.000 6     -1154.748 6        37.977 6
G20  21945219.582 9 115322874.159 9      2566.428 9        55.315 9  21945219.904 6         0.000 6      1999.815 6        37.977 6
> 2019 07 03 12 00 58.0000000  0  8       0.000000000000
G07  25347582.516 9 133202399.061 9      2187.421 9        54.131 9  25347583.186 6         0.000 6      1704.485 6        37.977 6
G10  23810473.431 9 125124827.715 9      3529.448 9        54.669 9  23810477.159 6         0.000 6      2750.222 6        37.977 6
G21  21170620.655 9 111252341.762 9     -1250.907 9        55.709 9  21170619.941 6         0.000 6      -974.733 6        37.977 6
G29  24299147.230 9 127692824.177 9     -3120.335 9        54.475 9  24299148.804 6         0.000 6     -2431.433 6        37.977 6
G27  22005198.604 9 115638072.153 9      2499.850 9        55.374 9  22005200.537 6         0.000 6      1947.936 6        37.977 6
G16  20497288.162 9 107713955.986 9       557.853 9        55.977 9  20497287.335 6         0.000 6       434.691 6        37.977 6
G26  20654076.966 9 108537884.750 9     -1482.378 9        55.873 9  20654079.782 6         0.000 6     -1155.100 6        37.977 6
G20  21944731.248 9 115320307.949 9      2565.993 9        55.315 9  21944731.569 6         0.000 6      1999.476 6        37.977 6
> 2019 07 03 12 00 59.0000000  0  8       0.000000000000
G07  25347166.309 9 133200211.883 9      2186.938 9        54.131 9  25347166.979 6         0.000 6      1704.108 6        37.977 6
G10  23809801.811 9 125121298.339 9      3529.328 9        54.669 9  23809805.538 6         0.000 6      2750.128 6        37.977 6
G21  21170858.730 9 111253592.855 9     -1251.263 9        55.709 9  21170858.016 6         0.000 6      -975.011 6        37.977 6
G29  24299741.019 9 127695944.546 9     -3120.391 9        54.475 9  24299742.593 6         0.000 6     -2431.476 6        37.977 6
G27  22004722.922 9 115635572.429 9      2499.585 9        55.374 9  22004724.854 6         0.000 6      1947.729 6        37.977 6
G16  20497182.065 9 107713398.446 9       557.221 9        55.977 9  20497181.238 6         0.000 6       434.198 6        37.977 6
G26  20654359.107 9 108539367.413 9     -1482.955 9        55.873 9  20654361.924 6         0.000 6     -1155.550 6        37.977 6
G20  21944242.997 9 115317742.179 9      2565.568 9        55.315 9  21944243.318 6         0.000 6      1999.145 6        37.977 6
> 2019 07 03 12 01  0.0000000  0  8       0.000000000000
G07  25346750.205 9 133198025.242 9      2186.308 9        54.132 9  25346750.875 6         0.000 6      1703.618 6        37.977 6
G10  23809130.205 9 125117769.036 9      3529.339 9        54.669 9  23809133.931 6         0.000 6      2750.137 6        37.977 6
G21  21171096.868 9 111254844.275 9     -1251.586 9        55.709 9  21171096.154 6         0.000 6      -975.262 6        37.977 6
G29  24300334.804 9 127699064.896 9     -3120.317 9        54.475 9  24300336.378 6         0.000 6     -2431.418 6        37.977 6
G27  22004247.301 9 115633073.028 9      2499.202 9        55.374 9  22004249.234 6         0.000 6      1947.431 6        37.977 6
G16  20497076.093 9 107712841.560 9       556.540 9        55.977 9  20497075.267 6         0.000 6       433.668 6        37.977 6
G26  20654641.357 9 108540850.645 9     -1483.500 9        55.873 9  20654644.174 6         0.000 6     -1155.974 6        37.977 6
G20  21943754.817 9 115315176.778 9      2565.270 9        55.316 9  21943755.138 6         0.000 6      1998.913 6        37.977 6
> 2019 07 03 12 01  1.0000000  0  8       0.000000000000
G07  25346334.240 9 133195839.339 9      2185.490 9        54.132 9  25346334.910 6         0.000 6      1702.980 6        37.977 6
G10  23808458.577 9 125114239.616 9      3529.540 9        54.670 9  23808462.303 6         0.000 6      2750.294 6        37.977 6
G21  21171335.070 9 111256096.034 9     -1251.939 9        55.709 9  21171334.356 6         0.000 6      -975.537 6        37.977 6
G29  24300928.572 9 127702185.161 9     -3120.248 9        54.474 9  24300930.148 6         0.000 6     -2431.364 6        37.977 6
G27  22003771.759 9 115630574.043 9      2498.779 9        55.375 9  22003773.692 6         0.000 6      1947.102 6        37.977 6
G16  20496970.253 9 107712285.367 9       555.850 9        55.977 9  20496969.427 6         0.000 6       433.130 6        37.977 6
G26  20654923.702 9 108542334.375 9     -1483.951 9        55.873 9  20654926.519 6         0.000 6     -1156.326 6        37.977 6
G20  21943266.679 9 115312611.602 9      2565.100 9        55.316 9  21943267.000 6         0.000 6      1998.780 6        37.977 6
> 2019 07 03 12 01  2.0000000  0  8       0.000000000000
G07  25345918.430 9 133193654.243 9      2184.849 9        54.132 9  25345919.099 6         0.000 6      1702.481 6        37.977 6
G10  23807786.911 9 125110710.001 9      3529.573 9        54.670 9  23807790.636 6         0.000 6      2750.319 6        37.977 6
G21  21171573.342 9 111257348.160 9     -1252.299 9        55.709 9  21171572.627 6         0.000 6      -975.817 6        37.977 6
G29  24301522.335 9 127705305.395 9     -3120.256 9        54.474 9  24301523.911 6         0.000 6     -2431.371 6        37.977 6
G27  22003296.293 9 115628075.454 9      2498.448 9        55.375 9  22003298.225 6         0.000 6      1946.843 6        37.977 6
G16  20496864.542 9 107711729.852 9       555.195 9        55.977 9  20496863.716 6         0.000 6       432.619 6        37.977 6
G26  20655206.132 9 108543818.551 9     -1484.466 9        55.873 9  20655208.948 6         0.000 6     -1156.727 6        37.977 6
G20  21942778.576 9 115310046.611 9      2564.793 9        55.316 9  21942778.897 6         0.000 6      1998.541 6        37.977 6
> 2019 07 03 12 01  3.0000000  0  8       0.000000000000
G07  25345502.550 9 133191468.784 9      2186.923 9        54.132 9  25345503.219 6         0.000 6      1704.097 6        37.977 6
G10  23807115.429 9 125107181.349 9      3526.919 9        54.670 9  23807119.154 6         0.000 6      2748.251 6        37.977 6
G21  21171811.658 9 111258600.522 9     -1252.337 9        55.709 9  21171810.944 6         0.000 6      -975.847 6        37.977 6
G29  24302116.116 9 127708425.728 9     -3120.544 9        54.474 9  24302117.693 6         0.000 6     -2431.595 6        37.977 6
G27  22002820.834 9 115625576.902 9      2498.935 9        55.375 9  22002822.766 6         0.000 6      1947.223 6        37.977 6
G16  20496758.938 9 107711174.896 9       554.813 9        55.977 9  20496758.111 6         0.000 6       432.322 6        37.977 6
G26  20655488.744 9 108545303.688 9     -1486.177 9        55.873 9  20655491.561 6         0.000 6     -1158.061 6        37.977 6
G20  21942290.665 9 115307482.624 9      2562.597 9        55.316 9  21942290.986 6         0.000 6      1996.830 6        37.977 6
> 2019 07 03 12 01  4.0000000  0  8       0.000000000000
G07  25345085.606 9 133189277.733 9      2196.649 9        54.132 9  25345086.275 6         0.000 6      1711.675 6        37.977 6
G10  23806445.098 9 125103658.747 9      3516.963 9        54.670 9  23806448.822 6         0.000 6      2740.493 6        37.977 6
G21  21172049.947 9 111259852.736 9     -1252.204 9        55.709 9  21172049.233 6         0.000 6      -975.744 6        37.977 6
G29  24302710.129 9 127711547.275 9     -3123.417 9        54.474 9  24302711.707 6         0.000 6     -2433.834 6        37.977 6
G27  22002345.009 9 115623076.425 9      2502.926 9        55.375 9  22002346.941 6         0.000 6      1950.332 6        37.977 6
G16  20496653.302 9 107710619.775 9       555.807 9        55.977 9  20496652.475 6         0.000 6       433.096 6        37.977 6
G26  20655771.944 9 108546791.909 9     -1490.696 9        55.873 9  20655774.761 6         0.000 6     -1161.582 6        37.977 6
G20  21941803.657 9 115304923.383 9      2554.750 9        55.316 9  21941803.977 6         0.000 6      1990.715 6        37.977 6
> 2019 07 03 12 01  5.0000000  0  8       0.000000000000
G07  25344666.140 9 133187073.425 9      2212.164 9        54.132 9  25344666.809 6         0.000 6      1723.765 6        37.977 6
G10  23805777.240 9 125100149.137 9      3502.289 9        54.671 9  23805780.963 6         0.000 6      2729.059 6        37.977 6
G21  21172288.370 9 111261105.657 9     -1254.160 9        55.709 9  21172287.656 6         0.000 6      -977.268 6        37.977 6
G29  24303305.340 9 127714675.119 9     -3133.638 9        54.474 9  24303306.918 6         0.000 6     -2441.798 6        37.977 6
G27  22001867.834 9 115620568.860 9      2513.150 9        55.375 9  22001869.766 6         0.000 6      1958.299 6        37.977 6
G16  20496547.215 9 107710062.284 9       559.640 9        55.977 9  20496546.388 6         0.000 6       436.083 6        37.977 6
G26  20656056.117 9 108548285.247 9     -1495.650 9        55.872 9  20656058.934 6         0.000 6     -1165.442 6        37.977 6
G20  21941318.717 9 115302375.009 9      2541.628 9        55.317 9  21941319.036 6         0.000 6      1980.491 6        37.977 6
> 2019 07 03 12 01  6.0000000  0  8       0.000000000000
G07  25344244.040 9 133184855.278 9      2222.410 9        54.132 9  25344244.708 6         0.000 6      1731.749 6        37.977 6
G10  23805111.787 9 125096652.172 9      3493.281 9        54.671 9  23805115.510 6         0.000 6      2722.040 6        37.977 6
G21  21172527.396 9 111262361.745 9     -1257.964 9        55.709 9  21172526.682 6         0.000 6      -980.232 6        37.977 6
G29  24303902.932 9 127717815.478 9     -3146.303 9        54.473 9  24303904.511 6         0.000 6     -2451.667 6        37.977 6
G27  22001388.499 9 115618049.937 9      2523.771 9        55.376 9  22001390.430 6         0.000 6      1966.576 6        37.977 6
G16  20496440.273 9 107709500.304 9       563.943 9        55.977 9  20496439.447 6         0.000 6       439.436 6        37.977 6
G26  20656340.945 9 108549782.025 9     -1497.337 9        55.872 9  20656343.762 6         0.000 6     -1166.757 6        37.977 6
G20  21940836.138 9 115299839.048 9      2531.624 9        55.317 9  21940836.458 6         0.000 6      1972.695 6        37.977 6
> 2019 07 03 12 01  7.0000000  0  8       0.000000000000
G07  25343820.879 9 133182631.557 9      2224.077 9        54.133 9  25343821.547 6         0.000 6      1733.048 6        37.977 6
G10  23804447.260 9 125093160.065 9      3491.709 9        54.671 9  23804450.981 6         0.000 6      2720.815 6        37.977 6
G21  21172767.003 9 111263620.891 9     -1259.899 9        55.708 9  21172766.289 6         0.000 6      -981.739 6        37.977 6
G29  24304502.241 9 127720964.858 9     -3151.058 9        54.473 9  24304503.821 6         0.000 6     -2455.372 6        37.977 6
G27  22000907.810 9 115615523.906 9      2527.130 9        55.376 9  22000909.742 6         0.000 6      1969.193 6        37.977 6
G16  20496332.805 9 107708935.552 9       565.022 9        55.977 9  20496331.978 6         0.000 6       440.277 6        37.977 6
G26  20656625.891 9 108551279.426 9     -1497.457 9        55.872 9  20656628.708 6         0.000 6     -1166.850 6        37.977 6
G20  21940354.734 9 115297309.256 9      2528.885 9        55.317 9  21940355.053 6         0.000 6      1970.561 6        37.977 6
> 2019 07 03 12 01  8.0000000  0  8       0.000000000000
G07  25343397.775 9 133180408.136 9      2222.588 9        54.133 9  25343398.443 6         0.000 6      1731.887 6        37.977 6
G10  23803782.745 9 125089668.030 9      3492.513 9        54.671 9  23803786.466 6         0.000 6      2721.441 6        37.977 6
G21  21173006.789 9 111264880.971 9     -1260.157 9        55.708 9  21173006.075 6         0.000 6      -981.941 6        37.977 6
G29  24305101.847 9 127724115.798 9     -3150.500 9        54.473 9  24305103.427 6         0.000 6     -2454.938 6        37.977 6
G27  22000426.974 9 115612997.097 9      2526.218 9        55.376 9  22000428.905 6         0.000 6      1968.483 6        37.977 6
G16  20496225.359 9 107708370.919 9       564.110 9        55.977 9  20496224.532 6         0.000 6       439.566 6        37.977 6
G26  20656910.873 9 108552777.016 9     -1497.756 9        55.872 9  20656913.690 6         0.000 6     -1167.083 6        37.977 6
G20  21939873.484 9 115294780.277 9      2529.265 9        55.317 9  21939873.804 6         0.000 6      1970.857 6        37.977 6
> 2019 07 03 12 01  9.0000000  0  8       0.000000000000
G07  25342974.987 9 133178186.370 9      2221.045 9        54.133 9  25342975.654 6         0.000 6      1730.685 6        37.977 6
G10  23803118.057 9 125086175.079 9      3493.334 9        54.672 9  23803121.777 6         0.000 6      2722.081 6        37.977 6
G21  21173246.602 9 111266141.198 9     -1260.330 9        55.708 9  21173245.888 6         0.000 6      -982.076 6        37.977 6
G29  24305701.281 9 127727265.835 9     -3149.709 9        54.473 9  24305702.862 6         0.000 6     -2454.321 6        37.977 6
G27  21999946.363 9 115610471.471 9      2525.138 9        55.376 9  21999948.294 6         0.000 6      1967.640 6        37.977 6
G16  20496118.111 9 107707807.330 9       563.114 9        55.977 9  20496117.284 6         0.000 6       438.790 6        37.977 6
G26  20657195.919 9 108554274.942 9     -1498.106 9        55.872 9  20657198.737 6         0.000 6     -1167.356 6        37.977 6
G20  21939392.130 9 115292250.746 9      2529.722 9        55.317 9  21939392.449 6         0.000 6      1971.213 6        37.977 6
> 2019 07 03 12 01 10.0000000  0  8       0.000000000000
G07  25342552.435 9 133175965.849 9      2220.114 9        54.133 9  25342553.102 6         0.000 6      1729.960 6        37.977 6
G10  23802453.260 9 125082681.556 9      3493.637 9        54.672 9  23802456.979 6         0.000 6      2722.318 6        37.977 6
G21  21173486.465 9 111267401.688 9     -1260.669 9        55.708 9  21173485.752 6         0.000 6      -982.339 6        37.977 6
G29  24306300.629 9 127730415.417 9     -3149.565 9        54.473 9  24306302.210 6         0.000 6     -2454.209 6        37.977 6
G27  21999465.901 9 115607946.632 9      2524.633 9        55.376 9  21999467.832 6         0.000 6      1967.247 6        37.977 6
G16  20496011.028 9 107707244.603 9       562.379 9        55.977 9  20496010.201 6         0.000 6       438.217 6        37.977 6
G26  20657481.038 9 108555773.252 9     -1498.538 9        55.872 9  20657483.856 6         0.000 6     -1167.693 6        37.977 6
G20  21938910.739 9 115289721.022 9      2529.646 9        55.318 9  21938911.057 6         0.000 6      1971.154 6        37.977 6
> 2019 07 03 12 01 11.0000000  0  8       0.000000000000
G07  25342130.006 9 133173745.975 9      2219.701 9        54.133 9  25342130.674 6         0.000 6      1729.638 6        37.977 6
G10  23801788.452 9 125079187.979 9      3493.484 9        54.672 9  23801792.171 6         0.000 6      2722.198 6        37.977 6
G21  21173726.403 9 111268662.569 9     -1261.108 9        55.708 9  21173725.689 6         0.000 6      -982.682 6        37.977 6
G29  24306899.994 9 127733565.094 9     -3149.859 9        54.472 9  24306901.576 6         0.000 6     -2454.438 6        37.977 6
G27  21998985.493 9 115605422.072 9      2524.535 9        55.376 9  21998987.424 6         0.000 6      1967.171 6        37.977 6
G16  20495904.066 9 107706682.513 9       561.819 9        55.977 9  20495903.239 6         0.000 6       437.781 6        37.977 6
G26  20657766.251 9 108557272.053 9     -1499.084 9        55.872 9  20657769.069 6         0.000 6     -1168.118 6        37.977 6
G20  21938429.407 9 115287191.610 9      2529.137 9        55.318 9  21938429.725 6         0.000 6      1970.757 6        37.977 6
> 2019 07 03 12 01 12.0000000  0  8       0.000000000000
G07  25341707.630 9 133171526.376 9      2219.521 9        54.133 9  25341708.297 6         0.000 6      1729.498 6        37.977 6
G10  23801123.697 9 125075694.678 9      3493.120 9        54.672 9  23801127.415 6         0.000 6      2721.914 6        37.977 6
G21  21173966.427 9 111269923.903 9     -1261.562 9        55.708 9  21173965.713 6         0.000 6      -983.036 6        37.977 6
G29  24307499.434 9 127736715.158 9     -3150.293 9        54.472 9  24307501.016 6         0.000 6     -2454.776 6        37.977 6
G27  21998505.085 9 115602897.515 9      2524.590 9        55.377 9  21998507.016 6         0.000 6      1967.214 6        37.977 6
G16  20495797.202 9 107706120.939 9       561.328 9        55.977 9  20495796.375 6         0.000 6       437.399 6        37.977 6
G26  20658051.574 9 108558771.433 9     -1499.689 9        55.872 9  20658054.392 6         0.000 6     -1168.589 6        37.977 6
G20  21937948.192 9 115284662.815 9      2528.447 9        55.318 9  21937948.510 6         0.000 6      1970.220 6        37.977 6
> 2019 07 03 12 01 13.0000000  0  8       0.000000000000
G07  25341285.286 9 133169306.950 9      2219.322 9        54.133 9  25341285.953 6         0.000 6      1729.343 6        37.977 6
G10  23800459.014 9 125072201.755 9      3492.760 9        54.673 9  23800462.732 6         0.000 6      2721.634 6        37.977 6
G21  21174206.535 9 111271185.678 9     -1261.982 9        55.708 9  21174205.821 6         0.000 6      -983.363 6        37.977 6
G29  24308098.949 9 127739865.623 9     -3150.632 9        54.472 9  24308100.532 6         0.000 6     -2455.041 6        37.977 6
G27  21998024.671 9 115600372.924 9      2524.575 9        55.377 9  21998026.602 6         0.000 6      1967.202 6        37.977 6
G16  20495690.434 9 107705559.869 9       560.801 9        55.977 9  20495689.607 6         0.000 6       436.988 6        37.977 6
G26  20658337.015 9 108560271.434 9     -1500.318 9        55.871 9  20658339.833 6         0.000 6     -1169.079 6        37.977 6
G20  21937467.109 9 115282134.710 9      2527.787 9        55.318 9  21937467.426 6         0.000 6      1969.705 6        37.977 6
> 2019 07 03 12 01 14.0000000  0  8       0.000000000000
G07  25340862.996 9 133167087.802 9      2218.932 9        54.134 9  25340863.663 6         0.000 6      1729.039 6        37.977 6
G10  23799794.388 9 125068709.132 9      3492.544 9        54.673 9  23799798.105 6         0.000 6      2721.466 6        37.977 6
G21  21174446.715 9 111272447.832 9     -1262.303 9        55.708 9  21174446.001 6         0.000 6      -983.613 6        37.977 6
G29  24308698.504 9 127743016.295 9     -3150.655 9        54.472 9  24308700.087 6         0.000 6     -2455.059 6        37.977 6
G27  21997544.280 9 115597848.455 9      2524.306 9        55.377 9  21997546.210 6         0.000 6      1966.992 6        37.977 6
G16  20495583.775 9 107704999.376 9       560.156 9        55.977 9  20495582.948 6         0.000 6       436.485 6        37.977 6
G26  20658622.577 9 108561772.069 9     -1500.956 9        55.871 9  20658625.395 6         0.000 6     -1169.576 6        37.977 6
G20  21936986.136 9 115279607.187 9      2527.314 9        55.318 9  21936986.454 6         0.000 6      1969.337 6        37.977 6
> 2019 07 03 12 01 15.0000000  0  8       0.000000000000
G07  25340440.804 9 133164869.170 9      2218.304 9        54.134 9  25340441.470 6         0.000 6      1728.549 6        37.977 6
G10  23799129.784 9 125065216.628 9      3492.511 9        54.673 9  23799133.501 6         0.000 6      2721.440 6        37.977 6
G21  21174686.944 9 111273710.244 9     -1262.510 9        55.708 9  21174686.231 6         0.000 6      -983.774 6        37.977 6
G29  24309298.025 9 127746166.791 9     -3150.308 9        54.471 9  24309299.610 6         0.000 6     -2454.788 6        37.977 6
G27  21997063.971 9 115595324.416 9      2523.735 9        55.377 9  21997065.901 6         0.000 6      1966.547 6        37.977 6
G16  20495477.254 9 107704439.603 9       559.370 9        55.977 9  20495476.427 6         0.000 6       435.873 6        37.977 6
G26  20658908.260 9 108563273.343 9     -1501.598 9        55.871 9  20658911.078 6         0.000 6     -1170.077 6        37.977 6
G20  21936505.231 9 115277080.015 9      2527.070 9        55.319 9  21936505.548 6         0.000 6      1969.147 6        37.977 6
> 2019 07 03 12 01 16.0000000  0  8       0.000000000000
G07  25340018.745 9 133162651.241 9      2217.599 9        54.134 9  25340019.411 6         0.000 6      1728.000 6        37.977 6
G10  23798465.176 9 125061724.097 9      3492.547 9        54.673 9  23798468.892 6         0.000 6      2721.468 6        37.977 6
G21  21174927.206 9 111274972.826 9     -1262.703 9        55.708 9  21174926.492 6         0.000 6      -983.925 6        37.977 6
G29  24309897.460 9 127749316.829 9     -3149.899 9        54.471 9  24309899.044 6         0.000 6     -2454.469 6        37.977 6
G27  21996583.787 9 115592801.036 9      2523.105 9        55.377 9  21996585.717 6         0.000 6      1966.057 6        37.977 6
G16  20495370.889 9 107703880.653 9       558.559 9        55.977 9  20495370.062 6         0.000 6       435.241 6        37.977 6
G26  20659194.065 9 108564775.256 9     -1502.223 9        55.871 9  20659196.883 6         0.000 6     -1170.564 6        37.977 6
G20  21936024.357 9 115274553.014 9      2526.890 9        55.319 9  21936024.674 6         0.000 6      1969.006 6        37.977 6
> 2019 07 03 12 01 17.0000000  0  8       0.000000000000
G07  25339596.748 9 133160433.634 9      2217.925 9        54.134 9  25339597.414 6         0.000 6      1728.254 6        37.977 6
G10  23797800.608 9 125058231.781 9      3491.923 9        54.674 9  23797804.323 6         0.000 6      2720.982 6        37.977 6
G21  21175167.565 9 111276235.922 9     -1263.764 9        55.707 9  21175166.852 6         0.000 6      -984.751 6        37.977 6
G29  24310496.990 9 127752467.374 9     -3151.998 9        54.471 9  24310498.576 6         0.000 6     -2456.105 6        37.977 6
G27  21996103.592 9 115590277.594 9      2524.381 9        55.378 9  21996105.521 6         0.000 6      1967.051 6        37.977 6
G16  20495264.617 9 107703322.189 9       558.657 9        55.977 9  20495263.790 6         0.000 6       435.317 6        37.977 6
G26  20659479.969 9 108566277.692 9     -1502.545 9        55.871 9  20659482.787 6         0.000 6     -1170.815 6        37.977 6
G20  21935543.601 9 115272026.625 9      2525.549 9        55.319 9  21935543.917 6         0.000 6      1967.961 6        37.977 6
> 2019 07 03 12 01 18.0000000  0  8       0.000000000000
G07  25339174.520 9 133158214.818 9      2219.654 9        54.134 9  25339175.186 6         0.000 6      1729.601 6        37.977 6
G10  23797136.237 9 125054740.496 9      3490.918 9        54.674 9  23797139.951 6         0.000 6      2720.199 6        37.977 6
G21  21175408.349 9 111277501.247 9     -1267.407 9        55.707 9  21175407.635 6         0.000 6      -987.590 6        37.977 6
G29  24311097.525 9 127755623.195 9     -3160.909 9        54.471 9  24311099.111 6         0.000 6     -2463.049 6        37.977 6
G27  21995622.712 9 115587750.560 9      2530.507 9        55.378 9  21995624.642 6         0.000 6      1971.824 6        37.977 6
G16  20495158.112 9 107702762.502 9       561.135 9        55.977 9  20495157.285 6         0.000 6       437.248 6        37.977 6
G26  20659765.823 9 108567779.864 9     -1501.375 9        55.871 9  20659768.642 6         0.000 6     -1169.903 6        37.977 6
G20  21935063.325 9 115269502.762 9      2522.001 9        55.319 9  21935063.641 6         0.000 6      1965.197 6        37.977 6
> 2019 07 03 12 01 19.0000000  0  8       0.000000000000
G07  25338752.261 9 133155995.831 9      2216.979 9        54.134 9  25338752.926 6         0.000 6      1727.517 6        37.977 6
G10  23796471.684 9 125051248.258 9      3494.905 9        54.674 9  23796475.398 6         0.000 6      2723.305 6        37.977 6
G21  21175650.076 9 111278771.532 9     -1273.314 9        55.707 9  21175649.362 6         0.000 6      -992.193 6        37.977 6
G29  24311700.247 9 127758790.509 9     -3173.557 9        54.471 9  24311701.833 6         0.000 6     -2472.904 6        37.977 6
G27  21995140.410 9 115585216.047 9      2538.083 9        55.378 9  21995142.340 6         0.000 6      1977.728 6        37.977 6
G16  20495050.989 9 107702199.565 9       564.587 9        55.977 9  20495050.162 6         0.000 6       439.938 6        37.977 6
G26  20660051.157 9 108569279.301 9     -1496.923 9        55.871 9  20660053.976 6         0.000 6     -1166.434 6        37.977 6
G20  21934583.614 9 115266981.869 9      2520.734 9        55.319 9  21934583.930 6         0.000 6      1964.209 6        37.977 6
> 2019 07 03 12 01 20.0000000  0  8       0.000000000000
G07  25338331.222 9 133153783.263 9      2207.856 9        54.134 9  25338331.888 6         0.000 6      1720.408 6        37.977 6
G10  23795805.723 9 125047748.624 9      3504.465 9        54.674 9  23795809.437 6         0.000 6      2730.754 6        37.977 6
G21  21175892.860 9 111280047.370 9     -1277.784 9        55.707 9  21175892.147 6         0.000 6      -995.676 6        37.977 6
G29  24312304.929 9 127761968.126 9     -3180.169 9        54.470 9  24312306.516 6         0.000 6     -2478.056 6        37.977 6
G27  21994657.129 9 115582676.389 9      2540.151 9        55.378 9  21994659.058 6         0.000 6      1979.339 6        37.977 6
G16  20494943.404 9 107701634.202 9       565.606 9        55.978 9  20494942.577 6         0.000 6       440.732 6        37.977 6
G26  20660335.445 9 108570773.243 9     -1491.301 9        55.871 9  20660338.264 6         0.000 6     -1162.053 6        37.977 6
G20  21934103.581 9 115264459.285 9      2524.935 9        55.319 9  21934103.897 6         0.000 6      1967.483 6        37.977 6
> 2019 07 03 12 01 21.0000000  0  8       0.000000000000
G07  25337911.722 9 133151578.777 9      2202.222 9        54.135 9  25337912.387 6         0.000 6      1716.018 6        37.977 6
G10  23795138.247 9 125044241.024 9      3509.578 9        54.675 9  23795141.960 6         0.000 6      2734.739 6        37.977 6
G21  21176136.176 9 111281326.003 9     -1279.122 9        55.707 9  21176135.463 6         0.000 6      -996.718 6        37.977 6
G29  24312910.176 9 127765148.709 9     -3180.561 9        54.470 9  24312911.764 6         0.000 6     -2478.362 6        37.977 6
G27  21994173.868 9 115580136.841 9      2538.899 9        55.378 9  21994175.797 6         0.000 6      1978.364 6        37.977 6
G16  20494835.845 9 107701068.975 9       564.758 9        55.978 9  20494835.018 6         0.000 6       440.072 6        37.977 6
G26  20660618.977 9 108572263.209 9     -1489.310 9        55.870 9  20660621.795 6         0.000 6     -1160.502 6        37.977 6
G20  21933622.754 9 115261932.527 9      2527.929 9        55.320 9  21933623.070 6         0.000 6      1969.816 6        37.977 6
> 2019 07 03 12 01 22.0000000  0  8       0.000000000000
G07  25337492.777 9 133149377.212 9      2201.320 9        54.135 9  25337493.442 6         0.000 6      1715.315 6        37.977 6
G10  23794470.339 9 125040731.154 9      3509.770 9        54.675 9  23794474.051 6         0.000 6      2734.889 6        37.977 6
G21  21176379.603 9 111282605.218 9     -1279.235 9        55.707 9  21176378.889 6         0.000 6      -996.807 6        37.977 6
G29  24313515.352 9 127768328.922 9     -3179.855 9        54.470 9  24313516.941 6         0.000 6     -2477.812 6        37.977 6
G27  21993690.822 9 115577598.419 9      2538.022 9        55.379 9  21993692.751 6         0.000 6      1977.680 6        37.977 6
G16  20494728.463 9 107700504.679 9       563.843 9        55.978 9  20494727.636 6         0.000 6       439.358 6        37.977 6
G26  20660902.421 9 108573752.720 9     -1489.923 9        55.870 9  20660905.240 6         0.000 6     -1160.979 6        37.977 6
G20  21933141.679 9 115259404.464 9      2527.934 9        55.320 9  21933141.994 6         0.000 6      1969.820 6        37.977 6
> 2019 07 03 12 01 23.0000000  0  8       0.000000000000
G07  25337073.886 9 133147175.927 9      2201.235 9        54.135 9  25337074.550 6         0.000 6      1715.249 6        37.977 6
G10  23793802.515 9 125037221.723 9      3509.143 9        54.675 9  23793806.226 6         0.000 6      2734.399 6        37.977 6
G21  21176623.031 9 111283884.443 9     -1279.231 9        55.707 9  21176622.318 6         0.000 6      -996.804 6        37.977 6
G29  24314120.391 9 127771508.412 9     -3179.182 9        54.470 9  24314121.980 6         0.000 6     -2477.287 6        37.977 6
G27  21993207.918 9 115575060.745 9      2537.353 9        55.379 9  21993209.847 6         0.000 6      1977.159 6        37.977 6
G16  20494621.250 9 107699941.273 9       562.985 9        55.978 9  20494620.423 6         0.000 6       438.690 6        37.977 6
G26  20661186.042 9 108575243.152 9     -1490.919 9        55.870 9  20661188.860 6         0.000 6     -1161.756 6        37.977 6
G20  21932660.683 9 115256876.819 9      2527.378 9        55.320 9  21932660.998 6         0.000 6      1969.387 6        37.977 6
> 2019 07 03 12 01 24.0000000  0  8       0.000000000000
G07  25336655.030 9 133144974.831 9      2200.919 9        54.135 9  25336655.695 6         0.000 6      1715.003 6        37.977 6
G10  23793134.785 9 125033712.789 9      3508.796 9        54.675 9  23793138.495 6         0.000 6      2734.129 6        37.977 6
G21  21176866.472 9 111285163.733 9     -1279.394 9        55.707 9  21176865.759 6         0.000 6      -996.930 6        37.977 6
G29  24314725.329 9 127774687.371 9     -3178.823 9        54.470 9  24314726.919 6         0.000 6     -2477.008 6        37.977 6
G27  21992725.127 9 115572523.663 9      2536.841 9        55.379 9  21992727.056 6         0.000 6      1976.760 6        37.977 6
G16  20494514.191 9 107699378.673 9       562.221 9        55.978 9  20494513.364 6         0.000 6       438.094 6        37.977 6
G26  20661469.832 9 108576734.477 9     -1491.704 9        55.870 9  20661472.651 6         0.000 6     -1162.367 6        37.977 6
G20  21932179.784 9 115254349.678 9      2526.921 9        55.320 9  21932180.098 6         0.000 6      1969.031 6        37.977 6
> 2019 07 03 12 01 25.0000000  0  8       0.000000000000
G07  25336236.253 9 133142774.144 9      2200.444 9        54.135 9  25336236.917 6         0.000 6      1714.632 6        37.977 6
G10  23792467.098 9 125030204.083 9      3508.662 9        54.676 9  23792470.808 6         0.000 6      2734.025 6        37.977 6
G21  21177109.962 9 111286443.282 9     -1279.726 9        55.707 9  21177109.249 6         0.000 6      -997.189 6        37.977 6
G29  24315330.234 9 127777866.157 9     -3178.815 9        54.469 9  24315331.824 6         0.000 6     -2477.001 6        37.977 6
G27  21992242.415 9 115569986.997 9      2536.525 9        55.379 9  21992244.344 6         0.000 6      1976.514 6        37.977 6
G16  20494407.268 9 107698816.790 9       561.565 9        55.978 9  20494406.441 6         0.000 6       437.583 6        37.977 6
G26  20661753.753 9 108578226.491 9     -1492.301 9        55.870 9  20661756.572 6         0.000 6     -1162.832 6        37.977 6
G20  21931698.966 9 115251822.971 9      2526.508 9        55.320 9  21931699.281 6         0.000 6      1968.708 6        37.977 6
> 2019 07 03 12 01 26.0000000  0  8       0.000000000000
G07  25335817.564 9 133140573.924 9      2200.029 9        54.135 9  25335818.228 6         0.000 6      1714.309 6        37.977 6
G10  23791799.435 9 125026695.502 9      3508.500 9        54.676 9  23791803.145 6         0.000 6      2733.899 6        37.977 6
G21  21177353.525 9 111287723.210 9     -1280.136 9        55.707 9  21177352.811 6         0.000 6      -997.509 6        37.977 6
G29  24315935.160 9 127781045.054 9     -3179.018 9        54.469 9  24315936.751 6         0.000 6     -2477.159 6        37.977 6
G27  21991759.748 9 115567450.565 9      2536.363 9        55.379 9  21991761.676 6         0.000 6      1976.387 6        37.977 6
G16  20494300.462 9 107698255.519 9       560.983 9        55.978 9  20494299.635 6         0.000 6       437.130 6        37.977 6
G26  20662037.781 9 108579719.066 9     -1492.860 9        55.870 9  20662040.600 6         0.000 6     -1163.268 6        37.977 6
G20  21931218.233 9 115249296.705 9      2526.014 9        55.321 9  21931218.547 6         0.000 6      1968.324 6        37.977 6
> 2019 07 03 12 01 27.0000000  0  8       0.000000000000
G07  25335398.934 9 133138374.012 9      2199.848 9        54.135 9  25335399.598 6         0.000 6      1714.168 6        37.977 6
G10  23791131.823 9 125023187.187 9      3508.109 9        54.676 9  23791135.532 6         0.000 6      2733.594 6        37.977 6
G21  21177597.165 9 111289003.550 9     -1280.536 9        55.706 9  21177596.452 6         0.000 6      -997.820 6        37.977 6
G29  24316540.131 9 127784224.191 9     -3179.282 9        54.469 9  24316541.723 6         0.000 6     -2477.365 6        37.977 6
G27  21991277.102 9 115564914.250 9      2536.292 9        55.380 9  21991279.030 6         0.000 6      1976.332 6        37.977 6
G16  20494193.764 9 107697694.817 9       560.433 9        55.978 9  20494192.937 6         0.000 6       436.701 6        37.977 6
G26  20662321.923 9 108581212.245 9     -1493.515 9        55.870 9  20662324.743 6         0.000 6     -1163.779 6        37.977 6
G20  21930737.609 9 115246771.014 9      2525.348 9        55.321 9  21930737.923 6         0.000 6      1967.805 6        37.977 6
> 2019 07 03 12 01 28.0000000  0  8       0.000000000000
G07  25334980.322 9 133136174.194 9      2199.809 9        54.136 9  25334980.986 6         0.000 6      1714.138 6        37.977 6
G10  23790464.302 9 125019679.350 9      3507.570 9        54.676 9  23790468.010 6         0.000 6      2733.174 6        37.977 6
G21  21177840.876 9 111290284.260 9     -1280.881 9        55.706 9  21177840.163 6         0.000 6      -998.089 6        37.977 6
G29  24317145.149 9 127787403.570 9     -3179.485 9        54.469 9  24317146.741 6         0.000 6     -2477.523 6        37.977 6
G27  21990794.468 9 115562377.992 9      2536.220 9        55.380 9  21990796.396 6         0.000 6      1976.276 6        37.977 6
G16  20494087.169 9 107697134.657 9       559.878 9        55.978 9  20494086.342 6         0.000 6       436.268 6        37.977 6
G26  20662606.199 9 108582706.119 9     -1494.251 9        55.870 9  20662609.018 6         0.000 6     -1164.352 6        37.977 6
G20  21930257.121 9 115244246.038 9      2524.603 9        55.321 9  21930257.435 6         0.000 6      1967.224 6        37.977 6
> 2019 07 03 12 01 29.0000000  0  8       0.000000000000
G07  25334561.777 9 133133974.730 9      2198.696 9        54.136 9  25334562.441 6         0.000 6      1713.270 6        37.977 6
G10  23789796.825 9 125016171.743 9      3508.091 9        54.677 9  23789800.532 6         0.000 6      2733.580 6        37.977 6
G21  21178084.661 9 111291565.354 9     -1281.364 9        55.706 9  21178083.947 6         0.000 6      -998.466 6        37.977 6
G29  24317750.198 9 127790583.113 9     -3179.583 9        54.468 9  24317751.791 6         0.000 6     -2477.599 6        37.977 6
G27  21990311.867 9 115559841.910 9      2535.823 9        55.380 9  21990313.795 6         0.000 6      1975.967 6        37.977 6
G16  20493980.687 9 107696575.091 9       559.214 9        55.978 9  20493979.860 6         0.000 6       435.752 6        37.977 6
G26  20662890.588 9 108584200.594 9     -1494.512 9        55.870 9  20662893.408 6         0.000 6     -1164.555 6        37.977 6
G20  21929776.734 9 115241721.591 9      2524.597 9        55.321 9  21929777.047 6         0.000 6      1967.219 6        37.977 6
> 2019 07 03 12 01 30.0000000  0  8       0.000000000000
G07  25334143.863 9 133131778.581 9      2192.230 9        54.136 9  25334144.527 6         0.000 6      1708.232 6        37.977 6
G10  23789128.836 9 125012661.451 9      3513.844 9        54.677 9  23789132.543 6         0.000 6      2738.063 6        37.977 6
G21  21178328.580 9 111292847.159 9     -1282.310 9        55.706 9  21178327.867 6         0.000 6      -999.203 6        37.977 6
G29  24318355.204 9 127793762.431 9     -3178.681 9        54.468 9  24318356.797 6         0.000 6     -2476.897 6        37.977 6
G27  21989829.480 9 115557306.951 9      2533.521 9        55.380 9  21989831.407 6         0.000 6      1974.173 6        37.977 6
G16  20493874.378 9 107696016.432 9       557.889 9        55.978 9  20493873.551 6         0.000 6       434.719 6        37.977 6
G26  20663174.846 9 108585694.380 9     -1492.524 9        55.869 9  20663177.666 6         0.000 6     -1163.006 6        37.977 6
G20  21929296.055 9 115239195.607 9      2528.384 9        55.321 9  21929296.368 6         0.000 6      1970.171 6        37.977 6
> 2019 07 03 12 01 31.0000000  0  8       0.000000000000
G07  25333727.988 9 133129593.144 9      2177.617 9        54.136 9  25333728.651 6         0.000 6      1696.845 6        37.977 6
G10  23788459.003 9 125009141.462 9      3526.990 9        54.677 9  23788462.709 6         0.000 6      2748.306 6        37.977 6
G21  21178572.642 9 111294129.712 9     -1282.417 9        55.706 9  21178571.929 6         0.000 6      -999.287 6        37.977 6
G29  24318959.627 9 127796938.686 9     -3172.519 9        54.468 9  24318961.221 6         0.000 6     -2472.095 6        37.977 6
G27  21989347.991 9 115554776.711 9      2525.838 9        55.380 9  21989349.918 6         0.000 6      1968.186 6        37.977 6
G16  20493768.508 9 107695460.081 9       554.298 9        55.978 9  20493767.681 6         0.000 6       431.921 6        37.977 6
G26  20663458.469 9 108587184.825 9     -1488.300 9        55.869 9  20663461.289 6         0.000 6     -1159.715 6        37.977 6
G20  21928814.033 9 115236662.573 9      2538.632 9        55.322 9  21928814.346 6         0.000 6      1978.156 6        37.977 6
> 2019 07 03 12 01 32.0000000  0  8       0.000000000000
G07  25333315.143 9 133127423.633 9      2162.467 9        54.136 9  25333315.806 6         0.000 6      1685.040 6        37.977 6
G10  23787786.527 9 125005607.592 9      3539.644 9        54.677 9  23787790.233 6         0.000 6      2758.167 6        37.977 6
G21  21178816.462 9 111295410.996 9     -1279.800 9        55.706 9  21178815.750 6         0.000 6      -997.247 6        37.977 6
G29  24319562.147 9 127800104.939 9     -3159.567 9        54.468 9  24319563.742 6         0.000 6     -2462.003 6        37.977 6
G27  21988868.506 9 115552257.003 9      2513.535 9        55.380 9  21988870.433 6         0.000 6      1958.599 6        37.977 6
G16  20493663.581 9 107694908.690 9       548.397 9        55.978 9  20493662.754 6         0.000 6       427.322 6        37.977 6
G26  20663741.400 9 108588671.635 9     -1485.973 9        55.869 9  20663744.220 6         0.000 6     -1157.901 6        37.977 6
G20  21928329.759 9 115234117.698 9      2550.494 9        55.322 9  21928330.072 6         0.000 6      1987.399 6        37.977 6
> 2019 07 03 12 01 33.0000000  0  8       0.000000000000
G07  25332904.368 9 133125264.998 9      2156.313 9        54.136 9  25332905.030 6         0.000 6      1680.245 6        37.977 6
G10  23787112.431 9 125002065.201 9      3543.875 9        54.678 9  23787116.136 6         0.000 6      2761.463 6        37.977 6
G21  21179059.734 9 111296689.398 9     -1277.397 9        55.706 9  21179059.021 6         0.000 6      -995.375 6        37.977 6
G29  24320162.404 9 127803259.301 9     -3150.707 9        54.468 9  24320164.000 6         0.000 6     -2455.099 6        37.977 6
G27  21988391.038 9 115549747.897 9      2506.041 9        55.381 9  21988392.965 6         0.000 6      1952.760 6        37.977 6
G16  20493559.659 9 107694362.576 9       544.430 9        55.978 9  20493558.832 6         0.000 6       424.231 6        37.977 6
G26  20664024.213 9 108590157.824 9     -1486.650 9        55.869 9  20664027.033 6         0.000 6     -1158.429 6        37.977 6
G20  21927843.813 9 115231564.038 9      2555.536 9        55.322 9  21927844.125 6         0.000 6      1991.328 6        37.977 6
> 2019 07 03 12 01 34.0000000  0  8       0.000000000000
G07  25332494.116 9 133123109.115 9      2155.932 9        54.136 9  25332494.779 6         0.000 6      1679.948 6        37.977 6
G10  23786438.059 9 124998521.363 9      3543.482 9        54.678 9  23786441.763 6         0.000 6      2761.158 6        37.977 6
G21  21179302.777 9 111297966.597 9     -1277.280 9        55.706 9  21179302.065 6         0.000 6      -995.283 6        37.977 6
G29  24320761.781 9 127806409.037 9     -3149.647 9        54.467 9  24320763.377 6         0.000 6     -2454.273 6        37.977 6
G27  21987914.313 9 115547242.691 9      2505.057 9        55.381 9  21987916.240 6         0.000 6      1951.993 6        37.977 6
G16  20493456.183 9 107693818.803 9       543.438 9        55.978 9  20493455.356 6         0.000 6       423.458 6        37.977 6
G26  20664307.210 9 108591644.981 9     -1487.616 9        55.869 9  20664310.030 6         0.000 6     -1159.182 6        37.977 6
G20  21927357.493 9 115229008.415 9      2555.244 9        55.322 9  21927357.805 6         0.000 6      1991.100 6        37.977 6
> 2019 07 03 12 01 35.0000000  0  8       0.000000000000
G07  25332083.778 9 133120952.778 9      2156.728 9        54.137 9  25332084.440 6         0.000 6      1680.568 6        37.977 6
G10  23785763.876 9 124994978.517 9      3542.244 9        54.678 9  23785767.579 6         0.000 6      2760.193 6        37.977 6
G21  21179545.895 9 111299244.186 9     -1277.896 9        55.706 9  21179545.182 6         0.000 6      -995.763 6        37.977 6
G29  24321361.253 9 127809559.273 9     -3150.817 9        54.467 9  24321362.850 6         0.000 6     -2455.185 6        37.977 6
G27  21987437.541 9 115544737.239 9      2505.823 9        55.381 9  21987439.467 6         0.000 6      1952.590 6        37.977 6
G16  20493352.784 9 107693275.441 9       543.266 9        55.978 9  20493351.957 6         0.000 6       423.324 6        37.977 6
G26  20664590.371 9 108593133.004 9     -1488.440 9        55.869 9  20664593.191 6         0.000 6     -1159.824 6        37.977 6
G20  21926871.390 9 115226453.932 9      2553.745 9        55.322 9  21926871.702 6         0.000 6      1989.932 6        37.977 6
> 2019 07 03 12 01 36.0000000  0  8       0.000000000000
G07  25331673.326 9 133118795.838 9      2157.051 9        54.137 9  25331673.988 6         0.000 6      1680.820 6        37.977 6
G10  23785089.899 9 124991436.754 9      3541.398 9        54.678 9  23785093.601 6         0.000 6      2759.534 6        37.977 6
G21  21179789.117 9 111300522.329 9     -1278.362 9        55.706 9  21179788.405 6         0.000 6      -996.126 6        37.977 6
G29  24321960.903 9 127812710.447 9     -3151.443 9        54.467 9  24321962.501 6         0.000 6     -2455.672 6        37.977 6
G27  21986960.661 9 115542231.224 9      2506.119 9        55.381 9  21986962.588 6         0.000 6      1952.820 6        37.977 6
G16  20493249.437 9 107692732.347 9       542.883 9        55.978 9  20493248.610 6         0.000 6       423.026 6        37.977 6
G26  20664873.687 9 108594621.837 9     -1489.208 9        55.869 9  20664876.507 6         0.000 6     -1160.422 6        37.977 6
G20  21926385.541 9 115223900.779 9      2552.667 9        55.322 9  21926385.852 6         0.000 6      1989.092 6        37.977 6
> 2019 07 03 12 01 37.0000000  0  8       0.000000000000
G07  25331262.870 9 133116638.881 9      2156.779 9        54.137 9  25331263.531 6         0.000 6      1680.608 6        37.977 6
G10  23784416.032 9 124987895.570 9      3541.069 9        54.678 9  23784419.734 6         0.000 6      2759.277 6        37.977 6
G21  21180032.414 9 111301800.862 9     -1278.694 9        55.705 9  21180031.701 6         0.000 6      -996.385 6        37.977 6
G29  24322560.617 9 127815861.953 9     -3151.514 9        54.467 9  24322562.215 6         0.000 6     -2455.728 6        37.977 6
G27  21986483.775 9 115539725.173 9      2505.911 9        55.381 9  21986485.702 6         0.000 6      1952.658 6        37.977 6
G16  20493146.184 9 107692189.747 9       542.281 9        55.978 9  20493145.357 6         0.000 6       422.556 6        37.977 6
G26  20665157.138 9 108596111.378 9     -1489.864 9        55.869 9  20665159.958 6         0.000 6     -1160.934 6        37.977 6
G20  21925899.846 9 115221348.439 9      2552.094 9        55.323 9  21925900.157 6         0.000 6      1988.646 6        37.977 6
> 2019 07 03 12 01 38.0000000  0  8       0.000000000000
G07  25330852.507 9 133114482.416 9      2156.125 9        54.137 9  25330853.169 6         0.000 6      1680.098 6        37.977 6
G10  23783742.191 9 124984354.522 9      3541.078 9        54.679 9  23783745.892 6         0.000 6      2759.284 6        37.977 6
G21  21180275.768 9 111303079.696 9     -1278.971 9        55.705 9  21180275.056 6         0.000 6      -996.601 6        37.977 6
G29  24323160.312 9 127819013.359 9     -3151.296 9        54.467 9  24323161.910 6         0.000 6     -2455.558 6        37.977 6
G27  21986006.961 9 115537219.499 9      2505.421 9        55.382 9  21986008.887 6         0.000 6      1952.277 6        37.977 6
G16  20493043.059 9 107691647.824 9       541.555 9        55.978 9  20493042.232 6         0.000 6       421.991 6        37.977 6
G26  20665440.704 9 108597601.529 9     -1490.432 9        55.868 9  20665443.525 6         0.000 6     -1161.376 6        37.977 6
G20  21925414.226 9 115218796.496 9      2551.829 9        55.323 9  21925414.537 6         0.000 6      1988.439 6        37.977 6
> 2019 07 03 12 01 39.0000000  0  8       0.000000000000
G07  25330442.281 9 133112326.665 9      2155.376 9        54.137 9  25330442.942 6         0.000 6      1679.515 6        37.977 6
G10  23783068.337 9 124980813.409 9      3541.177 9        54.679 9  23783072.038 6         0.000 6      2759.362 6        37.977 6
G21  21180519.175 9 111304358.807 9     -1279.260 9        55.705 9  21180518.463 6         0.000 6      -996.826 6        37.977 6
G29  24323759.960 9 127822164.522 9     -3151.063 9        54.466 9  24323761.559 6         0.000 6     -2455.376 6        37.977 6
G27  21985530.245 9 115534714.345 9      2504.896 9        55.382 9  21985532.172 6         0.000 6      1951.867 6        37.977 6
G16  20492940.075 9 107691106.641 9       540.814 9        55.978 9  20492939.248 6         0.000 6       421.413 6        37.977 6
G26  20665724.375 9 108599092.228 9     -1490.964 9        55.868 9  20665727.196 6         0.000 6     -1161.791 6        37.977 6
G20  21924928.648 9 115216244.772 9      2551.628 9        55.323 9  21924928.959 6         0.000 6      1988.283 6        37.977 6
> 2019 07 03 12 01 40.0000000  0  8       0.000000000000
G07  25330032.190 9 133110171.624 9      2154.750 9        54.137 9  25330032.851 6         0.000 6      1679.027 6        37.977 6
G10  23782394.470 9 124977272.222 9      3541.190 9        54.679 9  23782398.170 6         0.000 6      2759.371 6        37.977 6
G21  21180762.643 9 111305638.236 9     -1279.615 9        55.705 9  21180761.930 6         0.000 6      -997.103 6        37.977 6
G29  24324359.581 9 127825315.540 9     -3151.049 9        54.466 9  24324361.181 6         0.000 6     -2455.365 6        37.977 6
G27  21985053.617 9 115532209.649 9      2504.549 9        55.382 9  21985055.543 6         0.000 6      1951.597 6        37.977 6
G16  20492837.226 9 107690566.165 9       540.160 9        55.978 9  20492836.399 6         0.000 6       420.904 6        37.977 6
G26  20666008.145 9 108600583.448 9     -1491.478 9        55.868 9  20666010.966 6         0.000 6     -1162.191 6        37.977 6
G20  21924443.117 9 115213693.292 9      2551.308 9        55.323 9  21924443.427 6         0.000 6      1988.033 6        37.977 6
> 2019 07 03 12 01 41.0000000  0  8       0.000000000000
G07  25329622.194 9 133108017.089 9      2154.370 9        54.137 9  25329622.855 6         0.000 6      1678.730 6        37.977 6
G10  23781720.617 9 124973731.113 9      3541.014 9        54.679 9  23781724.317 6         0.000 6      2759.234 6        37.977 6
G21  21181006.189 9 111306918.079 9     -1280.098 9        55.705 9  21181005.476 6         0.000 6      -997.479 6        37.977 6
G29  24324959.235 9 127828466.737 9     -3151.432 9        54.466 9  24324960.836 6         0.000 6     -2455.664 6        37.977 6
G27  21984577.025 9 115529705.143 9      2504.519 9        55.382 9  21984578.951 6         0.000 6      1951.574 6        37.977 6
G16  20492734.487 9 107690026.269 9       539.651 9        55.978 9  20492733.660 6         0.000 6       420.508 6        37.977 6
G26  20666292.012 9 108602075.176 9     -1491.988 9        55.868 9  20666294.833 6         0.000 6     -1162.588 6        37.977 6
G20  21923957.668 9 115211142.246 9      2550.746 9        55.323 9  21923957.978 6         0.000 6      1987.596 6        37.977 6
> 2019 07 03 12 01 42.0000000  0  8       0.000000000000
G07  25329212.252 9 133105862.828 9      2154.180 9        54.138 9  25329212.912 6         0.000 6      1678.583 6        37.977 6
G10  23781046.814 9 124970190.263 9      3540.691 9        54.680 9  23781050.513 6         0.000 6      2758.983 6        37.977 6
G21  21181249.836 9 111308198.453 9     -1280.660 9        55.705 9  21181249.123 6         0.000 6      -997.917 6        37.977 6
G29  24325558.993 9 127831618.474 9     -3152.093 9        54.466 9  24325560.594 6         0.000 6     -2456.179 6        37.977 6
G27  21984100.414 9 115527200.538 9      2504.721 9        55.382 9  21984102.339 6         0.000 6      1951.732 6        37.977 6
G16  20492631.834 9 107689486.822 9       539.253 9        55.979 9  20492631.007 6         0.000 6       420.197 6        37.977 6
G26  20666575.976 9 108603567.415 9     -1492.494 9        55.868 9  20666578.797 6         0.000 6     -1162.983 6        37.977 6
G20  21923472.346 9 115208591.864 9      2550.009 9        55.324 9  21923472.656 6         0.000 6      1987.021 6        37.977 6
> 2019 07 03 12 01 43.0000000  0  8       0.000000000000
G07  25328802.364 9 133103708.855 9      2153.597 9        54.138 9  25328803.024 6         0.000 6      1678.128 6        37.977 6
G10  23780373.061 9 124966649.677 9      3540.616 9        54.680 9  23780376.759 6         0.000 6      2758.924 6        37.977 6
G21  21181493.574 9 111309479.301 9     -1280.900 9        55.705 9  21181492.861 6         0.000 6      -998.104 6        37.977 6
G29  24326158.828 9 127834770.616 9     -3151.808 9        54.465 9  24326160.430 6         0.000 6     -2455.957 6        37.977 6
G27  21983623.801 9 115524695.925 9      2504.201 9        55.383 9  21983625.727 6         0.000 6      1951.326 6        37.977 6
G16  20492529.275 9 107688947.869 9       538.505 9        55.979 9  20492528.448 6         0.000 6       419.614 6        37.977 6
G26  20666860.044 9 108605060.198 9     -1493.121 9        55.868 9  20666862.865 6         0.000 6     -1163.472 6        37.977 6
G20  21922987.142 9 115206042.107 9      2549.706 9        55.324 9  21922987.452 6         0.000 6      1986.785 6        37.977 6
> 2019 07 03 12 01 44.0000000  0  8       0.000000000000
G07  25328392.731 9 133101556.228 9      2151.351 9        54.138 9  25328393.392 6         0.000 6      1676.378 6        37.977 6
G10  23779699.234 9 124963108.705 9      3541.481 9        54.680 9  23779702.932 6         0.000 6      2759.599 6        37.977 6
G21  21181737.221 9 111310759.679 9     -1279.399 9        55.705 9  21181736.509 6         0.000 6      -996.935 6        37.977 6
G29  24326758.226 9 127837920.467 9     -3146.697 9        54.465 9  24326759.829 6         0.000 6     -2451.974 6        37.977 6
G27  21983147.574 9 115522193.334 9      2500.110 9        55.383 9  21983149.499 6         0.000 6      1948.138 6        37.977 6
G16  20492426.995 9 107688410.383 9       536.043 9        55.979 9  20492426.168 6         0.000 6       417.696 6        37.977 6
G26  20667144.282 9 108606553.880 9     -1494.479 9        55.868 9  20667147.103 6         0.000 6     -1164.529 6        37.977 6
G20  21922501.828 9 115203491.768 9      2551.420 9        55.324 9  21922502.137 6         0.000 6      1988.120 6        37.977 6
> 2019 07 03 12 01 45.0000000  0  8       0.000000000000
G07  25327983.547 9 133099405.952 9      2149.988 9        54.138 9  25327984.207 6         0.000 6      1675.316 6        37.977 6
G10  23779025.326 9 124959567.307 9      3540.452 9        54.680 9  23779029.023 6         0.000 6      2758.797 6        37.977 6
G21  21181980.304 9 111312037.087 9     -1275.005 9        55.705 9  21181979.592 6         0.000 6      -993.511 6        37.977 6
G29  24327355.973 9 127841061.635 9     -3134.994 9        54.465 9  24327357.576 6         0.000 6     -2442.855 6        37.977 6
G27  21982672.579 9 115519697.221 9      2491.869 9        55.383 9  21982674.504 6         0.000 6      1941.717 6        37.977 6
G16  20492325.413 9 107687876.569 9       531.412 9        55.979 9  20492324.586 6         0.000 6       414.088 6        37.977 6
G26  20667428.987 9 108608050.010 9     -1498.369 9        55.868 9  20667431.808 6         0.000 6     -1167.561 6        37.977 6
G20  21922016.049 9 115200938.985 9      2553.758 9        55.324 9  21922016.358 6         0.000 6      1989.942 6        37.977 6
> 2019 07 03 12 01 46.0000000  0  8       0.000000000000
G07  25327573.983 9 133097253.684 9      2155.801 9        54.138 9  25327574.643 6         0.000 6      1679.846 6        37.977 6
G10  23778352.263 9 124956030.347 9      3532.415 9        54.681 9  23778355.960 6         0.000 6      2752.534 6        37.977 6
G21  21182222.426 9 111313309.443 9     -1269.990 9        55.705 9  21182221.713 6         0.000 6      -989.602 6        37.977 6
G29  24327951.448 9 127844190.869 9     -3124.674 9        54.465 9  24327953.052 6         0.000 6     -2434.814 6        37.977 6
G27  21982199.031 9 115517208.717 9      2486.215 9        55.383 9  21982200.956 6         0.000 6      1937.311 6        37.977 6
G16  20492224.690 9 107687347.264 9       527.667 9        55.979 9  20492223.863 6         0.000 6       411.169 6        37.977 6
G26  20667714.753 9 108609551.722 9     -1505.283 9        55.868 9  20667717.574 6         0.000 6     -1172.948 6        37.977 6
G20  21921530.246 9 115198386.076 9      2551.013 9        55.324 9  21921530.554 6         0.000 6      1987.804 6        37.977 6
> 2019 07 03 12 01 47.0000000  0  8       0.000000000000
G07  25327162.971 9 133095093.802 9      2163.206 9        54.138 9  25327163.630 6         0.000 6      1685.616 6        37.977 6
G10  23777680.958 9 124952502.624 9      3523.983 9        54.681 9  23777684.654 6         0.000 6      2745.963 6        37.977 6
G21  21182463.855 9 111314578.161 9     -1268.008 9        55.704 9  21182463.143 6         0.000 6      -988.059 6        37.977 6
G29  24328545.726 9 127847313.811 9     -3122.279 9        54.465 9  24328547.331 6         0.000 6     -2432.947 6        37.977 6
G27  21981725.975 9 115514722.789 9      2486.166 9        55.383 9  21981727.899 6         0.000 6      1937.273 6        37.977 6
G16  20492124.402 9 107686820.250 9       526.674 9        55.979 9  20492123.575 6         0.000 6       410.395 6        37.977 6
G26  20668001.757 9 108611059.938 9     -1510.444 9        55.867 9  20668004.579 6         0.000 6     -1176.970 6        37.977 6
G20  21921045.337 9 115195837.870 9      2545.732 9        55.325 9  21921045.646 6         0.000 6      1983.688 6        37.977 6
> 2019 07 03 12 01 48.0000000  0  8       0.000000000000
G07  25326751.078 9 133092929.292 9      2165.027 9        54.138 9  25326751.737 6         0.000 6      1687.035 6        37.977 6
G10  23777010.668 9 124948980.236 9      3521.632 9        54.681 9  23777014.363 6         0.000 6      2744.131 6        37.977 6
G21  21182705.152 9 111315846.186 9     -1268.223 9        55.704 9  21182704.440 6         0.000 6      -988.226 6        37.977 6
G29  24329139.927 9 127850436.346 9     -3122.935 9        54.464 9  24329141.532 6         0.000 6     -2433.458 6        37.977 6
G27  21981252.799 9 115512236.239 9      2486.837 9        55.384 9  21981254.724 6         0.000 6      1937.796 6        37.977 6
G16  20492024.207 9 107686293.720 9       526.382 9        55.979 9  20492023.380 6         0.000 6       410.168 6        37.977 6
G26  20668289.368 9 108612571.338 9     -1511.936 9        55.867 9  20668292.189 6         0.000 6     -1178.133 6        37.977 6
G20  21920561.148 9 115193293.443 9      2543.644 9        55.325 9  21920561.456 6         0.000 6      1982.061 6        37.977 6
> 2019 07 03 12 01 49.0000000  0  8       0.000000000000
G07  25326339.143 9 133090764.564 9      2164.346 9        54.139 9  25326339.802 6         0.000 6      1686.504 6        37.977 6
G10  23776340.513 9 124945458.560 9      3521.833 9        54.681 9  23776344.207 6         0.000 6      2744.288 6        37.977 6
G21  21182946.556 9 111317114.773 9     -1268.960 9        55.704 9  21182945.844 6         0.000 6      -988.800 6        37.977 6
G29  24329734.289 9 127853559.729 9     -3123.839 9        54.464 9  24329735.895 6         0.000 6     -2434.163 6        37.977 6
G27  21980779.543 9 115509749.265 9      2487.089 9        55.384 9  21980781.468 6         0.000 6      1937.992 6        37.977 6
G16  20491924.073 9 107685767.512 9       526.027 9        55.979 9  20491923.246 6         0.000 6       409.891 6        37.977 6
G26  20668577.103 9 108614083.398 9     -1512.144 9        55.867 9  20668579.925 6         0.000 6     -1178.294 6        37.977 6
G20  21920077.158 9 115190750.063 9      2543.190 9        55.325 9  21920077.466 6         0.000 6      1981.708 6        37.977 6
> 2019 07 03 12 01 50.0000000  0  8       0.000000000000
G07  25325927.352 9 133088600.594 9      2163.636 9        54.139 9  25325928.011 6         0.000 6      1685.951 6        37.977 6
G10  23775670.307 9 124941936.612 9      3522.034 9        54.682 9  23775674.000 6         0.000 6      2744.444 6        37.977 6
G21  21183188.095 9 111318384.069 9     -1269.616 9        55.704 9  21183187.383 6         0.000 6      -989.311 6        37.977 6
G29  24330328.808 9 127856683.936 9     -3124.539 9        54.464 9  24330330.414 6         0.000 6     -2434.709 6        37.977 6
G27  21980306.252 9 115507262.103 9      2487.200 9        55.384 9  21980308.176 6         0.000 6      1938.078 6        37.977 6
G16  20491824.011 9 107685241.681 9       525.602 9        55.979 9  20491823.184 6         0.000 6       409.560 6        37.977 6
G26  20668864.874 9 108615595.643 9     -1512.400 9        55.867 9  20668867.696 6         0.000 6     -1178.494 6        37.977 6
G20  21919593.241 9 115188207.063 9      2542.795 9        55.325 9  21919593.548 6         0.000 6      1981.400 6        37.977 6
> 2019 07 03 12 01 51.0000000  0  8       0.000000000000
G07  25325515.680 9 133086437.247 9      2163.096 9        54.139 9  25325516.339 6         0.000 6      1685.530 6        37.977 6
G10  23775000.085 9 124938414.584 9      3522.005 9        54.682 9  23775003.778 6         0.000 6      2744.422 6        37.977 6
G21  21183429.744 9 111319653.939 9     -1270.091 9        55.704 9  21183429.032 6         0.000 6      -989.681 6        37.977 6
G29  24330923.425 9 127859808.661 9     -3124.872 9        54.464 9  24330925.032 6         0.000 6     -2434.968 6        37.977 6
G27  21979832.960 9 115504774.939 9      2487.107 9        55.384 9  21979834.884 6         0.000 6      1938.006 6        37.977 6
G16  20491724.042 9 107684716.343 9       525.063 9        55.979 9  20491723.215 6         0.000 6       409.140 6        37.977 6
G26  20669152.715 9 108617108.256 9     -1512.857 9        55.867 9  20669155.537 6         0.000 6     -1178.850 6        37.977 6
G20  21919109.404 9 115185664.491 9      2542.352 9        55.325 9  21919109.712 6         0.000 6      1981.055 6        37.977 6
> 2019 07 03 12 01 52.0000000  0  8       0.000000000000
G07  25325104.101 9 133084274.388 9      2162.610 9        54.139 9  25325104.760 6         0.000 6      1685.152 6        37.977 6
G10  23774329.882 9 124934892.656 9      3521.881 9        54.682 9  23774333.575 6         0.000 6      2744.325 6        37.977 6
G21  21183671.468 9 111320924.205 9     -1270.438 9        55.704 9  21183670.756 6         0.000 6      -989.952 6        37.977 6
G29  24331518.076 9 127862933.565 9     -3124.921 9        54.464 9  24331519.684 6         0.000 6     -2435.006 6        37.977 6
G27  21979359.702 9 115502287.953 9      2486.839 9        55.384 9  21979361.625 6         0.000 6      1937.797 6        37.977 6
G16  20491624.184 9 107684191.586 9       524.431 9        55.979 9  20491623.357 6         0.000 6       408.648 6        37.977 6
G26  20669440.656 9 108618621.393 9     -1513.431 9        55.867 9  20669443.478 6         0.000 6     -1179.297 6        37.977 6
G20  21918625.653 9 115183122.364 9      2541.926 9        55.326 9  21918625.960 6         0.000 6      1980.722 6        37.977 6
> 2019 07 03 12 01 53.0000000  0  8       0.000000000000
G07  25324692.627 9 133082112.081 9      2161.970 9        54.139 9  25324693.285 6         0.000 6      1684.653 6        37.977 6
G10  23773659.694 9 124931370.802 9      3521.892 9        54.682 9  23773663.386 6         0.000 6      2744.334 6        37.977 6
G21  21183913.254 9 111322194.803 9     -1270.759 9        55.704 9  21183912.542 6         0.000 6      -990.202 6        37.977 6
G29  24332112.723 9 127866058.443 9     -3124.845 9        54.463 9  24332114.331 6         0.000 6     -2434.947 6        37.977 6
G27  21978886.507 9 115499801.302 9      2486.453 9        55.384 9  21978888.431 6         0.000 6      1937.497 6        37.977 6
G16  20491524.453 9 107683667.494 9       523.749 9        55.979 9  20491523.626 6         0.000 6       408.116 6        37.977 6
G26  20669728.705 9 108620135.100 9     -1513.969 9        55.867 9  20669731.528 6         0.000 6     -1179.717 6        37.977 6
G20  21918141.972 9 115180580.609 9      2541.626 9        55.326 9  21918142.279 6         0.000 6      1980.489 6        37.977 6
> 2019 07 03 12 01 54.0000000  0  8       0.000000000000
G07  25324281.295 9 133079950.518 9      2161.141 9        54.139 9  25324281.953 6         0.000 6      1684.007 6        37.977 6
G10  23772989.483 9 124927848.832 9      3522.093 9        54.683 9  23772993.174 6         0.000 6      2744.491 6        37.977 6
G21  21184155.105 9 111323465.733 9     -1271.112 9        55.704 9  21184154.393 6         0.000 6      -990.477 6        37.977 6
G29  24332707.353 9 127869183.236 9     -3124.774 9        54.463 9  24332708.962 6         0.000 6     -2434.891 6        37.977 6
G27  21978413.392 9 115497315.066 9      2486.027 9        55.385 9  21978415.315 6         0.000 6      1937.165 6        37.977 6
G16  20491424.853 9 107683144.091 9       523.059 9        55.979 9  20491424.026 6         0.000 6       407.578 6        37.977 6
G26  20670016.848 9 108621649.298 9     -1514.414 9        55.867 9  20670019.670 6         0.000 6     -1180.063 6        37.977 6
G20  21917658.334 9 115178039.080 9      2541.453 9        55.326 9  21917658.641 6         0.000 6      1980.354 6        37.977 6
> 2019 07 03 12 01 55.0000000  0  8       0.000000000000
G07  25323870.116 9 133077789.764 9      2160.530 9        54.139 9  25323870.774 6         0.000 6      1683.531 6        37.977 6
G10  23772319.237 9 124924326.675 9      3522.087 9        54.683 9  23772322.928 6         0.000 6      2744.486 6        37.977 6
G21  21184397.025 9 111324737.032 9     -1271.462 9        55.704 9  21184396.313 6         0.000 6      -990.750 6        37.977 6
G29  24333301.978 9 127872307.999 9     -3124.782 9        54.463 9  24333303.587 6         0.000 6     -2434.898 6        37.977 6
G27  21977940.351 9 115494829.225 9      2485.704 9        55.385 9  21977942.275 6         0.000 6      1936.913 6        37.977 6
G16  20491325.381 9 107682621.365 9       522.408 9        55.979 9  20491324.554 6         0.000 6       407.071 6        37.977 6
G26  20670305.075 9 108623163.937 9     -1514.939 9        55.866 9  20670307.897 6         0.000 6     -1180.472 6        37.977 6
G20  21917174.734 9 115175497.746 9      2541.118 9        55.326 9  21917175.040 6         0.000 6      1980.093 6        37.977 6
> 2019 07 03 12 01 56.0000000  0  8       0.000000000000
G07  25323458.852 9 133075628.560 9      2162.768 9        54.140 9  25323459.510 6         0.000 6      1685.275 6        37.977 6
G10  23771649.192 9 124920805.576 9      3519.264 9        54.683 9  23771652.882 6         0.000 6      2742.287 6        37.977 6
G21  21184638.986 9 111326008.544 9     -1271.468 9        55.704 9  21184638.274 6         0.000 6      -990.755 6        37.977 6
G29  24333896.623 9 127875432.869 9     -3125.110 9        54.463 9  24333898.233 6         0.000 6     -2435.153 6        37.977 6
G27  21977467.313 9 115492343.395 9      2486.254 9        55.385 9  21977469.236 6         0.000 6      1937.342 6        37.977 6
G16  20491226.016 9 107682099.197 9       522.025 9        55.979 9  20491225.189 6         0.000 6       406.773 6        37.977 6
G26  20670593.493 9 108624679.583 9     -1516.742 9        55.866 9  20670596.315 6         0.000 6     -1181.877 6        37.977 6
G20  21916691.336 9 115172957.479 9      2538.810 9        55.326 9  21916691.642 6         0.000 6      1978.295 6        37.977 6
> 2019 07 03 12 01 57.0000000  0  8       0.000000000000
G07  25323046.478 9 133073461.524 9      2172.761 9        54.140 9  25323047.136 6         0.000 6      1693.062 6        37.977 6
G10  23770980.343 9 124917290.758 9      3509.068 9        54.683 9  23770984.032 6         0.000 6      2734.341 6        37.977 6
G21  21184880.912 9 111327279.874 9     -1271.326 9        55.703 9  21184880.200 6         0.000 6      -990.643 6        37.977 6
G29  24334491.520 9 127878559.067 9     -3128.201 9        54.463 9  24334493.131 6         0.000 6     -2437.562 6        37.977 6
G27  21976993.885 9 115489855.517 9      2490.433 9        55.385 9  21976995.808 6         0.000 6      1940.597 6        37.977 6
G16  20491126.620 9 107681576.867 9       523.014 9        55.979 9  20491125.793 6         0.000 6       407.544 6        37.977 6
G26  20670882.524 9 108626198.450 9     -1521.417 9        55.866 9  20670885.347 6         0.000 6     -1185.520 6        37.977 6
G20  21916208.871 9 115170422.113 9      2530.788 9        55.326 9  21916209.177 6         0.000 6      1972.044 6        37.977 6
> 2019 07 03 12 01 58.0000000  0  8       0.000000000000
G07  25322631.548 9 133071281.053 9      2188.313 9        54.140 9  25322632.205 6         0.000 6      1705.180 6        37.977 6
G10  23770313.990 9 124913789.065 9      3494.418 9        54.684 9  23770317.679 6         0.000 6      2722.926 6        37.977 6
G21  21185122.981 9 111328551.955 9     -1273.365 9        55.703 9  21185122.269 6         0.000 6      -992.233 6        37.977 6
G29  24335087.675 9 127881691.869 9     -3138.739 9        54.462 9  24335089.286 6         0.000 6     -2445.773 6        37.977 6
G27  21976519.070 9 115487360.348 9      2500.807 9        55.385 9  21976520.993 6         0.000 6      1948.682 6        37.977 6
G16  20491026.775 9 107681052.178 9       526.815 9        55.979 9  20491025.948 6         0.000 6       410.505 6        37.977 6
G26  20671172.550 9 108627722.544 9     -1526.412 9        55.866 9  20671175.372 6         0.000 6     -1189.413 6        37.977 6
G20  21915728.497 9 115167897.733 9      2517.656 9        55.327 9  21915728.802 6         0.000 6      1961.811 6        37.977 6
> 2019 07 03 12 01 59.0000000  0  8       0.000000000000
G07  25322214.015 9 133069086.904 9      2198.267 9        54.140 9  25322214.671 6         0.000 6      1712.936 6        37.977 6
G10  23769650.006 9 124910299.813 9      3485.709 9        54.684 9  23769653.694 6         0.000 6      2716.140 6        37.977 6
G21  21185365.664 9 111329827.265 9     -1277.182 9        55.703 9  21185364.953 6         0.000 6      -995.207 6        37.977 6
G29  24335686.233 9 127884837.303 9     -3151.286 9        54.462 9  24335687.845 6         0.000 6     -2455.550 6        37.977 6
G27  21976042.100 9 115484853.861 9      2511.204 9        55.386 9  21976044.023 6         0.000 6      1956.783 6        37.977 6
G16  20490926.093 9 107680523.091 9       530.973 9        55.979 9  20490925.266 6         0.000 6       413.745 6        37.977 6
G26  20671463.225 9 108629250.054 9     -1528.051 9        55.866 9  20671466.048 6         0.000 6     -1190.689 6        37.977 6
G20  21915250.455 9 115165385.611 9      2507.916 9        55.327 9  21915250.760 6         0.000 6      1954.221 6        37.977 6
> 2019 07 03 12 02  0.0000000  0  8       0.000000000000
G07  25321795.468 9 133066887.431 9      2199.760 9        54.140 9  25321796.125 6         0.000 6      1714.099 6        37.977 6
G10  23768986.903 9 124906815.192 9      3484.273 9        54.684 9  23768990.590 6         0.000 6      2715.020 6        37.977 6
G21  21185608.923 9 111331105.599 9     -1279.054 9        55.703 9  21185608.212 6         0.000 6      -996.665 6        37.977 6
G29  24336286.463 9 127887991.521 9     -3155.770 9        54.462 9  24336288.075 6         0.000 6     -2459.044 6        37.977 6
G27  21975563.831 9 115482340.539 9      2514.310 9        55.386 9  21975565.753 6         0.000 6      1959.203 6        37.977 6
G16  20490824.912 9 107679991.380 9       531.930 9        55.979 9  20490824.085 6         0.000 6       414.491 6        37.977 6
G26  20671754.016 9 108630778.169 9     -1528.178 9        55.866 9  20671756.839 6         0.000 6     -1190.788 6        37.977 6
G20  21914773.543 9 115162879.427 9      2505.345 9        55.327 9  21914773.848 6         0.000 6      1952.218 6        37.977 6
