     3.00           Observation Data    M (Mixed)           RINEX VERSION / TYPE
SimGEN V6.06.00     Spirent             03-Jul-19 12:00     PGM / RUN BY / DATE 
                                                            MARKER NAME         
1                                                           MARKER NUMBER       
GROUND_CRAFT                                                MARKER TYPE         
jin4hi              Spirent                                 OBSERVER / AGENCY   
rec_num             rec_type            rec_vers            REC # / TYPE / VERS 
1                   ant_type                                ANT # / TYPE        
  1000.000                                                  INTERVAL            
  2019     7     3    12     0    0.0000000     GPS         TIME OF FIRST OBS   
  4162669.1630   664333.6820  4770545.0060                  APPROX POSITION XYZ 
        0.0000        0.0000        0.0000                  ANTENNA: DELTA H/E/N
G    8 C1C L1C D1C S1C C2C L2C D2C S2C                      SYS / # / OBS TYPES 
        0.0000        0.0000        0.0000                  ANTENNA: DELTA X/Y/Z
DBHZ                                                        SIGNAL STRENGTH UNIT
                                                            END OF HEADER       
> 2019 07 03 12 00  0.0000000  0  8       0.000000000000
G07  25371974.444 9 133330579.298 9      2200.129 9        54.123 9  25371975.128 6         0.000 6      1714.386 6        37.977 6
G10  23849408.296 9 125329431.188 9      3554.973 9        54.655 9  23849412.062 6         0.000 6      2770.109 6        37.977 6
G21  21156835.536 9 111179900.512 9     -1242.865 9        55.715 9  21156834.819 6         0.000 6      -968.466 6        37.977 6
G29  24264460.496 9 127510544.750 9     -3142.872 9        54.487 9  24264462.034 6         0.000 6     -2448.991 6        37.977 6
G27  22033074.298 9 115784559.754 9      2529.073 9        55.363 9  22033076.241 6         0.000 6      1970.707 6        37.977 6
G16  20503742.324 9 107747872.836 9       601.801 9        55.974 9  20503741.498 6         0.000 6       468.936 6        37.977 6
G26  20637938.151 9 108453074.808 9     -1434.077 9        55.880 9  20637940.961 6         0.000 6     -1117.463 6        37.977 6
G20  21973072.416 9 115469241.529 9      2595.769 9        55.304 9  21973072.754 6         0.000 6      2022.677 6        37.977 6
> 2019 07 03 12 00  1.0000000  0  8       0.000000000000
G07  25371555.243 9 133328376.385 9      2203.982 9        54.123 9  25371555.926 6         0.000 6      1717.390 6        37.977 6
G10  23848732.381 9 125325879.240 9      3550.600 9        54.655 9  23848736.146 6         0.000 6      2766.704 6        37.977 6
G21  21157072.000 9 111181143.135 9     -1242.623 9        55.715 9  21157071.283 6         0.000 6      -968.278 6        37.977 6
G29  24265058.587 9 127513687.726 9     -3143.052 9        54.487 9  24265060.125 6         0.000 6     -2449.134 6        37.977 6
G27  22032592.917 9 115782030.082 9      2529.872 9        55.363 9  22032594.859 6         0.000 6      1971.329 6        37.977 6
G16  20503627.817 9 107747271.099 9       601.541 9        55.974 9  20503626.991 6         0.000 6       468.733 6        37.977 6
G26  20638211.359 9 108454510.522 9     -1436.588 9        55.880 9  20638214.169 6         0.000 6     -1119.420 6        37.977 6
G20  21972578.885 9 115466648.009 9      2592.418 9        55.304 9  21972579.222 6         0.000 6      2020.067 6        37.977 6
> 2019 07 03 12 00  2.0000000  0  8       0.000000000000
G07  25371135.740 9 133326171.882 9      2204.966 9        54.123 9  25371136.423 6         0.000 6      1718.156 6        37.977 6
G10  23848056.879 9 125322329.468 9      3549.030 9        54.655 9  23848060.644 6         0.000 6      2765.480 6        37.977 6
G21  21157308.478 9 111182385.835 9     -1242.788 9        55.715 9  21157307.761 6         0.000 6      -968.406 6        37.977 6
G29  24265656.700 9 127516830.823 9     -3143.160 9        54.487 9  24265658.239 6         0.000 6     -2449.218 6        37.977 6
G27  22032111.486 9 115779500.150 9      2529.979 9        55.363 9  22032113.429 6         0.000 6      1971.413 6        37.977 6
G16  20503513.394 9 107746669.801 9       601.047 9        55.974 9  20503512.568 6         0.000 6       468.349 6        37.977 6
G26  20638484.852 9 108455947.736 9     -1437.814 9        55.880 9  20638487.662 6         0.000 6     -1120.375 6        37.977 6
G20  21972085.704 9 115464056.331 9      2590.992 9        55.305 9  21972086.041 6         0.000 6      2018.956 6        37.977 6
> 2019 07 03 12 00  3.0000000  0  8       0.000000000000
G07  25370716.137 9 133323966.858 9      2204.168 9        54.123 9  25370716.820 6         0.000 6      1717.535 6        37.977 6
G10  23847381.604 9 125318780.880 9      3548.802 9        54.656 9  23847385.368 6         0.000 6      2765.303 6        37.977 6
G21  21157544.961 9 111183628.565 9     -1242.000 9        55.715 9  21157544.245 6         0.000 6      -967.793 6        37.977 6
G29  24266254.735 9 127519973.507 9     -3140.223 9        54.487 9  24266256.274 6         0.000 6     -2446.930 6        37.977 6
G27  22031630.123 9 115776970.574 9      2527.623 9        55.364 9  22031632.066 6         0.000 6      1969.577 6        37.977 6
G16  20503399.106 9 107746069.212 9       599.396 9        55.974 9  20503398.279 6         0.000 6       467.062 6        37.977 6
G26  20638758.569 9 108457386.129 9     -1439.165 9        55.880 9  20638761.380 6         0.000 6     -1121.428 6        37.977 6
G20  21971592.716 9 115461465.669 9      2591.345 9        55.305 9  21971593.053 6         0.000 6      2019.231 6        37.977 6
> 2019 07 03 12 00  4.0000000  0  8       0.000000000000
G07  25370296.910 9 133321763.809 9      2202.340 9        54.124 9  25370297.592 6         0.000 6      1716.110 6        37.977 6
G10  23846706.249 9 125315231.877 9      3548.827 9        54.656 9  23846710.012 6         0.000 6      2765.322 6        37.977 6
G21  21157781.047 9 111184869.202 9     -1239.241 9        55.715 9  21157780.330 6         0.000 6      -965.643 6        37.977 6
G29  24266851.510 9 127523109.570 9     -3131.983 9        54.487 9  24266853.050 6         0.000 6     -2440.509 6        37.977 6
G27  22031149.732 9 115774446.104 9      2521.455 9        55.364 9  22031151.674 6         0.000 6      1964.771 6        37.977 6
G16  20503285.384 9 107745471.597 9       595.882 9        55.974 9  20503284.557 6         0.000 6       464.324 6        37.977 6
G26  20639032.658 9 108458826.471 9     -1441.694 9        55.880 9  20639035.468 6         0.000 6     -1123.399 6        37.977 6
G20  21971099.379 9 115458873.167 9      2593.378 9        55.305 9  21971099.716 6         0.000 6      2020.815 6        37.977 6
> 2019 07 03 12 00  5.0000000  0  8       0.000000000000
G07  25369877.751 9 133319561.118 9      2203.798 9        54.124 9  25369878.433 6         0.000 6      1717.246 6        37.977 6
G10  23846031.163 9 125311684.287 9      3545.649 9        54.656 9  23846034.925 6         0.000 6      2762.846 6        37.977 6
G21  21158016.587 9 111186106.971 9     -1236.247 9        55.715 9  21158015.870 6         0.000 6      -963.309 6        37.977 6
G29  24267446.771 9 127526237.679 9     -3124.420 9        54.486 9  24267448.312 6         0.000 6     -2434.615 6        37.977 6
G27  22030670.413 9 115771927.266 9      2516.514 9        55.364 9  22030672.355 6         0.000 6      1960.921 6        37.977 6
G16  20503172.291 9 107744877.289 9       592.850 9        55.974 9  20503171.464 6         0.000 6       461.961 6        37.977 6
G26  20639307.340 9 108460269.935 9     -1445.529 9        55.879 9  20639310.151 6         0.000 6     -1126.386 6        37.977 6
G20  21970605.856 9 115456279.691 9      2593.045 9        55.305 9  21970606.192 6         0.000 6      2020.556 6        37.977 6
> 2019 07 03 12 00  6.0000000  0  8       0.000000000000
G07  25369457.730 9 133317353.895 9      2210.020 9        54.124 9  25369458.412 6         0.000 6      1722.094 6        37.977 6
G10  23845357.249 9 125308142.858 9      3538.056 9        54.656 9  23845361.011 6         0.000 6      2756.929 6        37.977 6
G21  21158251.523 9 111187341.568 9     -1233.549 9        55.714 9  21158250.806 6         0.000 6      -961.208 6        37.977 6
G29  24268040.731 9 127529358.949 9     -3119.401 9        54.486 9  24268042.272 6         0.000 6     -2430.705 6        37.977 6
G27  22030191.805 9 115769412.166 9      2514.393 9        55.364 9  22030193.746 6         0.000 6      1959.268 6        37.977 6
G16  20503059.684 9 107744285.540 9       591.025 9        55.974 9  20503058.858 6         0.000 6       460.539 6        37.977 6
G26  20639582.980 9 108461718.433 9     -1450.782 9        55.879 9  20639585.791 6         0.000 6     -1130.480 6        37.977 6
G20  21970112.821 9 115453688.779 9      2588.991 9        55.305 9  21970113.157 6         0.000 6      2017.396 6        37.977 6
> 2019 07 03 12 00  7.0000000  0  8       0.000000000000
G07  25369037.009 9 133315142.996 9      2211.247 9        54.124 9  25369037.691 6         0.000 6      1723.050 6        37.977 6
G10  23844684.224 9 125304606.100 9      3536.041 9        54.657 9  23844687.986 6         0.000 6      2755.359 6        37.977 6
G21  21158486.206 9 111188574.836 9     -1233.133 9        55.714 9  21158485.490 6         0.000 6      -960.883 6        37.977 6
G29  24268634.203 9 127532477.655 9     -3118.179 9        54.486 9  24268635.745 6         0.000 6     -2429.752 6        37.977 6
G27  22029713.398 9 115766898.124 9      2513.666 9        55.364 9  22029715.340 6         0.000 6      1958.702 6        37.977 6
G16  20502947.305 9 107743694.980 9       590.097 9        55.974 9  20502946.478 6         0.000 6       459.816 6        37.977 6
G26  20639859.250 9 108463170.240 9     -1452.546 9        55.879 9  20639862.061 6         0.000 6     -1131.854 6        37.977 6
G20  21969620.312 9 115451100.634 9      2587.645 9        55.306 9  21969620.648 6         0.000 6      2016.348 6        37.977 6
> 2019 07 03 12 00  8.0000000  0  8       0.000000000000
G07  25368616.259 9 133312931.942 9      2210.768 9        54.124 9  25368616.940 6         0.000 6      1722.678 6        37.977 6
G10  23844011.371 9 125301070.244 9      3535.802 9        54.657 9  23844015.132 6         0.000 6      2755.173 6        37.977 6
G21  21158720.861 9 111189807.957 9     -1233.142 9        55.714 9  21158720.145 6         0.000 6      -960.890 6        37.977 6
G29  24269227.492 9 127535595.399 9     -3117.374 9        54.486 9  24269229.034 6         0.000 6     -2429.125 6        37.977 6
G27  22029235.144 9 115764384.884 9      2512.827 9        55.365 9  22029237.085 6         0.000 6      1958.048 6        37.977 6
G16  20502835.101 9 107743105.345 9       589.183 9        55.974 9  20502834.274 6         0.000 6       459.104 6        37.977 6
G26  20640135.747 9 108464623.236 9     -1453.388 9        55.879 9  20640138.558 6         0.000 6     -1132.511 6        37.977 6
G20  21969127.930 9 115448513.153 9      2587.388 9        55.306 9  21969128.266 6         0.000 6      2016.148 6        37.977 6
> 2019 07 03 12 00  9.0000000  0  8       0.000000000000
G07  25368195.629 9 133310721.522 9      2210.085 9        54.124 9  25368196.310 6         0.000 6      1722.145 6        37.977 6
G10  23843338.530 9 125297534.450 9      3535.809 9        54.657 9  23843342.290 6         0.000 6      2755.179 6        37.977 6
G21  21158955.534 9 111191041.167 9     -1233.297 9        55.714 9  21158954.817 6         0.000 6      -961.011 6        37.977 6
G29  24269820.654 9 127538712.478 9     -3116.851 9        54.486 9  24269822.197 6         0.000 6     -2428.718 6        37.977 6
G27  22028757.038 9 115761872.427 9      2512.127 9        55.365 9  22028758.980 6         0.000 6      1957.503 6        37.977 6
G16  20502723.064 9 107742516.590 9       588.345 9        55.974 9  20502722.238 6         0.000 6       458.451 6        37.977 6
G26  20640412.382 9 108466076.960 9     -1454.051 9        55.879 9  20640415.193 6         0.000 6     -1133.027 6        37.977 6
G20  21968635.581 9 115445925.848 9      2587.217 9        55.306 9  21968635.917 6         0.000 6      2016.014 6        37.977 6
> 2019 07 03 12 00 10.0000000  0  8       0.000000000000
G07  25367775.124 9 133308511.758 9      2209.461 9        54.124 9  25367775.805 6         0.000 6      1721.659 6        37.977 6
G10  23842665.689 9 125293998.658 9      3535.790 9        54.657 9  23842669.448 6         0.000 6      2755.163 6        37.977 6
G21  21159190.243 9 111192274.571 9     -1233.527 9        55.714 9  21159189.526 6         0.000 6      -961.190 6        37.977 6
G29  24270413.739 9 127541829.150 9     -3116.544 9        54.485 9  24270415.283 6         0.000 6     -2428.478 6        37.977 6
G27  22028279.050 9 115759360.582 9      2511.589 9        55.365 9  22028280.991 6         0.000 6      1957.083 6        37.977 6
G16  20502611.179 9 107741928.627 9       587.587 9        55.974 9  20502610.352 6         0.000 6       457.860 6        37.977 6
G26  20640689.137 9 108467531.320 9     -1454.670 9        55.879 9  20640691.948 6         0.000 6     -1133.510 6        37.977 6
G20  21968143.273 9 115443338.753 9      2586.967 9        55.306 9  21968143.608 6         0.000 6      2015.820 6        37.977 6
> 2019 07 03 12 00 11.0000000  0  8       0.000000000000
G07  25367354.733 9 133306302.589 9      2208.894 9        54.125 9  25367355.414 6         0.000 6      1721.217 6        37.977 6
G10  23841992.856 9 125290462.906 9      3535.734 9        54.657 9  23841996.614 6         0.000 6      2755.120 6        37.977 6
G21  21159425.001 9 111193508.235 9     -1233.800 9        55.714 9  21159424.285 6         0.000 6      -961.403 6        37.977 6
G29  24271006.779 9 127544945.587 9     -3116.371 9        54.485 9  24271008.323 6         0.000 6     -2428.344 6        37.977 6
G27  22027801.153 9 115756849.223 9      2511.156 9        55.365 9  22027803.095 6         0.000 6      1956.746 6        37.977 6
G16  20502499.433 9 107741341.401 9       586.881 9        55.974 9  20502498.607 6         0.000 6       457.310 6        37.977 6
G26  20640966.010 9 108468986.295 9     -1455.272 9        55.879 9  20640968.821 6         0.000 6     -1133.979 6        37.977 6
G20  21967651.018 9 115440751.944 9      2586.656 9        55.306 9  21967651.353 6         0.000 6      2015.577 6        37.977 6
> 2019 07 03 12 00 12.0000000  0  8       0.000000000000
G07  25366934.445 9 133304093.965 9      2208.367 9        54.125 9  25366935.126 6         0.000 6      1720.806 6        37.977 6
G10  23841320.036 9 125286927.224 9      3535.647 9        54.658 9  23841323.794 6         0.000 6      2755.053 6        37.977 6
G21  21159659.815 9 111194742.187 9     -1234.111 9        55.714 9  21159659.098 6         0.000 6      -961.645 6        37.977 6
G29  24271599.797 9 127548061.904 9     -3116.292 9        54.485 9  24271601.341 6         0.000 6     -2428.282 6        37.977 6
G27  22027323.332 9 115754338.256 9      2510.791 9        55.365 9  22027325.273 6         0.000 6      1956.461 6        37.977 6
G16  20502387.818 9 107740754.860 9       586.203 9        55.974 9  20502386.992 6         0.000 6       456.782 6        37.977 6
G26  20641242.996 9 108470441.864 9     -1455.870 9        55.879 9  20641245.807 6         0.000 6     -1134.445 6        37.977 6
G20  21967158.828 9 115438165.470 9      2586.294 9        55.306 9  21967159.163 6         0.000 6      2015.295 6        37.977 6
> 2019 07 03 12 00 13.0000000  0  8       0.000000000000
G07  25366514.255 9 133301885.854 9      2207.865 9        54.125 9  25366514.935 6         0.000 6      1720.415 6        37.977 6
G10  23840647.234 9 125283391.637 9      3535.547 9        54.658 9  23840650.991 6         0.000 6      2754.974 6        37.977 6
G21  21159894.689 9 111195976.461 9     -1234.439 9        55.714 9  21159893.973 6         0.000 6      -961.901 6        37.977 6
G29  24272192.805 9 127551178.173 9     -3116.276 9        54.485 9  24272194.350 6         0.000 6     -2428.269 6        37.977 6
G27  22026845.575 9 115751827.631 9      2510.476 9        55.365 9  22026847.516 6         0.000 6      1956.216 6        37.977 6
G16  20502276.330 9 107740168.986 9       585.551 9        55.974 9  20502275.504 6         0.000 6       456.274 6        37.977 6
G26  20641520.095 9 108471898.028 9     -1456.457 9        55.879 9  20641522.907 6         0.000 6     -1134.902 6        37.977 6
G20  21966666.709 9 115435579.374 9      2585.907 9        55.307 9  21966667.044 6         0.000 6      2014.993 6        37.977 6
> 2019 07 03 12 00 14.0000000  0  8       0.000000000000
G07  25366094.151 9 133299678.199 9      2207.492 9        54.125 9  25366094.831 6         0.000 6      1720.124 6        37.977 6
G10  23839974.457 9 125279856.181 9      3535.360 9        54.658 9  23839978.214 6         0.000 6      2754.829 6        37.977 6
G21  21160129.633 9 111197211.097 9     -1234.864 9        55.714 9  21160128.917 6         0.000 6      -962.232 6        37.977 6
G29  24272785.830 9 127554294.533 9     -3116.548 9        54.485 9  24272787.376 6         0.000 6     -2428.482 6        37.977 6
G27  22026367.862 9 115749317.234 9      2510.386 9        55.366 9  22026369.803 6         0.000 6      1956.145 6        37.977 6
G16  20502164.958 9 107739583.721 9       585.007 9        55.974 9  20502164.131 6         0.000 6       455.849 6        37.977 6
G26  20641797.303 9 108473354.763 9     -1457.012 9        55.878 9  20641800.115 6         0.000 6     -1135.335 6        37.977 6
G20  21966174.674 9 115432993.715 9      2585.378 9        55.307 9  21966175.008 6         0.000 6      2014.581 6        37.977 6
> 2019 07 03 12 00 15.0000000  0  8       0.000000000000
G07  25365674.100 9 133297470.821 9      2207.289 9        54.125 9  25365674.780 6         0.000 6      1719.966 6        37.977 6
G10  23839301.729 9 125276320.980 9      3535.056 9        54.658 9  23839305.485 6         0.000 6      2754.592 6        37.977 6
G21  21160364.671 9 111198446.232 9     -1235.417 9        55.714 9  21160363.955 6         0.000 6      -962.663 6        37.977 6
G29  24273378.947 9 127557411.374 9     -3117.199 9        54.484 9  24273380.494 6         0.000 6     -2428.989 6        37.977 6
G27  22025890.136 9 115746806.770 9      2510.587 9        55.366 9  22025892.077 6         0.000 6      1956.302 6        37.977 6
G16  20502053.676 9 107738998.930 9       584.599 9        55.975 9  20502052.849 6         0.000 6       455.532 6        37.977 6
G26  20642074.614 9 108474812.040 9     -1457.531 9        55.878 9  20642077.426 6         0.000 6     -1135.739 6        37.977 6
G20  21965682.759 9 115430408.691 9      2584.662 9        55.307 9  21965683.093 6         0.000 6      2014.023 6        37.977 6
> 2019 07 03 12 00 16.0000000  0  8       0.000000000000
G07  25365254.100 9 133295263.710 9      2206.562 9        54.125 9  25365254.780 6         0.000 6      1719.400 6        37.977 6
G10  23838629.043 9 125272786.003 9      3535.298 9        54.659 9  23838632.798 6         0.000 6      2754.781 6        37.977 6
G21  21160599.824 9 111199681.967 9     -1236.101 9        55.713 9  21160599.108 6         0.000 6      -963.196 6        37.977 6
G29  24273972.207 9 127560528.965 9     -3117.977 9        54.484 9  24273973.754 6         0.000 6     -2429.595 6        37.977 6
G27  22025412.361 9 115744296.050 9      2510.754 9        55.366 9  22025414.302 6         0.000 6      1956.432 6        37.977 6
G16  20501942.465 9 107738414.513 9       584.197 9        55.975 9  20501941.638 6         0.000 6       455.219 6        37.977 6
G26  20642352.011 9 108476269.771 9     -1457.766 9        55.878 9  20642354.823 6         0.000 6     -1135.922 6        37.977 6
G20  21965190.976 9 115427824.357 9      2584.280 9        55.307 9  21965191.309 6         0.000 6      2013.726 6        37.977 6
> 2019 07 03 12 00 17.0000000  0  8       0.000000000000
G07  25364833.298 9 133293052.382 9      2217.500 9        54.125 9  25364833.977 6         0.000 6      1727.923 6        37.977 6
G10  23837957.243 9 125269255.680 9      3524.090 9        54.659 9  23837960.997 6         0.000 6      2746.047 6        37.977 6
G21  21160835.001 9 111200917.828 9     -1235.738 9        55.713 9  21160834.284 6         0.000 6      -962.913 6        37.977 6
G29  24274565.709 9 127563647.827 9     -3120.603 9        54.484 9  24274567.257 6         0.000 6     -2431.641 6        37.977 6
G27  22024934.274 9 115741783.685 9      2514.873 9        55.366 9  22024936.214 6         0.000 6      1959.642 6        37.977 6
G16  20501831.231 9 107737829.972 9       585.275 9        55.975 9  20501830.404 6         0.000 6       456.058 6        37.977 6
G26  20642629.862 9 108477729.883 9     -1462.845 9        55.878 9  20642632.674 6         0.000 6     -1139.880 6        37.977 6
G20  21964699.924 9 115425243.865 9      2575.610 9        55.307 9  21964700.257 6         0.000 6      2006.970 6        37.977 6
> 2019 07 03 12 00 18.0000000  0  8       0.000000000000
G07  25364410.061 9 133290828.261 9      2230.677 9        54.126 9  25364410.740 6         0.000 6      1738.191 6        37.977 6
G10  23837287.853 9 125265738.023 9      3511.463 9        54.659 9  23837291.607 6         0.000 6      2736.208 6        37.977 6
G21  21161070.262 9 111202154.134 9     -1237.295 9        55.713 9  21161069.546 6         0.000 6      -964.126 6        37.977 6
G29  24275160.229 9 127566772.043 9     -3128.850 9        54.484 9  24275161.778 6         0.000 6     -2438.067 6        37.977 6
G27  22024454.971 9 115739264.934 9      2523.286 9        55.366 9  22024456.911 6         0.000 6      1966.198 6        37.977 6
G16  20501719.590 9 107737243.299 9       588.398 9        55.975 9  20501718.764 6         0.000 6       458.492 6        37.977 6
G26  20642908.680 9 108479195.082 9     -1467.217 9        55.878 9  20642911.492 6         0.000 6     -1143.286 6        37.977 6
G20  21964210.857 9 115422673.806 9      2564.380 9        55.308 9  21964211.190 6         0.000 6      1998.220 6        37.977 6
> 2019 07 03 12 00 19.0000000  0  8       0.000000000000
G07  25363984.311 9 133288590.933 9      2241.514 9        54.126 9  25363984.990 6         0.000 6      1746.635 6        37.977 6
G10  23836620.761 9 125262232.441 9      3501.956 9        54.659 9  23836624.514 6         0.000 6      2728.800 6        37.977 6
G21  21161306.123 9 111203393.592 9     -1241.306 9        55.713 9  21161305.407 6         0.000 6      -967.251 6        37.977 6
G29  24275757.071 9 127569908.456 9     -3142.285 9        54.483 9  24275758.620 6         0.000 6     -2448.536 6        37.977 6
G27  22023973.562 9 115736735.117 9      2534.635 9        55.367 9  22023975.502 6         0.000 6      1975.041 6        37.977 6
G16  20501607.104 9 107736652.181 9       593.086 9        55.975 9  20501606.278 6         0.000 6       462.145 6        37.977 6
G26  20643188.100 9 108480663.442 9     -1468.885 9        55.878 9  20643190.912 6         0.000 6     -1144.586 6        37.977 6
G20  21963724.070 9 115420115.726 9      2553.791 9        55.308 9  21963724.402 6         0.000 6      1989.968 6        37.977 6
> 2019 07 03 12 00 20.0000000  0  8       0.000000000000
G07  25363557.604 9 133286348.578 9      2242.726 9        54.126 9  25363558.283 6         0.000 6      1747.580 6        37.977 6
G10  23835954.527 9 125258731.369 9      3500.562 9        54.660 9  23835958.279 6         0.000 6      2727.713 6        37.977 6
G21  21161542.477 9 111204635.639 9     -1242.535 9        55.713 9  21161541.761 6         0.000 6      -968.209 6        37.977 6
G29  24276355.380 9 127573052.582 9     -3145.159 9        54.483 9  24276356.930 6         0.000 6     -2450.776 6        37.977 6
G27  22023490.981 9 115734199.139 9      2536.652 9        55.367 9  22023492.920 6         0.000 6      1976.613 6        37.977 6
G16  20501494.172 9 107736058.719 9       593.517 9        55.975 9  20501493.346 6         0.000 6       462.481 6        37.977 6
G26  20643467.662 9 108482132.548 9     -1469.377 9        55.878 9  20643470.474 6         0.000 6     -1144.969 6        37.977 6
G20  21963238.343 9 115417563.218 9      2551.708 9        55.308 9  21963238.675 6         0.000 6      1988.345 6        37.977 6
> 2019 07 03 12 00 21.0000000  0  8       0.000000000000
G07  25363130.835 9 133284105.892 9      2242.587 9        54.126 9  25363131.513 6         0.000 6      1747.471 6        37.977 6
G10  23835288.435 9 125255231.042 9      3500.163 9        54.660 9  23835292.187 6         0.000 6      2727.402 6        37.977 6
G21  21161778.969 9 111205878.415 9     -1242.987 9        55.713 9  21161778.253 6         0.000 6      -968.562 6        37.977 6
G29  24276953.936 9 127576198.005 9     -3145.590 9        54.483 9  24276955.486 6         0.000 6     -2451.111 6        37.977 6
G27  22023008.257 9 115731662.409 9      2536.713 9        55.367 9  22023010.196 6         0.000 6      1976.660 6        37.977 6
G16  20501381.271 9 107735465.421 9       593.028 9        55.975 9  20501380.445 6         0.000 6       462.099 6        37.977 6
G26  20643747.334 9 108483602.232 9     -1470.005 9        55.878 9  20643750.146 6         0.000 6     -1145.459 6        37.977 6
G20  21962752.843 9 115415011.902 9      2550.996 9        55.308 9  21962753.175 6         0.000 6      1987.790 6        37.977 6
> 2019 07 03 12 00 22.0000000  0  8       0.000000000000
G07  25362704.115 9 133281863.469 9      2242.251 9        54.126 9  25362704.794 6         0.000 6      1747.210 6        37.977 6
G10  23834622.400 9 125251731.019 9      3499.918 9        54.660 9  23834626.152 6         0.000 6      2727.212 6        37.977 6
G21  21162015.536 9 111207121.582 9     -1243.343 9        55.713 9  21162014.820 6         0.000 6      -968.839 6        37.977 6
G29  24277552.535 9 127579343.655 9     -3145.716 9        54.483 9  24277554.086 6         0.000 6     -2451.210 6        37.977 6
G27  22022525.553 9 115729125.785 9      2536.528 9        55.367 9  22022527.492 6         0.000 6      1976.516 6        37.977 6
G16  20501268.479 9 107734872.692 9       592.426 9        55.975 9  20501267.652 6         0.000 6       461.631 6        37.977 6
G26  20644027.126 9 108485072.550 9     -1470.633 9        55.877 9  20644029.939 6         0.000 6     -1145.948 6        37.977 6
G20  21962267.455 9 115412461.178 9      2550.476 9        55.308 9  21962267.787 6         0.000 6      1987.385 6        37.977 6
> 2019 07 03 12 00 23.0000000  0  8       0.000000000000
G07  25362277.465 9 133279621.412 9      2241.868 9        54.126 9  25362278.143 6         0.000 6      1746.911 6        37.977 6
G10  23833956.408 9 125248231.214 9      3499.716 9        54.660 9  23833960.158 6         0.000 6      2727.054 6        37.977 6
G21  21162252.170 9 111208365.102 9     -1243.695 9        55.713 9  21162251.455 6         0.000 6      -969.113 6        37.977 6
G29  24278151.154 9 127582489.409 9     -3145.811 9        54.483 9  24278152.706 6         0.000 6     -2451.284 6        37.977 6
G27  22022042.889 9 115726589.371 9      2536.309 9        55.367 9  22022044.828 6         0.000 6      1976.345 6        37.977 6
G16  20501155.803 9 107734280.577 9       591.807 9        55.975 9  20501154.976 6         0.000 6       461.149 6        37.977 6
G26  20644307.038 9 108486543.492 9     -1471.250 9        55.877 9  20644309.850 6         0.000 6     -1146.429 6        37.977 6
G20  21961782.162 9 115409910.951 9      2549.993 9        55.309 9  21961782.494 6         0.000 6      1987.008 6        37.977 6
> 2019 07 03 12 00 24.0000000  0  8       0.000000000000
G07  25361850.889 9 133277379.745 9      2241.459 9        54.126 9  25361851.567 6         0.000 6      1746.593 6        37.977 6
G10  23833290.452 9 125244731.604 9      3499.538 9        54.661 9  23833294.202 6         0.000 6      2726.916 6        37.977 6
G21  21162488.872 9 111209608.975 9     -1244.054 9        55.713 9  21162488.156 6         0.000 6      -969.393 6        37.977 6
G29  24278749.792 9 127585635.263 9     -3145.909 9        54.482 9  24278751.344 6         0.000 6     -2451.360 6        37.977 6
G27  22021560.265 9 115724053.171 9      2536.084 9        55.368 9  22021562.204 6         0.000 6      1976.170 6        37.977 6
G16  20501043.244 9 107733689.077 9       591.186 9        55.975 9  20501042.418 6         0.000 6       460.665 6        37.977 6
G26  20644587.065 9 108488015.044 9     -1471.857 9        55.877 9  20644589.878 6         0.000 6     -1146.902 6        37.977 6
G20  21961296.960 9 115407361.202 9      2549.525 9        55.309 9  21961297.291 6         0.000 6      1986.644 6        37.977 6
> 2019 07 03 12 00 25.0000000  0  8       0.000000000000
G07  25361424.394 9 133275138.501 9      2241.035 9        54.127 9  25361425.072 6         0.000 6      1746.262 6        37.977 6
G10  23832624.528 9 125241232.160 9      3499.375 9        54.661 9  23832628.277 6         0.000 6      2726.788 6        37.977 6
G21  21162725.642 9 111210853.209 9     -1244.414 9        55.713 9  21162724.926 6         0.000 6      -969.674 6        37.977 6
G29  24279348.447 9 127588781.207 9     -3146.003 9        54.482 9  24279350.000 6         0.000 6     -2451.433 6        37.977 6
G27  22021077.687 9 115721517.208 9      2535.853 9        55.368 9  22021079.626 6         0.000 6      1975.990 6        37.977 6
G16  20500930.805 9 107733098.205 9       590.562 9        55.975 9  20500929.978 6         0.000 6       460.178 6        37.977 6
G26  20644867.208 9 108489487.202 9     -1472.458 9        55.877 9  20644870.020 6         0.000 6     -1147.370 6        37.977 6
G20  21960811.845 9 115404811.911 9      2549.067 9        55.309 9  21960812.176 6         0.000 6      1986.287 6        37.977 6
> 2019 07 03 12 00 26.0000000  0  8       0.000000000000
G07  25360997.981 9 133272897.687 9      2240.599 9        54.127 9  25360998.658 6         0.000 6      1745.922 6        37.977 6
G10  23831958.633 9 125237732.869 9      3499.224 9        54.661 9  23831962.382 6         0.000 6      2726.671 6        37.977 6
G21  21162962.479 9 111212097.797 9     -1244.771 9        55.712 9  21162961.763 6         0.000 6      -969.952 6        37.977 6
G29  24279947.120 9 127591927.244 9     -3146.093 9        54.482 9  24279948.674 6         0.000 6     -2451.503 6        37.977 6
G27  22020595.152 9 115718981.473 9      2535.618 9        55.368 9  22020597.091 6         0.000 6      1975.807 6        37.977 6
G16  20500818.484 9 107732507.951 9       589.939 9        55.975 9  20500817.657 6         0.000 6       459.693 6        37.977 6
G26  20645147.463 9 108490959.952 9     -1473.052 9        55.877 9  20645150.276 6         0.000 6     -1147.833 6        37.977 6
G20  21960326.816 9 115402263.069 9      2548.621 9        55.309 9  21960327.147 6         0.000 6      1985.940 6        37.977 6
> 2019 07 03 12 00 27.0000000  0  8       0.000000000000
G07  25360571.652 9 133270657.317 9      2240.157 9        54.127 9  25360572.329 6         0.000 6      1745.578 6        37.977 6
G10  23831292.766 9 125234233.726 9      3499.080 9        54.661 9  23831296.514 6         0.000 6      2726.558 6        37.977 6
G21  21163199.386 9 111213342.752 9     -1245.130 9        55.712 9  21163198.671 6         0.000 6      -970.232 6        37.977 6
G29  24280545.811 9 127595073.373 9     -3146.183 9        54.482 9  24280547.365 6         0.000 6     -2451.574 6        37.977 6
G27  22020112.663 9 115716445.978 9      2535.383 9        55.368 9  22020114.601 6         0.000 6      1975.624 6        37.977 6
G16  20500706.282 9 107731918.328 9       589.315 9        55.975 9  20500705.455 6         0.000 6       459.206 6        37.977 6
G26  20645427.832 9 108492433.300 9     -1473.643 9        55.877 9  20645430.645 6         0.000 6     -1148.293 6        37.977 6
G20  21959841.872 9 115399714.673 9      2548.179 9        55.309 9  21959842.202 6         0.000 6      1985.595 6        37.977 6
> 2019 07 03 12 00 28.0000000  0  8       0.000000000000
G07  25360145.407 9 133268417.387 9      2239.711 9        54.127 9  25360146.084 6         0.000 6      1745.230 6        37.977 6
G10  23830626.926 9 125230734.725 9      3498.939 9        54.662 9  23830630.674 6         0.000 6      2726.449 6        37.977 6
G21  21163436.360 9 111214588.059 9     -1245.493 9        55.712 9  21163435.645 6         0.000 6      -970.514 6        37.977 6
G29  24281144.518 9 127598219.591 9     -3146.280 9        54.482 9  24281146.073 6         0.000 6     -2451.649 6        37.977 6
G27  22019630.218 9 115713910.714 9      2535.149 9        55.368 9  22019632.156 6         0.000 6      1975.442 6        37.977 6
G16  20500594.198 9 107731329.322 9       588.692 9        55.975 9  20500593.371 6         0.000 6       458.721 6        37.977 6
G26  20645708.312 9 108493907.231 9     -1474.231 9        55.877 9  20645711.125 6         0.000 6     -1148.752 6        37.977 6
G20  21959357.011 9 115397166.716 9      2547.737 9        55.310 9  21959357.341 6         0.000 6      1985.251 6        37.977 6
> 2019 07 03 12 00 29.0000000  0  8       0.000000000000
G07  25359719.248 9 133266177.911 9      2239.225 9        54.127 9  25359719.925 6         0.000 6      1744.852 6        37.977 6
G10  23829961.112 9 125227235.861 9      3498.838 9        54.662 9  23829964.859 6         0.000 6      2726.370 6        37.977 6
G21  21163673.405 9 111215833.736 9     -1245.858 9        55.712 9  21163672.689 6         0.000 6      -970.798 6        37.977 6
G29  24281743.244 9 127601365.908 9     -3146.370 9        54.481 9  24281744.799 6         0.000 6     -2451.719 6        37.977 6
G27  22019147.818 9 115711375.690 9      2534.904 9        55.369 9  22019149.756 6         0.000 6      1975.251 6        37.977 6
G16  20500482.234 9 107730740.947 9       588.065 9        55.975 9  20500481.407 6         0.000 6       458.233 6        37.977 6
G26  20645988.905 9 108495381.756 9     -1474.801 9        55.877 9  20645991.718 6         0.000 6     -1149.196 6        37.977 6
G20  21958872.234 9 115394619.202 9      2547.324 9        55.310 9  21958872.564 6         0.000 6      1984.929 6        37.977 6
> 2019 07 03 12 00 30.0000000  0  8       0.000000000000
G07  25359293.214 9 133263939.093 9      2238.368 9        54.127 9  25359293.891 6         0.000 6      1744.184 6        37.977 6
G10  23829295.285 9 125223736.925 9      3499.107 9        54.662 9  23829299.031 6         0.000 6      2726.580 6        37.977 6
G21  21163910.524 9 111217079.803 9     -1246.283 9        55.712 9  21163909.808 6         0.000 6      -971.130 6        37.977 6
G29  24282341.986 9 127604512.308 9     -3146.456 9        54.481 9  24282343.542 6         0.000 6     -2451.786 6        37.977 6
G27  22018665.474 9 115708840.956 9      2534.565 9        55.369 9  22018667.412 6         0.000 6      1974.986 6        37.977 6
G16  20500370.392 9 107730153.213 9       587.405 9        55.975 9  20500369.565 6         0.000 6       457.718 6        37.977 6
G26  20646269.592 9 108496856.771 9     -1475.205 9        55.877 9  20646272.405 6         0.000 6     -1149.511 6        37.977 6
G20  21958387.513 9 115392071.982 9      2547.161 9        55.310 9  21958387.843 6         0.000 6      1984.802 6        37.977 6
> 2019 07 03 12 00 31.0000000  0  8       0.000000000000
G07  25358867.292 9 133261700.860 9      2239.367 9        54.127 9  25358867.968 6         0.000 6      1744.962 6        37.977 6
G10  23828629.435 9 125220237.870 9      3498.252 9        54.662 9  23828633.180 6         0.000 6      2725.913 6        37.977 6
G21  21164147.775 9 111218326.568 9     -1248.428 9        55.712 9  21164147.060 6         0.000 6      -972.801 6        37.977 6
G29  24282940.897 9 127607659.594 9     -3151.509 9        54.481 9  24282942.453 6         0.000 6     -2455.723 6        37.977 6
G27  22018183.078 9 115706305.954 9      2537.990 9        55.369 9  22018185.016 6         0.000 6      1977.656 6        37.977 6
G16  20500258.618 9 107729565.840 9       588.554 9        55.975 9  20500257.792 6         0.000 6       458.613 6        37.977 6
G26  20646550.330 9 108498332.057 9     -1474.912 9        55.876 9  20646553.143 6         0.000 6     -1149.283 6        37.977 6
G20  21957902.885 9 115389525.251 9      2544.823 9        55.310 9  21957903.215 6         0.000 6      1982.980 6        37.977 6
> 2019 07 03 12 00 32.0000000  0  8       0.000000000000
G07  25358441.045 9 133259460.922 9      2239.281 9        54.128 9  25358441.721 6         0.000 6      1744.896 6        37.977 6
G10  23827963.716 9 125216739.501 9      3499.661 9        54.663 9  23827967.460 6         0.000 6      2727.011 6        37.977 6
G21  21164385.876 9 111219577.796 9     -1253.964 9        55.712 9  21164385.161 6         0.000 6      -977.115 6        37.977 6
G29  24283541.902 9 127610817.889 9     -3164.484 9        54.481 9  24283543.459 6         0.000 6     -2465.834 6        37.977 6
G27  22017699.243 9 115703763.383 9      2546.462 9        55.369 9  22017701.180 6         0.000 6      1984.257 6        37.977 6
G16  20500146.239 9 107728975.281 9       592.279 9        55.975 9  20500145.412 6         0.000 6       461.516 6        37.977 6
G26  20646830.722 9 108499805.527 9     -1471.637 9        55.876 9  20646833.535 6         0.000 6     -1146.730 6        37.977 6
G20  21957419.005 9 115386982.446 9      2541.755 9        55.310 9  21957419.334 6         0.000 6      1980.590 6        37.977 6
> 2019 07 03 12 00 33.0000000  0  8       0.000000000000
G07  25358015.642 9 133257225.418 9      2229.609 9        54.128 9  25358016.318 6         0.000 6      1737.358 6        37.977 6
G10  23827296.947 9 125213235.620 9      3510.130 9        54.663 9  23827300.691 6         0.000 6      2735.169 6        37.977 6
G21  21164625.017 9 111220834.486 9     -1259.404 9        55.712 9  21164624.301 6         0.000 6      -981.354 6        37.977 6
G29  24284145.027 9 127613987.324 9     -3173.541 9        54.480 9  24284146.585 6         0.000 6     -2472.891 6        37.977 6
G27  22017214.220 9 115701214.576 9      2550.080 9        55.369 9  22017216.158 6         0.000 6      1987.076 6        37.977 6
G16  20500033.324 9 107728381.912 9       594.015 9        55.975 9  20500032.497 6         0.000 6       462.869 6        37.977 6
G26  20647110.211 9 108501274.250 9     -1465.093 9        55.876 9  20647113.024 6         0.000 6     -1141.631 6        37.977 6
G20  21956935.080 9 115384439.408 9      2545.932 9        55.310 9  21956935.409 6         0.000 6      1983.844 6        37.977 6
> 2019 07 03 12 00 34.0000000  0  8       0.000000000000
G07  25357591.995 9 133254999.142 9      2224.312 9        54.128 9  25357592.671 6         0.000 6      1733.231 6        37.977 6
G10  23826628.393 9 125209722.356 9      3514.989 9        54.663 9  23826632.137 6         0.000 6      2738.955 6        37.977 6
G21  21164864.850 9 111222094.816 9     -1260.877 9        55.712 9  21164864.134 6         0.000 6      -982.502 6        37.977 6
G29  24284749.060 9 127617161.528 9     -3174.476 9        54.480 9  24284750.619 6         0.000 6     -2473.620 6        37.977 6
G27  22016729.037 9 115698664.923 9      2549.272 9        55.369 9  22016730.974 6         0.000 6      1986.446 6        37.977 6
G16  20499920.348 9 107727788.219 9       593.330 9        55.975 9  20499919.521 6         0.000 6       462.335 6        37.977 6
G26  20647388.750 9 108502737.983 9     -1463.143 9        55.876 9  20647391.564 6         0.000 6     -1140.112 6        37.977 6
G20  21956450.268 9 115381891.709 9      2548.626 9        55.311 9  21956450.597 6         0.000 6      1985.944 6        37.977 6
> 2019 07 03 12 00 35.0000000  0  8       0.000000000000
G07  25357168.853 9 133252775.518 9      2223.182 9        54.128 9  25357169.528 6         0.000 6      1732.350 6        37.977 6
G10  23825959.437 9 125206206.976 9      3515.550 9        54.663 9  23825963.179 6         0.000 6      2739.392 6        37.977 6
G21  21165104.840 9 111223355.974 9     -1261.390 9        55.712 9  21165104.125 6         0.000 6      -982.901 6        37.977 6
G29  24285353.162 9 127620336.094 9     -3174.651 9        54.480 9  24285354.721 6         0.000 6     -2473.757 6        37.977 6
G27  22016243.964 9 115696115.849 9      2548.925 9        55.370 9  22016245.901 6         0.000 6      1986.176 6        37.977 6
G16  20499807.503 9 107727195.216 9       592.690 9        55.975 9  20499806.677 6         0.000 6       461.836 6        37.977 6
G26  20647667.189 9 108504201.184 9     -1463.377 9        55.876 9  20647670.002 6         0.000 6     -1140.294 6        37.977 6
G20  21955965.265 9 115379343.007 9      2548.631 9        55.311 9  21955965.594 6         0.000 6      1985.947 6        37.977 6
> 2019 07 03 12 00 36.0000000  0  8       0.000000000000
G07  25356745.844 9 133250552.596 9      2222.687 9        54.128 9  25356746.520 6         0.000 6      1731.965 6        37.977 6
G10  23825290.455 9 125202691.467 9      3515.467 9        54.664 9  23825294.197 6         0.000 6      2739.328 6        37.977 6
G21  21165344.913 9 111224617.563 9     -1261.791 9        55.712 9  21165344.197 6         0.000 6      -983.214 6        37.977 6
G29  24285957.292 9 127623510.809 9     -3174.794 9        54.480 9  24285958.852 6         0.000 6     -2473.868 6        37.977 6
G27  22015758.940 9 115693567.034 9      2548.705 9        55.370 9  22015760.877 6         0.000 6      1986.004 6        37.977 6
G16  20499694.775 9 107726602.825 9       592.083 9        55.976 9  20499693.948 6         0.000 6       461.364 6        37.977 6
G26  20647945.710 9 108505664.820 9     -1463.918 9        55.876 9  20647948.523 6         0.000 6     -1140.716 6        37.977 6
G20  21955480.316 9 115376794.583 9      2548.210 9        55.311 9  21955480.643 6         0.000 6      1985.619 6        37.977 6
> 2019 07 03 12 00 37.0000000  0  8       0.000000000000
G07  25356322.923 9 133248330.133 9      2222.248 9        54.128 9  25356323.598 6         0.000 6      1731.623 6        37.977 6
G10  23824621.498 9 125199176.082 9      3515.324 9        54.664 9  23824625.239 6         0.000 6      2739.216 6        37.977 6
G21  21165585.061 9 111225879.550 9     -1262.177 9        55.711 9  21165584.345 6         0.000 6      -983.515 6        37.977 6
G29  24286561.448 9 127626685.659 9     -3174.920 9        54.480 9  24286563.008 6         0.000 6     -2473.966 6        37.977 6
G27  22015273.958 9 115691018.441 9      2548.485 9        55.370 9  22015275.895 6         0.000 6      1985.833 6        37.977 6
G16  20499582.164 9 107726011.047 9       591.474 9        55.976 9  20499581.337 6         0.000 6       460.889 6        37.977 6
G26  20648224.339 9 108507129.025 9     -1464.492 9        55.876 9  20648227.153 6         0.000 6     -1141.163 6        37.977 6
G20  21954995.451 9 115374246.609 9      2547.752 9        55.311 9  21954995.779 6         0.000 6      1985.262 6        37.977 6
> 2019 07 03 12 00 38.0000000  0  8       0.000000000000
G07  25355900.085 9 133246108.107 9      2221.811 9        54.128 9  25355900.759 6         0.000 6      1731.282 6        37.977 6
G10  23823952.567 9 125195660.840 9      3515.180 9        54.664 9  23823956.308 6         0.000 6      2739.104 6        37.977 6
G21  21165825.281 9 111227141.916 9     -1262.557 9        55.711 9  21165824.566 6         0.000 6      -983.811 6        37.977 6
G29  24287165.626 9 127629860.629 9     -3175.035 9        54.479 9  24287167.187 6         0.000 6     -2474.055 6        37.977 6
G27  22014789.019 9 115688470.069 9      2548.259 9        55.370 9  22014790.955 6         0.000 6      1985.657 6        37.977 6
G16  20499469.668 9 107725419.877 9       590.863 9        55.976 9  20499468.841 6         0.000 6       460.412 6        37.977 6
G26  20648503.077 9 108508593.801 9     -1465.069 9        55.876 9  20648505.891 6         0.000 6     -1141.612 6        37.977 6
G20  21954510.673 9 115371699.088 9      2547.297 9        55.311 9  21954511.001 6         0.000 6      1984.908 6        37.977 6
> 2019 07 03 12 00 39.0000000  0  8       0.000000000000
G07  25355477.330 9 133243886.518 9      2221.367 9        54.129 9  25355478.004 6         0.000 6      1730.936 6        37.977 6
G10  23823283.665 9 125192145.744 9      3515.040 9        54.664 9  23823287.405 6         0.000 6      2738.995 6        37.977 6
G21  21166065.573 9 111228404.655 9     -1262.932 9        55.711 9  21166064.857 6         0.000 6      -984.103 6        37.977 6
G29  24287769.825 9 127633035.702 9     -3175.139 9        54.479 9  24287771.386 6         0.000 6     -2474.137 6        37.977 6
G27  22014304.123 9 115685921.929 9      2548.026 9        55.370 9  22014306.059 6         0.000 6      1985.476 6        37.977 6
G16  20499357.288 9 107724829.320 9       590.248 9        55.976 9  20499356.462 6         0.000 6       459.934 6        37.977 6
G26  20648781.925 9 108510059.156 9     -1465.645 9        55.875 9  20648784.739 6         0.000 6     -1142.061 6        37.977 6
G20  21954025.982 9 115369152.020 9      2546.849 9        55.312 9  21954026.309 6         0.000 6      1984.558 6        37.977 6
> 2019 07 03 12 00 40.0000000  0  8       0.000000000000
G07  25355054.660 9 133241665.376 9      2220.924 9        54.129 9  25355055.334 6         0.000 6      1730.591 6        37.977 6
G10  23822614.788 9 125188630.786 9      3514.897 9        54.665 9  23822618.528 6         0.000 6      2738.884 6        37.977 6
G21  21166305.936 9 111229667.774 9     -1263.308 9        55.711 9  21166305.221 6         0.000 6      -984.396 6        37.977 6
G29  24288374.043 9 127636210.880 9     -3175.238 9        54.479 9  24288375.605 6         0.000 6     -2474.214 6        37.977 6
G27  22013819.273 9 115683374.025 9      2547.787 9        55.371 9  22013821.209 6         0.000 6      1985.289 6        37.977 6
G16  20499245.027 9 107724239.381 9       589.629 9        55.976 9  20499244.200 6         0.000 6       459.452 6        37.977 6
G26  20649060.883 9 108511525.089 9     -1466.225 9        55.875 9  20649063.697 6         0.000 6     -1142.513 6        37.977 6
G20  21953541.375 9 115366605.401 9      2546.399 9        55.312 9  21953541.702 6         0.000 6      1984.208 6        37.977 6
> 2019 07 03 12 00 41.0000000  0  8       0.000000000000
G07  25354632.075 9 133239444.680 9      2220.477 9        54.129 9  25354632.749 6         0.000 6      1730.243 6        37.977 6
G10  23821945.939 9 125185115.968 9      3514.757 9        54.665 9  23821949.678 6         0.000 6      2738.774 6        37.977 6
G21  21166546.371 9 111230931.267 9     -1263.681 9        55.711 9  21166545.656 6         0.000 6      -984.687 6        37.977 6
G29  24288978.279 9 127639386.151 9     -3175.331 9        54.479 9  24288979.842 6         0.000 6     -2474.287 6        37.977 6
G27  22013334.468 9 115680826.364 9      2547.544 9        55.371 9  22013336.404 6         0.000 6      1985.100 6        37.977 6
G16  20499132.883 9 107723650.062 9       589.009 9        55.976 9  20499132.056 6         0.000 6       458.968 6        37.977 6
G26  20649339.952 9 108512991.603 9     -1466.805 9        55.875 9  20649342.766 6         0.000 6     -1142.966 6        37.977 6
G20  21953056.854 9 115364059.228 9      2545.952 9        55.312 9  21953057.180 6         0.000 6      1983.860 6        37.977 6
> 2019 07 03 12 00 42.0000000  0  8       0.000000000000
G07  25354209.576 9 133237224.437 9      2220.001 9        54.129 9  25354210.250 6         0.000 6      1729.872 6        37.977 6
G10  23821277.115 9 125181601.286 9      3514.637 9        54.665 9  23821280.853 6         0.000 6      2738.681 6        37.977 6
G21  21166786.876 9 111232195.129 9     -1264.032 9        55.711 9  21166786.161 6         0.000 6      -984.960 6        37.977 6
G29  24289582.531 9 127642561.507 9     -3175.358 9        54.479 9  24289584.094 6         0.000 6     -2474.307 6        37.977 6
G27  22012849.712 9 115678278.953 9      2547.250 9        55.371 9  22012851.647 6         0.000 6      1984.871 6        37.977 6
G16  20499020.858 9 107723061.367 9       588.364 9        55.976 9  20499020.031 6         0.000 6       458.466 6        37.977 6
G26  20649619.130 9 108514458.696 9     -1467.392 9        55.875 9  20649621.945 6         0.000 6     -1143.423 6        37.977 6
G20  21952572.416 9 115361513.496 9      2545.539 9        55.312 9  21952572.742 6         0.000 6      1983.538 6        37.977 6
> 2019 07 03 12 00 43.0000000  0  8       0.000000000000
G07  25353787.162 9 133235004.640 9      2220.054 9        54.129 9  25353787.835 6         0.000 6      1729.913 6        37.977 6
G10  23820608.324 9 125178086.778 9      3513.945 9        54.665 9  23820612.062 6         0.000 6      2738.142 6        37.977 6
G21  21167027.435 9 111233459.275 9     -1264.192 9        55.711 9  21167026.720 6         0.000 6      -985.084 6        37.977 6
G29  24290186.758 9 127645736.732 9     -3175.120 9        54.478 9  24290188.322 6         0.000 6     -2474.122 6        37.977 6
G27  22012365.030 9 115675731.935 9      2546.902 9        55.371 9  22012366.965 6         0.000 6      1984.600 6        37.977 6
G16  20498908.966 9 107722473.368 9       587.668 9        55.976 9  20498908.139 6         0.000 6       457.923 6        37.977 6
G26  20649898.433 9 108515926.440 9     -1468.311 9        55.875 9  20649901.248 6         0.000 6     -1144.138 6        37.977 6
G20  21952088.056 9 115358968.169 9      2544.814 9        55.312 9  21952088.382 6         0.000 6      1982.973 6        37.977 6
> 2019 07 03 12 00 44.0000000  0  8       0.000000000000
G07  25353365.786 9 133232790.301 9      2207.027 9        54.129 9  25353366.460 6         0.000 6      1719.762 6        37.977 6
G10  23819938.632 9 125174567.530 9      3526.026 9        54.666 9  23819942.369 6         0.000 6      2747.556 6        37.977 6
G21  21167268.134 9 111234724.155 9     -1265.388 9        55.711 9  21167267.419 6         0.000 6      -986.017 6        37.977 6
G29  24290790.803 9 127648911.000 9     -3172.370 9        54.478 9  24290792.368 6         0.000 6     -2471.979 6        37.977 6
G27  22011880.749 9 115673187.028 9      2541.833 9        55.371 9  22011882.685 6         0.000 6      1980.650 6        37.977 6
G16  20498797.324 9 107721886.689 9       585.222 9        55.976 9  20498796.497 6         0.000 6       456.017 6        37.977 6
G26  20650177.461 9 108517392.739 9     -1463.871 9        55.875 9  20650180.276 6         0.000 6     -1140.679 6        37.977 6
G20  21951603.096 9 115356419.694 9      2553.430 9        55.313 9  21951603.422 6         0.000 6      1989.687 6        37.977 6
> 2019 07 03 12 00 45.0000000  0  8       0.000000000000
G07  25352947.264 9 133230590.954 9      2191.845 9        54.129 9  25352947.937 6         0.000 6      1707.932 6        37.977 6
G10  23819266.361 9 125171034.732 9      3539.248 9        54.666 9  23819270.097 6         0.000 6      2757.858 6        37.977 6
G21  21167508.855 9 111235989.152 9     -1264.128 9        55.711 9  21167508.140 6         0.000 6      -985.035 6        37.977 6
G29  24291393.678 9 127652079.116 9     -3162.752 9        54.478 9  24291395.243 6         0.000 6     -2464.485 6        37.977 6
G27  22011397.952 9 115670649.914 9      2531.676 9        55.372 9  22011399.887 6         0.000 6      1972.735 6        37.977 6
G16  20498686.390 9 107721303.726 9       580.328 9        55.976 9  20498685.563 6         0.000 6       452.204 6        37.977 6
G26  20650455.670 9 108518854.735 9     -1460.568 9        55.875 9  20650458.485 6         0.000 6     -1138.106 6        37.977 6
G20  21951116.124 9 115353860.641 9      2564.772 9        55.313 9  21951116.449 6         0.000 6      1998.525 6        37.977 6
> 2019 07 03 12 00 46.0000000  0  8       0.000000000000
G07  25352531.510 9 133228406.159 9      2180.857 9        54.130 9  25352532.183 6         0.000 6      1699.370 6        37.977 6
G10  23818591.802 9 125167489.915 9      3547.699 9        54.666 9  23818595.538 6         0.000 6      2764.444 6        37.977 6
G21  21167749.026 9 111237251.255 9     -1260.701 9        55.711 9  21167748.311 6         0.000 6      -982.364 6        37.977 6
G29  24291994.002 9 127655233.829 9     -3149.436 9        54.478 9  24291995.568 6         0.000 6     -2454.108 6        37.977 6
G27  22010917.542 9 115668125.345 9      2520.026 9        55.372 9  22010919.477 6         0.000 6      1963.658 6        37.977 6
G16  20498576.622 9 107720726.891 9       574.485 9        55.976 9  20498575.795 6         0.000 6       447.651 6        37.977 6
G26  20650733.534 9 108520314.920 9     -1460.397 9        55.875 9  20650736.349 6         0.000 6     -1137.972 6        37.977 6
G20  21950626.943 9 115351289.981 9      2573.948 9        55.313 9  21950627.268 6         0.000 6      2005.675 6        37.977 6
> 2019 07 03 12 00 47.0000000  0  8       0.000000000000
G07  25352116.702 9 133226226.327 9      2179.209 9        54.130 9  25352117.374 6         0.000 6      1698.086 6        37.977 6
G10  23817916.602 9 125163941.722 9      3548.417 9        54.666 9  23817920.336 6         0.000 6      2765.003 6        37.977 6
G21  21167988.870 9 111238511.645 9     -1260.320 9        55.710 9  21167988.155 6         0.000 6      -982.068 6        37.977 6
G29  24292593.038 9 127658381.776 9     -3147.212 9        54.477 9  24292594.604 6         0.000 6     -2452.375 6        37.977 6
G27  22010438.248 9 115665606.642 9      2517.964 9        55.372 9  22010440.183 6         0.000 6      1962.050 6        37.977 6
G16  20498467.466 9 107720153.274 9       573.017 9        55.976 9  20498466.640 6         0.000 6       446.507 6        37.977 6
G26  20651011.512 9 108521775.702 9     -1461.129 9        55.875 9  20651014.327 6         0.000 6     -1138.543 6        37.977 6
G20  21950137.023 9 115348715.439 9      2574.737 9        55.313 9  21950137.347 6         0.000 6      2006.290 6        37.977 6
> 2019 07 03 12 00 48.0000000  0  8       0.000000000000
G07  25351702.072 9 133224047.440 9      2178.611 9        54.130 9  25351702.745 6         0.000 6      1697.620 6        37.977 6
G10  23817241.360 9 125160393.316 9      3548.388 9        54.667 9  23817245.095 6         0.000 6      2764.980 6        37.977 6
G21  21168228.725 9 111239772.093 9     -1260.613 9        55.710 9  21168228.011 6         0.000 6      -982.296 6        37.977 6
G29  24293191.908 9 127661528.849 9     -3147.045 9        54.477 9  24293193.475 6         0.000 6     -2452.245 6        37.977 6
G27  22009959.144 9 115663088.935 9      2517.519 9        55.372 9  22009961.079 6         0.000 6      1961.704 6        37.977 6
G16  20498358.495 9 107719580.623 9       572.311 9        55.976 9  20498357.668 6         0.000 6       445.957 6        37.977 6
G26  20651289.611 9 108523237.120 9     -1461.708 9        55.874 9  20651292.426 6         0.000 6     -1138.994 6        37.977 6
G20  21949647.091 9 115346140.835 9      2574.434 9        55.313 9  21949647.415 6         0.000 6      2006.054 6        37.977 6
> 2019 07 03 12 00 49.0000000  0  8       0.000000000000
G07  25351287.544 9 133221869.082 9      2178.127 9        54.130 9  25351288.216 6         0.000 6      1697.242 6        37.977 6
G10  23816566.134 9 125156844.987 9      3548.277 9        54.667 9  23816569.867 6         0.000 6      2764.894 6        37.977 6
G21  21168468.646 9 111241032.886 9     -1260.979 9        55.710 9  21168467.932 6         0.000 6      -982.581 6        37.977 6
G29  24293790.775 9 127664675.906 9     -3147.104 9        54.477 9  24293792.343 6         0.000 6     -2452.291 6        37.977 6
G27  22009480.103 9 115660571.558 9      2517.253 9        55.372 9  22009482.037 6         0.000 6      1961.496 6        37.977 6
G16  20498249.647 9 107719008.625 9       571.691 9        55.976 9  20498248.820 6         0.000 6       445.474 6        37.977 6
G26  20651567.818 9 108524699.106 9     -1462.269 9        55.874 9  20651570.633 6         0.000 6     -1139.431 6        37.977 6
G20  21949157.231 9 115343566.609 9      2574.012 9        55.314 9  21949157.555 6         0.000 6      2005.725 6        37.977 6
> 2019 07 03 12 00 50.0000000  0  8       0.000000000000
G07  25350873.105 9 133219691.194 9      2177.660 9        54.130 9  25350873.777 6         0.000 6      1696.879 6        37.977 6
G10  23815890.931 9 125153296.782 9      3548.152 9        54.667 9  23815894.664 6         0.000 6      2764.796 6        37.977 6
G21  21168708.638 9 111242294.049 9     -1261.351 9        55.710 9  21168707.923 6         0.000 6      -982.871 6        37.977 6
G29  24294389.656 9 127667823.036 9     -3147.182 9        54.477 9  24294391.224 6         0.000 6     -2452.353 6        37.977 6
G27  22009001.110 9 115658054.435 9      2517.002 9        55.373 9  22009003.044 6         0.000 6      1961.301 6        37.977 6
G16  20498140.916 9 107718437.241 9       571.077 9        55.976 9  20498140.089 6         0.000 6       444.995 6        37.977 6
G26  20651846.132 9 108526161.655 9     -1462.834 9        55.874 9  20651848.948 6         0.000 6     -1139.871 6        37.977 6
G20  21948667.454 9 115340992.819 9      2573.574 9        55.314 9  21948667.778 6         0.000 6      2005.383 6        37.977 6
> 2019 07 03 12 00 51.0000000  0  8       0.000000000000
G07  25350458.754 9 133217513.769 9      2177.199 9        54.130 9  25350459.426 6         0.000 6      1696.520 6        37.977 6
G10  23815215.752 9 125149748.706 9      3548.021 9        54.667 9  23815219.485 6         0.000 6      2764.695 6        37.977 6
G21  21168948.701 9 111243555.587 9     -1261.722 9        55.710 9  21168947.986 6         0.000 6      -983.160 6        37.977 6
G29  24294988.553 9 127670970.250 9     -3147.266 9        54.477 9  24294990.122 6         0.000 6     -2452.417 6        37.977 6
G27  22008522.164 9 115655537.559 9      2516.759 9        55.373 9  22008524.098 6         0.000 6      1961.112 6        37.977 6
G16  20498032.302 9 107717866.471 9       570.468 9        55.976 9  20498031.475 6         0.000 6       444.520 6        37.977 6
G26  20652124.554 9 108527624.769 9     -1463.396 9        55.874 9  20652127.369 6         0.000 6     -1140.309 6        37.977 6
G20  21948177.762 9 115338419.471 9      2573.132 9        55.314 9  21948178.085 6         0.000 6      2005.039 6        37.977 6
> 2019 07 03 12 00 52.0000000  0  8       0.000000000000
G07  25350044.491 9 133215336.803 9      2176.741 9        54.130 9  25350045.162 6         0.000 6      1696.163 6        37.977 6
G10  23814540.599 9 125146200.764 9      3547.885 9        54.667 9  23814544.331 6         0.000 6      2764.588 6        37.977 6
G21  21169188.835 9 111244817.498 9     -1262.095 9        55.710 9  21169188.120 6         0.000 6      -983.451 6        37.977 6
G29  24295587.465 9 127674117.548 9     -3147.344 9        54.476 9  24295589.035 6         0.000 6     -2452.478 6        37.977 6
G27  22008043.264 9 115653020.928 9      2516.508 9        55.373 9  22008045.198 6         0.000 6      1960.916 6        37.977 6
G16  20497923.805 9 107717296.313 9       569.851 9        55.976 9  20497922.978 6         0.000 6       444.040 6        37.977 6
G26  20652403.084 9 108529088.451 9     -1463.968 9        55.874 9  20652405.899 6         0.000 6     -1140.754 6        37.977 6
G20  21947688.154 9 115335846.569 9      2572.685 9        55.314 9  21947688.477 6         0.000 6      2004.691 6        37.977 6
> 2019 07 03 12 00 53.0000000  0  8       0.000000000000
G07  25349630.313 9 133213160.291 9      2176.283 9        54.131 9  25349630.985 6         0.000 6      1695.806 6        37.977 6
G10  23813865.473 9 125142652.960 9      3547.750 9        54.668 9  23813869.204 6         0.000 6      2764.483 6        37.977 6
G21  21169429.038 9 111246079.777 9     -1262.468 9        55.710 9  21169428.324 6         0.000 6      -983.741 6        37.977 6
G29  24296186.393 9 127677264.922 9     -3147.427 9        54.476 9  24296187.963 6         0.000 6     -2452.543 6        37.977 6
G27  22007564.412 9 115650504.545 9      2516.263 9        55.373 9  22007566.346 6         0.000 6      1960.725 6        37.977 6
G16  20497815.424 9 107716726.768 9       569.239 9        55.976 9  20497814.597 6         0.000 6       443.563 6        37.977 6
G26  20652681.722 9 108530552.702 9     -1464.535 9        55.874 9  20652684.537 6         0.000 6     -1141.196 6        37.977 6
G20  21947198.631 9 115333274.113 9      2572.239 9        55.314 9  21947198.954 6         0.000 6      2004.343 6        37.977 6
> 2019 07 03 12 00 54.0000000  0  8       0.000000000000
G07  25349216.224 9 133210984.240 9      2175.832 9        54.131 9  25349216.895 6         0.000 6      1695.454 6        37.977 6
G10  23813190.371 9 125139105.287 9      3547.609 9        54.668 9  23813194.101 6         0.000 6      2764.373 6        37.977 6
G21  21169669.313 9 111247342.428 9     -1262.839 9        55.710 9  21169668.598 6         0.000 6      -984.030 6        37.977 6
G29  24296785.336 9 127680412.380 9     -3147.509 9        54.476 9  24296786.907 6         0.000 6     -2452.607 6        37.977 6
G27  22007085.606 9 115647988.405 9      2516.019 9        55.373 9  22007087.539 6         0.000 6      1960.535 6        37.977 6
G16  20497707.159 9 107716157.832 9       568.627 9        55.976 9  20497706.332 6         0.000 6       443.086 6        37.977 6
G26  20652960.467 9 108532017.515 9     -1465.105 9        55.874 9  20652963.282 6         0.000 6     -1141.640 6        37.977 6
G20  21946709.192 9 115330702.099 9      2571.790 9        55.315 9  21946709.515 6         0.000 6      2003.993 6        37.977 6
> 2019 07 03 12 00 55.0000000  0  8       0.000000000000
G07  25348802.221 9 133208808.642 9      2175.377 9        54.131 9  25348802.892 6         0.000 6      1695.100 6        37.977 6
G10  23812515.296 9 125135557.757 9      3547.472 9        54.668 9  23812519.026 6         0.000 6      2764.267 6        37.977 6
G21  21169909.659 9 111248605.455 9     -1263.207 9        55.710 9  21169908.945 6         0.000 6      -984.318 6        37.977 6
G29  24297384.295 9 127683559.922 9     -3147.592 9        54.476 9  24297385.867 6         0.000 6     -2452.672 6        37.977 6
G27  22006606.847 9 115645472.514 9      2515.776 9        55.373 9  22006608.781 6         0.000 6      1960.346 6        37.977 6
G16  20497599.012 9 107715589.514 9       568.019 9        55.976 9  20497598.185 6         0.000 6       442.612 6        37.977 6
G26  20653239.321 9 108533482.905 9     -1465.670 9        55.874 9  20653242.137 6         0.000 6     -1142.081 6        37.977 6
G20  21946219.840 9 115328130.539 9      2571.344 9        55.315 9  21946220.162 6         0.000 6      2003.646 6        37.977 6
> 2019 07 03 12 00 56.0000000  0  8       0.000000000000
G07  25348388.303 9 133206633.494 9      2174.925 9        54.131 9  25348388.974 6         0.000 6      1694.748 6        37.977 6
G10  23811840.248 9 125132010.366 9      3547.331 9        54.668 9  23811843.977 6         0.000 6      2764.157 6        37.977 6
G21  21170150.075 9 111249868.847 9     -1263.578 9        55.710 9  21170149.360 6         0.000 6      -984.607 6        37.977 6
G29  24297983.270 9 127686707.544 9     -3147.674 9        54.476 9  24297984.842 6         0.000 6     -2452.736 6        37.977 6
G27  22006128.134 9 115642956.863 9      2515.532 9        55.374 9  22006130.067 6         0.000 6      1960.156 6        37.977 6
G16  20497490.980 9 107715021.802 9       567.407 9        55.976 9  20497490.153 6         0.000 6       442.135 6        37.977 6
G26  20653518.283 9 108534948.857 9     -1466.239 9        55.873 9  20653521.099 6         0.000 6     -1142.525 6        37.977 6
G20  21945730.572 9 115325559.425 9      2570.894 9        55.315 9  21945730.894 6         0.000 6      2003.295 6        37.977 6
> 2019 07 03 12 00 57.0000000  0  8       0.000000000000
G07  25347974.458 9 133204458.725 9      2174.654 9        54.131 9  25347975.128 6         0.000 6      1694.537 6        37.977 6
G10  23811165.241 9 125128463.191 9      3547.007 9        54.669 9  23811168.970 6         0.000 6      2763.904 6        37.977 6
G21  21170390.560 9 111251132.602 9     -1263.925 9        55.709 9  21170389.845 6         0.000 6      -984.877 6        37.977 6
G29  24298582.261 9 127689855.252 9     -3147.763 9        54.475 9  24298583.834 6         0.000 6     -2452.805 6        37.977 6
G27  22005649.464 9 115640441.439 9      2515.332 9        55.374 9  22005651.397 6         0.000 6      1960.000 6        37.977 6
G16  20497383.063 9 107714454.698 9       566.806 9        55.977 9  20497382.236 6         0.000 6       441.667 6        37.977 6
G26  20653797.360 9 108536415.416 9     -1466.896 9        55.873 9  20653800.177 6         0.000 6     -1143.036 6        37.977 6
G20  21945241.400 9 115322988.813 9      2570.318 9        55.315 9  21945241.722 6         0.000 6      2002.846 6        37.977 6
> 2019 07 03 12 00 58.0000000  0  8       0.000000000000
G07  25347560.793 9 133202284.906 9      2171.848 9        54.131 9  25347561.463 6         0.000 6      1692.350 6        37.977 6
G10  23810490.221 9 125124915.947 9      3548.080 9        54.669 9  23810493.949 6         0.000 6      2764.740 6        37.977 6
G21  21170630.977 9 111252396.005 9     -1261.523 9        55.709 9  21170630.263 6         0.000 6      -983.005 6        37.977 6
G29  24299180.897 9 127693001.094 9     -3140.158 9        54.475 9  24299182.470 6         0.000 6     -2446.879 6        37.977 6
G27  22005171.109 9 115637927.670 9      2509.417 9        55.374 9  22005173.043 6         0.000 6      1955.390 6        37.977 6
G16  20497275.394 9 107713888.890 9       563.454 9        55.977 9  20497274.567 6         0.000 6       439.055 6        37.977 6
G26  20654076.618 9 108537882.920 9     -1468.776 9        55.873 9  20654079.434 6         0.000 6     -1144.502 6        37.977 6
G20  21944752.180 9 115320417.951 9      2572.883 9        55.315 9  21944752.502 6         0.000 6      2004.845 6        37.977 6
> 2019 07 03 12 00 59.0000000  0  8       0.000000000000
G07  25347147.556 9 133200113.337 9      2172.641 9        54.131 9  25347148.227 6         0.000 6      1692.968 6        37.977 6
G10  23809815.239 9 125121368.900 9      3544.804 9        54.669 9  23809818.966 6         0.000 6      2762.188 6        37.977 6
G21  21170870.553 9 111253654.985 9     -1256.556 9        55.709 9  21170869.839 6         0.000 6      -979.135 6        37.977 6
G29  24299777.187 9 127696134.609 9     -3127.700 9        54.475 9  24299778.761 6         0.000 6     -2437.171 6        37.977 6
G27  22004694.455 9 115635422.837 9      2501.105 9        55.374 9  22004696.388 6         0.000 6      1948.914 6        37.977 6
G16  20497168.658 9 107713327.988 9       558.708 9        55.977 9  20497167.831 6         0.000 6       435.357 6        37.977 6
G26  20654356.567 9 108539354.062 9     -1473.894 9        55.873 9  20654359.383 6         0.000 6     -1148.489 6        37.977 6
G20  21944262.379 9 115317844.031 9      2573.906 9        55.315 9  21944262.700 6         0.000 6      2005.642 6        37.977 6
> 2019 07 03 12 01  0.0000000  0  8       0.000000000000
G07  25346733.244 9 133197936.112 9      2182.542 9        54.132 9  25346733.914 6         0.000 6      1700.683 6        37.977 6
G10  23809141.746 9 125117829.681 9      3533.169 9        54.669 9  23809145.472 6         0.000 6      2753.122 6        37.977 6
G21  21171109.211 9 111254909.137 9     -1252.295 9        55.709 9  21171108.496 6         0.000 6      -975.814 6        37.977 6
G29  24300371.532 9 127699257.906 9     -3120.542 9        54.475 9  24300373.107 6         0.000 6     -2431.594 6        37.977 6
G27  22004218.882 9 115632923.688 9      2498.454 9        55.374 9  22004220.815 6         0.000 6      1946.848 6        37.977 6
G16  20497062.620 9 107712770.756 9       556.354 9        55.977 9  20497061.793 6         0.000 6       433.523 6        37.977 6
G26  20654637.793 9 108540831.916 9     -1481.646 9        55.873 9  20654640.610 6         0.000 6     -1154.530 6        37.977 6
G20  21943773.088 9 115315272.794 9      2567.788 9        55.316 9  21943773.409 6         0.000 6      2000.875 6        37.977 6
> 2019 07 03 12 01  1.0000000  0  8       0.000000000000
G07  25346317.548 9 133195751.620 9      2185.480 9        54.132 9  25346318.218 6         0.000 6      1702.972 6        37.977 6
G10  23808469.844 9 125114298.824 9      3529.569 9        54.670 9  23808473.569 6         0.000 6      2750.316 6        37.977 6
G21  21171347.463 9 111256161.160 9     -1251.982 9        55.709 9  21171346.749 6         0.000 6      -975.571 6        37.977 6
G29  24300965.313 9 127702378.233 9     -3120.309 9        54.474 9  24300966.888 6         0.000 6     -2431.412 6        37.977 6
G27  22003743.400 9 115630425.013 9      2498.795 9        55.375 9  22003745.332 6         0.000 6      1947.114 6        37.977 6
G16  20496956.796 9 107712214.648 9       555.858 9        55.977 9  20496955.969 6         0.000 6       433.136 6        37.977 6
G26  20654920.008 9 108542314.959 9     -1483.928 9        55.873 9  20654922.824 6         0.000 6     -1156.308 6        37.977 6
G20  21943284.769 9 115312706.665 9      2565.103 9        55.316 9  21943285.090 6         0.000 6      1998.783 6        37.977 6
> 2019 07 03 12 01  2.0000000  0  8       0.000000000000
G07  25345901.653 9 133193566.080 9      2185.451 9        54.132 9  25345902.322 6         0.000 6      1702.949 6        37.977 6
G10  23807798.259 9 125110769.633 9      3528.994 9        54.670 9  23807801.984 6         0.000 6      2749.868 6        37.977 6
G21  21171585.732 9 111257413.274 9     -1252.268 9        55.709 9  21171585.018 6         0.000 6      -975.794 6        37.977 6
G29  24301559.094 9 127705498.563 9     -3120.373 9        54.474 9  24301560.670 6         0.000 6     -2431.462 6        37.977 6
G27  22003267.906 9 115627926.281 9      2498.640 9        55.375 9  22003269.839 6         0.000 6      1946.993 6        37.977 6
G16  20496851.076 9 107711659.087 9       555.258 9        55.977 9  20496850.249 6         0.000 6       432.669 6        37.977 6
G26  20655202.472 9 108543799.320 9     -1484.718 9        55.873 9  20655205.289 6         0.000 6     -1156.924 6        37.977 6
G20  21942796.726 9 115310141.987 9      2564.370 9        55.316 9  21942797.047 6         0.000 6      1998.212 6        37.977 6
> 2019 07 03 12 01  3.0000000  0  8       0.000000000000
G07  25345485.815 9 133191380.840 9      2185.026 9        54.132 9  25345486.484 6         0.000 6      1702.619 6        37.977 6
G10  23807126.731 9 125107240.740 9      3528.820 9        54.670 9  23807130.455 6         0.000 6      2749.732 6        37.977 6
G21  21171824.064 9 111258665.713 9     -1252.617 9        55.709 9  21171823.350 6         0.000 6      -976.065 6        37.977 6
G29  24302152.887 9 127708618.960 9     -3120.443 9        54.474 9  24302154.464 6         0.000 6     -2431.517 6        37.977 6
G27  22002792.453 9 115625427.760 9      2498.402 9        55.375 9  22002794.385 6         0.000 6      1946.808 6        37.977 6
G16  20496745.472 9 107711104.135 9       554.640 9        55.977 9  20496744.646 6         0.000 6       432.187 6        37.977 6
G26  20655485.061 9 108545284.334 9     -1485.313 9        55.873 9  20655487.878 6         0.000 6     -1157.387 6        37.977 6
G20  21942308.787 9 115307577.855 9      2563.906 9        55.316 9  21942309.107 6         0.000 6      1997.850 6        37.977 6
> 2019 07 03 12 01  4.0000000  0  8       0.000000000000
G07  25345070.062 9 133189196.050 9      2184.567 9        54.132 9  25345070.731 6         0.000 6      1702.261 6        37.977 6
G10  23806455.231 9 125103711.997 9      3528.681 9        54.670 9  23806458.955 6         0.000 6      2749.624 6        37.977 6
G21  21172062.461 9 111259918.501 9     -1252.971 9        55.709 9  21172061.747 6         0.000 6      -976.342 6        37.977 6
G29  24302746.694 9 127711739.424 9     -3120.517 9        54.474 9  24302748.271 6         0.000 6     -2431.575 6        37.977 6
G27  22002317.046 9 115622929.484 9      2498.159 9        55.375 9  22002318.978 6         0.000 6      1946.618 6        37.977 6
G16  20496639.986 9 107710549.802 9       554.022 9        55.977 9  20496639.159 6         0.000 6       431.705 6        37.977 6
G26  20655767.761 9 108546769.930 9     -1485.890 9        55.873 9  20655770.578 6         0.000 6     -1157.837 6        37.977 6
G20  21941820.933 9 115305014.168 9      2563.466 9        55.316 9  21941821.253 6         0.000 6      1997.507 6        37.977 6
> 2019 07 03 12 01  5.0000000  0  8       0.000000000000
G07  25344654.397 9 133187011.719 9      2184.102 9        54.132 9  25344655.066 6         0.000 6      1701.899 6        37.977 6
G10  23805783.759 9 125100183.393 9      3528.548 9        54.671 9  23805787.482 6         0.000 6      2749.520 6        37.977 6
G21  21172300.928 9 111261171.649 9     -1253.328 9        55.709 9  21172300.214 6         0.000 6      -976.619 6        37.977 6
G29  24303340.516 9 127714859.969 9     -3120.592 9        54.474 9  24303342.094 6         0.000 6     -2431.633 6        37.977 6
G27  22001841.686 9 115620431.450 9      2497.915 9        55.375 9  22001843.618 6         0.000 6      1946.428 6        37.977 6
G16  20496534.618 9 107709996.090 9       553.403 9        55.977 9  20496533.792 6         0.000 6       431.223 6        37.977 6
G26  20656050.571 9 108548256.105 9     -1486.464 9        55.872 9  20656053.388 6         0.000 6     -1158.284 6        37.977 6
G20  21941333.163 9 115302450.925 9      2563.028 9        55.317 9  21941333.483 6         0.000 6      1997.166 6        37.977 6
> 2019 07 03 12 01  6.0000000  0  8       0.000000000000
G07  25344238.820 9 133184827.850 9      2183.640 9        54.132 9  25344239.489 6         0.000 6      1701.538 6        37.977 6
G10  23805112.311 9 125096654.925 9      3528.412 9        54.671 9  23805116.034 6         0.000 6      2749.415 6        37.977 6
G21  21172539.463 9 111262425.157 9     -1253.686 9        55.709 9  21172538.748 6         0.000 6      -976.898 6        37.977 6
G29  24303934.353 9 127717980.594 9     -3120.673 9        54.473 9  24303935.931 6         0.000 6     -2431.695 6        37.977 6
G27  22001366.371 9 115617933.656 9      2497.674 9        55.376 9  22001368.303 6         0.000 6      1946.240 6        37.977 6
G16  20496429.368 9 107709442.995 9       552.785 9        55.977 9  20496428.541 6         0.000 6       430.742 6        37.977 6
G26  20656333.491 9 108549742.855 9     -1487.038 9        55.872 9  20656336.308 6         0.000 6     -1158.732 6        37.977 6
G20  21940845.477 9 115299888.123 9      2562.588 9        55.317 9  21940845.797 6         0.000 6      1996.823 6        37.977 6
> 2019 07 03 12 01  7.0000000  0  8       0.000000000000
G07  25343823.331 9 133182644.443 9      2183.180 9        54.133 9  25343824.000 6         0.000 6      1701.180 6        37.977 6
G10  23804440.890 9 125093126.593 9      3528.274 9        54.671 9  23804444.612 6         0.000 6      2749.307 6        37.977 6
G21  21172778.065 9 111263679.022 9     -1254.047 9        55.708 9  21172777.351 6         0.000 6      -977.179 6        37.977 6
G29  24304528.205 9 127721101.299 9     -3120.758 9        54.473 9  24304529.784 6         0.000 6     -2431.762 6        37.977 6
G27  22000891.102 9 115615436.103 9      2497.437 9        55.376 9  22000893.034 6         0.000 6      1946.055 6        37.977 6
G16  20496324.235 9 107708890.518 9       552.169 9        55.977 9  20496323.408 6         0.000 6       430.261 6        37.977 6
G26  20656616.519 9 108551230.179 9     -1487.613 9        55.872 9  20656619.337 6         0.000 6     -1159.179 6        37.977 6
G20  21940357.875 9 115297325.762 9      2562.144 9        55.317 9  21940358.194 6         0.000 6      1996.477 6        37.977 6
> 2019 07 03 12 01  8.0000000  0  8       0.000000000000
G07  25343407.930 9 133180461.498 9      2182.720 9        54.133 9  25343408.598 6         0.000 6      1700.822 6        37.977 6
G10  23803769.495 9 125089598.401 9      3528.136 9        54.671 9  23803773.216 6         0.000 6      2749.200 6        37.977 6
G21  21173016.738 9 111264933.255 9     -1254.407 9        55.708 9  21173016.024 6         0.000 6      -977.460 6        37.977 6
G29  24305122.074 9 127724222.090 9     -3120.843 9        54.473 9  24305123.654 6         0.000 6     -2431.829 6        37.977 6
G27  22000415.879 9 115612938.793 9      2497.200 9        55.376 9  22000417.811 6         0.000 6      1945.871 6        37.977 6
G16  20496219.221 9 107708338.665 9       551.553 9        55.977 9  20496218.394 6         0.000 6       429.781 6        37.977 6
G26  20656899.659 9 108552718.084 9     -1488.188 9        55.872 9  20656902.476 6         0.000 6     -1159.627 6        37.977 6
G20  21939870.358 9 115294763.849 9      2561.700 9        55.317 9  21939870.677 6         0.000 6      1996.131 6        37.977 6
> 2019 07 03 12 01  9.0000000  0  8       0.000000000000
G07  25342992.615 9 133178279.008 9      2182.283 9        54.133 9  25342993.283 6         0.000 6      1700.481 6        37.977 6
G10  23803098.127 9 125086070.346 9      3527.982 9        54.672 9  23803101.847 6         0.000 6      2749.080 6        37.977 6
G21  21173255.478 9 111266187.844 9     -1254.784 9        55.708 9  21173254.765 6         0.000 6      -977.754 6        37.977 6
G29  24305715.960 9 127727342.971 9     -3120.975 9        54.473 9  24305717.540 6         0.000 6     -2431.931 6        37.977 6
G27  21999940.700 9 115610441.711 9      2496.998 9        55.376 9  21999942.631 6         0.000 6      1945.713 6        37.977 6
G16  20496114.322 9 107707787.419 9       550.952 9        55.977 9  20496113.495 6         0.000 6       429.313 6        37.977 6
G26  20657182.906 9 108554206.558 9     -1488.759 9        55.872 9  20657185.724 6         0.000 6     -1160.073 6        37.977 6
G20  21939382.926 9 115292202.379 9      2561.231 9        55.317 9  21939383.245 6         0.000 6      1995.766 6        37.977 6
> 2019 07 03 12 01 10.0000000  0  8       0.000000000000
G07  25342577.394 9 133176097.010 9      2182.965 9        54.133 9  25342578.062 6         0.000 6      1701.012 6        37.977 6
G10  23802426.775 9 125082542.378 9      3526.732 9        54.672 9  23802430.495 6         0.000 6      2748.105 6        37.977 6
G21  21173494.299 9 111267442.852 9     -1255.059 9        55.708 9  21173493.585 6         0.000 6      -977.969 6        37.977 6
G29  24306309.888 9 127730464.071 9     -3121.300 9        54.473 9  24306311.469 6         0.000 6     -2432.184 6        37.977 6
G27  21999465.550 9 115607944.784 9      2497.184 9        55.376 9  21999467.481 6         0.000 6      1945.859 6        37.977 6
G16  20496009.533 9 107707236.746 9       550.489 9        55.977 9  20496008.706 6         0.000 6       428.952 6        37.977 6
G26  20657466.252 9 108555695.547 9     -1489.802 9        55.872 9  20657469.069 6         0.000 6     -1160.885 6        37.977 6
G20  21938895.579 9 115289641.356 9      2559.970 9        55.318 9  21938895.897 6         0.000 6      1994.783 6        37.977 6
> 2019 07 03 12 01 11.0000000  0  8       0.000000000000
G07  25342160.681 9 133173907.170 9      2197.156 9        54.133 9  25342161.348 6         0.000 6      1712.070 6        37.977 6
G10  23801756.985 9 125079022.620 9      3512.555 9        54.672 9  23801760.704 6         0.000 6      2737.059 6        37.977 6
G21  21173733.074 9 111268697.625 9     -1254.936 9        55.708 9  21173732.360 6         0.000 6      -977.872 6        37.977 6
G29  24306904.176 9 127733587.068 9     -3125.963 9        54.472 9  24306905.758 6         0.000 6     -2435.818 6        37.977 6
G27  21998989.848 9 115605444.956 9      2503.401 9        55.376 9  21998991.779 6         0.000 6      1950.703 6        37.977 6
G16  20495904.642 9 107706685.542 9       552.360 9        55.977 9  20495903.815 6         0.000 6       430.410 6        37.977 6
G26  20657750.348 9 108557188.482 9     -1495.890 9        55.872 9  20657753.166 6         0.000 6     -1165.629 6        37.977 6
G20  21938409.447 9 115287086.722 9      2548.780 9        55.318 9  21938409.765 6         0.000 6      1986.064 6        37.977 6
> 2019 07 03 12 01 12.0000000  0  8       0.000000000000
G07  25341741.201 9 133171702.795 9      2211.906 9        54.133 9  25341741.868 6         0.000 6      1723.564 6        37.977 6
G10  23801089.856 9 125075516.843 9      3498.992 9        54.672 9  23801093.574 6         0.000 6      2726.490 6        37.977 6
G21  21173972.099 9 111269953.709 9     -1257.940 9        55.708 9  21173971.385 6         0.000 6      -980.213 6        37.977 6
G29  24307500.039 9 127736718.342 9     -3138.444 9        54.472 9  24307501.622 6         0.000 6     -2445.543 6        37.977 6
G27  21998512.492 9 115602936.436 9      2514.941 9        55.377 9  21998514.422 6         0.000 6      1959.695 6        37.977 6
G16  20495799.162 9 107706131.240 9       556.883 9        55.977 9  20495798.335 6         0.000 6       433.935 6        37.977 6
G26  20658035.419 9 108558686.536 9     -1499.783 9        55.872 9  20658038.236 6         0.000 6     -1168.663 6        37.977 6
G20  21937925.617 9 115284544.181 9      2535.767 9        55.318 9  21937925.935 6         0.000 6      1975.923 6        37.977 6
> 2019 07 03 12 01 13.0000000  0  8       0.000000000000
G07  25341319.388 9 133169486.157 9      2218.447 9        54.133 9  25341320.055 6         0.000 6      1728.661 6        37.977 6
G10  23800424.787 9 125072021.892 9      3493.356 9        54.673 9  23800428.505 6         0.000 6      2722.098 6        37.977 6
G21  21174211.895 9 111271213.844 9     -1261.372 9        55.708 9  21174211.181 6         0.000 6      -982.888 6        37.977 6
G29  24308098.576 9 127739863.660 9     -3148.746 9        54.472 9  24308100.158 6         0.000 6     -2453.571 6        37.977 6
G27  21998032.853 9 115600415.918 9      2523.118 9        55.377 9  21998034.783 6         0.000 6      1966.066 6        37.977 6
G16  20495692.752 9 107705572.053 9       560.141 9        55.977 9  20495691.925 6         0.000 6       436.473 6        37.977 6
G26  20658320.911 9 108560186.808 9     -1500.464 9        55.871 9  20658323.729 6         0.000 6     -1169.193 6        37.977 6
G20  21937443.998 9 115282013.260 9      2528.709 9        55.318 9  21937444.315 6         0.000 6      1970.423 6        37.977 6
> 2019 07 03 12 01 14.0000000  0  8       0.000000000000
G07  25340897.188 9 133167267.484 9      2218.669 9        54.134 9  25340897.855 6         0.000 6      1728.834 6        37.977 6
G10  23799760.097 9 125068528.937 9      3492.743 9        54.673 9  23799763.815 6         0.000 6      2721.621 6        37.977 6
G21  21174452.019 9 111272475.703 9     -1262.187 9        55.708 9  21174451.305 6         0.000 6      -983.522 6        37.977 6
G29  24308697.947 9 127743013.369 9     -3150.213 9        54.472 9  24308699.531 6         0.000 6     -2454.714 6        37.977 6
G27  21997552.604 9 115597892.199 9      2523.953 9        55.377 9  21997554.535 6         0.000 6      1966.717 6        37.977 6
G16  20495586.156 9 107705011.884 9       560.023 9        55.977 9  20495585.329 6         0.000 6       436.381 6        37.977 6
G26  20658606.481 9 108561687.487 9     -1500.933 9        55.871 9  20658609.299 6         0.000 6     -1169.559 6        37.977 6
G20  21936962.934 9 115279485.256 9      2527.557 9        55.318 9  21936963.251 6         0.000 6      1969.526 6        37.977 6
> 2019 07 03 12 01 15.0000000  0  8       0.000000000000
G07  25340475.023 9 133165048.993 9      2218.287 9        54.134 9  25340475.689 6         0.000 6      1728.537 6        37.977 6
G10  23799095.471 9 125065036.312 9      3492.550 9        54.673 9  23799099.188 6         0.000 6      2721.471 6        37.977 6
G21  21174692.245 9 111273738.097 9     -1262.591 9        55.708 9  21174691.531 6         0.000 6      -983.837 6        37.977 6
G29  24309297.439 9 127746163.709 9     -3150.442 9        54.471 9  24309299.023 6         0.000 6     -2454.893 6        37.977 6
G27  21997072.321 9 115595368.295 9      2523.822 9        55.377 9  21997074.251 6         0.000 6      1966.615 6        37.977 6
G16  20495479.640 9 107704452.139 9       559.447 9        55.977 9  20495478.813 6         0.000 6       435.933 6        37.977 6
G26  20658892.154 9 108563188.706 9     -1501.510 9        55.871 9  20658894.972 6         0.000 6     -1170.008 6        37.977 6
G20  21936482.007 9 115276957.977 9      2527.040 9        55.319 9  21936482.325 6         0.000 6      1969.123 6        37.977 6
> 2019 07 03 12 01 16.0000000  0  8       0.000000000000
G07  25340052.938 9 133162830.927 9      2217.846 9        54.134 9  25340053.605 6         0.000 6      1728.193 6        37.977 6
G10  23798430.876 9 125061543.852 9      3492.396 9        54.673 9  23798434.592 6         0.000 6      2721.350 6        37.977 6
G21  21174932.544 9 111275000.876 9     -1262.958 9        55.708 9  21174931.830 6         0.000 6      -984.123 6        37.977 6
G29  24309896.960 9 127749314.202 9     -3150.548 9        54.471 9  24309898.545 6         0.000 6     -2454.975 6        37.977 6
G27  21996592.075 9 115592844.586 9      2523.592 9        55.377 9  21996594.005 6         0.000 6      1966.436 6        37.977 6
G16  20495373.240 9 107703893.005 9       558.821 9        55.977 9  20495372.413 6         0.000 6       435.445 6        37.977 6
G26  20659177.939 9 108564690.511 9     -1502.102 9        55.871 9  20659180.757 6         0.000 6     -1170.470 6        37.977 6
G20  21936001.172 9 115274431.174 9      2526.583 9        55.319 9  21936001.489 6         0.000 6      1968.767 6        37.977 6
> 2019 07 03 12 01 17.0000000  0  8       0.000000000000
G07  25339630.939 9 133160613.311 9      2217.393 9        54.134 9  25339631.605 6         0.000 6      1727.840 6        37.977 6
G10  23797766.309 9 125058051.537 9      3492.255 9        54.674 9  23797770.024 6         0.000 6      2721.240 6        37.977 6
G21  21175172.910 9 111276264.009 9     -1263.316 9        55.707 9  21175172.196 6         0.000 6      -984.402 6        37.977 6
G29  24310496.498 9 127752464.785 9     -3150.643 9        54.471 9  24310498.083 6         0.000 6     -2455.049 6        37.977 6
G27  21996111.873 9 115590321.114 9      2523.359 9        55.378 9  21996113.803 6         0.000 6      1966.255 6        37.977 6
G16  20495266.959 9 107703334.494 9       558.199 9        55.977 9  20495266.132 6         0.000 6       434.960 6        37.977 6
G26  20659463.834 9 108566192.901 9     -1502.684 9        55.871 9  20659466.652 6         0.000 6     -1170.923 6        37.977 6
G20  21935520.421 9 115271904.815 9      2526.141 9        55.319 9  21935520.738 6         0.000 6      1968.422 6        37.977 6
> 2019 07 03 12 01 18.0000000  0  8       0.000000000000
G07  25339209.026 9 133158396.147 9      2216.941 9        54.134 9  25339209.692 6         0.000 6      1727.487 6        37.977 6
G10  23797101.768 9 125054559.366 9      3492.111 9        54.674 9  23797105.483 6         0.000 6      2721.128 6        37.977 6
G21  21175413.344 9 111277527.500 9     -1263.673 9        55.707 9  21175412.631 6         0.000 6      -984.681 6        37.977 6
G29  24311096.053 9 127755615.457 9     -3150.734 9        54.471 9  24311097.639 6         0.000 6     -2455.120 6        37.977 6
G27  21995631.717 9 115587797.880 9      2523.120 9        55.378 9  21995633.647 6         0.000 6      1966.068 6        37.977 6
G16  20495160.797 9 107702776.609 9       557.573 9        55.977 9  20495159.970 6         0.000 6       434.472 6        37.977 6
G26  20659749.841 9 108567695.878 9     -1503.271 9        55.871 9  20659752.660 6         0.000 6     -1171.380 6        37.977 6
G20  21935039.755 9 115269378.899 9      2525.697 9        55.319 9  21935040.071 6         0.000 6      1968.077 6        37.977 6
> 2019 07 03 12 01 19.0000000  0  8       0.000000000000
G07  25338787.200 9 133156179.439 9      2216.482 9        54.134 9  25338787.866 6         0.000 6      1727.130 6        37.977 6
G10  23796437.255 9 125051067.334 9      3491.974 9        54.674 9  23796440.969 6         0.000 6      2721.021 6        37.977 6
G21  21175653.848 9 111278791.352 9     -1264.033 9        55.707 9  21175653.134 6         0.000 6      -984.961 6        37.977 6
G29  24311695.626 9 127758766.226 9     -3150.824 9        54.471 9  24311697.213 6         0.000 6     -2455.190 6        37.977 6
G27  21995151.606 9 115585274.883 9      2522.880 9        55.378 9  21995153.536 6         0.000 6      1965.881 6        37.977 6
G16  20495054.754 9 107702219.350 9       556.945 9        55.977 9  20495053.927 6         0.000 6       433.983 6        37.977 6
G26  20660035.960 9 108569199.439 9     -1503.855 9        55.871 9  20660038.778 6         0.000 6     -1171.835 6        37.977 6
G20  21934559.172 9 115266853.427 9      2525.257 9        55.319 9  21934559.488 6         0.000 6      1967.734 6        37.977 6
> 2019 07 03 12 01 20.0000000  0  8       0.000000000000
G07  25338365.461 9 133153963.187 9      2216.026 9        54.134 9  25338366.126 6         0.000 6      1726.774 6        37.977 6
G10  23795772.768 9 125047575.444 9      3491.832 9        54.674 9  23795776.482 6         0.000 6      2720.911 6        37.977 6
G21  21175894.420 9 111280055.567 9     -1264.395 9        55.707 9  21175893.706 6         0.000 6      -985.243 6        37.977 6
G29  24312295.217 9 127761917.086 9     -3150.915 9        54.470 9  24312296.804 6         0.000 6     -2455.261 6        37.977 6
G27  21994671.541 9 115582752.128 9      2522.637 9        55.378 9  21994673.471 6         0.000 6      1965.692 6        37.977 6
G16  20494948.831 9 107701662.722 9       556.315 9        55.978 9  20494948.004 6         0.000 6       433.492 6        37.977 6
G26  20660322.190 9 108570703.589 9     -1504.443 9        55.871 9  20660325.009 6         0.000 6     -1172.294 6        37.977 6
G20  21934078.674 9 115264328.398 9      2524.813 9        55.319 9  21934078.990 6         0.000 6      1967.388 6        37.977 6
> 2019 07 03 12 01 21.0000000  0  8       0.000000000000
G07  25337943.809 9 133151747.397 9      2215.567 9        54.135 9  25337944.474 6         0.000 6      1726.417 6        37.977 6
G10  23795108.307 9 125044083.687 9      3491.694 9        54.675 9  23795112.020 6         0.000 6      2720.803 6        37.977 6
G21  21176135.060 9 111281320.138 9     -1264.754 9        55.707 9  21176134.347 6         0.000 6      -985.523 6        37.977 6
G29  24312894.824 9 127765068.036 9     -3151.006 9        54.470 9  24312896.412 6         0.000 6     -2455.332 6        37.977 6
G27  21994191.522 9 115580229.612 9      2522.397 9        55.378 9  21994193.451 6         0.000 6      1965.505 6        37.977 6
G16  20494843.027 9 107701106.718 9       555.687 9        55.978 9  20494842.200 6         0.000 6       433.003 6        37.977 6
G26  20660608.531 9 108572208.317 9     -1505.027 9        55.871 9  20660611.350 6         0.000 6     -1172.749 6        37.977 6
G20  21933598.259 9 115261803.805 9      2524.373 9        55.320 9  21933598.575 6         0.000 6      1967.045 6        37.977 6
> 2019 07 03 12 01 22.0000000  0  8       0.000000000000
G07  25337522.244 9 133149532.060 9      2215.111 9        54.135 9  25337522.909 6         0.000 6      1726.062 6        37.977 6
G10  23794443.873 9 125040592.074 9      3491.555 9        54.675 9  23794447.585 6         0.000 6      2720.695 6        37.977 6
G21  21176375.768 9 111282585.068 9     -1265.110 9        55.707 9  21176375.055 6         0.000 6      -985.800 6        37.977 6
G29  24313494.450 9 127768219.077 9     -3151.096 9        54.470 9  24313496.038 6         0.000 6     -2455.402 6        37.977 6
G27  21993711.548 9 115577707.335 9      2522.160 9        55.379 9  21993713.477 6         0.000 6      1965.320 6        37.977 6
G16  20494737.342 9 107700551.341 9       555.064 9        55.978 9  20494736.515 6         0.000 6       432.517 6        37.977 6
G26  20660894.983 9 108573713.632 9     -1505.609 9        55.870 9  20660897.802 6         0.000 6     -1173.202 6        37.977 6
G20  21933117.929 9 115259279.655 9      2523.934 9        55.320 9  21933118.244 6         0.000 6      1966.703 6        37.977 6
> 2019 07 03 12 01 23.0000000  0  8       0.000000000000
G07  25337100.767 9 133147317.186 9      2214.648 9        54.135 9  25337101.431 6         0.000 6      1725.701 6        37.977 6
G10  23793779.465 9 125037100.598 9      3491.418 9        54.675 9  23793783.177 6         0.000 6      2720.588 6        37.977 6
G21  21176616.545 9 111283850.360 9     -1265.473 9        55.707 9  21176615.832 6         0.000 6      -986.083 6        37.977 6
G29  24314094.092 9 127771370.210 9     -3151.188 9        54.470 9  24314095.681 6         0.000 6     -2455.474 6        37.977 6
G27  21993231.621 9 115575185.301 9      2521.916 9        55.379 9  21993233.549 6         0.000 6      1965.130 6        37.977 6
G16  20494631.778 9 107699996.595 9       554.432 9        55.978 9  20494630.951 6         0.000 6       432.025 6        37.977 6
G26  20661181.547 9 108575219.533 9     -1506.194 9        55.870 9  20661184.366 6         0.000 6     -1173.658 6        37.977 6
G20  21932637.682 9 115256755.947 9      2523.493 9        55.320 9  21932637.997 6         0.000 6      1966.359 6        37.977 6
> 2019 07 03 12 01 24.0000000  0  8       0.000000000000
G07  25336679.394 9 133145102.864 9      2213.720 9        54.135 9  25336680.059 6         0.000 6      1724.977 6        37.977 6
G10  23793115.068 9 125033609.177 9      3491.636 9        54.675 9  23793118.779 6         0.000 6      2720.758 6        37.977 6
G21  21176857.386 9 111285115.987 9     -1265.581 9        55.707 9  21176856.673 6         0.000 6      -986.167 6        37.977 6
G29  24314693.734 9 127774521.339 9     -3150.493 9        54.470 9  24314695.324 6         0.000 6     -2454.932 6        37.977 6
G27  21992751.754 9 115572663.590 9      2521.048 9        55.379 9  21992753.683 6         0.000 6      1964.453 6        37.977 6
G16  20494526.339 9 107699442.510 9       553.515 9        55.978 9  20494525.512 6         0.000 6       431.310 6        37.977 6
G26  20661468.218 9 108576725.999 9     -1506.799 9        55.870 9  20661471.037 6         0.000 6     -1174.130 6        37.977 6
G20  21932157.504 9 115254232.596 9      2523.518 9        55.320 9  21932157.818 6         0.000 6      1966.378 6        37.977 6
> 2019 07 03 12 01 25.0000000  0  8       0.000000000000
G07  25336257.838 9 133142887.576 9      2216.533 9        54.135 9  25336258.503 6         0.000 6      1727.169 6        37.977 6
G10  23792450.834 9 125030118.615 9      3490.072 9        54.676 9  23792454.544 6         0.000 6      2719.539 6        37.977 6
G21  21177098.623 9 111286383.692 9     -1270.502 9        55.707 9  21177097.909 6         0.000 6      -990.001 6        37.977 6
G29  24315294.291 9 127777677.279 9     -3162.904 9        54.469 9  24315295.882 6         0.000 6     -2464.603 6        37.977 6
G27  21992271.275 9 115570138.658 9      2529.740 9        55.379 9  21992273.204 6         0.000 6      1971.227 6        37.977 6
G16  20494420.701 9 107698887.379 9       557.235 9        55.978 9  20494419.874 6         0.000 6       434.209 6        37.977 6
G26  20661754.845 9 108578232.233 9     -1505.034 9        55.870 9  20661757.665 6         0.000 6     -1172.755 6        37.977 6
G20  21931677.758 9 115251711.521 9      2518.591 9        55.320 9  21931678.072 6         0.000 6      1962.540 6        37.977 6
> 2019 07 03 12 01 26.0000000  0  8       0.000000000000
G07  25335836.296 9 133140672.357 9      2212.505 9        54.135 9  25335836.960 6         0.000 6      1724.031 6        37.977 6
G10  23791786.326 9 125026626.614 9      3495.249 9        54.676 9  23791790.036 6         0.000 6      2723.573 6        37.977 6
G21  21177340.941 9 111287657.083 9     -1276.168 9        55.707 9  21177340.228 6         0.000 6      -994.417 6        37.977 6
G29  24315897.344 9 127780846.330 9     -3174.402 9        54.469 9  24315898.935 6         0.000 6     -2473.562 6        37.977 6
G27  21991789.182 9 115567605.246 9      2536.229 9        55.379 9  21991791.111 6         0.000 6      1976.283 6        37.977 6
G16  20494314.345 9 107698328.475 9       560.222 9        55.978 9  20494313.518 6         0.000 6       436.537 6        37.977 6
G26  20662040.833 9 108579735.105 9     -1500.288 9        55.870 9  20662043.652 6         0.000 6     -1169.056 6        37.977 6
G20  21931198.605 9 115249193.560 9      2518.447 9        55.321 9  21931198.919 6         0.000 6      1962.427 6        37.977 6
> 2019 07 03 12 01 27.0000000  0  8       0.000000000000
G07  25335416.419 9 133138465.896 9      2201.944 9        54.135 9  25335417.083 6         0.000 6      1715.801 6        37.977 6
G10  23791120.006 9 125023125.089 9      3505.987 9        54.676 9  23791123.715 6         0.000 6      2731.941 6        37.977 6
G21  21177584.271 9 111288935.791 9     -1280.158 9        55.706 9  21177583.558 6         0.000 6      -997.526 6        37.977 6
G29  24316502.066 9 127784024.158 9     -3179.244 9        54.469 9  24316503.658 6         0.000 6     -2477.335 6        37.977 6
G27  21991306.407 9 115565068.247 9      2536.780 9        55.380 9  21991308.335 6         0.000 6      1976.713 6        37.977 6
G16  20494207.650 9 107697767.788 9       560.565 9        55.978 9  20494206.823 6         0.000 6       436.804 6        37.977 6
G26  20662325.650 9 108581231.826 9     -1494.526 9        55.870 9  20662328.469 6         0.000 6     -1164.566 6        37.977 6
G20  21930718.777 9 115246672.049 9      2523.936 9        55.321 9  21930719.091 6         0.000 6      1966.704 6        37.977 6
> 2019 07 03 12 01 28.0000000  0  8       0.000000000000
G07  25334997.706 9 133136265.545 9      2199.417 9        54.136 9  25334998.369 6         0.000 6      1713.833 6        37.977 6
G10  23790452.590 9 125019617.802 9      3507.943 9        54.676 9  23790456.298 6         0.000 6      2733.465 6        37.977 6
G21  21177827.960 9 111290216.381 9     -1280.903 9        55.706 9  21177827.246 6         0.000 6      -998.107 6        37.977 6
G29  24317107.077 9 127787203.503 9     -3179.420 9        54.469 9  24317108.670 6         0.000 6     -2477.473 6        37.977 6
G27  21990823.749 9 115562531.863 9      2536.109 9        55.380 9  21990825.677 6         0.000 6      1976.190 6        37.977 6
G16  20494101.048 9 107697207.593 9       559.843 9        55.978 9  20494100.221 6         0.000 6       436.242 6        37.977 6
G26  20662609.975 9 108582725.962 9     -1494.084 9        55.870 9  20662612.794 6         0.000 6     -1164.222 6        37.977 6
G20  21930238.358 9 115244147.433 9      2524.870 9        55.321 9  21930238.671 6         0.000 6      1967.432 6        37.977 6
> 2019 07 03 12 01 29.0000000  0  8       0.000000000000
G07  25334579.244 9 133134066.515 9      2198.740 9        54.136 9  25334579.907 6         0.000 6      1713.305 6        37.977 6
G10  23789785.034 9 125016109.781 9      3508.028 9        54.677 9  23789788.741 6         0.000 6      2733.531 6        37.977 6
G21  21178071.747 9 111291497.491 9     -1281.308 9        55.706 9  21178071.034 6         0.000 6      -998.422 6        37.977 6
G29  24317712.109 9 127790382.957 9     -3179.511 9        54.468 9  24317713.702 6         0.000 6     -2477.544 6        37.977 6
G27  21990341.173 9 115559995.914 9      2535.813 9        55.380 9  21990343.101 6         0.000 6      1975.959 6        37.977 6
G16  20493994.574 9 107696648.067 9       559.210 9        55.978 9  20493993.747 6         0.000 6       435.748 6        37.977 6
G26  20662894.329 9 108584220.254 9     -1494.551 9        55.870 9  20662897.149 6         0.000 6     -1164.586 6        37.977 6
G20  21929757.913 9 115241622.684 9      2524.574 9        55.321 9  21929758.226 6         0.000 6      1967.202 6        37.977 6
> 2019 07 03 12 01 30.0000000  0  8       0.000000000000
G07  25334160.883 9 133131868.019 9      2198.268 9        54.136 9  25334161.546 6         0.000 6      1712.937 6        37.977 6
G10  23789117.490 9 125012601.824 9      3507.905 9        54.677 9  23789121.196 6         0.000 6      2733.435 6        37.977 6
G21  21178315.609 9 111292778.993 9     -1281.682 9        55.706 9  21178314.896 6         0.000 6      -998.713 6        37.977 6
G29  24318317.160 9 127793562.509 9     -3179.606 9        54.468 9  24318318.754 6         0.000 6     -2477.618 6        37.977 6
G27  21989858.648 9 115557460.230 9      2535.566 9        55.380 9  21989860.576 6         0.000 6      1975.766 6        37.977 6
G16  20493888.220 9 107696089.173 9       558.589 9        55.978 9  20493887.393 6         0.000 6       435.264 6        37.977 6
G26  20663178.787 9 108585715.090 9     -1495.116 9        55.869 9  20663181.607 6         0.000 6     -1165.026 6        37.977 6
G20  21929277.544 9 115239098.334 9      2524.139 9        55.321 9  21929277.857 6         0.000 6      1966.862 6        37.977 6
> 2019 07 03 12 01 31.0000000  0  8       0.000000000000
G07  25333742.610 9 133129669.984 9      2197.815 9        54.136 9  25333743.273 6         0.000 6      1712.584 6        37.977 6
G10  23788449.971 9 125009093.999 9      3507.762 9        54.677 9  23788453.677 6         0.000 6      2733.323 6        37.977 6
G21  21178559.540 9 111294060.862 9     -1282.057 9        55.706 9  21178558.827 6         0.000 6      -999.006 6        37.977 6
G29  24318922.227 9 127796742.149 9     -3179.699 9        54.468 9  24318923.822 6         0.000 6     -2477.690 6        37.977 6
G27  21989376.170 9 115554924.795 9      2535.318 9        55.380 9  21989378.098 6         0.000 6      1975.573 6        37.977 6
G16  20493781.984 9 107695530.900 9       557.963 9        55.978 9  20493781.157 6         0.000 6       434.776 6        37.977 6
G26  20663463.354 9 108587210.495 9     -1495.697 9        55.869 9  20663466.174 6         0.000 6     -1165.479 6        37.977 6
G20  21928797.259 9 115236574.424 9      2523.687 9        55.322 9  21928797.572 6         0.000 6      1966.510 6        37.977 6
> 2019 07 03 12 01 32.0000000  0  8       0.000000000000
G07  25333324.422 9 133127472.396 9      2197.362 9        54.136 9  25333325.085 6         0.000 6      1712.231 6        37.977 6
G10  23787782.480 9 125005586.321 9      3507.618 9        54.677 9  23787786.185 6         0.000 6      2733.212 6        37.977 6
G21  21178803.542 9 111295343.099 9     -1282.426 9        55.706 9  21178802.829 6         0.000 6      -999.293 6        37.977 6
G29  24319527.312 9 127799921.881 9     -3179.786 9        54.468 9  24319528.907 6         0.000 6     -2477.758 6        37.977 6
G27  21988893.738 9 115552389.600 9      2535.070 9        55.380 9  21988895.665 6         0.000 6      1975.380 6        37.977 6
G16  20493675.866 9 107694973.245 9       557.339 9        55.978 9  20493675.039 6         0.000 6       434.290 6        37.977 6
G26  20663748.030 9 108588706.477 9     -1496.275 9        55.869 9  20663750.850 6         0.000 6     -1165.929 6        37.977 6
G20  21928317.060 9 115234050.965 9      2523.239 9        55.322 9  21928317.373 6         0.000 6      1966.161 6        37.977 6
> 2019 07 03 12 01 33.0000000  0  8       0.000000000000
G07  25332906.321 9 133125275.262 9      2196.911 9        54.136 9  25332906.984 6         0.000 6      1711.880 6        37.977 6
G10  23787115.016 9 125002078.787 9      3507.473 9        54.678 9  23787118.721 6         0.000 6      2733.098 6        37.977 6
G21  21179047.615 9 111296625.710 9     -1282.796 9        55.706 9  21179046.902 6         0.000 6      -999.582 6        37.977 6
G29  24320132.415 9 127803101.706 9     -3179.879 9        54.468 9  24320134.010 6         0.000 6     -2477.830 6        37.977 6
G27  21988411.353 9 115549854.654 9      2534.825 9        55.381 9  21988413.280 6         0.000 6      1975.189 6        37.977 6
G16  20493569.867 9 107694416.217 9       556.717 9        55.978 9  20493569.040 6         0.000 6       433.805 6        37.977 6
G26  20664032.817 9 108590203.040 9     -1496.853 9        55.869 9  20664035.637 6         0.000 6     -1166.380 6        37.977 6
G20  21927836.947 9 115231527.958 9      2522.787 9        55.322 9  21927837.259 6         0.000 6      1965.809 6        37.977 6
> 2019 07 03 12 01 34.0000000  0  8       0.000000000000
G07  25332488.307 9 133123078.586 9      2196.458 9        54.136 9  25332488.969 6         0.000 6      1711.527 6        37.977 6
G10  23786447.579 9 124998571.390 9      3507.329 9        54.678 9  23786451.283 6         0.000 6      2732.986 6        37.977 6
G21  21179291.757 9 111297908.685 9     -1283.165 9        55.706 9  21179291.044 6         0.000 6      -999.869 6        37.977 6
G29  24320737.533 9 127806281.613 9     -3179.966 9        54.467 9  24320739.129 6         0.000 6     -2477.898 6        37.977 6
G27  21987929.016 9 115547319.958 9      2534.577 9        55.381 9  21987930.943 6         0.000 6      1974.995 6        37.977 6
G16  20493463.986 9 107693859.810 9       556.093 9        55.978 9  20493463.159 6         0.000 6       433.319 6        37.977 6
G26  20664317.713 9 108591700.175 9     -1497.431 9        55.869 9  20664320.533 6         0.000 6     -1166.830 6        37.977 6
G20  21927356.918 9 115229005.392 9      2522.339 9        55.322 9  21927357.230 6         0.000 6      1965.460 6        37.977 6
> 2019 07 03 12 01 35.0000000  0  8       0.000000000000
G07  25332070.378 9 133120882.358 9      2196.005 9        54.137 9  25332071.040 6         0.000 6      1711.174 6        37.977 6
G10  23785780.170 9 124995064.144 9      3507.185 9        54.678 9  23785783.873 6         0.000 6      2732.874 6        37.977 6
G21  21179535.970 9 111299192.034 9     -1283.533 9        55.706 9  21179535.258 6         0.000 6     -1000.156 6        37.977 6
G29  24321342.669 9 127809461.613 9     -3180.053 9        54.467 9  24321344.265 6         0.000 6     -2477.966 6        37.977 6
G27  21987446.726 9 115544785.508 9      2534.328 9        55.381 9  21987448.653 6         0.000 6      1974.802 6        37.977 6
G16  20493358.225 9 107693304.029 9       555.469 9        55.978 9  20493357.398 6         0.000 6       432.833 6        37.977 6
G26  20664602.719 9 108593197.894 9     -1498.009 9        55.869 9  20664605.540 6         0.000 6     -1167.280 6        37.977 6
G20  21926876.975 9 115226483.282 9      2521.890 9        55.322 9  21926877.287 6         0.000 6      1965.111 6        37.977 6
> 2019 07 03 12 01 36.0000000  0  8       0.000000000000
G07  25331652.537 9 133118686.592 9      2195.527 9        54.137 9  25331653.199 6         0.000 6      1710.801 6        37.977 6
G10  23785112.787 9 124991557.034 9      3507.060 9        54.678 9  23785116.490 6         0.000 6      2732.777 6        37.977 6
G21  21179780.252 9 111300475.744 9     -1283.883 9        55.706 9  21179779.540 6         0.000 6     -1000.428 6        37.977 6
G29  24321947.818 9 127812641.684 9     -3180.089 9        54.467 9  24321949.415 6         0.000 6     -2477.994 6        37.977 6
G27  21986964.485 9 115542251.318 9      2534.041 9        55.381 9  21986966.412 6         0.000 6      1974.578 6        37.977 6
G16  20493252.582 9 107692748.876 9       554.828 9        55.978 9  20493251.755 6         0.000 6       432.334 6        37.977 6
G26  20664887.836 9 108594696.190 9     -1498.590 9        55.869 9  20664890.656 6         0.000 6     -1167.733 6        37.977 6
G20  21926397.117 9 115223961.611 9      2521.470 9        55.322 9  21926397.428 6         0.000 6      1964.783 6        37.977 6
> 2019 07 03 12 01 37.0000000  0  8       0.000000000000
G07  25331234.926 9 133116492.036 9      2190.257 9        54.137 9  25331235.588 6         0.000 6      1706.695 6        37.977 6
G10  23784445.292 9 124988049.332 9      3511.659 9        54.678 9  23784448.994 6         0.000 6      2736.360 6        37.977 6
G21  21180024.616 9 111301759.884 9     -1284.772 9        55.705 9  21180023.904 6         0.000 6     -1001.121 6        37.977 6
G29  24322552.954 9 127815821.683 9     -3179.517 9        54.467 9  24322554.552 6         0.000 6     -2477.548 6        37.977 6
G27  21986482.346 9 115539717.660 9      2532.236 9        55.381 9  21986484.272 6         0.000 6      1973.172 6        37.977 6
G16  20493147.078 9 107692194.449 9       553.694 9        55.978 9  20493146.251 6         0.000 6       431.450 6        37.977 6
G26  20665173.003 9 108596194.754 9     -1497.063 9        55.869 9  20665175.824 6         0.000 6     -1166.543 6        37.977 6
G20  21925917.241 9 115221439.851 9      2524.386 9        55.323 9  21925917.552 6         0.000 6      1967.055 6        37.977 6
> 2019 07 03 12 01 38.0000000  0  8       0.000000000000
G07  25330819.640 9 133114309.696 9      2174.557 9        54.137 9  25330820.301 6         0.000 6      1694.461 6        37.977 6
G10  23783775.669 9 124984530.450 9      3525.823 9        54.679 9  23783779.370 6         0.000 6      2747.397 6        37.977 6
G21  21180269.156 9 111303044.948 9     -1284.869 9        55.705 9  21180268.443 6         0.000 6     -1001.197 6        37.977 6
G29  24323157.472 9 127818998.440 9     -3172.881 9        54.467 9  24323159.071 6         0.000 6     -2472.378 6        37.977 6
G27  21986001.192 9 115537189.186 9      2523.992 9        55.382 9  21986003.119 6         0.000 6      1966.748 6        37.977 6
G16  20493042.040 9 107691642.467 9       549.894 9        55.978 9  20493041.213 6         0.000 6       428.489 6        37.977 6
G26  20665457.406 9 108597689.296 9     -1492.452 9        55.868 9  20665460.226 6         0.000 6     -1162.950 6        37.977 6
G20  21925435.826 9 115218910.002 9      2535.443 9        55.323 9  21925436.136 6         0.000 6      1975.671 6        37.977 6
> 2019 07 03 12 01 39.0000000  0  8       0.000000000000
G07  25330407.338 9 133112143.040 9      2158.903 9        54.137 9  25330407.999 6         0.000 6      1682.263 6        37.977 6
G10  23783103.471 9 124980998.036 9      3538.630 9        54.679 9  23783107.172 6         0.000 6      2757.377 6        37.977 6
G21  21180513.395 9 111304328.433 9     -1281.375 9        55.705 9  21180512.683 6         0.000 6      -998.474 6        37.977 6
G29  24323759.961 9 127822164.527 9     -3157.625 9        54.466 9  24323761.560 6         0.000 6     -2460.489 6        37.977 6
G27  21985522.115 9 115534671.622 9      2510.061 9        55.382 9  21985524.041 6         0.000 6      1955.892 6        37.977 6
G16  20492937.982 9 107691095.639 9       543.206 9        55.978 9  20492937.155 6         0.000 6       423.278 6        37.977 6
G26  20665741.177 9 108599180.520 9     -1490.601 9        55.868 9  20665743.997 6         0.000 6     -1161.507 6        37.977 6
G20  21924952.167 9 115216368.364 9      2548.061 9        55.323 9  21924952.478 6         0.000 6      1985.503 6        37.977 6
> 2019 07 03 12 01 40.0000000  0  8       0.000000000000
G07  25329996.960 9 133109986.493 9      2155.290 9        54.137 9  25329997.621 6         0.000 6      1679.448 6        37.977 6
G10  23782429.802 9 124977457.895 9      3540.821 9        54.679 9  23782433.502 6         0.000 6      2759.084 6        37.977 6
G21  21180757.052 9 111305608.859 9     -1279.980 9        55.705 9  21180756.340 6         0.000 6      -997.387 6        37.977 6
G29  24324360.165 9 127825318.614 9     -3152.201 9        54.466 9  24324361.765 6         0.000 6     -2456.263 6        37.977 6
G27  21985045.033 9 115532164.541 9      2505.436 9        55.382 9  21985046.959 6         0.000 6      1952.288 6        37.977 6
G16  20492834.924 9 107690554.066 9       540.548 9        55.978 9  20492834.097 6         0.000 6       421.206 6        37.977 6
G26  20666024.904 9 108600671.517 9     -1491.408 9        55.868 9  20666027.725 6         0.000 6     -1162.137 6        37.977 6
G20  21924466.932 9 115213818.443 9      2550.749 9        55.323 9  21924467.243 6         0.000 6      1987.598 6        37.977 6
> 2019 07 03 12 01 41.0000000  0  8       0.000000000000
G07  25329586.910 9 133107831.669 9      2154.485 9        54.137 9  25329587.571 6         0.000 6      1678.820 6        37.977 6
G10  23781755.989 9 124973916.996 9      3540.916 9        54.679 9  23781759.689 6         0.000 6      2759.158 6        37.977 6
G21  21181000.628 9 111306888.857 9     -1280.103 9        55.705 9  21180999.915 6         0.000 6      -997.483 6        37.977 6
G29  24324959.924 9 127828470.354 9     -3151.554 9        54.466 9  24324961.524 6         0.000 6     -2455.759 6        37.977 6
G27  21984568.360 9 115529659.610 9      2504.627 9        55.382 9  21984570.286 6         0.000 6      1951.658 6        37.977 6
G16  20492732.154 9 107690014.005 9       539.669 9        55.978 9  20492731.327 6         0.000 6       420.521 6        37.977 6
G26  20666308.772 9 108602163.251 9     -1492.040 9        55.868 9  20666311.593 6         0.000 6     -1162.629 6        37.977 6
G20  21923981.537 9 115211267.676 9      2550.666 9        55.323 9  21923981.847 6         0.000 6      1987.533 6        37.977 6
> 2019 07 03 12 01 42.0000000  0  8       0.000000000000
G07  25329176.973 9 133105677.438 9      2153.996 9        54.138 9  25329177.633 6         0.000 6      1678.439 6        37.977 6
G10  23781082.186 9 124970376.147 9      3540.795 9        54.680 9  23781085.885 6         0.000 6      2759.064 6        37.977 6
G21  21181244.255 9 111308169.127 9     -1280.446 9        55.705 9  21181243.543 6         0.000 6      -997.750 6        37.977 6
G29  24325559.643 9 127831621.892 9     -3151.568 9        54.466 9  24325561.245 6         0.000 6     -2455.770 6        37.977 6
G27  21984091.776 9 115527155.144 9      2504.331 9        55.382 9  21984093.701 6         0.000 6      1951.427 6        37.977 6
G16  20492629.519 9 107689474.658 9       539.034 9        55.979 9  20492628.692 6         0.000 6       420.027 6        37.977 6
G26  20666592.752 9 108603655.575 9     -1492.610 9        55.868 9  20666595.573 6         0.000 6     -1163.073 6        37.977 6
G20  21923496.200 9 115208717.218 9      2550.249 9        55.324 9  21923496.510 6         0.000 6      1987.208 6        37.977 6
> 2019 07 03 12 01 43.0000000  0  8       0.000000000000
G07  25328767.125 9 133103523.676 9      2153.534 9        54.138 9  25328767.785 6         0.000 6      1678.079 6        37.977 6
G10  23780408.409 9 124966835.433 9      3540.653 9        54.680 9  23780412.107 6         0.000 6      2758.953 6        37.977 6
G21  21181487.951 9 111309449.754 9     -1280.816 9        55.705 9  21181487.238 6         0.000 6      -998.039 6        37.977 6
G29  24326159.374 9 127834773.485 9     -3151.645 9        54.465 9  24326160.976 6         0.000 6     -2455.830 6        37.977 6
G27  21983615.241 9 115524650.942 9      2504.078 9        55.383 9  21983617.167 6         0.000 6      1951.230 6        37.977 6
G16  20492527.003 9 107688935.932 9       538.415 9        55.979 9  20492526.176 6         0.000 6       419.544 6        37.977 6
G26  20666876.840 9 108605148.467 9     -1493.179 9        55.868 9  20666879.662 6         0.000 6     -1163.517 6        37.977 6
G20  21923010.946 9 115206167.197 9      2549.797 9        55.324 9  21923011.256 6         0.000 6      1986.856 6        37.977 6
> 2019 07 03 12 01 44.0000000  0  8       0.000000000000
G07  25328357.365 9 133101370.376 9      2153.073 9        54.138 9  25328358.025 6         0.000 6      1677.720 6        37.977 6
G10  23779734.658 9 124963294.861 9      3540.514 9        54.680 9  23779738.356 6         0.000 6      2758.844 6        37.977 6
G21  21181731.717 9 111310730.751 9     -1281.180 9        55.705 9  21181731.004 6         0.000 6      -998.322 6        37.977 6
G29  24326759.118 9 127837925.155 9     -3151.721 9        54.465 9  24326760.721 6         0.000 6     -2455.889 6        37.977 6
G27  21983138.755 9 115522146.993 9      2503.830 9        55.383 9  21983140.680 6         0.000 6      1951.037 6        37.977 6
G16  20492424.605 9 107688397.825 9       537.804 9        55.979 9  20492423.778 6         0.000 6       419.068 6        37.977 6
G26  20667161.037 9 108606641.928 9     -1493.742 9        55.868 9  20667163.858 6         0.000 6     -1163.956 6        37.977 6
G20  21922525.779 9 115203617.629 9      2549.350 9        55.324 9  21922526.088 6         0.000 6      1986.508 6        37.977 6
> 2019 07 03 12 01 45.0000000  0  8       0.000000000000
G07  25327947.693 9 133099217.538 9      2152.617 9        54.138 9  25327948.353 6         0.000 6      1677.365 6        37.977 6
G10  23779060.935 9 124959754.430 9      3540.367 9        54.680 9  23779064.632 6         0.000 6      2758.730 6        37.977 6
G21  21181975.553 9 111312012.118 9     -1281.548 9        55.705 9  21181974.840 6         0.000 6      -998.609 6        37.977 6
G29  24327358.879 9 127841076.906 9     -3151.802 9        54.465 9  24327360.482 6         0.000 6     -2455.952 6        37.977 6
G27  21982662.316 9 115519643.292 9      2503.584 9        55.383 9  21982664.241 6         0.000 6      1950.846 6        37.977 6
G16  20492322.323 9 107687860.332 9       537.190 9        55.979 9  20492321.496 6         0.000 6       418.590 6        37.977 6
G26  20667445.341 9 108608135.955 9     -1494.310 9        55.868 9  20667448.163 6         0.000 6     -1164.398 6        37.977 6
G20  21922040.697 9 115201068.511 9      2548.895 9        55.324 9  21922041.006 6         0.000 6      1986.153 6        37.977 6
> 2019 07 03 12 01 46.0000000  0  8       0.000000000000
G07  25327538.107 9 133097065.152 9      2152.158 9        54.138 9  25327538.766 6         0.000 6      1677.007 6        37.977 6
G10  23778387.239 9 124956214.146 9      3540.223 9        54.681 9  23778390.935 6         0.000 6      2758.618 6        37.977 6
G21  21182219.458 9 111313293.849 9     -1281.920 9        55.705 9  21182218.746 6         0.000 6      -998.899 6        37.977 6
G29  24327958.654 9 127844228.738 9     -3151.884 9        54.465 9  24327960.258 6         0.000 6     -2456.016 6        37.977 6
G27  21982185.923 9 115517139.833 9      2503.335 9        55.383 9  21982187.848 6         0.000 6      1950.651 6        37.977 6
G16  20492220.158 9 107687323.448 9       536.573 9        55.979 9  20492219.331 6         0.000 6       418.109 6        37.977 6
G26  20667729.753 9 108609630.547 9     -1494.880 9        55.868 9  20667732.574 6         0.000 6     -1164.842 6        37.977 6
G20  21921555.702 9 115198519.848 9      2548.440 9        55.324 9  21921556.010 6         0.000 6      1985.799 6        37.977 6
> 2019 07 03 12 01 47.0000000  0  8       0.000000000000
G07  25327128.608 9 133094913.223 9      2151.702 9        54.138 9  25327129.267 6         0.000 6      1676.652 6        37.977 6
G10  23777713.571 9 124952674.010 9      3540.076 9        54.681 9  23777717.267 6         0.000 6      2758.503 6        37.977 6
G21  21182463.435 9 111314575.955 9     -1282.288 9        55.704 9  21182462.723 6         0.000 6      -999.186 6        37.977 6
G29  24328558.447 9 127847380.658 9     -3151.965 9        54.465 9  24328560.051 6         0.000 6     -2456.079 6        37.977 6
G27  21981709.577 9 115514636.620 9      2503.089 9        55.383 9  21981711.502 6         0.000 6      1950.460 6        37.977 6
G16  20492118.110 9 107686787.181 9       535.959 9        55.979 9  20492117.283 6         0.000 6       417.631 6        37.977 6
G26  20668014.273 9 108611125.710 9     -1495.448 9        55.867 9  20668017.095 6         0.000 6     -1165.285 6        37.977 6
G20  21921070.793 9 115195971.642 9      2547.985 9        55.325 9  21921071.102 6         0.000 6      1985.444 6        37.977 6
> 2019 07 03 12 01 48.0000000  0  8       0.000000000000
G07  25326719.195 9 133092761.748 9      2151.246 9        54.138 9  25326719.854 6         0.000 6      1676.297 6        37.977 6
G10  23777039.932 9 124949134.019 9      3539.929 9        54.681 9  23777043.627 6         0.000 6      2758.389 6        37.977 6
G21  21182707.480 9 111315858.422 9     -1282.656 9        55.704 9  21182706.768 6         0.000 6      -999.472 6        37.977 6
G29  24329158.253 9 127850532.652 9     -3152.046 9        54.464 9  24329159.858 6         0.000 6     -2456.142 6        37.977 6
G27  21981233.278 9 115512133.653 9      2502.843 9        55.384 9  21981235.203 6         0.000 6      1950.268 6        37.977 6
G16  20492016.178 9 107686251.525 9       535.346 9        55.979 9  20492015.351 6         0.000 6       417.152 6        37.977 6
G26  20668298.901 9 108612621.438 9     -1496.016 9        55.867 9  20668301.723 6         0.000 6     -1165.727 6        37.977 6
G20  21920585.971 9 115193423.889 9      2547.531 9        55.325 9  21920586.279 6         0.000 6      1985.090 6        37.977 6
> 2019 07 03 12 01 49.0000000  0  8       0.000000000000
G07  25326309.870 9 133090610.733 9      2150.790 9        54.139 9  25326310.529 6         0.000 6      1675.941 6        37.977 6
G10  23776366.319 9 124945594.174 9      3539.783 9        54.681 9  23776370.014 6         0.000 6      2758.275 6        37.977 6
G21  21182951.597 9 111317141.261 9     -1283.024 9        55.704 9  21182950.885 6         0.000 6      -999.759 6        37.977 6
G29  24329758.075 9 127853684.728 9     -3152.127 9        54.464 9  24329759.681 6         0.000 6     -2456.206 6        37.977 6
G27  21980757.026 9 115509630.936 9      2502.597 9        55.384 9  21980758.951 6         0.000 6      1950.076 6        37.977 6
G16  20491914.363 9 107685716.486 9       534.732 9        55.979 9  20491913.536 6         0.000 6       416.674 6        37.977 6
G26  20668583.638 9 108614117.736 9     -1496.584 9        55.867 9  20668586.459 6         0.000 6     -1166.170 6        37.977 6
G20  21920101.235 9 115190876.590 9      2547.076 9        55.325 9  21920101.543 6         0.000 6      1984.735 6        37.977 6
> 2019 07 03 12 01 50.0000000  0  8       0.000000000000
G07  25325900.631 9 133088460.171 9      2150.350 9        54.139 9  25325901.289 6         0.000 6      1675.599 6        37.977 6
G10  23775692.736 9 124942054.477 9      3539.622 9        54.682 9  23775696.429 6         0.000 6      2758.150 6        37.977 6
G21  21183195.782 9 111318424.464 9     -1283.384 9        55.704 9  21183195.070 6         0.000 6     -1000.040 6        37.977 6
G29  24330357.913 9 127856836.885 9     -3152.206 9        54.464 9  24330359.519 6         0.000 6     -2456.267 6        37.977 6
G27  21980280.821 9 115507128.462 9      2502.357 9        55.384 9  21980282.745 6         0.000 6      1949.889 6        37.977 6
G16  20491812.665 9 107685182.057 9       534.123 9        55.979 9  20491811.838 6         0.000 6       416.200 6        37.977 6
G26  20668868.482 9 108615614.600 9     -1497.155 9        55.867 9  20668871.304 6         0.000 6     -1166.615 6        37.977 6
G20  21919616.586 9 115188329.746 9      2546.613 9        55.325 9  21919616.894 6         0.000 6      1984.375 6        37.977 6
> 2019 07 03 12 01 51.0000000  0  8       0.000000000000
G07  25325491.463 9 133086309.985 9      2149.337 9        54.139 9  25325492.122 6         0.000 6      1674.809 6        37.977 6
G10  23775019.193 9 124938514.999 9      3539.805 9        54.682 9  23775022.886 6         0.000 6      2758.292 6        37.977 6
G21  21183440.041 9 111319708.050 9     -1283.214 9        55.704 9  21183439.329 6         0.000 6      -999.907 6        37.977 6
G29  24330957.777 9 127859989.184 9     -3150.775 9        54.464 9  24330959.385 6         0.000 6     -2455.152 6        37.977 6
G27  21979804.651 9 115504626.177 9      2500.982 9        55.384 9  21979806.575 6         0.000 6      1948.818 6        37.977 6
G16  20491711.079 9 107684648.220 9       532.968 9        55.979 9  20491710.252 6         0.000 6       415.300 6        37.977 6
G26  20669153.438 9 108617112.054 9     -1497.937 9        55.867 9  20669156.260 6         0.000 6     -1167.224 6        37.977 6
G20  21919132.037 9 115185783.424 9      2546.813 9        55.325 9  21919132.344 6         0.000 6      1984.531 6        37.977 6
> 2019 07 03 12 01 52.0000000  0  8       0.000000000000
G07  25325082.827 9 133084162.589 9      2146.724 9        54.139 9  25325083.485 6         0.000 6      1672.773 6        37.977 6
G10  23774345.485 9 124934974.646 9      3539.698 9        54.682 9  23774349.177 6         0.000 6      2758.209 6        37.977 6
G21  21183683.754 9 111320988.773 9     -1278.132 9        55.704 9  21183683.042 6         0.000 6      -995.947 6        37.977 6
G29  24331556.007 9 127863132.893 9     -3136.941 9        54.464 9  24331557.615 6         0.000 6     -2444.372 6        37.977 6
G27  21979329.721 9 115502130.405 9      2491.049 9        55.384 9  21979331.645 6         0.000 6      1941.078 6        37.977 6
G16  20491610.191 9 107684118.051 9       527.542 9        55.979 9  20491609.364 6         0.000 6       411.072 6        37.977 6
G26  20669438.816 9 108618611.720 9     -1501.916 9        55.867 9  20669441.638 6         0.000 6     -1170.324 6        37.977 6
G20  21918646.970 9 115183234.385 9      2550.380 9        55.326 9  21918647.277 6         0.000 6      1987.310 6        37.977 6
> 2019 07 03 12 01 53.0000000  0  8       0.000000000000
G07  25324673.906 9 133082013.698 9      2153.252 9        54.139 9  25324674.564 6         0.000 6      1677.859 6        37.977 6
G10  23773672.533 9 124931438.271 9      3530.952 9        54.682 9  23773676.225 6         0.000 6      2751.393 6        37.977 6
G21  21183926.500 9 111322264.411 9     -1273.009 9        55.704 9  21183925.788 6         0.000 6      -991.955 6        37.977 6
G29  24332151.921 9 127866264.431 9     -3126.698 9        54.463 9  24332153.530 6         0.000 6     -2436.390 6        37.977 6
G27  21978856.288 9 115499642.503 9      2485.623 9        55.384 9  21978858.212 6         0.000 6      1936.849 6        37.977 6
G16  20491510.182 9 107683592.502 9       523.858 9        55.979 9  20491509.355 6         0.000 6       408.201 6        37.977 6
G26  20669725.225 9 108620116.812 9     -1509.162 9        55.867 9  20669728.047 6         0.000 6     -1175.971 6        37.977 6
G20  21918161.806 9 115180684.839 9      2547.148 9        55.326 9  21918162.113 6         0.000 6      1984.792 6        37.977 6
> 2019 07 03 12 01 54.0000000  0  8       0.000000000000
G07  25324263.264 9 133079855.763 9      2160.343 9        54.139 9  25324263.922 6         0.000 6      1683.385 6        37.977 6
G10  23773001.616 9 124927912.590 9      3522.909 9        54.683 9  23773005.307 6         0.000 6      2745.126 6        37.977 6
G21  21184168.497 9 111323536.110 9     -1271.271 9        55.704 9  21184167.785 6         0.000 6      -990.601 6        37.977 6
G29  24332746.617 9 127869389.570 9     -3124.793 9        54.463 9  24332748.226 6         0.000 6     -2434.906 6        37.977 6
G27  21978383.295 9 115497156.907 9      2485.830 9        55.385 9  21978385.218 6         0.000 6      1937.011 6        37.977 6
G16  20491410.602 9 107683069.204 9       523.006 9        55.979 9  20491409.775 6         0.000 6       407.537 6        37.977 6
G26  20670013.013 9 108621629.144 9     -1514.023 9        55.867 9  20670015.835 6         0.000 6     -1179.758 6        37.977 6
G20  21917677.715 9 115178140.929 9      2541.993 9        55.326 9  21917678.022 6         0.000 6      1980.775 6        37.977 6
> 2019 07 03 12 01 55.0000000  0  8       0.000000000000
G07  25323852.062 9 133077694.888 9      2161.017 9        54.139 9  25323852.720 6         0.000 6      1683.910 6        37.977 6
G10  23772331.389 9 124924390.537 9      3521.620 9        54.683 9  23772335.080 6         0.000 6      2744.122 6        37.977 6
G21  21184410.421 9 111324807.427 9     -1271.434 9        55.704 9  21184409.709 6         0.000 6      -990.728 6        37.977 6
G29  24333341.252 9 127872514.386 9     -3124.865 9        54.463 9  24333342.862 6         0.000 6     -2434.962 6        37.977 6
G27  21977910.247 9 115494671.028 9      2485.846 9        55.385 9  21977912.171 6         0.000 6      1937.024 6        37.977 6
G16  20491311.129 9 107682546.467 9       522.448 9        55.979 9  20491310.302 6         0.000 6       407.102 6        37.977 6
G26  20670301.248 9 108623143.826 9     -1515.151 9        55.866 9  20670304.070 6         0.000 6     -1180.637 6        37.977 6
G20  21917194.131 9 115175599.678 9      2540.783 9        55.326 9  21917194.437 6         0.000 6      1979.832 6        37.977 6
> 2019 07 03 12 01 56.0000000  0  8       0.000000000000
G07  25323440.864 9 133075534.032 9      2160.664 9        54.140 9  25323441.522 6         0.000 6      1683.635 6        37.977 6
G10  23771661.275 9 124920869.073 9      3521.366 9        54.683 9  23771664.965 6         0.000 6      2743.924 6        37.977 6
G21  21184652.398 9 111326079.024 9     -1271.772 9        55.704 9  21184651.686 6         0.000 6      -990.991 6        37.977 6
G29  24333935.901 9 127875639.279 9     -3124.948 9        54.463 9  24333937.512 6         0.000 6     -2435.027 6        37.977 6
G27  21977437.226 9 115492185.287 9      2485.632 9        55.385 9  21977439.149 6         0.000 6      1936.857 6        37.977 6
G16  20491211.768 9 107682024.323 9       521.836 9        55.979 9  20491210.941 6         0.000 6       406.626 6        37.977 6
G26  20670589.632 9 108624659.297 9     -1515.777 9        55.866 9  20670592.455 6         0.000 6     -1181.125 6        37.977 6
G20  21916710.688 9 115173059.172 9      2540.261 9        55.326 9  21916710.993 6         0.000 6      1979.425 6        37.977 6
> 2019 07 03 12 01 57.0000000  0  8       0.000000000000
G07  25323029.746 9 133073373.594 9      2160.213 9        54.140 9  25323030.403 6         0.000 6      1683.284 6        37.977 6
G10  23770991.197 9 124917347.800 9      3521.210 9        54.683 9  23770994.886 6         0.000 6      2743.803 6        37.977 6
G21  21184894.442 9 111327350.975 9     -1272.126 9        55.703 9  21184893.730 6         0.000 6      -991.267 6        37.977 6
G29  24334530.567 9 127878764.258 9     -3125.030 9        54.462 9  24334532.178 6         0.000 6     -2435.091 6        37.977 6
G27  21976964.249 9 115489699.778 9      2485.396 9        55.385 9  21976966.172 6         0.000 6      1936.673 6        37.977 6
G16  20491112.525 9 107681502.799 9       521.219 9        55.979 9  20491111.698 6         0.000 6       406.145 6        37.977 6
G26  20670878.131 9 108626175.366 9     -1516.355 9        55.866 9  20670880.954 6         0.000 6     -1181.576 6        37.977 6
G20  21916227.336 9 115170519.147 9      2539.805 9        55.326 9  21916227.642 6         0.000 6      1979.070 6        37.977 6
> 2019 07 03 12 01 58.0000000  0  8       0.000000000000
G07  25322618.715 9 133071213.616 9      2159.747 9        54.140 9  25322619.372 6         0.000 6      1682.920 6        37.977 6
G10  23770321.147 9 124913826.671 9      3521.069 9        54.684 9  23770324.835 6         0.000 6      2743.693 6        37.977 6
G21  21185136.553 9 111328623.279 9     -1272.482 9        55.703 9  21185135.842 6         0.000 6      -991.544 6        37.977 6
G29  24335125.248 9 127881889.320 9     -3125.109 9        54.462 9  24335126.860 6         0.000 6     -2435.153 6        37.977 6
G27  21976491.316 9 115487214.504 9      2485.153 9        55.385 9  21976493.239 6         0.000 6      1936.484 6        37.977 6
G16  20491013.399 9 107680981.889 9       520.600 9        55.979 9  20491012.572 6         0.000 6       405.662 6        37.977 6
G26  20671166.738 9 108627692.006 9     -1516.928 9        55.866 9  20671169.561 6         0.000 6     -1182.022 6        37.977 6
G20  21915744.070 9 115167979.571 9      2539.359 9        55.327 9  21915744.375 6         0.000 6      1978.723 6        37.977 6
> 2019 07 03 12 01 59.0000000  0  8       0.000000000000
G07  25322207.773 9 133069054.105 9      2159.283 9        54.140 9  25322208.430 6         0.000 6      1682.559 6        37.977 6
G10  23769651.123 9 124910305.684 9      3520.926 9        54.684 9  23769654.811 6         0.000 6      2743.581 6        37.977 6
G21  21185378.733 9 111329895.939 9     -1272.839 9        55.703 9  21185378.021 6         0.000 6      -991.823 6        37.977 6
G29  24335719.945 9 127885014.461 9     -3125.193 9        54.462 9  24335721.557 6         0.000 6     -2435.218 6        37.977 6
G27  21976018.430 9 115484729.473 9      2484.914 9        55.386 9  21976020.353 6         0.000 6      1936.298 6        37.977 6
G16  20490914.391 9 107680461.598 9       519.981 9        55.979 9  20490913.564 6         0.000 6       405.180 6        37.977 6
G26  20671455.455 9 108629209.218 9     -1517.501 9        55.866 9  20671458.278 6         0.000 6     -1182.468 6        37.977 6
G20  21915260.889 9 115165440.441 9      2538.911 9        55.327 9  21915261.194 6         0.000 6      1978.373 6        37.977 6
> 2019 07 03 12 02  0.0000000  0  8       0.000000000000
G07  25321796.918 9 133066895.053 9      2158.819 9        54.140 9  25321797.575 6         0.000 6      1682.198 6        37.977 6
G10  23768981.128 9 124906784.845 9      3520.783 9        54.684 9  23768984.815 6         0.000 6      2743.470 6        37.977 6
G21  21185620.981 9 111331168.960 9     -1273.197 9        55.703 9  21185620.269 6         0.000 6      -992.102 6        37.977 6
G29  24336314.658 9 127888139.690 9     -3125.278 9        54.462 9  24336316.271 6         0.000 6     -2435.284 6        37.977 6
G27  21975545.589 9 115482244.679 9      2484.675 9        55.386 9  21975547.512 6         0.000 6      1936.111 6        37.977 6
G16  20490815.501 9 107679941.927 9       519.363 9        55.979 9  20490814.674 6         0.000 6       404.698 6        37.977 6
G26  20671744.281 9 108630727.007 9     -1518.073 9        55.866 9  20671747.104 6         0.000 6     -1182.915 6        37.977 6
G20  21914777.794 9 115162901.764 9      2538.462 9        55.327 9  21914778.099 6         0.000 6      1978.023 6        37.977 6
