     3.00           Observation Data    M (Mixed)           RINEX VERSION / TYPE
SimGEN V6.06.00     Spirent             03-Jul-19 12:00     PGM / RUN BY / DATE 
                                                            MARKER NAME         
1                                                           MARKER NUMBER       
GROUND_CRAFT                                                MARKER TYPE         
jin4hi              Spirent                                 OBSERVER / AGENCY   
rec_num             rec_type            rec_vers            REC # / TYPE / VERS 
1                   ant_type                                ANT # / TYPE        
  1000.000                                                  INTERVAL            
  2019     7     3    12     0    0.0000000     GPS         TIME OF FIRST OBS   
  4162681.2330   664335.8840  4770534.2400                  APPROX POSITION XYZ 
        0.0000        0.0000        0.0000                  ANTENNA: DELTA H/E/N
G    8 C1C L1C D1C S1C C2C L2C D2C S2C                      SYS / # / OBS TYPES 
        0.0000        0.0000        0.0000                  ANTENNA: DELTA X/Y/Z
DBHZ                                                        SIGNAL STRENGTH UNIT
                                                            END OF HEADER       
> 2019 07 03 12 00  0.0000000  0  8       0.000000000000
G07  25371989.167 9 133330656.664 9      2197.540 9        54.123 9  25371989.850 6         0.000 6      1712.369 6        37.977 6
G10  23849393.575 9 125329353.829 9      3555.251 9        54.655 9  23849397.341 6         0.000 6      2770.325 6        37.977 6
G21  21156837.562 9 111179911.156 9     -1236.923 9        55.715 9  21156836.845 6         0.000 6      -963.836 6        37.977 6
G29  24264459.995 9 127510542.112 9     -3127.051 9        54.487 9  24264461.532 6         0.000 6     -2436.663 6        37.977 6
G27  22033078.060 9 115784579.523 9      2517.815 9        55.363 9  22033080.003 6         0.000 6      1961.934 6        37.977 6
G16  20503743.619 9 107747879.641 9       596.306 9        55.974 9  20503742.793 6         0.000 6       464.654 6        37.977 6
G26  20637931.514 9 108453039.930 9     -1437.784 9        55.880 9  20637934.324 6         0.000 6     -1120.351 6        37.977 6
G20  21973062.268 9 115469188.202 9      2600.449 9        55.304 9  21973062.606 6         0.000 6      2026.324 6        37.977 6
> 2019 07 03 12 00  1.0000000  0  8       0.000000000000
G07  25371569.950 9 133328453.671 9      2206.749 9        54.123 9  25371570.634 6         0.000 6      1719.546 6        37.977 6
G10  23848718.087 9 125325804.128 9      3545.548 9        54.655 9  23848721.853 6         0.000 6      2762.767 6        37.977 6
G21  21157072.901 9 111181147.873 9     -1236.021 9        55.715 9  21157072.184 6         0.000 6      -963.133 6        37.977 6
G29  24265055.282 9 127513670.358 9     -3127.609 9        54.487 9  24265056.820 6         0.000 6     -2437.100 6        37.977 6
G27  22032598.564 9 115782059.757 9      2520.114 9        55.363 9  22032600.507 6         0.000 6      1963.726 6        37.977 6
G16  20503630.051 9 107747282.835 9       596.577 9        55.974 9  20503629.224 6         0.000 6       464.865 6        37.977 6
G26  20638205.599 9 108454480.251 9     -1442.656 9        55.880 9  20638208.409 6         0.000 6     -1124.148 6        37.977 6
G20  21972568.232 9 115466592.030 9      2593.369 9        55.304 9  21972568.570 6         0.000 6      2020.808 6        37.977 6
> 2019 07 03 12 00  2.0000000  0  8       0.000000000000
G07  25371149.672 9 133326245.099 9      2211.306 9        54.123 9  25371150.355 6         0.000 6      1723.096 6        37.977 6
G10  23848043.863 9 125322261.065 9      3539.682 9        54.655 9  23848047.627 6         0.000 6      2758.197 6        37.977 6
G21  21157307.903 9 111182382.817 9     -1233.717 9        55.715 9  21157307.187 6         0.000 6      -961.338 6        37.977 6
G29  24265650.005 9 127516795.641 9     -3122.930 9        54.487 9  24265651.544 6         0.000 6     -2433.455 6        37.977 6
G27  22032119.235 9 115779540.873 9      2517.834 9        55.363 9  22032121.178 6         0.000 6      1961.949 6        37.977 6
G16  20503516.704 9 107746687.195 9       594.749 9        55.974 9  20503515.878 6         0.000 6       463.441 6        37.977 6
G26  20638480.501 9 108455924.870 9     -1447.023 9        55.880 9  20638483.311 6         0.000 6     -1127.551 6        37.977 6
G20  21972074.956 9 115463999.850 9      2590.389 9        55.305 9  21972075.293 6         0.000 6      2018.486 6        37.977 6
> 2019 07 03 12 00  3.0000000  0  8       0.000000000000
G07  25370728.571 9 133324032.201 9      2213.752 9        54.123 9  25370729.254 6         0.000 6      1725.002 6        37.977 6
G10  23847370.678 9 125318723.464 9      3536.331 9        54.656 9  23847374.442 6         0.000 6      2755.586 6        37.977 6
G21  21157542.565 9 111183615.972 9     -1232.813 9        55.715 9  21157541.848 6         0.000 6      -960.634 6        37.977 6
G29  24266244.065 9 127519917.436 9     -3120.944 9        54.487 9  24266245.604 6         0.000 6     -2431.907 6        37.977 6
G27  22031640.199 9 115777023.523 9      2516.875 9        55.364 9  22031642.142 6         0.000 6      1961.202 6        37.977 6
G16  20503403.634 9 107746093.007 9       593.658 9        55.974 9  20503402.807 6         0.000 6       462.591 6        37.977 6
G26  20638756.144 9 108457373.386 9     -1449.585 9        55.880 9  20638758.955 6         0.000 6     -1129.547 6        37.977 6
G20  21971582.259 9 115461410.714 9      2588.352 9        55.305 9  21971582.596 6         0.000 6      2016.899 6        37.977 6
> 2019 07 03 12 00  4.0000000  0  8       0.000000000000
G07  25370307.309 9 133321818.454 9      2213.532 9        54.124 9  25370307.991 6         0.000 6      1724.831 6        37.977 6
G10  23846697.814 9 125315187.554 9      3535.736 9        54.656 9  23846701.578 6         0.000 6      2755.122 6        37.977 6
G21  21157777.129 9 111184848.613 9     -1232.525 9        55.715 9  21157776.412 6         0.000 6      -960.409 6        37.977 6
G29  24266837.817 9 127523037.613 9     -3119.488 9        54.487 9  24266839.357 6         0.000 6     -2430.773 6        37.977 6
G27  22031161.369 9 115774507.258 9      2515.653 9        55.364 9  22031163.312 6         0.000 6      1960.250 6        37.977 6
G16  20503290.772 9 107745499.911 9       592.541 9        55.974 9  20503289.945 6         0.000 6       461.721 6        37.977 6
G26  20639032.114 9 108458823.614 9     -1450.753 9        55.880 9  20639034.924 6         0.000 6     -1130.457 6        37.977 6
G20  21971089.755 9 115458822.594 9      2588.037 9        55.305 9  21971090.092 6         0.000 6      2016.654 6        37.977 6
> 2019 07 03 12 00  5.0000000  0  8       0.000000000000
G07  25369886.150 9 133319605.253 9      2212.880 9        54.124 9  25369886.832 6         0.000 6      1724.323 6        37.977 6
G10  23846024.992 9 125311651.861 9      3535.683 9        54.656 9  23846028.755 6         0.000 6      2755.080 6        37.977 6
G21  21158011.672 9 111186081.142 9     -1232.588 9        55.715 9  21158010.955 6         0.000 6      -960.459 6        37.977 6
G29  24267431.355 9 127526156.667 9     -3118.754 9        54.486 9  24267432.896 6         0.000 6     -2430.201 6        37.977 6
G27  22030682.742 9 115771992.059 9      2514.820 9        55.364 9  22030684.685 6         0.000 6      1959.601 6        37.977 6
G16  20503178.104 9 107744907.836 9       591.638 9        55.974 9  20503177.277 6         0.000 6       461.016 6        37.977 6
G26  20639308.256 9 108460274.748 9     -1451.493 9        55.879 9  20639311.067 6         0.000 6     -1131.034 6        37.977 6
G20  21970597.279 9 115456234.623 9      2587.886 9        55.305 9  21970597.616 6         0.000 6      2016.536 6        37.977 6
> 2019 07 03 12 00  6.0000000  0  8       0.000000000000
G07  25369465.115 9 133317392.706 9      2212.212 9        54.124 9  25369465.797 6         0.000 6      1723.803 6        37.977 6
G10  23845352.175 9 125308116.193 9      3535.686 9        54.656 9  23845355.937 6         0.000 6      2755.083 6        37.977 6
G21  21158246.242 9 111187313.817 9     -1232.767 9        55.714 9  21158245.525 6         0.000 6      -960.598 6        37.977 6
G29  24268024.790 9 127529275.178 9     -3118.300 9        54.486 9  24268026.331 6         0.000 6     -2429.847 6        37.977 6
G27  22030204.250 9 115769477.569 9      2514.172 9        55.364 9  22030206.192 6         0.000 6      1959.095 6        37.977 6
G16  20503065.596 9 107744316.606 9       590.826 9        55.974 9  20503064.770 6         0.000 6       460.384 6        37.977 6
G26  20639584.528 9 108461726.566 9     -1452.139 9        55.879 9  20639587.339 6         0.000 6     -1131.537 6        37.977 6
G20  21970104.840 9 115453646.840 9      2587.694 9        55.305 9  21970105.176 6         0.000 6      2016.386 6        37.977 6
> 2019 07 03 12 00  7.0000000  0  8       0.000000000000
G07  25369044.213 9 133315180.853 9      2211.492 9        54.124 9  25369044.895 6         0.000 6      1723.242 6        37.977 6
G10  23844679.352 9 125304580.497 9      3535.733 9        54.657 9  23844683.114 6         0.000 6      2755.120 6        37.977 6
G21  21158480.846 9 111188546.669 9     -1232.926 9        55.714 9  21158480.129 6         0.000 6      -960.722 6        37.977 6
G29  24268618.136 9 127532393.221 9     -3117.781 9        54.486 9  24268619.677 6         0.000 6     -2429.442 6        37.977 6
G27  22029725.885 9 115766963.743 9      2513.469 9        55.364 9  22029727.827 6         0.000 6      1958.548 6        37.977 6
G16  20502953.245 9 107743726.194 9       589.991 9        55.974 9  20502952.418 6         0.000 6       459.734 6        37.977 6
G26  20639860.922 9 108463179.023 9     -1452.779 9        55.879 9  20639863.733 6         0.000 6     -1132.036 6        37.977 6
G20  21969612.433 9 115451059.228 9      2587.550 9        55.306 9  21969612.769 6         0.000 6      2016.274 6        37.977 6
> 2019 07 03 12 00  8.0000000  0  8       0.000000000000
G07  25368623.453 9 133312969.746 9      2210.730 9        54.124 9  25368624.134 6         0.000 6      1722.648 6        37.977 6
G10  23844006.518 9 125301044.737 9      3535.807 9        54.657 9  23844010.278 6         0.000 6      2755.177 6        37.977 6
G21  21158715.477 9 111189779.661 9     -1233.060 9        55.714 9  21158714.760 6         0.000 6      -960.826 6        37.977 6
G29  24269211.372 9 127535510.689 9     -3117.175 9        54.486 9  24269212.914 6         0.000 6     -2428.970 6        37.977 6
G27  22029247.661 9 115764450.664 9      2512.694 9        55.365 9  22029249.603 6         0.000 6      1957.944 6        37.977 6
G16  20502841.056 9 107743136.639 9       589.119 9        55.974 9  20502840.229 6         0.000 6       459.054 6        37.977 6
G26  20640137.438 9 108464632.126 9     -1453.431 9        55.879 9  20640140.249 6         0.000 6     -1132.544 6        37.977 6
G20  21969120.048 9 115448471.734 9      2587.448 9        55.306 9  21969120.384 6         0.000 6      2016.195 6        37.977 6
> 2019 07 03 12 00  9.0000000  0  8       0.000000000000
G07  25368202.832 9 133310759.376 9      2210.036 9        54.124 9  25368203.514 6         0.000 6      1722.107 6        37.977 6
G10  23843333.672 9 125297508.920 9      3535.835 9        54.657 9  23843337.432 6         0.000 6      2755.199 6        37.977 6
G21  21158950.137 9 111191012.806 9     -1233.245 9        55.714 9  21158949.420 6         0.000 6      -960.970 6        37.977 6
G29  24269804.504 9 127538627.607 9     -3116.723 9        54.486 9  24269806.047 6         0.000 6     -2428.618 6        37.977 6
G27  22028769.577 9 115761938.315 9      2512.041 9        55.365 9  22028771.518 6         0.000 6      1957.435 6        37.977 6
G16  20502729.029 9 107742547.934 9       588.305 9        55.974 9  20502728.202 6         0.000 6       458.420 6        37.977 6
G26  20640414.078 9 108466085.874 9     -1454.066 9        55.879 9  20640416.889 6         0.000 6     -1133.039 6        37.977 6
G20  21968627.688 9 115445884.368 9      2587.271 9        55.306 9  21968628.023 6         0.000 6      2016.056 6        37.977 6
> 2019 07 03 12 00 10.0000000  0  8       0.000000000000
G07  25367782.337 9 133308549.659 9      2209.422 9        54.124 9  25367783.018 6         0.000 6      1721.628 6        37.977 6
G10  23842660.826 9 125293973.100 9      3535.813 9        54.657 9  23842664.585 6         0.000 6      2755.182 6        37.977 6
G21  21159184.837 9 111192246.166 9     -1233.489 9        55.714 9  21159184.121 6         0.000 6      -961.161 6        37.977 6
G29  24270397.569 9 127541744.173 9     -3116.458 9        54.485 9  24270399.112 6         0.000 6     -2428.412 6        37.977 6
G27  22028291.601 9 115759426.542 9      2511.534 9        55.365 9  22028293.543 6         0.000 6      1957.040 6        37.977 6
G16  20502617.150 9 107741960.004 9       587.564 9        55.974 9  20502616.323 6         0.000 6       457.842 6        37.977 6
G26  20640690.835 9 108467540.243 9     -1454.676 9        55.879 9  20640693.646 6         0.000 6     -1133.514 6        37.977 6
G20  21968135.370 9 115443297.224 9      2587.008 9        55.306 9  21968135.705 6         0.000 6      2015.851 6        37.977 6
> 2019 07 03 12 00 11.0000000  0  8       0.000000000000
G07  25367361.948 9 133306340.504 9      2208.926 9        54.125 9  25367362.629 6         0.000 6      1721.242 6        37.977 6
G10  23841987.991 9 125290437.343 9      3535.708 9        54.657 9  23841991.750 6         0.000 6      2755.100 6        37.977 6
G21  21159419.592 9 111193479.810 9     -1233.822 9        55.714 9  21159418.876 6         0.000 6      -961.420 6        37.977 6
G29  24270990.602 9 127544860.576 9     -3116.452 9        54.485 9  24270992.146 6         0.000 6     -2428.407 6        37.977 6
G27  22027813.708 9 115756915.198 9      2511.227 9        55.365 9  22027815.649 6         0.000 6      1956.801 6        37.977 6
G16  20502505.405 9 107741372.784 9       586.915 9        55.974 9  20502504.579 6         0.000 6       457.336 6        37.977 6
G26  20640967.709 9 108468995.221 9     -1455.263 9        55.879 9  20640970.520 6         0.000 6     -1133.971 6        37.977 6
G20  21967643.113 9 115440710.402 9      2586.614 9        55.306 9  21967643.448 6         0.000 6      2015.545 6        37.977 6
> 2019 07 03 12 00 12.0000000  0  8       0.000000000000
G07  25366941.634 9 133304131.744 9      2208.624 9        54.125 9  25366942.315 6         0.000 6      1721.007 6        37.977 6
G10  23841315.189 9 125286901.755 9      3535.471 9        54.658 9  23841318.947 6         0.000 6      2754.915 6        37.977 6
G21  21159654.426 9 111194713.869 9     -1234.301 9        55.714 9  21159653.710 6         0.000 6      -961.793 6        37.977 6
G29  24271583.681 9 127547977.218 9     -3116.880 9        54.485 9  24271585.226 6         0.000 6     -2428.740 6        37.977 6
G27  22027335.838 9 115754403.974 9      2511.256 9        55.365 9  22027337.778 6         0.000 6      1956.823 6        37.977 6
G16  20502393.767 9 107740786.122 9       586.425 9        55.974 9  20502392.941 6         0.000 6       456.955 6        37.977 6
G26  20641244.688 9 108470450.755 9     -1455.806 9        55.879 9  20641247.499 6         0.000 6     -1134.395 6        37.977 6
G20  21967150.953 9 115438124.087 9      2586.007 9        55.306 9  21967151.288 6         0.000 6      2015.071 6        37.977 6
> 2019 07 03 12 00 13.0000000  0  8       0.000000000000
G07  25366521.400 9 133301923.401 9      2207.792 9        54.125 9  25366522.080 6         0.000 6      1720.359 6        37.977 6
G10  23840642.410 9 125283366.286 9      3535.753 9        54.658 9  23840646.167 6         0.000 6      2755.135 6        37.977 6
G21  21159889.354 9 111195948.423 9     -1234.824 9        55.714 9  21159888.637 6         0.000 6      -962.200 6        37.977 6
G29  24272176.843 9 127551094.295 9     -3117.214 9        54.485 9  24272178.389 6         0.000 6     -2429.000 6        37.977 6
G27  22026857.965 9 115751892.739 9      2511.098 9        55.365 9  22026859.906 6         0.000 6      1956.700 6        37.977 6
G16  20502282.223 9 107740199.950 9       585.864 9        55.974 9  20502281.396 6         0.000 6       456.517 6        37.977 6
G26  20641521.759 9 108471906.771 9     -1456.133 9        55.879 9  20641524.570 6         0.000 6     -1134.649 6        37.977 6
G20  21966658.893 9 115435538.299 9      2585.777 9        55.307 9  21966659.227 6         0.000 6      2014.893 6        37.977 6
> 2019 07 03 12 00 14.0000000  0  8       0.000000000000
G07  25366100.265 9 133299710.328 9      2219.726 9        54.125 9  25366100.945 6         0.000 6      1729.658 6        37.977 6
G10  23839970.624 9 125279836.039 9      3523.550 9        54.658 9  23839974.381 6         0.000 6      2745.626 6        37.977 6
G21  21160124.264 9 111197182.882 9     -1234.321 9        55.714 9  21160123.547 6         0.000 6      -961.809 6        37.977 6
G29  24272770.179 9 127554212.287 9     -3119.870 9        54.485 9  24272771.725 6         0.000 6     -2431.070 6        37.977 6
G27  22026379.802 9 115749379.977 9      2515.472 9        55.366 9  22026381.742 6         0.000 6      1960.109 6        37.977 6
G16  20502170.669 9 107739613.732 9       587.034 9        55.974 9  20502169.842 6         0.000 6       457.429 6        37.977 6
G26  20641799.349 9 108473365.514 9     -1461.655 9        55.878 9  20641802.160 6         0.000 6     -1138.953 6        37.977 6
G20  21966167.619 9 115432956.639 9      2576.423 9        55.307 9  21966167.953 6         0.000 6      2007.603 6        37.977 6
> 2019 07 03 12 00 15.0000000  0  8       0.000000000000
G07  25365676.526 9 133297483.567 9      2233.670 9        54.125 9  25365677.206 6         0.000 6      1740.523 6        37.977 6
G10  23839301.401 9 125276319.256 9      3510.339 9        54.658 9  23839305.157 6         0.000 6      2735.332 6        37.977 6
G21  21160359.287 9 111198417.935 9     -1236.269 9        55.714 9  21160358.570 6         0.000 6      -963.327 6        37.977 6
G29  24273364.667 9 127557336.329 9     -3129.378 9        54.484 9  24273366.213 6         0.000 6     -2438.479 6        37.977 6
G27  22025900.295 9 115746860.154 9      2524.917 9        55.366 9  22025902.235 6         0.000 6      1967.468 6        37.977 6
G16  20502058.652 9 107739025.079 9       590.647 9        55.975 9  20502057.825 6         0.000 6       460.244 6        37.977 6
G26  20642077.944 9 108474829.539 9     -1465.981 9        55.878 9  20642080.756 6         0.000 6     -1142.324 6        37.977 6
G20  21965678.471 9 115430386.155 9      2564.435 9        55.307 9  21965678.805 6         0.000 6      1998.263 6        37.977 6
> 2019 07 03 12 00 16.0000000  0  8       0.000000000000
G07  25365250.238 9 133295243.412 9      2243.601 9        54.125 9  25365250.918 6         0.000 6      1748.262 6        37.977 6
G10  23838634.480 9 125272814.576 9      3501.710 9        54.659 9  23838638.235 6         0.000 6      2728.608 6        37.977 6
G21  21160594.987 9 111199656.549 9     -1240.334 9        55.713 9  21160594.271 6         0.000 6      -966.494 6        37.977 6
G29  24273961.683 9 127560473.659 9     -3142.603 9        54.484 9  24273963.230 6         0.000 6     -2448.784 6        37.977 6
G27  22025418.533 9 115744328.481 9      2535.917 9        55.366 9  22025420.473 6         0.000 6      1976.040 6        37.977 6
G16  20501945.715 9 107738431.592 9       595.201 9        55.975 9  20501944.888 6         0.000 6       463.793 6        37.977 6
G26  20642357.091 9 108476296.464 9     -1467.293 9        55.878 9  20642359.902 6         0.000 6     -1143.345 6        37.977 6
G20  21965191.666 9 115427827.981 9      2554.499 9        55.307 9  21965191.999 6         0.000 6      1990.520 6        37.977 6
> 2019 07 03 12 00 17.0000000  0  8       0.000000000000
G07  25364823.182 9 133292999.220 9      2244.389 9        54.125 9  25364823.861 6         0.000 6      1748.875 6        37.977 6
G10  23837968.254 9 125269313.544 9      3500.668 9        54.659 9  23837972.009 6         0.000 6      2727.796 6        37.977 6
G21  21160831.141 9 111200897.546 9     -1241.430 9        55.713 9  21160830.425 6         0.000 6      -967.349 6        37.977 6
G29  24274559.996 9 127563617.808 9     -3144.983 9        54.484 9  24274561.544 6         0.000 6     -2450.639 6        37.977 6
G27  22024935.757 9 115741791.481 9      2537.504 9        55.366 9  22024937.697 6         0.000 6      1977.276 6        37.977 6
G16  20501832.403 9 107737836.135 9       595.434 9        55.975 9  20501831.577 6         0.000 6       463.975 6        37.977 6
G26  20642636.346 9 108477763.958 9     -1467.743 9        55.878 9  20642639.158 6         0.000 6     -1143.696 6        37.977 6
G20  21964705.761 9 115425274.542 9      2552.795 9        55.307 9  21964706.095 6         0.000 6      1989.192 6        37.977 6
> 2019 07 03 12 00 18.0000000  0  8       0.000000000000
G07  25364396.110 9 133290754.945 9      2244.118 9        54.126 9  25364396.789 6         0.000 6      1748.665 6        37.977 6
G10  23837302.129 9 125265813.045 9      3500.391 9        54.659 9  23837305.883 6         0.000 6      2727.580 6        37.977 6
G21  21161067.423 9 111202139.213 9     -1241.867 9        55.713 9  21161066.706 6         0.000 6      -967.689 6        37.977 6
G29  24275158.509 9 127566763.004 9     -3145.332 9        54.484 9  24275160.058 6         0.000 6     -2450.910 6        37.977 6
G27  22024452.882 9 115739253.955 9      2537.481 9        55.366 9  22024454.821 6         0.000 6      1977.259 6        37.977 6
G16  20501719.143 9 107737240.948 9       594.910 9        55.975 9  20501718.316 6         0.000 6       463.566 6        37.977 6
G26  20642915.704 9 108479231.994 9     -1468.333 9        55.878 9  20642918.516 6         0.000 6     -1144.156 6        37.977 6
G20  21964220.044 9 115422722.082 9      2552.190 9        55.308 9  21964220.377 6         0.000 6      1988.720 6        37.977 6
> 2019 07 03 12 00 19.0000000  0  8       0.000000000000
G07  25363969.104 9 133288511.022 9      2243.725 9        54.126 9  25363969.783 6         0.000 6      1748.358 6        37.977 6
G10  23836636.046 9 125262312.764 9      3500.203 9        54.659 9  23836639.799 6         0.000 6      2727.433 6        37.977 6
G21  21161303.777 9 111203381.262 9     -1242.231 9        55.713 9  21161303.061 6         0.000 6      -967.972 6        37.977 6
G29  24275757.058 9 127569908.390 9     -3145.449 9        54.483 9  24275758.607 6         0.000 6     -2451.002 6        37.977 6
G27  22023970.034 9 115736716.576 9      2537.275 9        55.367 9  22023971.973 6         0.000 6      1977.098 6        37.977 6
G16  20501605.993 9 107736646.342 9       594.299 9        55.975 9  20501605.167 6         0.000 6       463.090 6        37.977 6
G26  20643195.177 9 108480700.630 9     -1468.939 9        55.878 9  20643197.989 6         0.000 6     -1144.628 6        37.977 6
G20  21963734.425 9 115420170.142 9      2551.710 9        55.308 9  21963734.757 6         0.000 6      1988.347 6        37.977 6
> 2019 07 03 12 00 20.0000000  0  8       0.000000000000
G07  25363542.178 9 133286267.513 9      2243.301 9        54.126 9  25363542.857 6         0.000 6      1748.028 6        37.977 6
G10  23835969.994 9 125258812.652 9      3500.040 9        54.660 9  23835973.747 6         0.000 6      2727.307 6        37.977 6
G21  21161540.200 9 111204623.672 9     -1242.591 9        55.713 9  21161539.484 6         0.000 6      -968.253 6        37.977 6
G29  24276355.627 9 127573053.879 9     -3145.544 9        54.483 9  24276357.176 6         0.000 6     -2451.076 6        37.977 6
G27  22023487.228 9 115734179.416 9      2537.044 9        55.367 9  22023489.167 6         0.000 6      1976.918 6        37.977 6
G16  20501492.961 9 107736052.353 9       593.675 9        55.975 9  20501492.134 6         0.000 6       462.604 6        37.977 6
G26  20643474.763 9 108482169.866 9     -1469.541 9        55.878 9  20643477.575 6         0.000 6     -1145.097 6        37.977 6
G20  21963248.894 9 115417618.664 9      2551.253 9        55.308 9  21963249.226 6         0.000 6      1987.991 6        37.977 6
> 2019 07 03 12 00 21.0000000  0  8       0.000000000000
G07  25363115.334 9 133284024.433 9      2242.868 9        54.126 9  25363116.012 6         0.000 6      1747.690 6        37.977 6
G10  23835303.973 9 125255312.696 9      3499.888 9        54.660 9  23835307.725 6         0.000 6      2727.188 6        37.977 6
G21  21161776.690 9 111205866.438 9     -1242.951 9        55.713 9  21161775.974 6         0.000 6      -968.533 6        37.977 6
G29  24276954.212 9 127576199.457 9     -3145.639 9        54.483 9  24276955.762 6         0.000 6     -2451.150 6        37.977 6
G27  22023004.466 9 115731642.490 9      2536.813 9        55.367 9  22023006.406 6         0.000 6      1976.738 6        37.977 6
G16  20501380.047 9 107735458.987 9       593.053 9        55.975 9  20501379.220 6         0.000 6       462.119 6        37.977 6
G26  20643754.463 9 108483639.698 9     -1470.135 9        55.878 9  20643757.276 6         0.000 6     -1145.560 6        37.977 6
G20  21962763.448 9 115415067.636 9      2550.804 9        55.308 9  21962763.781 6         0.000 6      1987.641 6        37.977 6
> 2019 07 03 12 00 22.0000000  0  8       0.000000000000
G07  25362688.571 9 133281781.787 9      2242.426 9        54.126 9  25362689.250 6         0.000 6      1747.346 6        37.977 6
G10  23834637.981 9 125251812.893 9      3499.744 9        54.660 9  23834641.732 6         0.000 6      2727.076 6        37.977 6
G21  21162013.251 9 111207109.570 9     -1243.310 9        55.713 9  21162012.535 6         0.000 6      -968.813 6        37.977 6
G29  24277552.817 9 127579345.136 9     -3145.729 9        54.483 9  24277554.368 6         0.000 6     -2451.220 6        37.977 6
G27  22022521.749 9 115729105.794 9      2536.578 9        55.367 9  22022523.688 6         0.000 6      1976.555 6        37.977 6
G16  20501267.252 9 107734866.244 9       592.429 9        55.975 9  20501266.425 6         0.000 6       461.633 6        37.977 6
G26  20644034.277 9 108485110.127 9     -1470.726 9        55.877 9  20644037.089 6         0.000 6     -1146.020 6        37.977 6
G20  21962278.089 9 115412517.061 9      2550.362 9        55.308 9  21962278.421 6         0.000 6      1987.296 6        37.977 6
> 2019 07 03 12 00 23.0000000  0  8       0.000000000000
G07  25362261.895 9 133279539.591 9      2241.981 9        54.126 9  25362262.573 6         0.000 6      1746.999 6        37.977 6
G10  23833972.014 9 125248313.226 9      3499.604 9        54.660 9  23833975.765 6         0.000 6      2726.967 6        37.977 6
G21  21162249.879 9 111208353.061 9     -1243.673 9        55.713 9  21162249.163 6         0.000 6      -969.096 6        37.977 6
G29  24278151.438 9 127582490.902 9     -3145.826 9        54.483 9  24278152.990 6         0.000 6     -2451.296 6        37.977 6
G27  22022039.077 9 115726569.338 9      2536.345 9        55.367 9  22022041.016 6         0.000 6      1976.373 6        37.977 6
G16  20501154.576 9 107734274.127 9       591.806 9        55.975 9  20501153.749 6         0.000 6       461.148 6        37.977 6
G26  20644314.203 9 108486581.144 9     -1471.314 9        55.877 9  20644317.015 6         0.000 6     -1146.479 6        37.977 6
G20  21961792.813 9 115409966.921 9      2549.921 9        55.309 9  21961793.144 6         0.000 6      1986.952 6        37.977 6
> 2019 07 03 12 00 24.0000000  0  8       0.000000000000
G07  25361835.304 9 133277297.841 9      2241.529 9        54.126 9  25361835.982 6         0.000 6      1746.647 6        37.977 6
G10  23833306.074 9 125244813.699 9      3499.468 9        54.661 9  23833309.824 6         0.000 6      2726.861 6        37.977 6
G21  21162486.577 9 111209596.914 9     -1244.038 9        55.713 9  21162485.861 6         0.000 6      -969.380 6        37.977 6
G29  24278750.078 9 127585636.764 9     -3145.918 9        54.482 9  24278751.630 6         0.000 6     -2451.367 6        37.977 6
G27  22021556.449 9 115724033.116 9      2536.104 9        55.368 9  22021558.388 6         0.000 6      1976.186 6        37.977 6
G16  20501042.018 9 107733682.633 9       591.178 9        55.975 9  20501041.191 6         0.000 6       460.658 6        37.977 6
G26  20644594.240 9 108488052.749 9     -1471.905 9        55.877 9  20644597.053 6         0.000 6     -1146.939 6        37.977 6
G20  21961307.620 9 115407417.222 9      2549.482 9        55.309 9  21961307.952 6         0.000 6      1986.610 6        37.977 6
> 2019 07 03 12 00 25.0000000  0  8       0.000000000000
G07  25361408.799 9 133275056.546 9      2241.078 9        54.127 9  25361409.476 6         0.000 6      1746.295 6        37.977 6
G10  23832640.160 9 125241314.305 9      3499.334 9        54.661 9  23832643.909 6         0.000 6      2726.757 6        37.977 6
G21  21162723.343 9 111210841.131 9     -1244.396 9        55.713 9  21162722.627 6         0.000 6      -969.660 6        37.977 6
G29  24279348.734 9 127588782.713 9     -3146.010 9        54.482 9  24279350.287 6         0.000 6     -2451.439 6        37.977 6
G27  22021073.868 9 115721497.137 9      2535.869 9        55.368 9  22021075.806 6         0.000 6      1976.003 6        37.977 6
G16  20500929.580 9 107733091.769 9       590.557 9        55.975 9  20500928.754 6         0.000 6       460.174 6        37.977 6
G26  20644874.390 9 108489524.945 9     -1472.489 9        55.877 9  20644877.203 6         0.000 6     -1147.394 6        37.977 6
G20  21960822.511 9 115404867.959 9      2549.047 9        55.309 9  21960822.842 6         0.000 6      1986.272 6        37.977 6
> 2019 07 03 12 00 26.0000000  0  8       0.000000000000
G07  25360982.380 9 133272815.706 9      2240.574 9        54.127 9  25360983.058 6         0.000 6      1745.902 6        37.977 6
G10  23831974.270 9 125237815.042 9      3499.252 9        54.661 9  23831978.019 6         0.000 6      2726.693 6        37.977 6
G21  21162960.179 9 111212085.709 9     -1244.766 9        55.712 9  21162959.463 6         0.000 6      -969.948 6        37.977 6
G29  24279947.409 9 127591928.760 9     -3146.102 9        54.482 9  24279948.962 6         0.000 6     -2451.511 6        37.977 6
G27  22020591.331 9 115718961.391 9      2535.620 9        55.368 9  22020593.269 6         0.000 6      1975.809 6        37.977 6
G16  20500817.261 9 107732501.526 9       589.928 9        55.975 9  20500816.434 6         0.000 6       459.684 6        37.977 6
G26  20645154.650 9 108490997.722 9     -1473.051 9        55.877 9  20645157.463 6         0.000 6     -1147.832 6        37.977 6
G20  21960337.484 9 115402319.130 9      2548.646 9        55.309 9  21960337.815 6         0.000 6      1985.959 6        37.977 6
> 2019 07 03 12 00 27.0000000  0  8       0.000000000000
G07  25360556.074 9 133270575.456 9      2239.977 9        54.127 9  25360556.751 6         0.000 6      1745.437 6        37.977 6
G10  23831308.379 9 125234315.775 9      3499.261 9        54.661 9  23831312.127 6         0.000 6      2726.700 6        37.977 6
G21  21163197.087 9 111213330.670 9     -1245.150 9        55.712 9  21163196.371 6         0.000 6      -970.247 6        37.977 6
G29  24280546.100 9 127595074.893 9     -3146.190 9        54.482 9  24280547.654 6         0.000 6     -2451.579 6        37.977 6
G27  22020108.846 9 115716425.919 9      2535.344 9        55.368 9  22020110.784 6         0.000 6      1975.594 6        37.977 6
G16  20500705.063 9 107731911.921 9       589.290 9        55.975 9  20500704.236 6         0.000 6       459.187 6        37.977 6
G26  20645435.011 9 108492471.024 9     -1473.573 9        55.877 9  20645437.824 6         0.000 6     -1148.239 6        37.977 6
G20  21959852.522 9 115399770.643 9      2548.308 9        55.309 9  21959852.853 6         0.000 6      1985.696 6        37.977 6
> 2019 07 03 12 00 28.0000000  0  8       0.000000000000
G07  25360129.739 9 133268335.051 9      2241.953 9        54.127 9  25360130.416 6         0.000 6      1746.977 6        37.977 6
G10  23830642.579 9 125230816.980 9      3497.801 9        54.662 9  23830646.326 6         0.000 6      2725.562 6        37.977 6
G21  21163434.188 9 111214576.642 9     -1248.175 9        55.712 9  21163433.472 6         0.000 6      -972.604 6        37.977 6
G29  24281145.159 9 127598222.958 9     -3153.791 9        54.482 9  24281146.713 6         0.000 6     -2457.502 6        37.977 6
G27  22019626.144 9 115713889.309 9      2540.706 9        55.368 9  22019628.083 6         0.000 6      1979.772 6        37.977 6
G16  20500592.857 9 107731322.277 9       591.364 9        55.975 9  20500592.030 6         0.000 6       460.803 6        37.977 6
G26  20645715.427 9 108493944.619 9     -1472.941 9        55.877 9  20645718.240 6         0.000 6     -1147.747 6        37.977 6
G20  21959367.786 9 115397223.344 9      2544.834 9        55.310 9  21959368.117 6         0.000 6      1982.988 6        37.977 6
> 2019 07 03 12 00 29.0000000  0  8       0.000000000000
G07  25359703.140 9 133266093.267 9      2240.265 9        54.127 9  25359703.817 6         0.000 6      1745.662 6        37.977 6
G10  23829976.804 9 125227318.319 9      3500.787 9        54.662 9  23829980.550 6         0.000 6      2727.889 6        37.977 6
G21  21163672.261 9 111215827.726 9     -1253.869 9        55.712 9  21163671.546 6         0.000 6      -977.041 6        37.977 6
G29  24281746.598 9 127601383.531 9     -3166.554 9        54.481 9  24281748.153 6         0.000 6     -2467.447 6        37.977 6
G27  22019141.825 9 115711344.194 9      2548.666 9        55.369 9  22019143.763 6         0.000 6      1985.975 6        37.977 6
G16  20500479.953 9 107730728.960 9       594.902 9        55.975 9  20500479.126 6         0.000 6       463.560 6        37.977 6
G26  20645995.378 9 108495415.773 9     -1468.987 9        55.877 9  20645998.192 6         0.000 6     -1144.665 6        37.977 6
G20  21958883.808 9 115394680.023 9      2542.896 9        55.310 9  21958884.138 6         0.000 6      1981.478 6        37.977 6
> 2019 07 03 12 00 30.0000000  0  8       0.000000000000
G07  25359277.791 9 133263858.046 9      2229.372 9        54.127 9  25359278.468 6         0.000 6      1737.174 6        37.977 6
G10  23829309.590 9 125223812.100 9      3512.243 9        54.662 9  23829313.337 6         0.000 6      2736.815 6        37.977 6
G21  21163911.387 9 111217084.341 9     -1258.845 9        55.712 9  21163910.672 6         0.000 6      -980.918 6        37.977 6
G29  24282350.036 9 127604554.609 9     -3174.009 9        54.481 9  24282351.591 6         0.000 6     -2473.256 6        37.977 6
G27  22018656.493 9 115708793.760 9      2550.929 9        55.369 9  22018658.430 6         0.000 6      1987.738 6        37.977 6
G16  20500366.584 9 107730133.201 9       596.006 9        55.975 9  20500365.757 6         0.000 6       464.420 6        37.977 6
G26  20646274.276 9 108496881.388 9     -1462.383 9        55.877 9  20646277.089 6         0.000 6     -1139.520 6        37.977 6
G20  21958399.486 9 115392134.901 9      2548.199 9        55.310 9  21958399.816 6         0.000 6      1985.611 6        37.977 6
> 2019 07 03 12 00 31.0000000  0  8       0.000000000000
G07  25358854.023 9 133261631.130 9      2225.455 9        54.127 9  25358854.699 6         0.000 6      1734.122 6        37.977 6
G10  23828640.813 9 125220297.661 9      3515.640 9        54.662 9  23828644.558 6         0.000 6      2739.462 6        37.977 6
G21  21164151.059 9 111218343.822 9     -1259.888 9        55.712 9  21164150.343 6         0.000 6      -981.731 6        37.977 6
G29  24282954.086 9 127607728.906 9     -3174.422 9        54.481 9  24282955.643 6         0.000 6     -2473.578 6        37.977 6
G27  22018171.157 9 115706243.306 9      2550.093 9        55.369 9  22018173.095 6         0.000 6      1987.086 6        37.977 6
G16  20500253.241 9 107729537.583 9       595.245 9        55.975 9  20500252.414 6         0.000 6       463.827 6        37.977 6
G26  20646552.401 9 108498342.942 9     -1461.242 9        55.876 9  20646555.214 6         0.000 6     -1138.631 6        37.977 6
G20  21957914.343 9 115389585.461 9      2550.055 9        55.310 9  21957914.672 6         0.000 6      1987.057 6        37.977 6
> 2019 07 03 12 00 32.0000000  0  8       0.000000000000
G07  25358430.633 9 133259406.206 9      2224.564 9        54.128 9  25358431.309 6         0.000 6      1733.428 6        37.977 6
G10  23827971.764 9 125216781.795 9      3515.950 9        54.663 9  23827975.508 6         0.000 6      2739.704 6        37.977 6
G21  21164390.852 9 111219603.942 9     -1260.330 9        55.712 9  21164390.136 6         0.000 6      -982.076 6        37.977 6
G29  24283558.168 9 127610903.365 9     -3174.519 9        54.481 9  24283559.725 6         0.000 6     -2473.654 6        37.977 6
G27  22017685.927 9 115703693.406 9      2549.752 9        55.369 9  22017687.864 6         0.000 6      1986.820 6        37.977 6
G16  20500140.033 9 107728942.668 9       594.597 9        55.975 9  20500139.206 6         0.000 6       463.322 6        37.977 6
G26  20646830.494 9 108499804.329 9     -1461.611 9        55.876 9  20646833.307 6         0.000 6     -1138.918 6        37.977 6
G20  21957429.086 9 115387035.425 9      2549.914 9        55.310 9  21957429.415 6         0.000 6      1986.947 6        37.977 6
> 2019 07 03 12 00 33.0000000  0  8       0.000000000000
G07  25358007.360 9 133257181.894 9      2224.078 9        54.128 9  25358008.036 6         0.000 6      1733.049 6        37.977 6
G10  23827302.709 9 125213265.898 9      3515.852 9        54.663 9  23827306.453 6         0.000 6      2739.627 6        37.977 6
G21  21164630.721 9 111220864.465 9     -1260.712 9        55.712 9  21164630.006 6         0.000 6      -982.373 6        37.977 6
G29  24284162.269 9 127614077.927 9     -3174.618 9        54.480 9  24284163.826 6         0.000 6     -2473.731 6        37.977 6
G27  22017200.748 9 115701143.780 9      2549.503 9        55.369 9  22017202.686 6         0.000 6      1986.627 6        37.977 6
G16  20500026.943 9 107728348.380 9       593.976 9        55.975 9  20500026.117 6         0.000 6       462.838 6        37.977 6
G26  20647108.682 9 108501266.213 9     -1462.171 9        55.876 9  20647111.495 6         0.000 6     -1139.354 6        37.977 6
G20  21956943.893 9 115384485.721 9      2549.494 9        55.310 9  21956944.222 6         0.000 6      1986.620 6        37.977 6
> 2019 07 03 12 00 34.0000000  0  8       0.000000000000
G07  25357584.175 9 133254958.048 9      2223.626 9        54.128 9  25357584.851 6         0.000 6      1732.697 6        37.977 6
G10  23826633.677 9 125209750.121 9      3515.718 9        54.663 9  23826637.420 6         0.000 6      2739.523 6        37.977 6
G21  21164870.663 9 111222125.366 9     -1261.088 9        55.712 9  21164869.948 6         0.000 6      -982.666 6        37.977 6
G29  24284766.388 9 127617252.586 9     -3174.713 9        54.480 9  24284767.946 6         0.000 6     -2473.805 6        37.977 6
G27  22016715.617 9 115698594.400 9      2549.260 9        55.369 9  22016717.554 6         0.000 6      1986.437 6        37.977 6
G16  20499913.973 9 107727754.715 9       593.355 9        55.975 9  20499913.146 6         0.000 6       462.355 6        37.977 6
G26  20647386.978 9 108502728.670 9     -1462.749 9        55.876 9  20647389.792 6         0.000 6     -1139.804 6        37.977 6
G20  21956458.782 9 115381936.452 9      2549.052 9        55.311 9  21956459.111 6         0.000 6      1986.276 6        37.977 6
> 2019 07 03 12 00 35.0000000  0  8       0.000000000000
G07  25357161.076 9 133252734.649 9      2223.180 9        54.128 9  25357161.751 6         0.000 6      1732.349 6        37.977 6
G10  23825964.671 9 125206234.483 9      3515.579 9        54.663 9  23825968.414 6         0.000 6      2739.415 6        37.977 6
G21  21165110.675 9 111223386.639 9     -1261.462 9        55.712 9  21165109.960 6         0.000 6      -982.957 6        37.977 6
G29  24285370.524 9 127620427.333 9     -3174.807 9        54.480 9  24285372.083 6         0.000 6     -2473.878 6        37.977 6
G27  22016230.532 9 115696045.266 9      2549.017 9        55.370 9  22016232.469 6         0.000 6      1986.248 6        37.977 6
G16  20499801.120 9 107727161.670 9       592.735 9        55.975 9  20499800.293 6         0.000 6       461.871 6        37.977 6
G26  20647665.385 9 108504191.707 9     -1463.329 9        55.876 9  20647668.199 6         0.000 6     -1140.257 6        37.977 6
G20  21955973.756 9 115379387.626 9      2548.606 9        55.311 9  21955974.084 6         0.000 6      1985.928 6        37.977 6
> 2019 07 03 12 00 36.0000000  0  8       0.000000000000
G07  25356738.061 9 133250511.693 9      2222.732 9        54.128 9  25356738.736 6         0.000 6      1732.000 6        37.977 6
G10  23825295.692 9 125202718.985 9      3515.441 9        54.664 9  23825299.434 6         0.000 6      2739.308 6        37.977 6
G21  21165350.758 9 111224648.282 9     -1261.833 9        55.712 9  21165350.043 6         0.000 6      -983.247 6        37.977 6
G29  24285974.678 9 127623602.173 9     -3174.896 9        54.480 9  24285976.238 6         0.000 6     -2473.947 6        37.977 6
G27  22015745.493 9 115693496.371 9      2548.771 9        55.370 9  22015747.430 6         0.000 6      1986.056 6        37.977 6
G16  20499688.385 9 107726569.242 9       592.113 9        55.976 9  20499687.558 6         0.000 6       461.387 6        37.977 6
G26  20647943.902 9 108505655.322 9     -1463.909 9        55.876 9  20647946.716 6         0.000 6     -1140.709 6        37.977 6
G20  21955488.814 9 115376839.245 9      2548.163 9        55.311 9  21955489.142 6         0.000 6      1985.583 6        37.977 6
> 2019 07 03 12 00 37.0000000  0  8       0.000000000000
G07  25356315.132 9 133248289.190 9      2222.286 9        54.128 9  25356315.807 6         0.000 6      1731.652 6        37.977 6
G10  23824626.738 9 125199203.621 9      3515.301 9        54.664 9  23824630.480 6         0.000 6      2739.199 6        37.977 6
G21  21165590.912 9 111225910.300 9     -1262.207 9        55.711 9  21165590.197 6         0.000 6      -983.538 6        37.977 6
G29  24286578.850 9 127626777.108 9     -3174.989 9        54.480 9  24286580.410 6         0.000 6     -2474.020 6        37.977 6
G27  22015260.501 9 115690947.720 9      2548.529 9        55.370 9  22015262.437 6         0.000 6      1985.867 6        37.977 6
G16  20499575.767 9 107725977.435 9       591.493 9        55.976 9  20499574.941 6         0.000 6       460.904 6        37.977 6
G26  20648222.529 9 108507119.515 9     -1464.489 9        55.876 9  20648225.343 6         0.000 6     -1141.161 6        37.977 6
G20  21955003.957 9 115374291.307 9      2547.717 9        55.311 9  21955004.285 6         0.000 6      1985.235 6        37.977 6
> 2019 07 03 12 00 38.0000000  0  8       0.000000000000
G07  25355892.288 9 133246067.135 9      2221.837 9        54.128 9  25355892.963 6         0.000 6      1731.302 6        37.977 6
G10  23823957.811 9 125195688.397 9      3515.164 9        54.664 9  23823961.552 6         0.000 6      2739.091 6        37.977 6
G21  21165831.137 9 111227172.690 9     -1262.579 9        55.711 9  21165830.422 6         0.000 6      -983.828 6        37.977 6
G29  24287183.038 9 127629952.126 9     -3175.078 9        54.479 9  24287184.599 6         0.000 6     -2474.089 6        37.977 6
G27  22014775.556 9 115688399.321 9      2548.283 9        55.370 9  22014777.492 6         0.000 6      1985.675 6        37.977 6
G16  20499463.269 9 107725386.254 9       590.872 9        55.976 9  20499462.443 6         0.000 6       460.420 6        37.977 6
G26  20648501.267 9 108508584.292 9     -1465.069 9        55.876 9  20648504.081 6         0.000 6     -1141.613 6        37.977 6
G20  21954519.184 9 115371743.812 9      2547.274 9        55.311 9  21954519.511 6         0.000 6      1984.890 6        37.977 6
> 2019 07 03 12 00 39.0000000  0  8       0.000000000000
G07  25355469.529 9 133243845.526 9      2221.388 9        54.129 9  25355470.204 6         0.000 6      1730.953 6        37.977 6
G10  23823288.911 9 125192173.313 9      3515.026 9        54.664 9  23823292.651 6         0.000 6      2738.984 6        37.977 6
G21  21166071.434 9 111228435.454 9     -1262.950 9        55.711 9  21166070.718 6         0.000 6      -984.117 6        37.977 6
G29  24287787.244 9 127633127.238 9     -3175.167 9        54.479 9  24287788.805 6         0.000 6     -2474.158 6        37.977 6
G27  22014290.657 9 115685851.165 9      2548.036 9        55.370 9  22014292.593 6         0.000 6      1985.483 6        37.977 6
G16  20499350.889 9 107724795.693 9       590.250 9        55.976 9  20499350.063 6         0.000 6       459.935 6        37.977 6
G26  20648780.116 9 108510049.650 9     -1465.649 9        55.875 9  20648782.930 6         0.000 6     -1142.065 6        37.977 6
G20  21954034.496 9 115369196.764 9      2546.831 9        55.312 9  21954034.823 6         0.000 6      1984.545 6        37.977 6
> 2019 07 03 12 00 40.0000000  0  8       0.000000000000
G07  25355046.839 9 133241624.279 9      2219.853 9        54.129 9  25355047.513 6         0.000 6      1729.757 6        37.977 6
G10  23822620.053 9 125188658.453 9      3515.967 9        54.665 9  23822623.793 6         0.000 6      2739.717 6        37.977 6
G21  21166311.797 9 111229698.572 9     -1263.454 9        55.711 9  21166311.082 6         0.000 6      -984.510 6        37.977 6
G29  24288391.465 9 127636302.434 9     -3175.165 9        54.479 9  24288393.027 6         0.000 6     -2474.157 6        37.977 6
G27  22013805.802 9 115683303.236 9      2547.479 9        55.371 9  22013807.738 6         0.000 6      1985.049 6        37.977 6
G16  20499238.626 9 107724205.747 9       589.524 9        55.976 9  20499237.800 6         0.000 6       459.370 6        37.977 6
G26  20649059.082 9 108511515.627 9     -1465.746 9        55.875 9  20649061.897 6         0.000 6     -1142.140 6        37.977 6
G20  21953549.903 9 115366650.216 9      2547.143 9        55.312 9  21953550.230 6         0.000 6      1984.788 6        37.977 6
> 2019 07 03 12 00 41.0000000  0  8       0.000000000000
G07  25354625.832 9 133239411.878 9      2204.538 9        54.129 9  25354626.507 6         0.000 6      1717.823 6        37.977 6
G10  23821949.667 9 125185135.560 9      3530.077 9        54.665 9  23821953.406 6         0.000 6      2750.712 6        37.977 6
G21  21166552.345 9 111230962.657 9     -1264.262 9        55.711 9  21166551.629 6         0.000 6      -985.140 6        37.977 6
G29  24288995.364 9 127639475.933 9     -3170.589 9        54.479 9  24288996.927 6         0.000 6     -2470.591 6        37.977 6
G27  22013321.593 9 115680758.703 9      2540.656 9        55.371 9  22013323.529 6         0.000 6      1979.732 6        37.977 6
G16  20499126.708 9 107723617.612 9       586.302 9        55.976 9  20499125.881 6         0.000 6       456.858 6        37.977 6
G26  20649337.517 9 108512978.809 9     -1460.810 9        55.875 9  20649340.331 6         0.000 6     -1138.294 6        37.977 6
G20  21953064.248 9 115364098.084 9      2557.654 9        55.312 9  21953064.574 6         0.000 6      1992.978 6        37.977 6
> 2019 07 03 12 00 42.0000000  0  8       0.000000000000
G07  25354207.796 9 133237215.085 9      2188.689 9        54.129 9  25354208.470 6         0.000 6      1705.473 6        37.977 6
G10  23821276.644 9 125181598.809 9      3543.524 9        54.665 9  23821280.382 6         0.000 6      2761.190 6        37.977 6
G21  21166792.770 9 111232226.101 9     -1261.891 9        55.711 9  21166792.055 6         0.000 6      -983.292 6        37.977 6
G29  24289597.693 9 127642641.183 9     -3157.985 9        54.479 9  24289599.256 6         0.000 6     -2460.770 6        37.977 6
G27  22012839.162 9 115678223.514 9      2528.343 9        55.371 9  22012841.098 6         0.000 6      1970.138 6        37.977 6
G16  20499015.640 9 107723033.948 9       580.350 9        55.976 9  20499014.813 6         0.000 6       452.221 6        37.977 6
G26  20649615.204 9 108514438.063 9     -1458.140 9        55.875 9  20649618.019 6         0.000 6     -1136.213 6        37.977 6
G20  21952576.425 9 115361534.563 9      2570.004 9        55.312 9  21952576.751 6         0.000 6      2002.601 6        37.977 6
> 2019 07 03 12 00 43.0000000  0  8       0.000000000000
G07  25353792.255 9 133235031.405 9      2181.501 9        54.129 9  25353792.928 6         0.000 6      1699.871 6        37.977 6
G10  23820601.622 9 125178051.557 9      3548.669 9        54.665 9  23820605.360 6         0.000 6      2765.199 6        37.977 6
G21  21167032.560 9 111233486.207 9     -1259.256 9        55.711 9  21167031.845 6         0.000 6      -981.239 6        37.977 6
G29  24290197.373 9 127645792.513 9     -3148.081 9        54.478 9  24290198.937 6         0.000 6     -2453.053 6        37.977 6
G27  22012359.119 9 115675700.876 9      2519.856 9        55.371 9  22012361.055 6         0.000 6      1963.525 6        37.977 6
G16  20498905.752 9 107722456.481 9       575.916 9        55.976 9  20498904.925 6         0.000 6       448.766 6        37.977 6
G26  20649892.705 9 108515896.340 9     -1458.682 9        55.875 9  20649895.520 6         0.000 6     -1136.635 6        37.977 6
G20  21952086.560 9 115358960.308 9      2575.974 9        55.312 9  21952086.886 6         0.000 6      2007.254 6        37.977 6
> 2019 07 03 12 00 44.0000000  0  8       0.000000000000
G07  25353377.255 9 133232850.570 9      2180.407 9        54.129 9  25353377.929 6         0.000 6      1699.020 6        37.977 6
G10  23819926.288 9 125174502.665 9      3548.974 9        54.666 9  23819930.025 6         0.000 6      2765.437 6        37.977 6
G21  21167272.168 9 111234745.352 9     -1259.184 9        55.711 9  21167271.453 6         0.000 6      -981.182 6        37.977 6
G29  24290796.269 9 127648939.723 9     -3146.822 9        54.478 9  24290797.834 6         0.000 6     -2452.072 6        37.977 6
G27  22011879.764 9 115673181.851 9      2518.565 9        55.371 9  22011881.700 6         0.000 6      1962.519 6        37.977 6
G16  20498796.281 9 107721881.207 9       574.808 9        55.976 9  20498795.454 6         0.000 6       447.902 6        37.977 6
G26  20650170.353 9 108517355.386 9     -1459.373 9        55.875 9  20650173.168 6         0.000 6     -1137.174 6        37.977 6
G20  21951596.323 9 115356384.102 9      2576.208 9        55.313 9  21951596.649 6         0.000 6      2007.436 6        37.977 6
> 2019 07 03 12 00 45.0000000  0  8       0.000000000000
G07  25352962.387 9 133230670.427 9      2179.898 9        54.129 9  25352963.060 6         0.000 6      1698.623 6        37.977 6
G10  23819250.950 9 125170953.749 9      3548.873 9        54.666 9  23819254.686 6         0.000 6      2765.358 6        37.977 6
G21  21167511.812 9 111236004.688 9     -1259.512 9        55.711 9  21167511.097 6         0.000 6      -981.438 6        37.977 6
G29  24291395.080 9 127652086.487 9     -3146.776 9        54.478 9  24291396.646 6         0.000 6     -2452.036 6        37.977 6
G27  22011400.533 9 115670663.475 9      2518.222 9        55.372 9  22011402.468 6         0.000 6      1962.251 6        37.977 6
G16  20498686.963 9 107721306.734 9       574.149 9        55.976 9  20498686.136 6         0.000 6       447.389 6        37.977 6
G26  20650448.118 9 108518815.050 9     -1459.957 9        55.875 9  20650450.933 6         0.000 6     -1137.629 6        37.977 6
G20  21951106.122 9 115353808.081 9      2575.822 9        55.313 9  21951106.447 6         0.000 6      2007.135 6        37.977 6
> 2019 07 03 12 00 46.0000000  0  8       0.000000000000
G07  25352547.610 9 133228490.763 9      2179.445 9        54.130 9  25352548.283 6         0.000 6      1698.269 6        37.977 6
G10  23818575.635 9 125167404.953 9      3548.733 9        54.666 9  23818579.370 6         0.000 6      2765.249 6        37.977 6
G21  21167751.523 9 111237264.380 9     -1259.881 9        55.711 9  21167750.808 6         0.000 6      -981.726 6        37.977 6
G29  24291993.898 9 127655233.284 9     -3146.848 9        54.478 9  24291995.464 6         0.000 6     -2452.092 6        37.977 6
G27  22010921.356 9 115668145.386 9      2517.969 9        55.372 9  22010923.291 6         0.000 6      1962.054 6        37.977 6
G16  20498577.764 9 107720732.893 9       573.532 9        55.976 9  20498576.937 6         0.000 6       446.908 6        37.977 6
G26  20650725.993 9 108520275.290 9     -1460.531 9        55.875 9  20650728.808 6         0.000 6     -1138.076 6        37.977 6
G20  21950616.001 9 115351232.481 9      2575.375 9        55.313 9  21950616.326 6         0.000 6      2006.787 6        37.977 6
> 2019 07 03 12 00 47.0000000  0  8       0.000000000000
G07  25352132.919 9 133226311.548 9      2178.990 9        54.130 9  25352133.591 6         0.000 6      1697.915 6        37.977 6
G10  23817900.346 9 125163856.301 9      3548.595 9        54.666 9  23817904.081 6         0.000 6      2765.141 6        37.977 6
G21  21167991.306 9 111238524.446 9     -1260.251 9        55.710 9  21167990.591 6         0.000 6      -982.014 6        37.977 6
G29  24292592.731 9 127658380.163 9     -3146.925 9        54.477 9  24292594.297 6         0.000 6     -2452.152 6        37.977 6
G27  22010442.225 9 115665627.541 9      2517.721 9        55.372 9  22010444.160 6         0.000 6      1961.861 6        37.977 6
G16  20498468.683 9 107720159.667 9       572.919 9        55.976 9  20498467.856 6         0.000 6       446.430 6        37.977 6
G26  20651003.977 9 108521736.104 9     -1461.101 9        55.875 9  20651006.792 6         0.000 6     -1138.520 6        37.977 6
G20  21950125.966 9 115348657.335 9      2574.929 9        55.313 9  21950126.291 6         0.000 6      2006.440 6        37.977 6
> 2019 07 03 12 00 48.0000000  0  8       0.000000000000
G07  25351718.313 9 133224132.787 9      2178.539 9        54.130 9  25351718.986 6         0.000 6      1697.564 6        37.977 6
G10  23817225.085 9 125160307.787 9      3548.454 9        54.667 9  23817228.819 6         0.000 6      2765.032 6        37.977 6
G21  21168231.159 9 111239784.882 9     -1260.622 9        55.710 9  21168230.444 6         0.000 6      -982.303 6        37.977 6
G29  24293191.579 9 127661527.119 9     -3147.008 9        54.477 9  24293193.146 6         0.000 6     -2452.217 6        37.977 6
G27  22009963.142 9 115663109.945 9      2517.477 9        55.372 9  22009965.077 6         0.000 6      1961.671 6        37.977 6
G16  20498359.718 9 107719587.054 9       572.308 9        55.976 9  20498358.891 6         0.000 6       445.954 6        37.977 6
G26  20651282.069 9 108523197.488 9     -1461.671 9        55.874 9  20651284.884 6         0.000 6     -1138.965 6        37.977 6
G20  21949636.016 9 115346082.635 9      2574.480 9        55.313 9  21949636.340 6         0.000 6      2006.090 6        37.977 6
> 2019 07 03 12 00 49.0000000  0  8       0.000000000000
G07  25351303.794 9 133221954.474 9      2178.088 9        54.130 9  25351304.466 6         0.000 6      1697.212 6        37.977 6
G10  23816549.850 9 125156759.415 9      3548.314 9        54.667 9  23816553.584 6         0.000 6      2764.923 6        37.977 6
G21  21168471.082 9 111241045.685 9     -1260.993 9        55.710 9  21168470.367 6         0.000 6      -982.592 6        37.977 6
G29  24293790.442 9 127664674.157 9     -3147.090 9        54.477 9  24293792.010 6         0.000 6     -2452.281 6        37.977 6
G27  22009484.105 9 115660592.589 9      2517.233 9        55.372 9  22009486.039 6         0.000 6      1961.481 6        37.977 6
G16  20498250.869 9 107719015.048 9       571.696 9        55.976 9  20498250.042 6         0.000 6       445.478 6        37.977 6
G26  20651560.270 9 108524659.440 9     -1462.241 9        55.874 9  20651563.085 6         0.000 6     -1139.409 6        37.977 6
G20  21949146.151 9 115343508.383 9      2574.031 9        55.314 9  21949146.475 6         0.000 6      2005.740 6        37.977 6
> 2019 07 03 12 00 50.0000000  0  8       0.000000000000
G07  25350889.360 9 133219776.615 9      2177.636 9        54.130 9  25350890.032 6         0.000 6      1696.860 6        37.977 6
G10  23815874.642 9 125153211.182 9      3548.173 9        54.667 9  23815878.375 6         0.000 6      2764.813 6        37.977 6
G21  21168711.076 9 111242306.863 9     -1261.364 9        55.710 9  21168710.362 6         0.000 6      -982.882 6        37.977 6
G29  24294389.321 9 127667821.278 9     -3147.173 9        54.477 9  24294390.890 6         0.000 6     -2452.345 6        37.977 6
G27  22009005.114 9 115658075.480 9      2516.989 9        55.373 9  22009007.049 6         0.000 6      1961.291 6        37.977 6
G16  20498142.137 9 107718443.658 9       571.085 9        55.976 9  20498141.310 6         0.000 6       445.001 6        37.977 6
G26  20651838.579 9 108526121.963 9     -1462.810 9        55.874 9  20651841.394 6         0.000 6     -1139.853 6        37.977 6
G20  21948656.372 9 115340934.581 9      2573.582 9        55.314 9  21948656.696 6         0.000 6      2005.389 6        37.977 6
> 2019 07 03 12 00 51.0000000  0  8       0.000000000000
G07  25350475.013 9 133217599.211 9      2177.185 9        54.130 9  25350475.685 6         0.000 6      1696.508 6        37.977 6
G10  23815199.459 9 125149663.085 9      3548.033 9        54.667 9  23815203.191 6         0.000 6      2764.704 6        37.977 6
G21  21168951.141 9 111243568.410 9     -1261.736 9        55.710 9  21168950.426 6         0.000 6      -983.171 6        37.977 6
G29  24294988.216 9 127670968.482 9     -3147.256 9        54.477 9  24294989.785 6         0.000 6     -2452.409 6        37.977 6
G27  22008526.170 9 115655558.614 9      2516.745 9        55.373 9  22008528.104 6         0.000 6      1961.101 6        37.977 6
G16  20498033.521 9 107717872.876 9       570.473 9        55.976 9  20498032.694 6         0.000 6       444.525 6        37.977 6
G26  20652116.996 9 108527585.052 9     -1463.380 9        55.874 9  20652119.811 6         0.000 6     -1140.297 6        37.977 6
G20  21948166.678 9 115338361.225 9      2573.132 9        55.314 9  21948167.001 6         0.000 6      2005.039 6        37.977 6
> 2019 07 03 12 00 52.0000000  0  8       0.000000000000
G07  25350060.752 9 133215422.256 9      2176.733 9        54.130 9  25350061.423 6         0.000 6      1696.156 6        37.977 6
G10  23814524.304 9 125146115.133 9      3547.892 9        54.667 9  23814528.036 6         0.000 6      2764.594 6        37.977 6
G21  21169191.276 9 111244830.330 9     -1262.107 9        55.710 9  21169190.562 6         0.000 6      -983.460 6        37.977 6
G29  24295587.127 9 127674115.769 9     -3147.338 9        54.476 9  24295588.697 6         0.000 6     -2452.474 6        37.977 6
G27  22008047.273 9 115653041.993 9      2516.501 9        55.373 9  22008049.207 6         0.000 6      1960.911 6        37.977 6
G16  20497925.022 9 107717302.709 9       569.862 9        55.976 9  20497924.195 6         0.000 6       444.048 6        37.977 6
G26  20652395.522 9 108529048.715 9     -1463.950 9        55.874 9  20652398.338 6         0.000 6     -1140.741 6        37.977 6
G20  21947677.070 9 115335788.322 9      2572.683 9        55.314 9  21947677.393 6         0.000 6      2004.689 6        37.977 6
> 2019 07 03 12 00 53.0000000  0  8       0.000000000000
G07  25349646.576 9 133213245.749 9      2176.281 9        54.131 9  25349647.247 6         0.000 6      1695.804 6        37.977 6
G10  23813849.177 9 125142567.324 9      3547.751 9        54.668 9  23813852.908 6         0.000 6      2764.484 6        37.977 6
G21  21169431.482 9 111246092.618 9     -1262.478 9        55.710 9  21169430.767 6         0.000 6      -983.749 6        37.977 6
G29  24296186.053 9 127677263.137 9     -3147.420 9        54.476 9  24296187.624 6         0.000 6     -2452.538 6        37.977 6
G27  22007568.421 9 115650525.613 9      2516.257 9        55.373 9  22007570.355 6         0.000 6      1960.721 6        37.977 6
G16  20497816.638 9 107716733.149 9       569.250 9        55.976 9  20497815.811 6         0.000 6       443.571 6        37.977 6
G26  20652674.157 9 108530512.947 9     -1464.520 9        55.874 9  20652676.972 6         0.000 6     -1141.185 6        37.977 6
G20  21947187.547 9 115333215.868 9      2572.233 9        55.314 9  21947187.870 6         0.000 6      2004.339 6        37.977 6
> 2019 07 03 12 00 54.0000000  0  8       0.000000000000
G07  25349232.477 9 133211069.648 9      2176.186 9        54.131 9  25349233.148 6         0.000 6      1695.730 6        37.977 6
G10  23813174.082 9 125139019.688 9      3547.367 9        54.668 9  23813177.812 6         0.000 6      2764.185 6        37.977 6
G21  21169671.766 9 111247355.318 9     -1263.097 9        55.710 9  21169671.051 6         0.000 6      -984.232 6        37.977 6
G29  24296785.016 9 127680410.697 9     -3148.256 9        54.476 9  24296786.587 6         0.000 6     -2453.189 6        37.977 6
G27  22007089.600 9 115648009.397 9      2516.602 9        55.373 9  22007091.534 6         0.000 6      1960.989 6        37.977 6
G16  20497708.364 9 107716164.166 9       568.920 9        55.976 9  20497707.537 6         0.000 6       443.314 6        37.977 6
G26  20652952.898 9 108531977.740 9     -1465.016 9        55.874 9  20652955.714 6         0.000 6     -1141.572 6        37.977 6
G20  21946698.121 9 115330643.919 9      2571.405 9        55.315 9  21946698.444 6         0.000 6      2003.694 6        37.977 6
> 2019 07 03 12 00 55.0000000  0  8       0.000000000000
G07  25348818.761 9 133208895.564 9      2172.494 9        54.131 9  25348819.432 6         0.000 6      1692.854 6        37.977 6
G10  23812498.859 9 125135471.376 9      3548.580 9        54.668 9  23812502.588 6         0.000 6      2765.130 6        37.977 6
G21  21169911.773 9 111248616.562 9     -1258.791 9        55.710 9  21169911.058 6         0.000 6      -980.876 6        37.977 6
G29  24297383.030 9 127683553.274 9     -3135.644 9        54.476 9  24297384.602 6         0.000 6     -2443.362 6        37.977 6
G27  22006611.538 9 115645497.165 9      2507.137 9        55.373 9  22006613.472 6         0.000 6      1953.614 6        37.977 6
G16  20497600.550 9 107715597.598 9       563.822 9        55.976 9  20497599.723 6         0.000 6       439.342 6        37.977 6
G26  20653231.910 9 108533443.956 9     -1468.059 9        55.874 9  20653234.726 6         0.000 6     -1143.942 6        37.977 6
G20  21946208.399 9 115328070.420 9      2575.495 9        55.315 9  21946208.722 6         0.000 6      2006.880 6        37.977 6
> 2019 07 03 12 00 56.0000000  0  8       0.000000000000
G07  25348405.156 9 133206722.056 9      2175.961 9        54.131 9  25348405.827 6         0.000 6      1695.555 6        37.977 6
G10  23811824.011 9 125131925.038 9      3542.801 9        54.668 9  23811827.740 6         0.000 6      2760.627 6        37.977 6
G21  21170150.837 9 111249872.853 9     -1253.893 9        55.710 9  21170150.123 6         0.000 6      -977.059 6        37.977 6
G29  24297978.575 9 127686682.871 9     -3124.388 9        54.476 9  24297980.147 6         0.000 6     -2434.591 6        37.977 6
G27  22006135.185 9 115642993.916 9      2500.249 9        55.374 9  22006137.119 6         0.000 6      1948.246 6        37.977 6
G16  20497493.690 9 107715036.043 9       559.665 9        55.976 9  20497492.863 6         0.000 6       436.102 6        37.977 6
G26  20653511.803 9 108534914.803 9     -1474.053 9        55.873 9  20653514.619 6         0.000 6     -1148.613 6        37.977 6
G20  21945718.288 9 115325494.875 9      2574.487 9        55.315 9  21945718.611 6         0.000 6      2006.095 6        37.977 6
> 2019 07 03 12 00 57.0000000  0  8       0.000000000000
G07  25347990.004 9 133204540.419 9      2185.559 9        54.131 9  25347990.674 6         0.000 6      1703.034 6        37.977 6
G10  23811151.075 9 125128388.748 9      3531.878 9        54.669 9  23811154.803 6         0.000 6      2752.116 6        37.977 6
G21  21170389.045 9 111251124.644 9     -1250.805 9        55.709 9  21170388.331 6         0.000 6      -974.654 6        37.977 6
G29  24298572.511 9 127689804.015 9     -3119.956 9        54.475 9  24298574.084 6         0.000 6     -2431.137 6        37.977 6
G27  22005659.581 9 115640494.600 9      2499.338 9        55.374 9  22005661.514 6         0.000 6      1947.537 6        37.977 6
G16  20497387.382 9 107714477.390 9       558.207 9        55.977 9  20497386.555 6         0.000 6       434.966 6        37.977 6
G26  20653793.088 9 108536392.965 9     -1480.801 9        55.873 9  20653795.904 6         0.000 6     -1153.871 6        37.977 6
G20  21945229.069 9 115322924.012 9      2568.065 9        55.315 9  21945229.391 6         0.000 6      2001.091 6        37.977 6
> 2019 07 03 12 00 58.0000000  0  8       0.000000000000
G07  25347573.903 9 133202353.797 9      2187.067 9        54.131 9  25347574.573 6         0.000 6      1704.209 6        37.977 6
G10  23810479.244 9 125124858.261 9      3529.752 9        54.669 9  23810482.972 6         0.000 6      2750.459 6        37.977 6
G21  21170627.057 9 111252375.404 9     -1250.830 9        55.709 9  21170626.343 6         0.000 6      -974.673 6        37.977 6
G29  24299166.217 9 127692923.951 9     -3119.977 9        54.475 9  24299167.790 6         0.000 6     -2431.153 6        37.977 6
G27  22005183.945 9 115637995.119 9      2499.512 9        55.374 9  22005185.878 6         0.000 6      1947.673 6        37.977 6
G16  20497281.205 9 107713919.426 9       557.696 9        55.977 9  20497280.378 6         0.000 6       434.569 6        37.977 6
G26  20654075.050 9 108537874.684 9     -1482.330 9        55.873 9  20654077.867 6         0.000 6     -1155.063 6        37.977 6
G20  21944740.590 9 115320357.044 9      2566.299 9        55.315 9  21944740.912 6         0.000 6      1999.715 6        37.977 6
> 2019 07 03 12 00 59.0000000  0  8       0.000000000000
G07  25347157.734 9 133200166.818 9      2186.824 9        54.131 9  25347158.404 6         0.000 6      1704.020 6        37.977 6
G10  23809807.595 9 125121328.733 9      3529.399 9        54.669 9  23809811.322 6         0.000 6      2750.184 6        37.977 6
G21  21170865.112 9 111253626.388 9     -1251.154 9        55.709 9  21170864.397 6         0.000 6      -974.926 6        37.977 6
G29  24299759.937 9 127696043.960 9     -3120.064 9        54.475 9  24299761.511 6         0.000 6     -2431.221 6        37.977 6
G27  22004708.319 9 115635495.692 9      2499.330 9        55.374 9  22004710.252 6         0.000 6      1947.530 6        37.977 6
G16  20497175.135 9 107713362.026 9       557.099 9        55.977 9  20497174.308 6         0.000 6       434.103 6        37.977 6
G26  20654357.196 9 108539357.367 9     -1483.003 9        55.873 9  20654360.012 6         0.000 6     -1155.587 6        37.977 6
G20  21944252.300 9 115317791.067 9      2565.711 9        55.315 9  21944252.622 6         0.000 6      1999.257 6        37.977 6
> 2019 07 03 12 01  0.0000000  0  8       0.000000000000
G07  25346741.636 9 133197980.211 9      2186.383 9        54.132 9  25346742.306 6         0.000 6      1703.676 6        37.977 6
G10  23809135.989 9 125117799.428 9      3529.243 9        54.669 9  23809139.715 6         0.000 6      2750.062 6        37.977 6
G21  21171103.233 9 111254877.721 9     -1251.516 9        55.709 9  21171102.518 6         0.000 6      -975.208 6        37.977 6
G29  24300353.674 9 127699164.060 9     -3120.153 9        54.475 9  24300355.249 6         0.000 6     -2431.291 6        37.977 6
G27  22004232.734 9 115632996.477 9      2499.097 9        55.374 9  22004234.666 6         0.000 6      1947.349 6        37.977 6
G16  20497069.181 9 107712805.232 9       556.482 9        55.977 9  20497068.354 6         0.000 6       433.623 6        37.977 6
G26  20654639.458 9 108540840.661 9     -1483.589 9        55.873 9  20654642.274 6         0.000 6     -1156.043 6        37.977 6
G20  21943764.106 9 115315225.593 9      2565.253 9        55.316 9  21943764.427 6         0.000 6      1998.900 6        37.977 6
> 2019 07 03 12 01  1.0000000  0  8       0.000000000000
G07  25346325.623 9 133195794.056 9      2185.927 9        54.132 9  25346326.293 6         0.000 6      1703.321 6        37.977 6
G10  23808464.410 9 125114270.270 9      3529.104 9        54.670 9  23808468.136 6         0.000 6      2749.954 6        37.977 6
G21  21171341.422 9 111256129.415 9     -1251.873 9        55.709 9  21171340.708 6         0.000 6      -975.486 6        37.977 6
G29  24300947.427 9 127702284.246 9     -3120.238 9        54.474 9  24300949.003 6         0.000 6     -2431.357 6        37.977 6
G27  22003757.194 9 115630497.500 9      2498.864 9        55.375 9  22003759.126 6         0.000 6      1947.167 6        37.977 6
G16  20496963.344 9 107712249.058 9       555.870 9        55.977 9  20496962.517 6         0.000 6       433.145 6        37.977 6
G26  20654921.830 9 108542324.538 9     -1484.161 9        55.873 9  20654924.647 6         0.000 6     -1156.490 6        37.977 6
G20  21943275.997 9 115312660.569 9      2564.810 9        55.316 9  21943276.318 6         0.000 6      1998.555 6        37.977 6
> 2019 07 03 12 01  2.0000000  0  8       0.000000000000
G07  25345909.699 9 133193608.364 9      2185.468 9        54.132 9  25345910.369 6         0.000 6      1702.963 6        37.977 6
G10  23807792.856 9 125110741.242 9      3528.967 9        54.670 9  23807796.581 6         0.000 6      2749.847 6        37.977 6
G21  21171579.680 9 111257381.466 9     -1252.234 9        55.709 9  21171578.965 6         0.000 6      -975.767 6        37.977 6
G29  24301541.196 9 127705404.511 9     -3120.324 9        54.474 9  24301542.772 6         0.000 6     -2431.424 6        37.977 6
G27  22003281.699 9 115627998.761 9      2498.627 9        55.375 9  22003283.631 6         0.000 6      1946.983 6        37.977 6
G16  20496857.624 9 107711693.497 9       555.254 9        55.977 9  20496856.797 6         0.000 6       432.665 6        37.977 6
G26  20655204.311 9 108543808.985 9     -1484.736 9        55.873 9  20655207.128 6         0.000 6     -1156.938 6        37.977 6
G20  21942787.971 9 115310095.982 9      2564.367 9        55.316 9  21942788.292 6         0.000 6      1998.209 6        37.977 6
> 2019 07 03 12 01  3.0000000  0  8       0.000000000000
G07  25345493.862 9 133191423.130 9      2185.009 9        54.132 9  25345494.532 6         0.000 6      1702.605 6        37.977 6
G10  23807121.329 9 125107212.354 9      3528.830 9        54.670 9  23807125.054 6         0.000 6      2749.740 6        37.977 6
G21  21171818.006 9 111258633.879 9     -1252.594 9        55.709 9  21171817.292 6         0.000 6      -976.048 6        37.977 6
G29  24302134.982 9 127708524.867 9     -3120.409 9        54.474 9  24302136.559 6         0.000 6     -2431.490 6        37.977 6
G27  22002806.249 9 115625500.255 9      2498.390 9        55.375 9  22002808.181 6         0.000 6      1946.798 6        37.977 6
G16  20496752.022 9 107711138.551 9       554.638 9        55.977 9  20496751.195 6         0.000 6       432.185 6        37.977 6
G26  20655486.902 9 108545294.006 9     -1485.311 9        55.873 9  20655489.719 6         0.000 6     -1157.385 6        37.977 6
G20  21942300.031 9 115307531.841 9      2563.924 9        55.316 9  21942300.351 6         0.000 6      1997.864 6        37.977 6
> 2019 07 03 12 01  4.0000000  0  8       0.000000000000
G07  25345078.112 9 133189238.352 9      2184.549 9        54.132 9  25345078.781 6         0.000 6      1702.247 6        37.977 6
G10  23806449.829 9 125103683.609 9      3528.692 9        54.670 9  23806453.553 6         0.000 6      2749.633 6        37.977 6
G21  21172056.402 9 111259886.655 9     -1252.955 9        55.709 9  21172055.687 6         0.000 6      -976.329 6        37.977 6
G29  24302728.784 9 127711645.309 9     -3120.494 9        54.474 9  24302730.362 6         0.000 6     -2431.557 6        37.977 6
G27  22002330.844 9 115623001.989 9      2498.153 9        55.375 9  22002332.776 6         0.000 6      1946.613 6        37.977 6
G16  20496646.537 9 107710584.225 9       554.022 9        55.977 9  20496645.710 6         0.000 6       431.705 6        37.977 6
G26  20655769.603 9 108546779.607 9     -1485.885 9        55.873 9  20655772.420 6         0.000 6     -1157.833 6        37.977 6
G20  21941812.175 9 115304968.148 9      2563.480 9        55.316 9  21941812.495 6         0.000 6      1997.518 6        37.977 6
> 2019 07 03 12 01  5.0000000  0  8       0.000000000000
G07  25344662.451 9 133187054.040 9      2184.092 9        54.132 9  25344663.120 6         0.000 6      1701.891 6        37.977 6
G10  23805778.354 9 125100154.994 9      3528.550 9        54.671 9  23805782.077 6         0.000 6      2749.522 6        37.977 6
G21  21172294.866 9 111261139.794 9     -1253.318 9        55.709 9  21172294.152 6         0.000 6      -976.612 6        37.977 6
G29  24303322.603 9 127714765.836 9     -3120.580 9        54.474 9  24303324.181 6         0.000 6     -2431.623 6        37.977 6
G27  22001855.484 9 115620503.960 9      2497.914 9        55.375 9  22001857.416 6         0.000 6      1946.427 6        37.977 6
G16  20496541.169 9 107710030.515 9       553.402 9        55.977 9  20496540.342 6         0.000 6       431.222 6        37.977 6
G26  20656052.412 9 108548265.780 9     -1486.465 9        55.872 9  20656055.229 6         0.000 6     -1158.285 6        37.977 6
G20  21941324.404 9 115302404.895 9      2563.032 9        55.317 9  21941324.723 6         0.000 6      1997.169 6        37.977 6
> 2019 07 03 12 01  6.0000000  0  8       0.000000000000
G07  25344246.876 9 133184870.181 9      2183.633 9        54.132 9  25344247.544 6         0.000 6      1701.533 6        37.977 6
G10  23805106.907 9 125096626.524 9      3528.412 9        54.671 9  23805110.629 6         0.000 6      2749.415 6        37.977 6
G21  21172533.399 9 111262393.292 9     -1253.679 9        55.709 9  21172532.685 6         0.000 6      -976.893 6        37.977 6
G29  24303916.438 9 127717886.449 9     -3120.665 9        54.473 9  24303918.016 6         0.000 6     -2431.690 6        37.977 6
G27  22001380.170 9 115618006.168 9      2497.677 9        55.376 9  22001382.101 6         0.000 6      1946.242 6        37.977 6
G16  20496435.919 9 107709477.421 9       552.786 9        55.977 9  20496435.092 6         0.000 6       430.742 6        37.977 6
G26  20656335.332 9 108549752.531 9     -1487.039 9        55.872 9  20656338.149 6         0.000 6     -1158.732 6        37.977 6
G20  21940836.717 9 115299842.089 9      2562.588 9        55.317 9  21940837.037 6         0.000 6      1996.823 6        37.977 6
> 2019 07 03 12 01  7.0000000  0  8       0.000000000000
G07  25343831.213 9 133182685.861 9      2188.556 9        54.133 9  25343831.881 6         0.000 6      1705.369 6        37.977 6
G10  23804435.658 9 125093099.096 9      3522.974 9        54.671 9  23804439.379 6         0.000 6      2745.178 6        37.977 6
G21  21172771.980 9 111263647.045 9     -1253.470 9        55.708 9  21172771.266 6         0.000 6      -976.730 6        37.977 6
G29  24304510.311 9 127721007.263 9     -3121.480 9        54.473 9  24304511.890 6         0.000 6     -2432.324 6        37.977 6
G27  22000904.844 9 115615508.317 9      2499.179 9        55.376 9  22000906.775 6         0.000 6      1947.413 6        37.977 6
G16  20496330.766 9 107708924.839 9       552.769 9        55.977 9  20496329.939 6         0.000 6       430.729 6        37.977 6
G26  20656618.436 9 108551240.250 9     -1489.935 9        55.872 9  20656621.253 6         0.000 6     -1160.988 6        37.977 6
G20  21940349.237 9 115297280.368 9      2558.372 9        55.317 9  21940349.556 6         0.000 6      1993.538 6        37.977 6
> 2019 07 03 12 01  8.0000000  0  8       0.000000000000
G07  25343413.313 9 133180489.786 9      2203.428 9        54.133 9  25343413.981 6         0.000 6      1716.958 6        37.977 6
G10  23803766.670 9 125089583.553 9      3508.481 9        54.671 9  23803770.391 6         0.000 6      2733.884 6        37.977 6
G21  21173010.536 9 111264900.663 9     -1254.247 9        55.708 9  21173009.822 6         0.000 6      -977.335 6        37.977 6
G29  24305104.879 9 127724131.728 9     -3128.590 9        54.473 9  24305106.458 6         0.000 6     -2437.865 6        37.977 6
G27  22000428.572 9 115613005.494 9      2507.184 9        55.376 9  22000430.503 6         0.000 6      1953.650 6        37.977 6
G16  20496225.352 9 107708370.886 9       555.512 9        55.977 9  20496224.525 6         0.000 6       432.867 6        37.977 6
G26  20656902.539 9 108552733.223 9     -1495.568 9        55.872 9  20656905.357 6         0.000 6     -1165.378 6        37.977 6
G20  21939863.539 9 115294728.013 9      2546.265 9        55.317 9  21939863.858 6         0.000 6      1984.104 6        37.977 6
> 2019 07 03 12 01  9.0000000  0  8       0.000000000000
G07  25342992.593 9 133178278.894 9      2217.896 9        54.133 9  25342993.261 6         0.000 6      1728.232 6        37.977 6
G10  23803100.312 9 125086081.830 9      3495.660 9        54.672 9  23803104.033 6         0.000 6      2723.894 6        37.977 6
G21  21173249.562 9 111266156.752 9     -1258.550 9        55.708 9  21173248.848 6         0.000 6      -980.688 6        37.977 6
G29  24305701.581 9 127727267.408 9     -3144.119 9        54.473 9  24305703.161 6         0.000 6     -2449.966 6        37.977 6
G27  21999950.260 9 115610491.949 9      2520.690 9        55.376 9  21999952.191 6         0.000 6      1964.175 6        37.977 6
G16  20496119.155 9 107707812.815 9       561.050 9        55.977 9  20496118.328 6         0.000 6       437.182 6        37.977 6
G26  20657187.463 9 108554230.506 9     -1498.356 9        55.872 9  20657190.281 6         0.000 6     -1167.551 6        37.977 6
G20  21939380.282 9 115292188.484 9      2532.877 9        55.317 9  21939380.601 6         0.000 6      1973.671 6        37.977 6
> 2019 07 03 12 01 10.0000000  0  8       0.000000000000
G07  25342570.224 9 133176059.330 9      2220.271 9        54.133 9  25342570.891 6         0.000 6      1730.083 6        37.977 6
G10  23802435.393 9 125082587.666 9      3493.437 9        54.672 9  23802439.113 6         0.000 6      2722.161 6        37.977 6
G21  21173489.289 9 111267416.526 9     -1260.542 9        55.708 9  21173488.575 6         0.000 6      -982.241 6        37.977 6
G29  24306300.520 9 127730414.847 9     -3149.283 9        54.473 9  24306302.101 6         0.000 6     -2453.990 6        37.977 6
G27  21999470.111 9 115607968.756 9      2524.481 9        55.376 9  21999472.043 6         0.000 6      1967.129 6        37.977 6
G16  20496012.217 9 107707250.852 9       562.309 9        55.977 9  20496011.390 6         0.000 6       438.163 6        37.977 6
G26  20657472.621 9 108555729.018 9     -1498.686 9        55.872 9  20657475.439 6         0.000 6     -1167.808 6        37.977 6
G20  21938898.693 9 115289657.724 9      2529.582 9        55.318 9  21938899.012 6         0.000 6      1971.104 6        37.977 6
> 2019 07 03 12 01 11.0000000  0  8       0.000000000000
G07  25342147.723 9 133173839.080 9      2220.122 9        54.133 9  25342148.391 6         0.000 6      1729.966 6        37.977 6
G10  23801770.655 9 125079094.454 9      3493.090 9        54.672 9  23801774.374 6         0.000 6      2721.891 6        37.977 6
G21  21173729.226 9 111268677.401 9     -1261.122 9        55.708 9  21173728.512 6         0.000 6      -982.693 6        37.977 6
G29  24306899.903 9 127733564.615 9     -3150.036 9        54.472 9  24306901.485 6         0.000 6     -2454.576 6        37.977 6
G27  21998989.676 9 115605444.051 9      2524.755 9        55.376 9  21998991.607 6         0.000 6      1967.342 6        37.977 6
G16  20495905.242 9 107706688.695 9       561.927 9        55.977 9  20495904.415 6         0.000 6       437.865 6        37.977 6
G26  20657757.860 9 108557227.955 9     -1499.204 9        55.872 9  20657760.677 6         0.000 6     -1168.212 6        37.977 6
G20  21938417.415 9 115287128.595 9      2528.813 9        55.318 9  21938417.733 6         0.000 6      1970.505 6        37.977 6
> 2019 07 03 12 01 12.0000000  0  8       0.000000000000
G07  25341725.288 9 133171619.171 9      2219.689 9        54.133 9  25341725.955 6         0.000 6      1729.629 6        37.977 6
G10  23801105.957 9 125075601.457 9      3492.937 9        54.672 9  23801109.676 6         0.000 6      2721.772 6        37.977 6
G21  21173969.246 9 111269938.717 9     -1261.501 9        55.708 9  21173968.532 6         0.000 6      -982.988 6        37.977 6
G29  24307499.352 9 127736714.728 9     -3150.184 9        54.472 9  24307500.934 6         0.000 6     -2454.692 6        37.977 6
G27  21998509.248 9 115602919.388 9      2524.559 9        55.377 9  21998511.178 6         0.000 6      1967.190 6        37.977 6
G16  20495798.368 9 107706127.067 9       561.321 9        55.977 9  20495797.541 6         0.000 6       437.393 6        37.977 6
G26  20658043.204 9 108558727.447 9     -1499.782 9        55.872 9  20658046.021 6         0.000 6     -1168.661 6        37.977 6
G20  21937936.244 9 115284600.027 9      2528.347 9        55.318 9  21937936.562 6         0.000 6      1970.142 6        37.977 6
> 2019 07 03 12 01 13.0000000  0  8       0.000000000000
G07  25341302.938 9 133169399.712 9      2219.236 9        54.133 9  25341303.605 6         0.000 6      1729.276 6        37.977 6
G10  23800441.287 9 125072108.601 9      3492.796 9        54.673 9  23800445.005 6         0.000 6      2721.662 6        37.977 6
G21  21174209.336 9 111271200.399 9     -1261.865 9        55.708 9  21174208.623 6         0.000 6      -983.271 6        37.977 6
G29  24308098.822 9 127739864.953 9     -3150.285 9        54.472 9  24308100.404 6         0.000 6     -2454.770 6        37.977 6
G27  21998028.862 9 115600394.948 9      2524.327 9        55.377 9  21998030.793 6         0.000 6      1967.008 6        37.977 6
G16  20495691.611 9 107705566.058 9       560.697 9        55.977 9  20495690.784 6         0.000 6       436.907 6        37.977 6
G26  20658328.658 9 108560227.519 9     -1500.366 9        55.871 9  20658331.476 6         0.000 6     -1169.117 6        37.977 6
G20  21937455.158 9 115282071.907 9      2527.901 9        55.318 9  21937455.476 6         0.000 6      1969.794 6        37.977 6
> 2019 07 03 12 01 14.0000000  0  8       0.000000000000
G07  25340880.675 9 133167180.709 9      2218.778 9        54.134 9  25340881.342 6         0.000 6      1728.919 6        37.977 6
G10  23799776.643 9 125068615.884 9      3492.659 9        54.673 9  23799780.360 6         0.000 6      2721.555 6        37.977 6
G21  21174449.496 9 111272462.443 9     -1262.225 9        55.708 9  21174448.782 6         0.000 6      -983.552 6        37.977 6
G29  24308698.310 9 127743015.274 9     -3150.376 9        54.472 9  24308699.893 6         0.000 6     -2454.841 6        37.977 6
G27  21997548.522 9 115597870.744 9      2524.086 9        55.377 9  21997550.452 6         0.000 6      1966.821 6        37.977 6
G16  20495584.974 9 107705005.675 9       560.070 9        55.977 9  20495584.147 6         0.000 6       436.418 6        37.977 6
G26  20658614.224 9 108561728.175 9     -1500.950 9        55.871 9  20658617.042 6         0.000 6     -1169.572 6        37.977 6
G20  21936974.156 9 115279544.230 9      2527.462 9        55.318 9  21936974.473 6         0.000 6      1969.452 6        37.977 6
> 2019 07 03 12 01 15.0000000  0  8       0.000000000000
G07  25340458.500 9 133164962.167 9      2218.319 9        54.134 9  25340459.167 6         0.000 6      1728.561 6        37.977 6
G10  23799112.025 9 125065123.303 9      3492.522 9        54.673 9  23799115.741 6         0.000 6      2721.448 6        37.977 6
G21  21174689.724 9 111273724.851 9     -1262.584 9        55.708 9  21174689.010 6         0.000 6      -983.832 6        37.977 6
G29  24309297.815 9 127746165.686 9     -3150.468 9        54.471 9  24309299.399 6         0.000 6     -2454.912 6        37.977 6
G27  21997068.227 9 115595346.784 9      2523.846 9        55.377 9  21997070.158 6         0.000 6      1966.634 6        37.977 6
G16  20495478.457 9 107704445.922 9       559.443 9        55.977 9  20495477.630 6         0.000 6       435.929 6        37.977 6
G26  20658899.901 9 108563229.418 9     -1501.534 9        55.871 9  20658902.719 6         0.000 6     -1170.027 6        37.977 6
G20  21936493.238 9 115277016.992 9      2527.023 9        55.319 9  21936493.555 6         0.000 6      1969.110 6        37.977 6
> 2019 07 03 12 01 16.0000000  0  8       0.000000000000
G07  25340036.411 9 133162744.078 9      2217.860 9        54.134 9  25340037.078 6         0.000 6      1728.204 6        37.977 6
G10  23798447.434 9 125061630.864 9      3492.385 9        54.673 9  23798451.150 6         0.000 6      2721.341 6        37.977 6
G21  21174930.020 9 111274987.617 9     -1262.944 9        55.708 9  21174929.307 6         0.000 6      -984.112 6        37.977 6
G29  24309897.338 9 127749316.189 9     -3150.559 9        54.471 9  24309898.923 6         0.000 6     -2454.983 6        37.977 6
G27  21996587.979 9 115592823.062 9      2523.606 9        55.377 9  21996589.909 6         0.000 6      1966.447 6        37.977 6
G16  20495372.058 9 107703886.796 9       558.815 9        55.977 9  20495371.231 6         0.000 6       435.441 6        37.977 6
G26  20659185.690 9 108564731.247 9     -1502.118 9        55.871 9  20659188.508 6         0.000 6     -1170.482 6        37.977 6
G20  21936012.404 9 115274490.198 9      2526.583 9        55.319 9  21936012.721 6         0.000 6      1968.767 6        37.977 6
> 2019 07 03 12 01 17.0000000  0  8       0.000000000000
G07  25339614.410 9 133160526.451 9      2217.402 9        54.134 9  25339615.076 6         0.000 6      1727.846 6        37.977 6
G10  23797782.868 9 125058138.559 9      3492.247 9        54.674 9  23797786.584 6         0.000 6      2721.234 6        37.977 6
G21  21175170.385 9 111276250.740 9     -1263.304 9        55.707 9  21175169.671 6         0.000 6      -984.393 6        37.977 6
G29  24310496.878 9 127752466.783 9     -3150.649 9        54.471 9  24310498.463 6         0.000 6     -2455.054 6        37.977 6
G27  21996107.775 9 115590299.580 9      2523.366 9        55.378 9  21996109.705 6         0.000 6      1966.260 6        37.977 6
G16  20495265.779 9 107703328.295 9       558.188 9        55.977 9  20495264.952 6         0.000 6       434.952 6        37.977 6
G26  20659471.589 9 108566233.655 9     -1502.702 9        55.871 9  20659474.408 6         0.000 6     -1170.937 6        37.977 6
G20  21935531.653 9 115271963.839 9      2526.144 9        55.319 9  21935531.970 6         0.000 6      1968.425 6        37.977 6
> 2019 07 03 12 01 18.0000000  0  8       0.000000000000
G07  25339192.496 9 133158309.282 9      2216.943 9        54.134 9  25339193.162 6         0.000 6      1727.489 6        37.977 6
G10  23797118.329 9 125054646.391 9      3492.110 9        54.674 9  23797122.043 6         0.000 6      2721.127 6        37.977 6
G21  21175410.818 9 111277514.223 9     -1263.663 9        55.707 9  21175410.104 6         0.000 6      -984.673 6        37.977 6
G29  24311096.435 9 127755617.468 9     -3150.740 9        54.471 9  24311098.021 6         0.000 6     -2455.125 6        37.977 6
G27  21995627.618 9 115587776.337 9      2523.125 9        55.378 9  21995629.547 6         0.000 6      1966.072 6        37.977 6
G16  20495159.619 9 107702770.420 9       557.561 9        55.977 9  20495158.792 6         0.000 6       434.463 6        37.977 6
G26  20659757.600 9 108567736.647 9     -1503.286 9        55.871 9  20659760.418 6         0.000 6     -1171.392 6        37.977 6
G20  21935050.986 9 115269437.920 9      2525.704 9        55.319 9  21935051.302 6         0.000 6      1968.082 6        37.977 6
> 2019 07 03 12 01 19.0000000  0  8       0.000000000000
G07  25338770.671 9 133156092.576 9      2216.484 9        54.134 9  25338771.336 6         0.000 6      1727.131 6        37.977 6
G10  23796453.815 9 125051154.358 9      3491.973 9        54.674 9  23796457.529 6         0.000 6      2721.020 6        37.977 6
G21  21175651.320 9 111278778.069 9     -1264.023 9        55.707 9  21175650.606 6         0.000 6      -984.953 6        37.977 6
G29  24311696.010 9 127758768.244 9     -3150.831 9        54.471 9  24311697.597 6         0.000 6     -2455.196 6        37.977 6
G27  21995147.506 9 115585253.338 9      2522.885 9        55.378 9  21995149.436 6         0.000 6      1965.885 6        37.977 6
G16  20495053.579 9 107702213.177 9       556.934 9        55.977 9  20495052.752 6         0.000 6       433.974 6        37.977 6
G26  20660043.721 9 108569240.226 9     -1503.870 9        55.871 9  20660046.540 6         0.000 6     -1171.847 6        37.977 6
G20  21934570.402 9 115266912.441 9      2525.264 9        55.319 9  21934570.718 6         0.000 6      1967.739 6        37.977 6
> 2019 07 03 12 01 20.0000000  0  8       0.000000000000
G07  25338348.931 9 133153876.325 9      2216.025 9        54.134 9  25338349.597 6         0.000 6      1726.774 6        37.977 6
G10  23795789.328 9 125047662.465 9      3491.835 9        54.674 9  23795793.041 6         0.000 6      2720.913 6        37.977 6
G21  21175891.890 9 111280042.271 9     -1264.382 9        55.707 9  21175891.176 6         0.000 6      -985.233 6        37.977 6
G29  24312295.602 9 127761919.111 9     -3150.922 9        54.470 9  24312297.189 6         0.000 6     -2455.267 6        37.977 6
G27  21994667.440 9 115582730.576 9      2522.644 9        55.378 9  21994669.370 6         0.000 6      1965.698 6        37.977 6
G16  20494947.658 9 107701656.557 9       556.306 9        55.978 9  20494946.831 6         0.000 6       433.485 6        37.977 6
G26  20660329.954 9 108570744.386 9     -1504.454 9        55.871 9  20660332.772 6         0.000 6     -1172.302 6        37.977 6
G20  21934089.902 9 115264387.402 9      2524.824 9        55.319 9  21934090.218 6         0.000 6      1967.396 6        37.977 6
> 2019 07 03 12 01 21.0000000  0  8       0.000000000000
G07  25337927.280 9 133151660.538 9      2216.404 9        54.135 9  25337927.945 6         0.000 6      1727.069 6        37.977 6
G10  23795124.865 9 125044170.701 9      3491.177 9        54.675 9  23795128.578 6         0.000 6      2720.400 6        37.977 6
G21  21176132.530 9 111281306.842 9     -1265.483 9        55.707 9  21176131.816 6         0.000 6      -986.091 6        37.977 6
G29  24312895.215 9 127765070.091 9     -3153.140 9        54.470 9  24312896.803 6         0.000 6     -2456.995 6        37.977 6
G27  21994187.417 9 115580208.041 9      2524.011 9        55.378 9  21994189.346 6         0.000 6      1966.763 6        37.977 6
G16  20494841.855 9 107701100.557 9       556.448 9        55.978 9  20494841.028 6         0.000 6       433.596 6        37.977 6
G26  20660616.296 9 108572249.120 9     -1504.762 9        55.871 9  20660619.114 6         0.000 6     -1172.542 6        37.977 6
G20  21933609.486 9 115261862.803 9      2523.426 9        55.320 9  21933609.802 6         0.000 6      1966.307 6        37.977 6
> 2019 07 03 12 01 22.0000000  0  8       0.000000000000
G07  25337505.263 9 133149442.826 9      2217.706 9        54.135 9  25337505.928 6         0.000 6      1728.084 6        37.977 6
G10  23794460.618 9 125040680.070 9      3491.373 9        54.675 9  23794464.330 6         0.000 6      2720.553 6        37.977 6
G21  21176373.895 9 111282575.225 9     -1271.318 9        55.707 9  21176373.182 6         0.000 6      -990.638 6        37.977 6
G29  24313496.613 9 127768230.445 9     -3167.168 9        54.470 9  24313498.201 6         0.000 6     -2467.926 6        37.977 6
G27  21993706.163 9 115577679.034 9      2533.425 9        55.379 9  21993708.092 6         0.000 6      1974.098 6        37.977 6
G16  20494735.549 9 107700541.918 9       560.613 9        55.978 9  20494734.722 6         0.000 6       436.842 6        37.977 6
G26  20660902.405 9 108573752.635 9     -1501.768 9        55.870 9  20660905.224 6         0.000 6     -1170.210 6        37.977 6
G20  21933129.788 9 115259341.974 9      2519.217 9        55.320 9  21933130.103 6         0.000 6      1963.027 6        37.977 6
> 2019 07 03 12 01 23.0000000  0  8       0.000000000000
G07  25337083.807 9 133147228.062 9      2209.449 9        54.135 9  25337084.472 6         0.000 6      1721.650 6        37.977 6
G10  23793795.573 9 125037185.243 9      3500.617 9        54.675 9  23793799.284 6         0.000 6      2727.756 6        37.977 6
G21  21176616.358 9 111283849.376 9     -1277.163 9        55.707 9  21176615.645 6         0.000 6      -995.192 6        37.977 6
G29  24314100.331 9 127771402.998 9     -3177.444 9        54.470 9  24314101.921 6         0.000 6     -2475.933 6        37.977 6
G27  21993223.536 9 115575142.815 9      2538.125 9        55.379 9  21993225.464 6         0.000 6      1977.760 6        37.977 6
G16  20494628.617 9 107699979.989 9       562.925 9        55.978 9  20494627.791 6         0.000 6       438.643 6        37.977 6
G26  20661187.668 9 108575251.701 9     -1495.391 9        55.870 9  20661190.487 6         0.000 6     -1165.240 6        37.977 6
G20  21932650.279 9 115256822.143 9      2522.154 9        55.320 9  21932650.594 6         0.000 6      1965.316 6        37.977 6
> 2019 07 03 12 01 24.0000000  0  8       0.000000000000
G07  25336664.254 9 133145023.299 9      2202.128 9        54.135 9  25336664.918 6         0.000 6      1715.945 6        37.977 6
G10  23793128.552 9 125033680.038 9      3507.618 9        54.675 9  23793132.263 6         0.000 6      2733.211 6        37.977 6
G21  21176859.665 9 111285127.962 9     -1279.297 9        55.707 9  21176858.952 6         0.000 6      -996.855 6        37.977 6
G29  24314705.224 9 127774581.720 9     -3179.095 9        54.470 9  24314706.814 6         0.000 6     -2477.220 6        37.977 6
G27  21992740.610 9 115572605.026 9      2537.318 9        55.379 9  21992742.539 6         0.000 6      1977.132 6        37.977 6
G16  20494521.529 9 107699417.234 9       562.398 9        55.978 9  20494520.702 6         0.000 6       438.232 6        37.977 6
G26  20661471.806 9 108576744.854 9     -1492.191 9        55.870 9  20661474.625 6         0.000 6     -1162.747 6        37.977 6
G20  21932169.843 9 115254297.438 9      2526.053 9        55.320 9  21932170.157 6         0.000 6      1968.354 6        37.977 6
> 2019 07 03 12 01 25.0000000  0  8       0.000000000000
G07  25336245.377 9 133142822.092 9      2200.652 9        54.135 9  25336246.042 6         0.000 6      1714.795 6        37.977 6
G10  23792460.957 9 125030171.809 9      3508.505 9        54.676 9  23792464.667 6         0.000 6      2733.902 6        37.977 6
G21  21177103.165 9 111286407.560 9     -1279.835 9        55.707 9  21177102.451 6         0.000 6      -997.274 6        37.977 6
G29  24315310.195 9 127777760.852 9     -3179.186 9        54.469 9  24315311.785 6         0.000 6     -2477.290 6        37.977 6
G27  21992257.829 9 115570067.996 9      2536.833 9        55.379 9  21992259.757 6         0.000 6      1976.754 6        37.977 6
G16  20494414.576 9 107698855.194 9       561.711 9        55.978 9  20494413.749 6         0.000 6       437.697 6        37.977 6
G26  20661755.753 9 108578237.005 9     -1492.280 9        55.870 9  20661758.573 6         0.000 6     -1162.816 6        37.977 6
G20  21931689.105 9 115251771.150 9      2526.296 9        55.320 9  21931689.420 6         0.000 6      1968.543 6        37.977 6
> 2019 07 03 12 01 26.0000000  0  8       0.000000000000
G07  25335826.663 9 133140621.736 9      2200.098 9        54.135 9  25335827.327 6         0.000 6      1714.363 6        37.977 6
G10  23791793.312 9 125026663.322 9      3508.464 9        54.676 9  23791797.021 6         0.000 6      2733.871 6        37.977 6
G21  21177346.747 9 111287687.594 9     -1280.217 9        55.707 9  21177346.034 6         0.000 6      -997.572 6        37.977 6
G29  24315915.182 9 127780940.073 9     -3179.268 9        54.469 9  24315916.773 6         0.000 6     -2477.354 6        37.977 6
G27  21991775.112 9 115567531.307 9      2536.559 9        55.379 9  21991777.041 6         0.000 6      1976.540 6        37.977 6
G16  20494307.747 9 107698293.803 9       561.081 9        55.978 9  20494306.920 6         0.000 6       437.206 6        37.977 6
G26  20662039.775 9 108579729.545 9     -1492.810 9        55.870 9  20662042.594 6         0.000 6     -1163.229 6        37.977 6
G20  21931208.402 9 115249245.042 9      2525.918 9        55.321 9  21931208.716 6         0.000 6      1968.249 6        37.977 6
> 2019 07 03 12 01 27.0000000  0  8       0.000000000000
G07  25335408.042 9 133138421.874 9      2199.635 9        54.135 9  25335408.706 6         0.000 6      1714.003 6        37.977 6
G10  23791125.686 9 125023154.934 9      3508.329 9        54.676 9  23791129.394 6         0.000 6      2733.766 6        37.977 6
G21  21177590.400 9 111288967.997 9     -1280.592 9        55.706 9  21177589.687 6         0.000 6      -997.864 6        37.977 6
G29  24316520.185 9 127784119.375 9     -3179.357 9        54.469 9  24316521.777 6         0.000 6     -2477.424 6        37.977 6
G27  21991292.445 9 115564994.876 9      2536.306 9        55.380 9  21991294.373 6         0.000 6      1976.343 6        37.977 6
G16  20494201.036 9 107697733.034 9       560.453 9        55.978 9  20494200.209 6         0.000 6       436.716 6        37.977 6
G26  20662323.902 9 108581222.640 9     -1493.388 9        55.870 9  20662326.721 6         0.000 6     -1163.679 6        37.977 6
G20  21930727.778 9 115246719.348 9      2525.474 9        55.321 9  21930728.091 6         0.000 6      1967.903 6        37.977 6
> 2019 07 03 12 01 28.0000000  0  8       0.000000000000
G07  25334989.508 9 133136222.468 9      2199.183 9        54.136 9  25334990.172 6         0.000 6      1713.650 6        37.977 6
G10  23790458.086 9 125019646.687 9      3508.186 9        54.676 9  23790461.795 6         0.000 6      2733.654 6        37.977 6
G21  21177834.124 9 111290248.773 9     -1280.961 9        55.706 9  21177833.410 6         0.000 6      -998.152 6        37.977 6
G29  24317125.205 9 127787298.766 9     -3179.445 9        54.469 9  24317126.798 6         0.000 6     -2477.492 6        37.977 6
G27  21990809.826 9 115562458.697 9      2536.058 9        55.380 9  21990811.754 6         0.000 6      1976.150 6        37.977 6
G16  20494094.445 9 107697172.893 9       559.829 9        55.978 9  20494093.618 6         0.000 6       436.231 6        37.977 6
G26  20662608.139 9 108582716.316 9     -1493.966 9        55.870 9  20662610.958 6         0.000 6     -1164.130 6        37.977 6
G20  21930247.239 9 115244194.103 9      2525.026 9        55.321 9  21930247.552 6         0.000 6      1967.554 6        37.977 6
> 2019 07 03 12 01 29.0000000  0  8       0.000000000000
G07  25334571.061 9 133134023.514 9      2198.730 9        54.136 9  25334571.724 6         0.000 6      1713.297 6        37.977 6
G10  23789790.514 9 125016138.580 9      3508.043 9        54.677 9  23789794.221 6         0.000 6      2733.543 6        37.977 6
G21  21178077.916 9 111291529.911 9     -1281.330 9        55.706 9  21178077.203 6         0.000 6      -998.439 6        37.977 6
G29  24317730.242 9 127790478.243 9     -3179.532 9        54.468 9  24317731.835 6         0.000 6     -2477.560 6        37.977 6
G27  21990327.252 9 115559922.761 9      2535.810 9        55.380 9  21990329.180 6         0.000 6      1975.956 6        37.977 6
G16  20493987.971 9 107696613.369 9       559.206 9        55.978 9  20493987.144 6         0.000 6       435.745 6        37.977 6
G26  20662892.485 9 108584210.562 9     -1494.545 9        55.870 9  20662895.305 6         0.000 6     -1164.581 6        37.977 6
G20  21929766.784 9 115241669.301 9      2524.578 9        55.321 9  21929767.097 6         0.000 6      1967.205 6        37.977 6
> 2019 07 03 12 01 30.0000000  0  8       0.000000000000
G07  25334152.699 9 133131825.014 9      2198.277 9        54.136 9  25334153.363 6         0.000 6      1712.944 6        37.977 6
G10  23789122.969 9 125012630.619 9      3507.900 9        54.677 9  23789126.676 6         0.000 6      2733.431 6        37.977 6
G21  21178321.780 9 111292811.425 9     -1281.698 9        55.706 9  21178321.067 6         0.000 6      -998.726 6        37.977 6
G29  24318335.295 9 127793657.808 9     -3179.619 9        54.468 9  24318336.888 6         0.000 6     -2477.628 6        37.977 6
G27  21989844.728 9 115557387.078 9      2535.561 9        55.380 9  21989846.655 6         0.000 6      1975.763 6        37.977 6
G16  20493881.617 9 107696054.475 9       558.582 9        55.978 9  20493880.790 6         0.000 6       435.259 6        37.977 6
G26  20663176.942 9 108585705.394 9     -1495.123 9        55.869 9  20663179.762 6         0.000 6     -1165.031 6        37.977 6
G20  21929286.415 9 115239144.951 9      2524.130 9        55.321 9  21929286.728 6         0.000 6      1966.856 6        37.977 6
> 2019 07 03 12 01 31.0000000  0  8       0.000000000000
G07  25333734.425 9 133129626.970 9      2197.822 9        54.136 9  25333735.088 6         0.000 6      1712.589 6        37.977 6
G10  23788455.451 9 125009122.797 9      3507.761 9        54.677 9  23788459.157 6         0.000 6      2733.323 6        37.977 6
G21  21178565.714 9 111294093.304 9     -1282.065 9        55.706 9  21178565.001 6         0.000 6      -999.012 6        37.977 6
G29  24318940.364 9 127796837.461 9     -3179.706 9        54.468 9  24318941.959 6         0.000 6     -2477.696 6        37.977 6
G27  21989362.249 9 115554851.641 9      2535.315 9        55.380 9  21989364.177 6         0.000 6      1975.571 6        37.977 6
G16  20493775.381 9 107695496.201 9       557.962 9        55.978 9  20493774.554 6         0.000 6       434.775 6        37.977 6
G26  20663461.509 9 108587200.800 9     -1495.696 9        55.869 9  20663464.329 6         0.000 6     -1165.478 6        37.977 6
G20  21928806.131 9 115236621.045 9      2523.686 9        55.322 9  21928806.444 6         0.000 6      1966.510 6        37.977 6
> 2019 07 03 12 01 32.0000000  0  8       0.000000000000
G07  25333316.235 9 133127429.373 9      2197.369 9        54.136 9  25333316.898 6         0.000 6      1712.236 6        37.977 6
G10  23787787.961 9 125005615.124 9      3507.618 9        54.677 9  23787791.666 6         0.000 6      2733.212 6        37.977 6
G21  21178809.719 9 111295375.557 9     -1282.433 9        55.706 9  21178809.006 6         0.000 6      -999.299 6        37.977 6
G29  24319545.452 9 127800017.206 9     -3179.794 9        54.468 9  24319547.047 6         0.000 6     -2477.764 6        37.977 6
G27  21988879.818 9 115552316.452 9      2535.067 9        55.380 9  21988881.746 6         0.000 6      1975.377 6        37.977 6
G16  20493669.264 9 107694938.553 9       557.338 9        55.978 9  20493668.437 6         0.000 6       434.289 6        37.977 6
G26  20663746.186 9 108588696.788 9     -1496.274 9        55.869 9  20663749.006 6         0.000 6     -1165.928 6        37.977 6
G20  21928325.934 9 115234097.595 9      2523.238 9        55.322 9  21928326.246 6         0.000 6      1966.161 6        37.977 6
> 2019 07 03 12 01 33.0000000  0  8       0.000000000000
G07  25332898.130 9 133125232.219 9      2197.396 9        54.136 9  25332898.793 6         0.000 6      1712.258 6        37.977 6
G10  23787120.500 9 125002107.605 9      3506.994 9        54.677 9  23787124.205 6         0.000 6      2732.725 6        37.977 6
G21  21179053.792 9 111296658.173 9     -1282.726 9        55.706 9  21179053.080 6         0.000 6      -999.527 6        37.977 6
G29  24320150.554 9 127803197.031 9     -3179.892 9        54.468 9  24320152.150 6         0.000 6     -2477.840 6        37.977 6
G27  21988397.435 9 115549781.511 9      2534.938 9        55.381 9  21988399.362 6         0.000 6      1975.277 6        37.977 6
G16  20493563.266 9 107694381.529 9       556.749 9        55.978 9  20493562.439 6         0.000 6       433.831 6        37.977 6
G26  20664030.975 9 108590193.360 9     -1497.077 9        55.869 9  20664033.795 6         0.000 6     -1166.554 6        37.977 6
G20  21927845.822 9 115231574.597 9      2522.465 9        55.322 9  21927846.134 6         0.000 6      1965.558 6        37.977 6
> 2019 07 03 12 01 34.0000000  0  8       0.000000000000
G07  25332480.768 9 133123038.970 9      2186.170 9        54.136 9  25332481.430 6         0.000 6      1703.510 6        37.977 6
G10  23786452.423 9 124998596.845 9      3517.342 9        54.678 9  23786456.127 6         0.000 6      2740.789 6        37.977 6
G21  21179297.999 9 111297941.487 9     -1283.945 9        55.706 9  21179297.286 6         0.000 6     -1000.477 6        37.977 6
G29  24320755.565 9 127806376.371 9     -3177.746 9        54.467 9  24320757.161 6         0.000 6     -2476.168 6        37.977 6
G27  21987915.323 9 115547248.001 9      2530.703 9        55.381 9  21987917.250 6         0.000 6      1971.977 6        37.977 6
G16  20493457.463 9 107693825.530 9       554.717 9        55.978 9  20493456.636 6         0.000 6       432.247 6        37.977 6
G26  20664315.593 9 108591689.034 9     -1493.199 9        55.869 9  20664318.413 6         0.000 6     -1163.532 6        37.977 6
G20  21927365.333 9 115229049.616 9      2529.684 9        55.322 9  21927365.645 6         0.000 6      1971.184 6        37.977 6
> 2019 07 03 12 01 35.0000000  0  8       0.000000000000
G07  25332066.260 9 133120860.717 9      2170.594 9        54.137 9  25332066.922 6         0.000 6      1691.373 6        37.977 6
G10  23785781.756 9 124995072.478 9      3530.995 9        54.678 9  23785785.459 6         0.000 6      2751.427 6        37.977 6
G21  21179542.278 9 111299225.183 9     -1282.953 9        55.706 9  21179541.566 6         0.000 6      -999.704 6        37.977 6
G29  24321359.499 9 127809550.057 9     -3168.550 9        54.467 9  24321361.096 6         0.000 6     -2469.003 6        37.977 6
G27  21987434.626 9 115544721.921 9      2520.793 9        55.381 9  21987436.553 6         0.000 6      1964.255 6        37.977 6
G16  20493352.313 9 107693272.964 9       550.061 9        55.978 9  20493351.486 6         0.000 6       428.619 6        37.977 6
G26  20664599.339 9 108593180.130 9     -1489.466 9        55.869 9  20664602.159 6         0.000 6     -1160.623 6        37.977 6
G20  21926882.864 9 115226514.226 9      2541.137 9        55.322 9  21926883.175 6         0.000 6      1980.108 6        37.977 6
> 2019 07 03 12 01 36.0000000  0  8       0.000000000000
G07  25331654.638 9 133118697.637 9      2158.298 9        54.137 9  25331655.300 6         0.000 6      1681.791 6        37.977 6
G10  23785108.687 9 124991535.488 9      3540.566 9        54.678 9  23785112.390 6         0.000 6      2758.885 6        37.977 6
G21  21179786.034 9 111300506.128 9     -1279.283 9        55.706 9  21179785.322 6         0.000 6      -996.844 6        37.977 6
G29  24321960.904 9 127812710.452 9     -3154.202 9        54.467 9  24321962.502 6         0.000 6     -2457.822 6        37.977 6
G27  21986956.313 9 115542208.372 9      2508.239 9        55.381 9  21986958.239 6         0.000 6      1954.473 6        37.977 6
G16  20493248.307 9 107692726.411 9       543.876 9        55.978 9  20493247.480 6         0.000 6       423.799 6        37.977 6
G26  20664882.661 9 108594668.994 9     -1488.942 9        55.869 9  20664885.481 6         0.000 6     -1160.215 6        37.977 6
G20  21926398.124 9 115223966.904 9      2551.330 9        55.322 9  21926398.435 6         0.000 6      1988.051 6        37.977 6
> 2019 07 03 12 01 37.0000000  0  8       0.000000000000
G07  25331244.153 9 133116540.523 9      2156.421 9        54.137 9  25331244.814 6         0.000 6      1680.329 6        37.977 6
G10  23784434.824 9 124987994.325 9      3541.426 9        54.678 9  23784438.526 6         0.000 6      2759.556 6        37.977 6
G21  21180029.394 9 111301784.992 9     -1278.727 9        55.705 9  21180028.681 6         0.000 6      -996.411 6        37.977 6
G29  24322560.788 9 127815862.853 9     -3151.491 9        54.467 9  24322562.386 6         0.000 6     -2455.710 6        37.977 6
G27  21986479.307 9 115539701.693 9      2505.815 9        55.381 9  21986481.233 6         0.000 6      1952.583 6        37.977 6
G16  20493144.998 9 107692183.515 9       542.237 9        55.978 9  20493144.171 6         0.000 6       422.523 6        37.977 6
G26  20665166.075 9 108596158.343 9     -1489.716 9        55.869 9  20665168.895 6         0.000 6     -1160.818 6        37.977 6
G20  21925912.478 9 115221414.824 9      2552.350 9        55.323 9  21925912.789 6         0.000 6      1988.846 6        37.977 6
> 2019 07 03 12 01 38.0000000  0  8       0.000000000000
G07  25330833.862 9 133114384.432 9      2155.820 9        54.137 9  25330834.523 6         0.000 6      1679.861 6        37.977 6
G10  23783760.915 9 124984452.918 9      3541.377 9        54.679 9  23783764.616 6         0.000 6      2759.517 6        37.977 6
G21  21180272.750 9 111303063.835 9     -1278.993 9        55.705 9  21180272.038 6         0.000 6      -996.618 6        37.977 6
G29  24323160.464 9 127819014.163 9     -3151.257 9        54.467 9  24323162.063 6         0.000 6     -2455.528 6        37.977 6
G27  21986002.522 9 115537196.171 9      2505.323 9        55.382 9  21986004.448 6         0.000 6      1952.200 6        37.977 6
G16  20493041.888 9 107691641.667 9       541.504 9        55.978 9  20493041.061 6         0.000 6       421.951 6        37.977 6
G26  20665449.617 9 108597648.368 9     -1490.320 9        55.868 9  20665452.438 6         0.000 6     -1161.289 6        37.977 6
G20  21925426.806 9 115218862.604 9      2552.050 9        55.323 9  21925427.117 6         0.000 6      1988.611 6        37.977 6
> 2019 07 03 12 01 39.0000000  0  8       0.000000000000
G07  25330423.668 9 133112228.851 9      2155.354 9        54.137 9  25330424.329 6         0.000 6      1679.497 6        37.977 6
G10  23783087.026 9 124980911.620 9      3541.238 9        54.679 9  23783090.727 6         0.000 6      2759.409 6        37.977 6
G21  21180516.168 9 111304343.006 9     -1279.353 9        55.705 9  21180515.456 6         0.000 6      -996.899 6        37.977 6
G29  24323760.133 9 127822165.430 9     -3151.313 9        54.466 9  24323761.732 6         0.000 6     -2455.571 6        37.977 6
G27  21985525.801 9 115534690.991 9      2505.057 9        55.382 9  21985527.727 6         0.000 6      1951.993 6        37.977 6
G16  20492938.903 9 107691100.479 9       540.881 9        55.978 9  20492938.076 6         0.000 6       421.466 6        37.977 6
G26  20665733.271 9 108599138.974 9     -1490.892 9        55.868 9  20665736.091 6         0.000 6     -1161.734 6        37.977 6
G20  21924941.209 9 115216310.777 9      2551.607 9        55.323 9  21924941.519 6         0.000 6      1988.267 6        37.977 6
> 2019 07 03 12 01 40.0000000  0  8       0.000000000000
G07  25330013.560 9 133110073.728 9      2154.896 9        54.137 9  25330014.221 6         0.000 6      1679.140 6        37.977 6
G10  23782413.164 9 124977370.463 9      3541.095 9        54.679 9  23782416.865 6         0.000 6      2759.297 6        37.977 6
G21  21180759.655 9 111305622.536 9     -1279.719 9        55.705 9  21180758.942 6         0.000 6      -997.184 6        37.977 6
G29  24324359.815 9 127825316.772 9     -3151.389 9        54.466 9  24324361.415 6         0.000 6     -2455.630 6        37.977 6
G27  21985049.127 9 115532186.054 9      2504.807 9        55.382 9  21985051.053 6         0.000 6      1951.798 6        37.977 6
G16  20492836.034 9 107690559.897 9       540.266 9        55.978 9  20492835.207 6         0.000 6       420.987 6        37.977 6
G26  20666017.031 9 108600630.141 9     -1491.460 9        55.868 9  20666019.851 6         0.000 6     -1162.177 6        37.977 6
G20  21924455.696 9 115213759.396 9      2551.156 9        55.323 9  21924456.006 6         0.000 6      1987.915 6        37.977 6
> 2019 07 03 12 01 41.0000000  0  8       0.000000000000
G07  25329603.541 9 133107919.063 9      2154.440 9        54.137 9  25329604.202 6         0.000 6      1678.786 6        37.977 6
G10  23781739.330 9 124973829.452 9      3540.949 9        54.679 9  23781743.030 6         0.000 6      2759.183 6        37.977 6
G21  21181003.212 9 111306902.438 9     -1280.088 9        55.705 9  21181002.500 6         0.000 6      -997.471 6        37.977 6
G29  24324959.512 9 127828468.191 9     -3151.470 9        54.466 9  24324961.113 6         0.000 6     -2455.694 6        37.977 6
G27  21984572.502 9 115529681.373 9      2504.561 9        55.382 9  21984574.427 6         0.000 6      1951.607 6        37.977 6
G16  20492733.283 9 107690019.938 9       539.653 9        55.978 9  20492732.456 6         0.000 6       420.509 6        37.977 6
G26  20666300.900 9 108602121.883 9     -1492.028 9        55.868 9  20666303.721 6         0.000 6     -1162.620 6        37.977 6
G20  21923970.271 9 115211208.471 9      2550.702 9        55.323 9  21923970.580 6         0.000 6      1987.561 6        37.977 6
> 2019 07 03 12 01 42.0000000  0  8       0.000000000000
G07  25329193.608 9 133105764.854 9      2153.985 9        54.138 9  25329194.268 6         0.000 6      1678.431 6        37.977 6
G10  23781065.524 9 124970288.587 9      3540.803 9        54.680 9  23781069.223 6         0.000 6      2759.070 6        37.977 6
G21  21181246.840 9 111308182.709 9     -1280.456 9        55.705 9  21181246.128 6         0.000 6      -997.758 6        37.977 6
G29  24325559.225 9 127831619.692 9     -3151.552 9        54.466 9  24325560.826 6         0.000 6     -2455.757 6        37.977 6
G27  21984095.923 9 115527176.937 9      2504.315 9        55.382 9  21984097.848 6         0.000 6      1951.415 6        37.977 6
G16  20492630.649 9 107689480.592 9       539.039 9        55.979 9  20492629.822 6         0.000 6       420.031 6        37.977 6
G26  20666584.878 9 108603614.193 9     -1492.596 9        55.868 9  20666587.698 6         0.000 6     -1163.062 6        37.977 6
G20  21923484.931 9 115208658.001 9      2550.248 9        55.324 9  21923485.241 6         0.000 6      1987.207 6        37.977 6
> 2019 07 03 12 01 43.0000000  0  8       0.000000000000
G07  25328783.761 9 133103611.101 9      2153.529 9        54.138 9  25328784.422 6         0.000 6      1678.076 6        37.977 6
G10  23780391.746 9 124966747.868 9      3540.656 9        54.680 9  23780395.444 6         0.000 6      2758.956 6        37.977 6
G21  21181490.538 9 111309463.349 9     -1280.824 9        55.705 9  21181489.825 6         0.000 6      -998.045 6        37.977 6
G29  24326158.953 9 127834771.273 9     -3151.633 9        54.465 9  24326160.555 6         0.000 6     -2455.820 6        37.977 6
G27  21983619.391 9 115524672.748 9      2504.069 9        55.383 9  21983621.316 6         0.000 6      1951.224 6        37.977 6
G16  20492528.131 9 107688941.859 9       538.426 9        55.979 9  20492527.304 6         0.000 6       419.553 6        37.977 6
G26  20666868.963 9 108605107.071 9     -1493.164 9        55.868 9  20666871.784 6         0.000 6     -1163.505 6        37.977 6
G20  21922999.678 9 115206107.984 9      2549.794 9        55.324 9  21922999.988 6         0.000 6      1986.853 6        37.977 6
> 2019 07 03 12 01 44.0000000  0  8       0.000000000000
G07  25328374.002 9 133101457.802 9      2153.074 9        54.138 9  25328374.662 6         0.000 6      1677.721 6        37.977 6
G10  23779717.995 9 124963207.293 9      3540.510 9        54.680 9  23779721.692 6         0.000 6      2758.842 6        37.977 6
G21  21181734.304 9 111310744.350 9     -1281.192 9        55.705 9  21181733.592 6         0.000 6      -998.332 6        37.977 6
G29  24326758.696 9 127837922.935 9     -3151.714 9        54.465 9  24326760.299 6         0.000 6     -2455.884 6        37.977 6
G27  21983142.905 9 115522168.799 9      2503.823 9        55.383 9  21983144.830 6         0.000 6      1951.032 6        37.977 6
G16  20492425.729 9 107688403.733 9       537.812 9        55.979 9  20492424.902 6         0.000 6       419.075 6        37.977 6
G26  20667153.156 9 108606600.510 9     -1493.732 9        55.868 9  20667155.977 6         0.000 6     -1163.947 6        37.977 6
G20  21922514.511 9 115203558.418 9      2549.339 9        55.324 9  21922514.820 6         0.000 6      1986.499 6        37.977 6
> 2019 07 03 12 01 45.0000000  0  8       0.000000000000
G07  25327964.329 9 133099304.959 9      2152.618 9        54.138 9  25327964.988 6         0.000 6      1677.366 6        37.977 6
G10  23779044.272 9 124959666.866 9      3540.364 9        54.680 9  23779047.969 6         0.000 6      2758.728 6        37.977 6
G21  21181978.142 9 111312025.725 9     -1281.560 9        55.705 9  21181977.430 6         0.000 6      -998.619 6        37.977 6
G29  24327358.455 9 127841074.679 9     -3151.795 9        54.465 9  24327360.058 6         0.000 6     -2455.947 6        37.977 6
G27  21982666.466 9 115519665.101 9      2503.577 9        55.383 9  21982668.391 6         0.000 6      1950.840 6        37.977 6
G16  20492323.445 9 107687866.227 9       537.199 9        55.979 9  20492322.618 6         0.000 6       418.596 6        37.977 6
G26  20667437.457 9 108608094.524 9     -1494.300 9        55.868 9  20667440.279 6         0.000 6     -1164.390 6        37.977 6
G20  21922029.431 9 115201009.311 9      2548.884 9        55.324 9  21922029.740 6         0.000 6      1986.145 6        37.977 6
> 2019 07 03 12 01 46.0000000  0  8       0.000000000000
G07  25327554.742 9 133097152.572 9      2152.162 9        54.138 9  25327555.402 6         0.000 6      1677.011 6        37.977 6
G10  23778370.577 9 124956126.586 9      3540.217 9        54.681 9  23778374.273 6         0.000 6      2758.614 6        37.977 6
G21  21182222.050 9 111313307.469 9     -1281.928 9        55.705 9  21182221.338 6         0.000 6      -998.905 6        37.977 6
G29  24327958.229 9 127844226.505 9     -3151.876 9        54.465 9  24327959.833 6         0.000 6     -2456.010 6        37.977 6
G27  21982190.075 9 115517161.650 9      2503.331 9        55.383 9  21982192.000 6         0.000 6      1950.648 6        37.977 6
G16  20492221.278 9 107687329.335 9       536.585 9        55.979 9  20492220.451 6         0.000 6       418.118 6        37.977 6
G26  20667721.867 9 108609589.106 9     -1494.868 9        55.868 9  20667724.689 6         0.000 6     -1164.832 6        37.977 6
G20  21921544.438 9 115198460.658 9      2548.430 9        55.324 9  21921544.747 6         0.000 6      1985.791 6        37.977 6
> 2019 07 03 12 01 47.0000000  0  8       0.000000000000
G07  25327145.243 9 133095000.641 9      2151.707 9        54.138 9  25327145.902 6         0.000 6      1676.655 6        37.977 6
G10  23777696.910 9 124952586.453 9      3540.071 9        54.681 9  23777700.606 6         0.000 6      2758.499 6        37.977 6
G21  21182466.028 9 111314589.581 9     -1282.296 9        55.704 9  21182465.316 6         0.000 6      -999.192 6        37.977 6
G29  24328558.019 9 127847378.411 9     -3151.957 9        54.465 9  24328559.624 6         0.000 6     -2456.073 6        37.977 6
G27  21981713.730 9 115514658.444 9      2503.085 9        55.383 9  21981715.655 6         0.000 6      1950.457 6        37.977 6
G16  20492119.228 9 107686793.057 9       535.972 9        55.979 9  20492118.401 6         0.000 6       417.640 6        37.977 6
G26  20668006.385 9 108611084.256 9     -1495.436 9        55.867 9  20668009.207 6         0.000 6     -1165.275 6        37.977 6
G20  21921059.531 9 115195912.460 9      2547.975 9        55.325 9  21921059.840 6         0.000 6      1985.436 6        37.977 6
> 2019 07 03 12 01 48.0000000  0  8       0.000000000000
G07  25326735.926 9 133092849.669 9      2149.003 9        54.138 9  25326736.585 6         0.000 6      1674.549 6        37.977 6
G10  23777023.216 9 124949046.177 9      3541.161 9        54.681 9  23777026.911 6         0.000 6      2759.349 6        37.977 6
G21  21182709.978 9 111315871.545 9     -1280.236 9        55.704 9  21182709.265 6         0.000 6      -997.587 6        37.977 6
G29  24329157.552 9 127850528.967 9     -3145.323 9        54.464 9  24329159.157 6         0.000 6     -2450.904 6        37.977 6
G27  21981237.634 9 115512156.544 9      2497.883 9        55.384 9  21981239.559 6         0.000 6      1946.403 6        37.977 6
G16  20492017.391 9 107686257.900 9       532.969 9        55.979 9  20492016.564 6         0.000 6       415.300 6        37.977 6
G26  20668291.051 9 108612580.185 9     -1497.062 9        55.867 9  20668293.873 6         0.000 6     -1166.542 6        37.977 6
G20  21920574.596 9 115193364.112 9      2550.275 9        55.325 9  21920574.904 6         0.000 6      1987.229 6        37.977 6
> 2019 07 03 12 01 49.0000000  0  8       0.000000000000
G07  25326327.088 9 133090701.218 9      2149.282 9        54.139 9  25326327.747 6         0.000 6      1674.766 6        37.977 6
G10  23776349.508 9 124945505.829 9      3538.298 9        54.681 9  23776353.203 6         0.000 6      2757.118 6        37.977 6
G21  21182953.097 9 111317149.143 9     -1275.071 9        55.704 9  21182952.385 6         0.000 6      -993.562 6        37.977 6
G29  24329754.783 9 127853667.428 9     -3132.445 9        54.464 9  24329756.389 6         0.000 6     -2440.868 6        37.977 6
G27  21980763.207 9 115509663.414 9      2489.253 9        55.384 9  21980765.131 6         0.000 6      1939.679 6        37.977 6
G16  20491916.474 9 107685727.579 9       528.037 9        55.979 9  20491915.647 6         0.000 6       411.458 6        37.977 6
G26  20668576.377 9 108614079.578 9     -1502.124 9        55.867 9  20668579.198 6         0.000 6     -1170.487 6        37.977 6
G20  21920089.054 9 115190812.578 9      2551.726 9        55.325 9  21920089.362 6         0.000 6      1988.359 6        37.977 6
> 2019 07 03 12 01 50.0000000  0  8       0.000000000000
G07  25325917.275 9 133088547.638 9      2159.102 9        54.139 9  25325917.934 6         0.000 6      1682.418 6        37.977 6
G10  23775677.207 9 124941972.874 9      3526.633 9        54.682 9  23775680.901 6         0.000 6      2748.029 6        37.977 6
G21  21183195.258 9 111318421.710 9     -1270.479 9        55.704 9  21183194.546 6         0.000 6      -989.984 6        37.977 6
G29  24330349.997 9 127856795.288 9     -3124.773 9        54.464 9  24330351.604 6         0.000 6     -2434.891 6        37.977 6
G27  21980289.919 9 115507176.275 9      2486.286 9        55.384 9  21980291.843 6         0.000 6      1937.366 6        37.977 6
G16  20491816.295 9 107685201.136 9       525.411 9        55.979 9  20491815.468 6         0.000 6       409.411 6        37.977 6
G26  20668862.972 9 108615585.646 9     -1510.136 9        55.867 9  20668865.794 6         0.000 6     -1176.730 6        37.977 6
G20  21919603.937 9 115188263.271 9      2545.803 9        55.325 9  21919604.244 6         0.000 6      1983.744 6        37.977 6
> 2019 07 03 12 01 51.0000000  0  8       0.000000000000
G07  25325505.994 9 133086386.343 9      2162.429 9        54.139 9  25325506.652 6         0.000 6      1685.010 6        37.977 6
G10  23775006.597 9 124938448.807 9      3522.626 9        54.682 9  23775010.291 6         0.000 6      2744.906 6        37.977 6
G21  21183436.958 9 111319691.849 9     -1270.061 9        55.704 9  21183436.246 6         0.000 6      -989.658 6        37.977 6
G29  24330944.577 9 127859919.815 9     -3124.509 9        54.464 9  24330946.184 6         0.000 6     -2434.685 6        37.977 6
G27  21979816.745 9 115504689.731 9      2486.697 9        55.384 9  21979818.669 6         0.000 6      1937.687 6        37.977 6
G16  20491716.363 9 107684675.989 9       524.894 9        55.979 9  20491715.536 6         0.000 6       409.008 6        37.977 6
G26  20669150.636 9 108617097.331 9     -1512.653 9        55.867 9  20669153.458 6         0.000 6     -1178.691 6        37.977 6
G20  21919119.830 9 115185719.279 9      2542.871 9        55.325 9  21919120.137 6         0.000 6      1981.459 6        37.977 6
> 2019 07 03 12 01 52.0000000  0  8       0.000000000000
G07  25325094.476 9 133084223.807 9      2162.471 9        54.139 9  25325095.134 6         0.000 6      1685.043 6        37.977 6
G10  23774336.342 9 124934926.604 9      3521.979 9        54.682 9  23774340.035 6         0.000 6      2744.402 6        37.977 6
G21  21183678.665 9 111320962.029 9     -1270.335 9        55.704 9  21183677.953 6         0.000 6      -989.872 6        37.977 6
G29  24331539.160 9 127863044.361 9     -3124.602 9        54.464 9  24331540.768 6         0.000 6     -2434.757 6        37.977 6
G27  21979343.549 9 115502203.070 9      2486.584 9        55.384 9  21979345.473 6         0.000 6      1937.599 6        37.977 6
G16  20491616.533 9 107684151.379 9       524.312 9        55.979 9  20491615.706 6         0.000 6       408.554 6        37.977 6
G26  20669438.569 9 108618610.427 9     -1513.463 9        55.867 9  20669441.392 6         0.000 6     -1179.322 6        37.977 6
G20  21918636.024 9 115183176.864 9      2542.085 9        55.326 9  21918636.331 6         0.000 6      1980.846 6        37.977 6
> 2019 07 03 12 01 53.0000000  0  8       0.000000000000
G07  25324683.010 9 133082061.541 9      2162.053 9        54.139 9  25324683.668 6         0.000 6      1684.718 6        37.977 6
G10  23773666.152 9 124931404.740 9      3521.788 9        54.682 9  23773669.844 6         0.000 6      2744.253 6        37.977 6
G21  21183920.436 9 111322232.540 9     -1270.689 9        55.704 9  21183919.724 6         0.000 6      -990.148 6        37.977 6
G29  24332133.760 9 127866168.992 9     -3124.687 9        54.463 9  24332135.368 6         0.000 6     -2434.824 6        37.977 6
G27  21978870.390 9 115499716.606 9      2486.354 9        55.384 9  21978872.314 6         0.000 6      1937.419 6        37.977 6
G16  20491516.820 9 107683627.380 9       523.692 9        55.979 9  20491515.992 6         0.000 6       408.072 6        37.977 6
G26  20669726.630 9 108620124.195 9     -1514.062 9        55.867 9  20669729.453 6         0.000 6     -1179.789 6        37.977 6
G20  21918152.328 9 115180635.031 9      2541.603 9        55.326 9  21918152.635 6         0.000 6      1980.471 6        37.977 6
> 2019 07 03 12 01 54.0000000  0  8       0.000000000000
G07  25324271.628 9 133079899.719 9      2161.593 9        54.139 9  25324272.286 6         0.000 6      1684.359 6        37.977 6
G10  23772995.992 9 124927883.035 9      3521.644 9        54.683 9  23772999.683 6         0.000 6      2744.141 6        37.977 6
G21  21184162.273 9 111323503.403 9     -1271.043 9        55.704 9  21184161.561 6         0.000 6      -990.423 6        37.977 6
G29  24332728.376 9 127869293.710 9     -3124.770 9        54.463 9  24332729.985 6         0.000 6     -2434.889 6        37.977 6
G27  21978397.275 9 115497230.371 9      2486.118 9        55.385 9  21978399.198 6         0.000 6      1937.235 6        37.977 6
G16  20491417.222 9 107683103.993 9       523.078 9        55.979 9  20491416.395 6         0.000 6       407.593 6        37.977 6
G26  20670014.801 9 108621638.540 9     -1514.633 9        55.867 9  20670017.623 6         0.000 6     -1180.234 6        37.977 6
G20  21917668.720 9 115178093.656 9      2541.155 9        55.326 9  21917669.026 6         0.000 6      1980.122 6        37.977 6
> 2019 07 03 12 01 55.0000000  0  8       0.000000000000
G07  25323860.335 9 133077738.361 9      2161.130 9        54.139 9  25323860.992 6         0.000 6      1683.998 6        37.977 6
G10  23772325.859 9 124924361.473 9      3521.501 9        54.683 9  23772329.549 6         0.000 6      2744.029 6        37.977 6
G21  21184404.178 9 111324774.624 9     -1271.401 9        55.704 9  21184403.466 6         0.000 6      -990.702 6        37.977 6
G29  24333323.008 9 127872418.512 9     -3124.855 9        54.463 9  24333324.617 6         0.000 6     -2434.954 6        37.977 6
G27  21977924.205 9 115494744.376 9      2485.879 9        55.385 9  21977926.128 6         0.000 6      1937.049 6        37.977 6
G16  20491317.743 9 107682581.225 9       522.460 9        55.979 9  20491316.916 6         0.000 6       407.111 6        37.977 6
G26  20670303.080 9 108623153.458 9     -1515.206 9        55.866 9  20670305.903 6         0.000 6     -1180.680 6        37.977 6
G20  21917185.197 9 115175552.729 9      2540.707 9        55.326 9  21917185.503 6         0.000 6      1979.773 6        37.977 6
> 2019 07 03 12 01 56.0000000  0  8       0.000000000000
G07  25323449.130 9 133075577.469 9      2160.667 9        54.140 9  25323449.787 6         0.000 6      1683.637 6        37.977 6
G10  23771655.753 9 124920840.052 9      3521.358 9        54.683 9  23771659.443 6         0.000 6      2743.918 6        37.977 6
G21  21184646.151 9 111326046.201 9     -1271.758 9        55.704 9  21184645.440 6         0.000 6      -990.981 6        37.977 6
G29  24333917.655 9 127875543.393 9     -3124.939 9        54.463 9  24333919.265 6         0.000 6     -2435.020 6        37.977 6
G27  21977451.181 9 115492258.622 9      2485.640 9        55.385 9  21977453.105 6         0.000 6      1936.863 6        37.977 6
G16  20491218.381 9 107682059.075 9       521.842 9        55.979 9  20491217.554 6         0.000 6       406.630 6        37.977 6
G26  20670591.469 9 108624668.948 9     -1515.779 9        55.866 9  20670594.292 6         0.000 6     -1181.127 6        37.977 6
G20  21916701.758 9 115173012.248 9      2540.258 9        55.326 9  21916702.064 6         0.000 6      1979.423 6        37.977 6
> 2019 07 03 12 01 57.0000000  0  8       0.000000000000
G07  25323038.012 9 133073417.035 9      2160.203 9        54.140 9  25323038.670 6         0.000 6      1683.276 6        37.977 6
G10  23770985.675 9 124917318.781 9      3521.215 9        54.683 9  23770989.364 6         0.000 6      2743.806 6        37.977 6
G21  21184888.194 9 111327318.140 9     -1272.116 9        55.703 9  21184887.482 6         0.000 6      -991.259 6        37.977 6
G29  24334512.319 9 127878668.363 9     -3125.023 9        54.463 9  24334513.930 6         0.000 6     -2435.085 6        37.977 6
G27  21976978.203 9 115489773.106 9      2485.401 9        55.385 9  21976980.126 6         0.000 6      1936.677 6        37.977 6
G16  20491119.137 9 107681537.546 9       521.223 9        55.979 9  20491118.310 6         0.000 6       406.148 6        37.977 6
G26  20670879.967 9 108626185.016 9     -1516.351 9        55.866 9  20670882.790 6         0.000 6     -1181.573 6        37.977 6
G20  21916218.407 9 115170472.223 9      2539.810 9        55.326 9  21916218.712 6         0.000 6      1979.074 6        37.977 6
> 2019 07 03 12 01 58.0000000  0  8       0.000000000000
G07  25322626.984 9 133071257.070 9      2159.742 9        54.140 9  25322627.641 6         0.000 6      1682.917 6        37.977 6
G10  23770315.623 9 124913797.646 9      3521.067 9        54.684 9  23770319.312 6         0.000 6      2743.691 6        37.977 6
G21  21185130.304 9 111328590.438 9     -1272.476 9        55.703 9  21185129.592 6         0.000 6      -991.540 6        37.977 6
G29  24335106.999 9 127881793.419 9     -3125.107 9        54.462 9  24335108.611 6         0.000 6     -2435.151 6        37.977 6
G27  21976505.270 9 115487287.831 9      2485.160 9        55.385 9  21976507.193 6         0.000 6      1936.489 6        37.977 6
G16  20491020.011 9 107681016.636 9       520.602 9        55.979 9  20491019.184 6         0.000 6       405.664 6        37.977 6
G26  20671168.574 9 108627701.654 9     -1516.929 9        55.866 9  20671171.397 6         0.000 6     -1182.023 6        37.977 6
G20  21915735.140 9 115167932.642 9      2539.357 9        55.327 9  21915735.445 6         0.000 6      1978.721 6        37.977 6
> 2019 07 03 12 01 59.0000000  0  8       0.000000000000
G07  25322216.043 9 133069097.564 9      2159.278 9        54.140 9  25322216.700 6         0.000 6      1682.556 6        37.977 6
G10  23769645.600 9 124910276.661 9      3520.924 9        54.684 9  23769649.288 6         0.000 6      2743.580 6        37.977 6
G21  21185372.482 9 111329863.092 9     -1272.834 9        55.703 9  21185371.770 6         0.000 6      -991.819 6        37.977 6
G29  24335701.695 9 127884918.558 9     -3125.191 9        54.462 9  24335703.307 6         0.000 6     -2435.217 6        37.977 6
G27  21976032.383 9 115484802.793 9      2484.921 9        55.386 9  21976034.305 6         0.000 6      1936.303 6        37.977 6
G16  20490921.003 9 107680496.343 9       519.983 9        55.979 9  20490920.176 6         0.000 6       405.182 6        37.977 6
G26  20671457.291 9 108629218.867 9     -1517.502 9        55.866 9  20671460.114 6         0.000 6     -1182.469 6        37.977 6
G20  21915251.959 9 115165393.514 9      2538.908 9        55.327 9  21915252.264 6         0.000 6      1978.371 6        37.977 6
> 2019 07 03 12 02  0.0000000  0  8       0.000000000000
G07  25321805.215 9 133066938.652 9      2159.419 9        54.140 9  25321805.872 6         0.000 6      1682.665 6        37.977 6
G10  23768975.579 9 124906755.687 9      3520.182 9        54.684 9  23768979.266 6         0.000 6      2743.002 6        37.977 6
G21  21185614.732 9 111331136.125 9     -1273.113 9        55.703 9  21185614.021 6         0.000 6      -992.037 6        37.977 6
G29  24336296.408 9 127888043.782 9     -3125.334 9        54.462 9  24336298.020 6         0.000 6     -2435.328 6        37.977 6
G27  21975559.546 9 115482318.023 9      2484.862 9        55.386 9  21975561.469 6         0.000 6      1936.257 6        37.977 6
G16  20490822.113 9 107679976.675 9       519.420 9        55.979 9  20490821.286 6         0.000 6       404.742 6        37.977 6
G26  20671746.104 9 108630736.588 9     -1518.348 9        55.866 9  20671748.927 6         0.000 6     -1183.129 6        37.977 6
G20  21914768.846 9 115162854.746 9      2538.043 9        55.327 9  21914769.151 6         0.000 6      1977.697 6        37.977 6
