     3.00           Observation Data    M (Mixed)           RINEX VERSION / TYPE
SimGEN V6.06.00     Spirent             03-Jul-19 12:00     PGM / RUN BY / DATE 
                                                            MARKER NAME         
1                                                           MARKER NUMBER       
GROUND_CRAFT                                                MARKER TYPE         
jin4hi              Spirent                                 OBSERVER / AGENCY   
rec_num             rec_type            rec_vers            REC # / TYPE / VERS 
1                   ant_type                                ANT # / TYPE        
  1000.000                                                  INTERVAL            
  2019     7     3    12     0    0.0000000     GPS         TIME OF FIRST OBS   
  4162631.3050   664402.0710  4770568.3590                  APPROX POSITION XYZ 
        0.0000        0.0000        0.0000                  ANTENNA: DELTA H/E/N
G    8 C1C L1C D1C S1C C2C L2C D2C S2C                      SYS / # / OBS TYPES 
        0.0000        0.0000        0.0000                  ANTENNA: DELTA X/Y/Z
DBHZ                                                        SIGNAL STRENGTH UNIT
                                                            END OF HEADER       
> 2019 07 03 12 00  0.0000000  0  8       0.000000000000
G07  25371974.570 9 133330579.956 9      2252.340 9        54.123 9  25371975.253 6         0.000 6      1755.070 6        37.977 6
G10  23849418.594 9 125329485.303 9      3502.612 9        54.655 9  23849422.360 6         0.000 6      2729.308 6        37.977 6
G21  21156807.129 9 111179751.230 9     -1235.252 9        55.715 9  21156806.412 6         0.000 6      -962.534 6        37.977 6
G29  24264389.582 9 127510172.093 9     -3143.725 9        54.488 9  24264391.119 6         0.000 6     -2449.656 6        37.977 6
G27  22033122.104 9 115784810.978 9      2541.840 9        55.363 9  22033124.047 6         0.000 6      1980.654 6        37.977 6
G16  20503766.150 9 107747998.040 9       606.084 9        55.974 9  20503765.323 6         0.000 6       472.274 6        37.977 6
G26  20637960.145 9 108453190.383 9     -1457.928 9        55.880 9  20637962.955 6         0.000 6     -1136.048 6        37.977 6
G20  21973059.250 9 115469172.342 9      2559.954 9        55.304 9  21973059.588 6         0.000 6      1994.770 6        37.977 6
> 2019 07 03 12 00  1.0000000  0  8       0.000000000000
G07  25371546.683 9 133328331.402 9      2245.885 9        54.123 9  25371547.367 6         0.000 6      1750.041 6        37.977 6
G10  23848751.389 9 125325979.127 9      3508.574 9        54.655 9  23848755.154 6         0.000 6      2733.957 6        37.977 6
G21  21157042.324 9 111180987.188 9     -1236.495 9        55.715 9  21157041.607 6         0.000 6      -963.503 6        37.977 6
G29  24264987.816 9 127513315.823 9     -3143.744 9        54.487 9  24264989.354 6         0.000 6     -2449.673 6        37.977 6
G27  22032638.598 9 115782270.136 9      2540.129 9        55.363 9  22032640.540 6         0.000 6      1979.322 6        37.977 6
G16  20503650.932 9 107747392.564 9       604.964 9        55.974 9  20503650.105 6         0.000 6       471.400 6        37.977 6
G26  20638237.322 9 108454646.957 9     -1455.751 9        55.880 9  20638240.132 6         0.000 6     -1134.352 6        37.977 6
G20  21972571.676 9 115466610.126 9      2563.682 9        55.304 9  21972572.013 6         0.000 6      1997.676 6        37.977 6
> 2019 07 03 12 00  2.0000000  0  8       0.000000000000
G07  25371119.494 9 133326086.512 9      2244.189 9        54.123 9  25371120.177 6         0.000 6      1748.719 6        37.977 6
G10  23848083.596 9 125322469.862 9      3509.690 9        54.655 9  23848087.360 6         0.000 6      2734.826 6        37.977 6
G21  21157277.678 9 111182223.981 9     -1237.044 9        55.715 9  21157276.961 6         0.000 6      -963.930 6        37.977 6
G29  24265586.058 9 127516459.597 9     -3143.817 9        54.487 9  24265587.597 6         0.000 6     -2449.730 6        37.977 6
G27  22032155.285 9 115779730.312 9      2539.587 9        55.363 9  22032157.227 6         0.000 6      1978.900 6        37.977 6
G16  20503535.882 9 107746787.974 9       604.237 9        55.974 9  20503535.055 6         0.000 6       470.834 6        37.977 6
G26  20638514.331 9 108456102.650 9     -1455.770 9        55.880 9  20638517.141 6         0.000 6     -1134.367 6        37.977 6
G20  21972083.765 9 115464046.144 9      2564.099 9        55.305 9  21972084.103 6         0.000 6      1998.000 6        37.977 6
> 2019 07 03 12 00  3.0000000  0  8       0.000000000000
G07  25370692.506 9 133323842.679 9      2243.598 9        54.123 9  25370693.189 6         0.000 6      1748.259 6        37.977 6
G10  23847415.712 9 125318960.121 9      3509.701 9        54.656 9  23847419.476 6         0.000 6      2734.835 6        37.977 6
G21  21157513.117 9 111183461.220 9     -1237.425 9        55.715 9  21157512.400 6         0.000 6      -964.228 6        37.977 6
G29  24266184.314 9 127519603.443 9     -3143.909 9        54.487 9  24266185.853 6         0.000 6     -2449.801 6        37.977 6
G27  22031672.046 9 115777190.879 9      2539.321 9        55.364 9  22031673.988 6         0.000 6      1978.692 6        37.977 6
G16  20503420.960 9 107746184.057 9       603.610 9        55.974 9  20503420.133 6         0.000 6       470.345 6        37.977 6
G26  20638791.399 9 108457558.651 9     -1456.285 9        55.880 9  20638794.210 6         0.000 6     -1134.768 6        37.977 6
G20  21971595.858 9 115461482.177 9      2563.763 9        55.305 9  21971596.195 6         0.000 6      1997.738 6        37.977 6
> 2019 07 03 12 00  4.0000000  0  8       0.000000000000
G07  25370265.542 9 133321598.968 9      2244.662 9        54.124 9  25370266.224 6         0.000 6      1749.088 6        37.977 6
G10  23846747.901 9 125315450.763 9      3508.478 9        54.656 9  23846751.665 6         0.000 6      2733.882 6        37.977 6
G21  21157748.656 9 111184698.989 9     -1238.749 9        55.715 9  21157747.940 6         0.000 6      -965.259 6        37.977 6
G29  24266782.690 9 127522747.918 9     -3146.951 9        54.487 9  24266784.229 6         0.000 6     -2452.172 6        37.977 6
G27  22031188.769 9 115774651.244 9      2541.418 9        55.364 9  22031190.711 6         0.000 6      1980.327 6        37.977 6
G16  20503306.118 9 107745580.555 9       604.089 9        55.974 9  20503305.291 6         0.000 6       470.718 6        37.977 6
G26  20639068.576 9 108459015.222 9     -1456.657 9        55.880 9  20639071.386 6         0.000 6     -1135.058 6        37.977 6
G20  21971108.095 9 115458918.970 9      2561.745 9        55.305 9  21971108.431 6         0.000 6      1996.166 6        37.977 6
> 2019 07 03 12 00  5.0000000  0  8       0.000000000000
G07  25369838.178 9 133319353.159 9      2246.515 9        54.124 9  25369838.860 6         0.000 6      1750.532 6        37.977 6
G10  23846080.417 9 125311943.121 9      3507.295 9        54.656 9  23846084.180 6         0.000 6      2732.960 6        37.977 6
G21  21157984.701 9 111185939.411 9     -1242.199 9        55.715 9  21157983.984 6         0.000 6      -967.948 6        37.977 6
G29  24267382.349 9 127525899.137 9     -3155.605 9        54.486 9  24267383.889 6         0.000 6     -2458.915 6        37.977 6
G27  22030704.573 9 115772106.778 9      2547.482 9        55.364 9  22030706.515 6         0.000 6      1985.051 6        37.977 6
G16  20503190.932 9 107744975.252 9       606.520 9        55.974 9  20503190.106 6         0.000 6       472.613 6        37.977 6
G26  20639345.694 9 108460471.488 9     -1455.637 9        55.879 9  20639348.505 6         0.000 6     -1134.263 6        37.977 6
G20  21970620.979 9 115456359.167 9      2558.161 9        55.305 9  21970621.316 6         0.000 6      1993.373 6        37.977 6
> 2019 07 03 12 00  6.0000000  0  8       0.000000000000
G07  25369410.788 9 133317107.214 9      2244.469 9        54.124 9  25369411.470 6         0.000 6      1748.938 6        37.977 6
G10  23845412.829 9 125308434.933 9      3510.001 9        54.656 9  23845416.591 6         0.000 6      2735.068 6        37.977 6
G21  21158221.455 9 111187183.559 9     -1246.186 9        55.714 9  21158220.738 6         0.000 6      -971.054 6        37.977 6
G29  24267983.661 9 127529059.043 9     -3164.091 9        54.486 9  24267985.202 6         0.000 6     -2465.528 6        37.977 6
G27  22030219.295 9 115769556.629 9      2552.517 9        55.364 9  22030221.237 6         0.000 6      1988.975 6        37.977 6
G16  20503075.307 9 107744367.638 9       608.592 9        55.974 9  20503074.480 6         0.000 6       474.228 6        37.977 6
G26  20639622.466 9 108461925.932 9     -1452.874 9        55.879 9  20639625.277 6         0.000 6     -1132.110 6        37.977 6
G20  21970134.325 9 115453801.783 9      2557.262 9        55.305 9  21970134.661 6         0.000 6      1992.673 6        37.977 6
> 2019 07 03 12 00  7.0000000  0  8       0.000000000000
G07  25368984.473 9 133314866.918 9      2236.970 9        54.124 9  25368985.155 6         0.000 6      1743.094 6        37.977 6
G10  23844744.062 9 125304920.549 9      3517.720 9        54.656 9  23844747.823 6         0.000 6      2741.083 6        37.977 6
G21  21158459.002 9 111188431.876 9     -1249.722 9        55.714 9  21158458.285 6         0.000 6      -973.810 6        37.977 6
G29  24268586.414 9 127532226.523 9     -3169.386 9        54.486 9  24268587.955 6         0.000 6     -2469.654 6        37.977 6
G27  22029733.335 9 115767002.897 9      2554.135 9        55.364 9  22029735.277 6         0.000 6      1990.236 6        37.977 6
G16  20502959.397 9 107743758.527 9       609.186 9        55.974 9  20502958.570 6         0.000 6       474.690 6        37.977 6
G26  20639898.448 9 108463376.224 9     -1448.574 9        55.879 9  20639901.259 6         0.000 6     -1128.759 6        37.977 6
G20  21969647.340 9 115451242.669 9      2560.675 9        55.305 9  21969647.676 6         0.000 6      1995.332 6        37.977 6
> 2019 07 03 12 00  8.0000000  0  8       0.000000000000
G07  25368559.044 9 133312631.276 9      2234.860 9        54.124 9  25368559.725 6         0.000 6      1741.450 6        37.977 6
G10  23844074.447 9 125301401.708 9      3519.422 9        54.657 9  23844078.207 6         0.000 6      2742.409 6        37.977 6
G21  21158696.931 9 111189682.203 9     -1250.793 9        55.714 9  21158696.214 6         0.000 6      -974.644 6        37.977 6
G29  24269189.656 9 127535396.572 9     -3170.586 9        54.486 9  24269191.198 6         0.000 6     -2470.589 6        37.977 6
G27  22029247.291 9 115764448.719 9      2554.252 9        55.365 9  22029249.232 6         0.000 6      1990.327 6        37.977 6
G16  20502843.507 9 107743149.522 9       608.814 9        55.974 9  20502842.681 6         0.000 6       474.401 6        37.977 6
G26  20640174.023 9 108464824.380 9     -1448.038 9        55.879 9  20640176.834 6         0.000 6     -1128.342 6        37.977 6
G20  21969159.981 9 115448681.583 9      2561.166 9        55.306 9  21969160.317 6         0.000 6      1995.715 6        37.977 6
> 2019 07 03 12 00  9.0000000  0  8       0.000000000000
G07  25368133.818 9 133310396.703 9      2234.388 9        54.124 9  25368134.499 6         0.000 6      1741.083 6        37.977 6
G10  23843404.715 9 125297882.252 9      3519.408 9        54.657 9  23843408.475 6         0.000 6      2742.398 6        37.977 6
G21  21158935.012 9 111190933.328 9     -1251.428 9        55.714 9  21158934.296 6         0.000 6      -975.139 6        37.977 6
G29  24269793.073 9 127538567.538 9     -3171.322 9        54.486 9  24269794.616 6         0.000 6     -2471.162 6        37.977 6
G27  22028761.215 9 115761894.373 9      2554.437 9        55.365 9  22028763.156 6         0.000 6      1990.471 6        37.977 6
G16  20502727.691 9 107742540.905 9       608.411 9        55.974 9  20502726.865 6         0.000 6       474.086 6        37.977 6
G26  20640449.605 9 108466272.570 9     -1448.405 9        55.879 9  20640452.416 6         0.000 6     -1128.628 6        37.977 6
G20  21968672.653 9 115446120.663 9      2560.624 9        55.306 9  21968672.989 6         0.000 6      1995.293 6        37.977 6
> 2019 07 03 12 00 10.0000000  0  8       0.000000000000
G07  25367708.656 9 133308162.465 9      2234.088 9        54.124 9  25367709.337 6         0.000 6      1740.849 6        37.977 6
G10  23842735.015 9 125294362.966 9      3519.187 9        54.657 9  23842738.774 6         0.000 6      2742.226 6        37.977 6
G21  21159173.201 9 111192185.019 9     -1251.949 9        55.714 9  21159172.485 6         0.000 6      -975.545 6        37.977 6
G29  24270396.607 9 127541739.119 9     -3171.830 9        54.485 9  24270398.150 6         0.000 6     -2471.558 6        37.977 6
G27  22028275.112 9 115759339.891 9      2554.506 9        55.365 9  22028277.053 6         0.000 6      1990.525 6        37.977 6
G16  20502611.958 9 107741932.721 9       607.939 9        55.974 9  20502611.131 6         0.000 6       473.719 6        37.977 6
G26  20640725.276 9 108467721.227 9     -1448.926 9        55.879 9  20640728.087 6         0.000 6     -1129.033 6        37.977 6
G20  21968185.442 9 115443560.356 9      2560.005 9        55.306 9  21968185.777 6         0.000 6      1994.810 6        37.977 6
> 2019 07 03 12 00 11.0000000  0  8       0.000000000000
G07  25367283.554 9 133305928.544 9      2233.759 9        54.125 9  25367284.235 6         0.000 6      1740.592 6        37.977 6
G10  23842065.356 9 125290843.897 9      3518.974 9        54.657 9  23842069.115 6         0.000 6      2742.060 6        37.977 6
G21  21159411.485 9 111193437.205 9     -1252.411 9        55.714 9  21159410.768 6         0.000 6      -975.904 6        37.977 6
G29  24271000.222 9 127544911.128 9     -3172.188 9        54.485 9  24271001.766 6         0.000 6     -2471.837 6        37.977 6
G27  22027789.008 9 115756785.400 9      2554.471 9        55.365 9  22027790.949 6         0.000 6      1990.497 6        37.977 6
G16  20502496.320 9 107741325.041 9       607.421 9        55.974 9  20502495.493 6         0.000 6       473.315 6        37.977 6
G26  20641001.049 9 108469170.426 9     -1449.475 9        55.879 9  20641003.860 6         0.000 6     -1129.461 6        37.977 6
G20  21967698.345 9 115441000.645 9      2559.436 9        55.306 9  21967698.679 6         0.000 6      1994.367 6        37.977 6
> 2019 07 03 12 00 12.0000000  0  8       0.000000000000
G07  25366858.519 9 133303694.971 9      2233.385 9        54.125 9  25366859.199 6         0.000 6      1740.301 6        37.977 6
G10  23841395.736 9 125287325.028 9      3518.791 9        54.658 9  23841399.494 6         0.000 6      2741.917 6        37.977 6
G21  21159649.852 9 111194689.832 9     -1252.845 9        55.714 9  21159649.135 6         0.000 6      -976.243 6        37.977 6
G29  24271603.895 9 127548083.444 9     -3172.454 9        54.485 9  24271605.440 6         0.000 6     -2472.045 6        37.977 6
G27  22027302.918 9 115754230.982 9      2554.360 9        55.365 9  22027304.859 6         0.000 6      1990.411 6        37.977 6
G16  20502380.784 9 107740717.896 9       606.863 9        55.974 9  20502379.957 6         0.000 6       472.880 6        37.977 6
G26  20641276.928 9 108470620.179 9     -1450.037 9        55.879 9  20641279.740 6         0.000 6     -1129.899 6        37.977 6
G20  21967211.350 9 115438441.478 9      2558.912 9        55.306 9  21967211.685 6         0.000 6      1993.958 6        37.977 6
> 2019 07 03 12 00 13.0000000  0  8       0.000000000000
G07  25366433.556 9 133301461.783 9      2232.988 9        54.125 9  25366434.237 6         0.000 6      1739.991 6        37.977 6
G10  23840726.149 9 125283806.336 9      3518.623 9        54.658 9  23840729.906 6         0.000 6      2741.787 6        37.977 6
G21  21159888.300 9 111195942.886 9     -1253.255 9        55.714 9  21159887.584 6         0.000 6      -976.562 6        37.977 6
G29  24272207.615 9 127551255.999 9     -3172.657 9        54.485 9  24272209.160 6         0.000 6     -2472.203 6        37.977 6
G27  22026816.853 9 115751676.696 9      2554.204 9        55.365 9  22026818.794 6         0.000 6      1990.290 6        37.977 6
G16  20502265.356 9 107740111.318 9       606.286 9        55.974 9  20502264.530 6         0.000 6       472.431 6        37.977 6
G26  20641552.915 9 108472070.498 9     -1450.603 9        55.878 9  20641555.727 6         0.000 6     -1130.341 6        37.977 6
G20  21966724.454 9 115435882.825 9      2558.417 9        55.307 9  21966724.788 6         0.000 6      1993.573 6        37.977 6
> 2019 07 03 12 00 14.0000000  0  8       0.000000000000
G07  25366008.672 9 133299229.006 9      2232.574 9        54.125 9  25366009.352 6         0.000 6      1739.669 6        37.977 6
G10  23840056.592 9 125280287.803 9      3518.466 9        54.658 9  23840060.349 6         0.000 6      2741.664 6        37.977 6
G21  21160126.824 9 111197196.339 9     -1253.653 9        55.714 9  21160126.108 6         0.000 6      -976.872 6        37.977 6
G29  24272811.366 9 127554428.727 9     -3172.819 9        54.485 9  24272812.912 6         0.000 6     -2472.329 6        37.977 6
G27  22026330.822 9 115749122.589 9      2554.015 9        55.366 9  22026332.763 6         0.000 6      1990.142 6        37.977 6
G16  20502150.041 9 107739505.330 9       605.691 9        55.974 9  20502149.214 6         0.000 6       471.967 6        37.977 6
G26  20641829.011 9 108473521.387 9     -1451.178 9        55.878 9  20641831.822 6         0.000 6     -1130.788 6        37.977 6
G20  21966237.649 9 115433324.650 9      2557.940 9        55.307 9  21966237.983 6         0.000 6      1993.201 6        37.977 6
> 2019 07 03 12 00 15.0000000  0  8       0.000000000000
G07  25365583.867 9 133296996.644 9      2232.146 9        54.125 9  25365584.547 6         0.000 6      1739.335 6        37.977 6
G10  23839387.065 9 125276769.424 9      3518.319 9        54.658 9  23839390.821 6         0.000 6      2741.550 6        37.977 6
G21  21160365.423 9 111198450.181 9     -1254.040 9        55.714 9  21160364.706 6         0.000 6      -977.174 6        37.977 6
G29  24273415.147 9 127557601.605 9     -3172.954 9        54.484 9  24273416.694 6         0.000 6     -2472.435 6        37.977 6
G27  22025844.828 9 115746568.677 9      2553.806 9        55.366 9  22025846.769 6         0.000 6      1989.980 6        37.977 6
G16  20502034.838 9 107738899.935 9       605.090 9        55.975 9  20502034.011 6         0.000 6       471.498 6        37.977 6
G26  20642105.215 9 108474972.848 9     -1451.751 9        55.878 9  20642108.026 6         0.000 6     -1131.235 6        37.977 6
G20  21965750.933 9 115430766.947 9      2557.479 9        55.307 9  21965751.267 6         0.000 6      1992.842 6        37.977 6
> 2019 07 03 12 00 16.0000000  0  8       0.000000000000
G07  25365159.150 9 133294764.745 9      2231.614 9        54.125 9  25365159.830 6         0.000 6      1738.921 6        37.977 6
G10  23838717.562 9 125273251.172 9      3518.241 9        54.659 9  23838721.317 6         0.000 6      2741.489 6        37.977 6
G21  21160604.091 9 111199704.392 9     -1254.349 9        55.713 9  21160603.375 6         0.000 6      -977.415 6        37.977 6
G29  24274018.940 9 127560774.547 9     -3172.852 9        54.484 9  24274020.487 6         0.000 6     -2472.355 6        37.977 6
G27  22025358.885 9 115744015.033 9      2553.412 9        55.366 9  22025360.826 6         0.000 6      1989.673 6        37.977 6
G16  20501919.756 9 107738295.175 9       604.398 9        55.975 9  20501918.929 6         0.000 6       470.959 6        37.977 6
G26  20642381.530 9 108476424.895 9     -1452.352 9        55.878 9  20642384.342 6         0.000 6     -1131.704 6        37.977 6
G20  21965264.299 9 115428209.672 9      2557.131 9        55.307 9  21965264.633 6         0.000 6      1992.571 6        37.977 6
> 2019 07 03 12 00 17.0000000  0  8       0.000000000000
G07  25364734.528 9 133292533.343 9      2230.239 9        54.125 9  25364735.207 6         0.000 6      1737.849 6        37.977 6
G10  23838048.085 9 125269733.058 9      3518.972 9        54.659 9  23838051.839 6         0.000 6      2742.059 6        37.977 6
G21  21160842.804 9 111200958.836 9     -1254.683 9        55.713 9  21160842.088 6         0.000 6      -977.675 6        37.977 6
G29  24274622.680 9 127563947.214 9     -3172.496 9        54.484 9  24274624.228 6         0.000 6     -2472.078 6        37.977 6
G27  22024873.038 9 115741461.890 9      2552.654 9        55.366 9  22024874.978 6         0.000 6      1989.081 6        37.977 6
G16  20501804.816 9 107737691.161 9       603.561 9        55.975 9  20501803.989 6         0.000 6       470.307 6        37.977 6
G26  20642657.974 9 108477877.612 9     -1452.639 9        55.878 9  20642660.785 6         0.000 6     -1131.927 6        37.977 6
G20  21964777.730 9 115425652.737 9      2557.405 9        55.307 9  21964778.063 6         0.000 6      1992.784 6        37.977 6
> 2019 07 03 12 00 18.0000000  0  8       0.000000000000
G07  25364311.456 9 133290310.087 9      2215.756 9        54.126 9  25364312.135 6         0.000 6      1726.564 6        37.977 6
G10  23837377.209 9 125266207.594 9      3532.344 9        54.659 9  23837380.963 6         0.000 6      2752.479 6        37.977 6
G21  21161081.684 9 111202214.156 9     -1255.590 9        55.713 9  21161080.968 6         0.000 6      -978.382 6        37.977 6
G29  24275226.116 9 127567118.280 9     -3168.552 9        54.484 9  24275227.664 6         0.000 6     -2469.004 6        37.977 6
G27  22024387.794 9 115738911.920 9      2546.433 9        55.366 9  22024389.734 6         0.000 6      1984.234 6        37.977 6
G16  20501690.210 9 107737088.903 9       600.551 9        55.975 9  20501689.383 6         0.000 6       467.962 6        37.977 6
G26  20642933.947 9 108479327.862 9     -1447.957 9        55.878 9  20642936.759 6         0.000 6     -1128.278 6        37.977 6
G20  21964290.187 9 115423090.688 9      2567.266 9        55.308 9  21964290.520 6         0.000 6      2000.468 6        37.977 6
> 2019 07 03 12 00 19.0000000  0  8       0.000000000000
G07  25363891.241 9 133288101.848 9      2200.761 9        54.126 9  25363891.920 6         0.000 6      1714.879 6        37.977 6
G10  23836703.782 9 125262668.721 9      3545.190 9        54.659 9  23836707.535 6         0.000 6      2762.488 6        37.977 6
G21  21161320.489 9 111203469.088 9     -1253.725 9        55.713 9  21161319.773 6         0.000 6      -976.929 6        37.977 6
G29  24275828.153 9 127570281.998 9     -3157.547 9        54.483 9  24275829.702 6         0.000 6     -2460.429 6        37.977 6
G27  22023904.192 9 115736370.575 9      2535.360 9        55.367 9  22023906.131 6         0.000 6      1975.606 6        37.977 6
G16  20501576.400 9 107736490.828 9       595.146 9        55.975 9  20501575.573 6         0.000 6       463.750 6        37.977 6
G26  20643209.183 9 108480774.232 9     -1445.227 9        55.878 9  20643211.995 6         0.000 6     -1126.151 6        37.977 6
G20  21963800.579 9 115420517.783 9      2578.779 9        55.308 9  21963800.911 6         0.000 6      2009.440 6        37.977 6
> 2019 07 03 12 00 20.0000000  0  8       0.000000000000
G07  25363473.578 9 133285907.019 9      2192.227 9        54.126 9  25363474.257 6         0.000 6      1708.230 6        37.977 6
G10  23836028.288 9 125259118.986 9      3551.514 9        54.660 9  23836032.041 6         0.000 6      2767.416 6        37.977 6
G21  21161558.694 9 111204720.861 9     -1250.806 9        55.713 9  21161557.978 6         0.000 6      -974.654 6        37.977 6
G29  24276427.600 9 127573432.100 9     -3146.389 9        54.483 9  24276429.149 6         0.000 6     -2451.734 6        37.977 6
G27  22023422.960 9 115733841.687 9      2525.688 9        55.367 9  22023424.899 6         0.000 6      1968.069 6        37.977 6
G16  20501463.763 9 107735898.919 9       590.165 9        55.975 9  20501462.937 6         0.000 6       459.869 6        37.977 6
G26  20643484.195 9 108482219.428 9     -1445.550 9        55.878 9  20643487.007 6         0.000 6     -1126.403 6        37.977 6
G20  21963308.894 9 115417933.968 9      2585.914 9        55.308 9  21963309.226 6         0.000 6      2014.999 6        37.977 6
> 2019 07 03 12 00 21.0000000  0  8       0.000000000000
G07  25363056.560 9 133283715.574 9      2190.947 9        54.126 9  25363057.238 6         0.000 6      1707.232 6        37.977 6
G10  23835352.394 9 125255567.150 9      3551.979 9        54.660 9  23835356.146 6         0.000 6      2767.779 6        37.977 6
G21  21161796.685 9 111205971.514 9     -1250.670 9        55.713 9  21161795.969 6         0.000 6      -974.549 6        37.977 6
G29  24277026.146 9 127576577.469 9     -3144.898 9        54.483 9  24277027.696 6         0.000 6     -2450.573 6        37.977 6
G27  22022942.519 9 115731316.958 9      2524.196 9        55.367 9  22022944.459 6         0.000 6      1966.906 6        37.977 6
G16  20501351.592 9 107735309.453 9       588.966 9        55.975 9  20501350.765 6         0.000 6       458.934 6        37.977 6
G26  20643759.342 9 108483665.333 9     -1446.226 9        55.878 9  20643762.154 6         0.000 6     -1126.930 6        37.977 6
G20  21962816.745 9 115415347.711 9      2586.324 9        55.308 9  21962817.077 6         0.000 6      2015.319 6        37.977 6
> 2019 07 03 12 00 22.0000000  0  8       0.000000000000
G07  25362639.693 9 133281524.930 9      2190.377 9        54.126 9  25362640.372 6         0.000 6      1706.788 6        37.977 6
G10  23834676.477 9 125252015.194 9      3551.940 9        54.660 9  23834680.228 6         0.000 6      2767.748 6        37.977 6
G21  21162034.710 9 111207222.340 9     -1250.997 9        55.713 9  21162033.994 6         0.000 6      -974.803 6        37.977 6
G29  24277624.587 9 127579722.289 9     -3144.822 9        54.483 9  24277626.138 6         0.000 6     -2450.513 6        37.977 6
G27  22022462.222 9 115728792.981 9      2523.817 9        55.367 9  22022464.161 6         0.000 6      1966.612 6        37.977 6
G16  20501239.582 9 107734720.839 9       588.293 9        55.975 9  20501238.755 6         0.000 6       458.410 6        37.977 6
G26  20644034.604 9 108485111.847 9     -1446.790 9        55.877 9  20644037.417 6         0.000 6     -1127.369 6        37.977 6
G20  21962324.613 9 115412761.546 9      2585.989 9        55.308 9  21962324.945 6         0.000 6      2015.058 6        37.977 6
> 2019 07 03 12 00 23.0000000  0  8       0.000000000000
G07  25362222.925 9 133279334.803 9      2189.888 9        54.126 9  25362223.603 6         0.000 6      1706.407 6        37.977 6
G10  23834000.575 9 125248463.315 9      3551.837 9        54.660 9  23834004.326 6         0.000 6      2767.668 6        37.977 6
G21  21162272.802 9 111208473.520 9     -1251.372 9        55.713 9  21162272.086 6         0.000 6      -975.096 6        37.977 6
G29  24278223.032 9 127582867.128 9     -3144.888 9        54.483 9  24278224.583 6         0.000 6     -2450.565 6        37.977 6
G27  22021981.981 9 115726269.301 9      2523.551 9        55.367 9  22021983.920 6         0.000 6      1966.404 6        37.977 6
G16  20501127.693 9 107734132.857 9       587.670 9        55.975 9  20501126.866 6         0.000 6       457.925 6        37.977 6
G26  20644309.972 9 108486558.915 9     -1447.352 9        55.877 9  20644312.785 6         0.000 6     -1127.807 6        37.977 6
G20  21961832.555 9 115410175.768 9      2585.570 9        55.309 9  21961832.887 6         0.000 6      2014.731 6        37.977 6
> 2019 07 03 12 00 24.0000000  0  8       0.000000000000
G07  25361806.249 9 133277145.156 9      2189.420 9        54.126 9  25361806.926 6         0.000 6      1706.042 6        37.977 6
G10  23833324.693 9 125244911.545 9      3551.719 9        54.661 9  23833328.443 6         0.000 6      2767.576 6        37.977 6
G21  21162510.966 9 111209725.081 9     -1251.744 9        55.713 9  21162510.250 6         0.000 6      -975.385 6        37.977 6
G29  24278821.492 9 127586012.049 9     -3144.968 9        54.482 9  24278823.044 6         0.000 6     -2450.627 6        37.977 6
G27  22021501.789 9 115723745.877 9      2523.304 9        55.368 9  22021503.728 6         0.000 6      1966.211 6        37.977 6
G16  20501015.921 9 107733545.493 9       587.060 9        55.975 9  20501015.094 6         0.000 6       457.449 6        37.977 6
G26  20644585.448 9 108488006.545 9     -1447.912 9        55.877 9  20644588.260 6         0.000 6     -1128.244 6        37.977 6
G20  21961340.579 9 115407590.418 9      2585.138 9        55.309 9  21961340.910 6         0.000 6      2014.394 6        37.977 6
> 2019 07 03 12 00 25.0000000  0  8       0.000000000000
G07  25361389.660 9 133274955.971 9      2188.958 9        54.127 9  25361390.337 6         0.000 6      1705.682 6        37.977 6
G10  23832648.836 9 125241359.899 9      3551.593 9        54.661 9  23832652.585 6         0.000 6      2767.478 6        37.977 6
G21  21162749.201 9 111210977.012 9     -1252.120 9        55.713 9  21162748.485 6         0.000 6      -975.678 6        37.977 6
G29  24279419.968 9 127589157.049 9     -3145.053 9        54.482 9  24279421.521 6         0.000 6     -2450.693 6        37.977 6
G27  22021021.644 9 115721222.699 9      2523.058 9        55.368 9  22021023.582 6         0.000 6      1966.020 6        37.977 6
G16  20500904.266 9 107732958.739 9       586.448 9        55.975 9  20500903.439 6         0.000 6       456.973 6        37.977 6
G26  20644861.030 9 108489454.738 9     -1448.478 9        55.877 9  20644863.843 6         0.000 6     -1128.684 6        37.977 6
G20  21960848.685 9 115405005.504 9      2584.699 9        55.309 9  21960849.016 6         0.000 6      2014.052 6        37.977 6
> 2019 07 03 12 00 26.0000000  0  8       0.000000000000
G07  25360973.159 9 133272767.248 9      2188.493 9        54.127 9  25360973.836 6         0.000 6      1705.320 6        37.977 6
G10  23831973.002 9 125237808.380 9      3551.470 9        54.661 9  23831976.751 6         0.000 6      2767.382 6        37.977 6
G21  21162987.507 9 111212229.320 9     -1252.494 9        55.712 9  21162986.791 6         0.000 6      -975.970 6        37.977 6
G29  24280018.459 9 127592302.134 9     -3145.132 9        54.482 9  24280020.013 6         0.000 6     -2450.755 6        37.977 6
G27  22020541.545 9 115718699.766 9      2522.809 9        55.368 9  22020543.484 6         0.000 6      1965.826 6        37.977 6
G16  20500792.726 9 107732372.597 9       585.835 9        55.975 9  20500791.900 6         0.000 6       456.495 6        37.977 6
G26  20645136.720 9 108490903.497 9     -1449.043 9        55.877 9  20645139.533 6         0.000 6     -1129.125 6        37.977 6
G20  21960356.875 9 115402421.030 9      2584.262 9        55.309 9  21960357.206 6         0.000 6      2013.712 6        37.977 6
> 2019 07 03 12 00 27.0000000  0  8       0.000000000000
G07  25360556.746 9 133270578.986 9      2188.040 9        54.127 9  25360557.423 6         0.000 6      1704.967 6        37.977 6
G10  23831297.192 9 125234256.985 9      3551.336 9        54.661 9  23831300.940 6         0.000 6      2767.278 6        37.977 6
G21  21163225.884 9 111213481.997 9     -1252.864 9        55.712 9  21163225.168 6         0.000 6      -976.258 6        37.977 6
G29  24280616.966 9 127595447.297 9     -3145.215 9        54.482 9  24280618.520 6         0.000 6     -2450.820 6        37.977 6
G27  22020061.493 9 115716177.079 9      2522.568 9        55.368 9  22020063.432 6         0.000 6      1965.638 6        37.977 6
G16  20500681.303 9 107731787.064 9       585.228 9        55.975 9  20500680.476 6         0.000 6       456.021 6        37.977 6
G26  20645412.517 9 108492352.819 9     -1449.609 9        55.877 9  20645415.330 6         0.000 6     -1129.566 6        37.977 6
G20  21959865.148 9 115399836.992 9      2583.819 9        55.309 9  21959865.478 6         0.000 6      2013.367 6        37.977 6
> 2019 07 03 12 00 28.0000000  0  8       0.000000000000
G07  25360140.418 9 133268391.172 9      2187.587 9        54.127 9  25360141.095 6         0.000 6      1704.614 6        37.977 6
G10  23830621.409 9 125230705.733 9      3551.200 9        54.662 9  23830625.157 6         0.000 6      2767.171 6        37.977 6
G21  21163464.332 9 111214735.049 9     -1253.241 9        55.712 9  21163463.616 6         0.000 6      -976.551 6        37.977 6
G29  24281215.489 9 127598592.544 9     -3145.299 9        54.482 9  24281217.043 6         0.000 6     -2450.885 6        37.977 6
G27  22019581.488 9 115713654.638 9      2522.321 9        55.368 9  22019583.426 6         0.000 6      1965.446 6        37.977 6
G16  20500569.997 9 107731202.145 9       584.613 9        55.975 9  20500569.170 6         0.000 6       455.543 6        37.977 6
G26  20645688.424 9 108493802.716 9     -1450.182 9        55.877 9  20645691.237 6         0.000 6     -1130.012 6        37.977 6
G20  21959373.507 9 115397253.405 9      2583.372 9        55.310 9  21959373.837 6         0.000 6      2013.018 6        37.977 6
> 2019 07 03 12 00 29.0000000  0  8       0.000000000000
G07  25359724.177 9 133266203.816 9      2187.134 9        54.127 9  25359724.854 6         0.000 6      1704.261 6        37.977 6
G10  23829945.651 9 125227154.609 9      3551.066 9        54.662 9  23829949.398 6         0.000 6      2767.067 6        37.977 6
G21  21163702.851 9 111215988.473 9     -1253.611 9        55.712 9  21163702.135 6         0.000 6      -976.840 6        37.977 6
G29  24281814.027 9 127601737.874 9     -3145.382 9        54.481 9  24281815.582 6         0.000 6     -2450.950 6        37.977 6
G27  22019101.529 9 115711132.439 9      2522.080 9        55.369 9  22019103.467 6         0.000 6      1965.258 6        37.977 6
G16  20500458.806 9 107730617.834 9       584.006 9        55.975 9  20500457.979 6         0.000 6       455.069 6        37.977 6
G26  20645964.438 9 108495253.177 9     -1450.748 9        55.877 9  20645967.251 6         0.000 6     -1130.453 6        37.977 6
G20  21958881.949 9 115394670.257 9      2582.928 9        55.310 9  21958882.279 6         0.000 6      2012.673 6        37.977 6
> 2019 07 03 12 00 30.0000000  0  8       0.000000000000
G07  25359308.022 9 133264016.908 9      2186.702 9        54.127 9  25359308.698 6         0.000 6      1703.925 6        37.977 6
G10  23829269.919 9 125223603.628 9      3550.908 9        54.662 9  23829273.665 6         0.000 6      2766.944 6        37.977 6
G21  21163941.441 9 111217242.272 9     -1253.984 9        55.712 9  21163940.725 6         0.000 6      -977.131 6        37.977 6
G29  24282412.581 9 127604883.287 9     -3145.469 9        54.481 9  24282414.137 6         0.000 6     -2451.017 6        37.977 6
G27  22018621.617 9 115708610.485 9      2521.841 9        55.369 9  22018623.554 6         0.000 6      1965.072 6        37.977 6
G16  20500347.732 9 107730034.137 9       583.394 9        55.975 9  20500346.906 6         0.000 6       454.593 6        37.977 6
G26  20646240.561 9 108496704.213 9     -1451.328 9        55.877 9  20646243.374 6         0.000 6     -1130.906 6        37.977 6
G20  21958390.478 9 115392087.561 9      2582.466 9        55.310 9  21958390.807 6         0.000 6      2012.312 6        37.977 6
> 2019 07 03 12 00 31.0000000  0  8       0.000000000000
G07  25358891.922 9 133261830.291 9      2186.790 9        54.127 9  25358892.598 6         0.000 6      1703.993 6        37.977 6
G10  23828594.244 9 125220052.940 9      3550.320 9        54.662 9  23828597.989 6         0.000 6      2766.486 6        37.977 6
G21  21164180.100 9 111218496.434 9     -1254.524 9        55.712 9  21164179.384 6         0.000 6      -977.551 6        37.977 6
G29  24283011.158 9 127608028.820 9     -3146.169 9        54.481 9  24283012.715 6         0.000 6     -2451.563 6        37.977 6
G27  22018141.739 9 115706088.714 9      2522.136 9        55.369 9  22018143.677 6         0.000 6      1965.302 6        37.977 6
G16  20500236.771 9 107729451.030 9       583.029 9        55.975 9  20500235.944 6         0.000 6       454.308 6        37.977 6
G26  20646516.805 9 108498155.884 9     -1451.958 9        55.876 9  20646519.618 6         0.000 6     -1131.396 6        37.977 6
G20  21957899.113 9 115389505.428 9      2581.538 9        55.310 9  21957899.443 6         0.000 6      2011.589 6        37.977 6
> 2019 07 03 12 00 32.0000000  0  8       0.000000000000
G07  25358476.093 9 133259645.101 9      2183.348 9        54.128 9  25358476.769 6         0.000 6      1701.311 6        37.977 6
G10  23827918.510 9 125216501.943 9      3551.584 9        54.663 9  23827922.254 6         0.000 6      2767.471 6        37.977 6
G21  21164418.580 9 111219749.652 9     -1250.979 9        55.712 9  21164417.864 6         0.000 6      -974.789 6        37.977 6
G29  24283609.063 9 127611170.823 9     -3135.446 9        54.481 9  24283610.620 6         0.000 6     -2443.207 6        37.977 6
G27  22017662.411 9 115703569.831 9      2513.959 9        55.369 9  22017664.349 6         0.000 6      1958.930 6        37.977 6
G16  20500126.169 9 107728869.812 9       578.574 9        55.975 9  20500125.342 6         0.000 6       450.837 6        37.977 6
G26  20646793.285 9 108499608.797 9     -1454.516 9        55.876 9  20646796.099 6         0.000 6     -1133.389 6        37.977 6
G20  21957407.580 9 115386922.409 9      2585.120 9        55.310 9  21957407.909 6         0.000 6      2014.381 6        37.977 6
> 2019 07 03 12 00 33.0000000  0  8       0.000000000000
G07  25358060.530 9 133257461.303 9      2185.604 9        54.128 9  25358061.206 6         0.000 6      1703.069 6        37.977 6
G10  23827242.986 9 125212952.054 9      3546.977 9        54.663 9  23827246.730 6         0.000 6      2763.881 6        37.977 6
G21  21164656.164 9 111220998.164 9     -1246.157 9        55.712 9  21164655.448 6         0.000 6      -971.032 6        37.977 6
G29  24284204.533 9 127614300.029 9     -3123.780 9        54.480 9  24284206.091 6         0.000 6     -2434.117 6        37.977 6
G27  22017184.812 9 115701060.036 9      2506.482 9        55.369 9  22017186.750 6         0.000 6      1953.104 6        37.977 6
G16  20500016.519 9 107728293.601 9       574.210 9        55.975 9  20500015.692 6         0.000 6       447.436 6        37.977 6
G26  20647070.559 9 108501065.878 9     -1460.035 9        55.876 9  20647073.373 6         0.000 6     -1137.690 6        37.977 6
G20  21956915.558 9 115384336.820 9      2585.002 9        55.310 9  21956915.887 6         0.000 6      2014.289 6        37.977 6
> 2019 07 03 12 00 34.0000000  0  8       0.000000000000
G07  25357643.613 9 133255270.395 9      2195.478 9        54.128 9  25357644.289 6         0.000 6      1710.763 6        37.977 6
G10  23826569.199 9 125209411.287 9      3535.615 9        54.663 9  23826572.942 6         0.000 6      2755.027 6        37.977 6
G21  21164892.873 9 111222242.081 9     -1242.599 9        55.712 9  21164892.158 6         0.000 6      -968.259 6        37.977 6
G29  24284798.248 9 127617420.009 9     -3118.174 9        54.480 9  24284799.806 6         0.000 6     -2429.749 6        37.977 6
G27  22016708.110 9 115698554.951 9      2504.838 9        55.369 9  22016710.047 6         0.000 6      1951.823 6        37.977 6
G16  20499907.479 9 107727720.588 9       572.419 9        55.975 9  20499906.652 6         0.000 6       446.041 6        37.977 6
G26  20647349.170 9 108502529.986 9     -1467.224 9        55.876 9  20647351.984 6         0.000 6     -1143.292 6        37.977 6
G20  21956424.272 9 115381755.096 9      2578.591 9        55.311 9  21956424.600 6         0.000 6      2009.293 6        37.977 6
> 2019 07 03 12 00 35.0000000  0  8       0.000000000000
G07  25357225.562 9 133253073.528 9      2197.507 9        54.128 9  25357226.238 6         0.000 6      1712.344 6        37.977 6
G10  23825896.720 9 125205877.401 9      3532.953 9        54.663 9  23825900.463 6         0.000 6      2752.953 6        37.977 6
G21  21165129.308 9 111223484.555 9     -1242.499 9        55.712 9  21165128.593 6         0.000 6      -968.181 6        37.977 6
G29  24285391.599 9 127620538.079 9     -3118.075 9        54.480 9  24285393.158 6         0.000 6     -2429.672 6        37.977 6
G27  22016231.424 9 115696049.950 9      2505.056 9        55.370 9  22016233.361 6         0.000 6      1951.992 6        37.977 6
G16  20499798.597 9 107727148.411 9       571.918 9        55.975 9  20499797.770 6         0.000 6       445.650 6        37.977 6
G26  20647628.581 9 108503998.301 9     -1469.022 9        55.876 9  20647631.395 6         0.000 6     -1144.693 6        37.977 6
G20  21955933.829 9 115379177.808 9      2576.494 9        55.311 9  21955934.157 6         0.000 6      2007.659 6        37.977 6
> 2019 07 03 12 00 36.0000000  0  8       0.000000000000
G07  25356807.398 9 133250876.061 9      2197.332 9        54.128 9  25356808.073 6         0.000 6      1712.208 6        37.977 6
G10  23825224.472 9 125202344.721 9      3532.531 9        54.664 9  23825228.214 6         0.000 6      2752.624 6        37.977 6
G21  21165365.776 9 111224727.200 9     -1242.805 9        55.712 9  21165365.061 6         0.000 6      -968.420 6        37.977 6
G29  24285984.955 9 127623656.175 9     -3118.133 9        54.480 9  24285986.514 6         0.000 6     -2429.717 6        37.977 6
G27  22015754.743 9 115693544.978 9      2504.868 9        55.370 9  22015756.680 6         0.000 6      1951.846 6        37.977 6
G16  20499689.821 9 107726576.791 9       571.314 9        55.976 9  20499688.995 6         0.000 6       445.180 6        37.977 6
G26  20647908.200 9 108505467.703 9     -1469.738 9        55.876 9  20647911.013 6         0.000 6     -1145.251 6        37.977 6
G20  21955443.605 9 115376601.668 9      2575.867 9        55.311 9  21955443.933 6         0.000 6      2007.170 6        37.977 6
> 2019 07 03 12 00 37.0000000  0  8       0.000000000000
G07  25356389.300 9 133248678.949 9      2196.891 9        54.128 9  25356389.975 6         0.000 6      1711.864 6        37.977 6
G10  23824552.269 9 125198812.283 9      3532.375 9        54.664 9  23824556.011 6         0.000 6      2752.503 6        37.977 6
G21  21165602.308 9 111225970.182 9     -1243.160 9        55.711 9  21165601.592 6         0.000 6      -968.697 6        37.977 6
G29  24286578.323 9 127626774.335 9     -3118.202 9        54.480 9  24286579.883 6         0.000 6     -2429.770 6        37.977 6
G27  22015278.105 9 115691040.234 9      2504.621 9        55.370 9  22015280.042 6         0.000 6      1951.653 6        37.977 6
G16  20499581.163 9 107726005.788 9       570.690 9        55.976 9  20499580.336 6         0.000 6       444.694 6        37.977 6
G26  20648187.938 9 108506937.737 9     -1470.331 9        55.876 9  20648190.752 6         0.000 6     -1145.713 6        37.977 6
G20  21954953.477 9 115374026.035 9      2575.416 9        55.311 9  21954953.805 6         0.000 6      2006.819 6        37.977 6
> 2019 07 03 12 00 38.0000000  0  8       0.000000000000
G07  25355971.289 9 133246482.289 9      2196.434 9        54.128 9  25355971.964 6         0.000 6      1711.508 6        37.977 6
G10  23823880.093 9 125195279.985 9      3532.239 9        54.664 9  23823883.834 6         0.000 6      2752.397 6        37.977 6
G21  21165838.906 9 111227213.516 9     -1243.516 9        55.711 9  21165838.191 6         0.000 6      -968.974 6        37.977 6
G29  24287171.704 9 127629892.563 9     -3118.276 9        54.479 9  24287173.265 6         0.000 6     -2429.828 6        37.977 6
G27  22014801.514 9 115688535.734 9      2504.379 9        55.370 9  22014803.451 6         0.000 6      1951.465 6        37.977 6
G16  20499472.622 9 107725435.403 9       570.073 9        55.976 9  20499471.795 6         0.000 6       444.213 6        37.977 6
G26  20648467.787 9 108508408.351 9     -1470.908 9        55.876 9  20648470.601 6         0.000 6     -1146.163 6        37.977 6
G20  21954463.433 9 115371450.840 9      2574.977 9        55.311 9  21954463.761 6         0.000 6      2006.477 6        37.977 6
> 2019 07 03 12 00 39.0000000  0  8       0.000000000000
G07  25355553.366 9 133244286.093 9      2195.971 9        54.129 9  25355554.041 6         0.000 6      1711.147 6        37.977 6
G10  23823207.942 9 125191747.820 9      3532.108 9        54.664 9  23823211.683 6         0.000 6      2752.295 6        37.977 6
G21  21166075.573 9 111228457.209 9     -1243.874 9        55.711 9  21166074.858 6         0.000 6      -969.253 6        37.977 6
G29  24287765.098 9 127633010.862 9     -3118.352 9        54.479 9  24287766.660 6         0.000 6     -2429.887 6        37.977 6
G27  22014324.971 9 115686031.483 9      2504.136 9        55.370 9  22014326.907 6         0.000 6      1951.275 6        37.977 6
G16  20499364.200 9 107724865.640 9       569.455 9        55.976 9  20499363.373 6         0.000 6       443.731 6        37.977 6
G26  20648747.746 9 108509879.545 9     -1471.483 9        55.875 9  20648750.560 6         0.000 6     -1146.611 6        37.977 6
G20  21953973.472 9 115368876.082 9      2574.542 9        55.312 9  21953973.799 6         0.000 6      2006.138 6        37.977 6
> 2019 07 03 12 00 40.0000000  0  8       0.000000000000
G07  25355135.530 9 133242090.354 9      2195.511 9        54.129 9  25355136.205 6         0.000 6      1710.789 6        37.977 6
G10  23822535.817 9 125188215.790 9      3531.976 9        54.665 9  23822539.557 6         0.000 6      2752.192 6        37.977 6
G21  21166312.309 9 111229701.263 9     -1244.234 9        55.711 9  21166311.594 6         0.000 6      -969.533 6        37.977 6
G29  24288358.509 9 127636129.247 9     -3118.433 9        54.479 9  24288360.071 6         0.000 6     -2429.950 6        37.977 6
G27  22013848.472 9 115683527.468 9      2503.896 9        55.371 9  22013850.408 6         0.000 6      1951.088 6        37.977 6
G16  20499255.895 9 107724296.493 9       568.839 9        55.976 9  20499255.068 6         0.000 6       443.251 6        37.977 6
G26  20649027.815 9 108511351.315 9     -1472.059 9        55.875 9  20649030.629 6         0.000 6     -1147.059 6        37.977 6
G20  21953483.595 9 115366301.764 9      2574.104 9        55.312 9  21953483.922 6         0.000 6      2005.797 6        37.977 6
> 2019 07 03 12 00 41.0000000  0  8       0.000000000000
G07  25354717.783 9 133239895.078 9      2195.051 9        54.129 9  25354718.457 6         0.000 6      1710.430 6        37.977 6
G10  23821863.717 9 125184683.890 9      3531.843 9        54.665 9  23821867.456 6         0.000 6      2752.088 6        37.977 6
G21  21166549.113 9 111230945.676 9     -1244.594 9        55.711 9  21166548.398 6         0.000 6      -969.814 6        37.977 6
G29  24288951.934 9 127639247.708 9     -3118.514 9        54.479 9  24288953.497 6         0.000 6     -2430.013 6        37.977 6
G27  22013372.020 9 115681023.697 9      2503.656 9        55.371 9  22013373.956 6         0.000 6      1950.901 6        37.977 6
G16  20499147.707 9 107723727.963 9       568.222 9        55.976 9  20499146.880 6         0.000 6       442.770 6        37.977 6
G26  20649307.993 9 108512823.659 9     -1472.634 9        55.875 9  20649310.807 6         0.000 6     -1147.507 6        37.977 6
G20  21952993.801 9 115363727.882 9      2573.666 9        55.312 9  21952994.127 6         0.000 6      2005.455 6        37.977 6
> 2019 07 03 12 00 42.0000000  0  8       0.000000000000
G07  25354300.123 9 133237700.264 9      2194.593 9        54.129 9  25354300.797 6         0.000 6      1710.073 6        37.977 6
G10  23821191.642 9 125181152.124 9      3531.708 9        54.665 9  23821195.380 6         0.000 6      2751.983 6        37.977 6
G21  21166785.987 9 111232190.454 9     -1244.956 9        55.711 9  21166785.272 6         0.000 6      -970.096 6        37.977 6
G29  24289545.376 9 127642366.255 9     -3118.600 9        54.479 9  24289546.939 6         0.000 6     -2430.080 6        37.977 6
G27  22012895.613 9 115678520.165 9      2503.420 9        55.371 9  22012897.549 6         0.000 6      1950.717 6        37.977 6
G16  20499039.638 9 107723160.053 9       567.607 9        55.976 9  20499038.811 6         0.000 6       442.291 6        37.977 6
G26  20649588.281 9 108514296.581 9     -1473.209 9        55.875 9  20649591.096 6         0.000 6     -1147.956 6        37.977 6
G20  21952504.090 9 115361154.442 9      2573.225 9        55.312 9  21952504.417 6         0.000 6      2005.111 6        37.977 6
> 2019 07 03 12 00 43.0000000  0  8       0.000000000000
G07  25353882.546 9 133235505.890 9      2194.182 9        54.129 9  25353883.220 6         0.000 6      1709.753 6        37.977 6
G10  23820519.596 9 125177620.506 9      3531.540 9        54.665 9  23820523.333 6         0.000 6      2751.852 6        37.977 6
G21  21167022.930 9 111233435.601 9     -1245.353 9        55.711 9  21167022.215 6         0.000 6      -970.405 6        37.977 6
G29  24290138.839 9 127645484.913 9     -3118.789 9        54.478 9  24290140.403 6         0.000 6     -2430.228 6        37.977 6
G27  22012419.247 9 115676016.848 9      2503.263 9        55.371 9  22012421.183 6         0.000 6      1950.595 6        37.977 6
G16  20498931.683 9 107722592.747 9       567.029 9        55.976 9  20498930.856 6         0.000 6       441.840 6        37.977 6
G26  20649868.679 9 108515770.078 9     -1473.775 9        55.875 9  20649871.493 6         0.000 6     -1148.397 6        37.977 6
G20  21952014.467 9 115358581.458 9      2572.732 9        55.312 9  21952014.793 6         0.000 6      2004.727 6        37.977 6
> 2019 07 03 12 00 44.0000000  0  8       0.000000000000
G07  25353464.991 9 133233311.625 9      2196.977 9        54.129 9  25353465.665 6         0.000 6      1711.931 6        37.977 6
G10  23819847.635 9 125174089.340 9      3528.203 9        54.666 9  23819851.372 6         0.000 6      2749.252 6        37.977 6
G21  21167259.947 9 111234681.133 9     -1245.392 9        55.711 9  21167259.232 6         0.000 6      -970.435 6        37.977 6
G29  24290732.357 9 127648603.862 9     -3119.338 9        54.478 9  24290733.922 6         0.000 6     -2430.655 6        37.977 6
G27  22011942.884 9 115673513.545 9      2504.092 9        55.371 9  22011944.819 6         0.000 6      1951.241 6        37.977 6
G16  20498823.827 9 107722025.959 9       566.793 9        55.976 9  20498823.000 6         0.000 6       441.657 6        37.977 6
G26  20650149.203 9 108517244.244 9     -1475.735 9        55.875 9  20650152.018 6         0.000 6     -1149.924 6        37.977 6
G20  21951524.979 9 115356009.187 9      2569.996 9        55.313 9  21951525.305 6         0.000 6      2002.596 6        37.977 6
> 2019 07 03 12 00 45.0000000  0  8       0.000000000000
G07  25353045.538 9 133231107.387 9      2211.551 9        54.129 9  25353046.211 6         0.000 6      1723.287 6        37.977 6
G10  23819177.623 9 125170568.411 9      3513.814 9        54.666 9  23819181.359 6         0.000 6      2738.039 6        37.977 6
G21  21167496.924 9 111235926.454 9     -1245.713 9        55.711 9  21167496.209 6         0.000 6      -970.686 6        37.977 6
G29  24291326.389 9 127651725.508 9     -3125.148 9        54.478 9  24291327.954 6         0.000 6     -2435.182 6        37.977 6
G27  22011465.773 9 115671006.313 9      2511.178 9        55.372 9  22011467.708 6         0.000 6      1956.763 6        37.977 6
G16  20498715.785 9 107721458.197 9       569.138 9        55.976 9  20498714.958 6         0.000 6       443.484 6        37.977 6
G26  20650430.617 9 108518723.078 9     -1481.579 9        55.875 9  20650433.431 6         0.000 6     -1154.477 6        37.977 6
G20  21951037.015 9 115353444.924 9      2558.301 9        55.313 9  21951037.341 6         0.000 6      1993.482 6        37.977 6
> 2019 07 03 12 00 46.0000000  0  8       0.000000000000
G07  25352623.302 9 133228888.524 9      2226.707 9        54.130 9  25352623.975 6         0.000 6      1735.097 6        37.977 6
G10  23818510.249 9 125167061.347 9      3500.154 9        54.666 9  23818513.984 6         0.000 6      2727.395 6        37.977 6
G21  21167734.256 9 111237173.639 9     -1249.542 9        55.711 9  21167733.541 6         0.000 6      -973.669 6        37.977 6
G29  24291922.253 9 127654856.786 9     -3139.781 9        54.478 9  24291923.819 6         0.000 6     -2446.585 6        37.977 6
G27  22010986.825 9 115668489.427 9      2524.287 9        55.372 9  22010988.760 6         0.000 6      1966.978 6        37.977 6
G16  20498607.052 9 107720886.800 9       574.475 9        55.976 9  20498606.225 6         0.000 6       447.643 6        37.977 6
G26  20650712.917 9 108520206.575 9     -1484.936 9        55.875 9  20650715.732 6         0.000 6     -1157.094 6        37.977 6
G20  21950551.417 9 115350893.089 9      2544.580 9        55.313 9  21950551.742 6         0.000 6      1982.791 6        37.977 6
> 2019 07 03 12 00 47.0000000  0  8       0.000000000000
G07  25352199.057 9 133226659.109 9      2230.542 9        54.130 9  25352199.730 6         0.000 6      1738.085 6        37.977 6
G10  23817844.636 9 125163563.538 9      3496.756 9        54.666 9  23817848.370 6         0.000 6      2724.748 6        37.977 6
G21  21167972.339 9 111238424.776 9     -1252.090 9        55.710 9  21167971.625 6         0.000 6      -975.655 6        37.977 6
G29  24292520.619 9 127658001.211 9     -3146.900 9        54.477 9  24292522.185 6         0.000 6     -2452.132 6        37.977 6
G27  22010505.776 9 115665961.500 9      2529.742 9        55.372 9  22010507.711 6         0.000 6      1971.228 6        37.977 6
G16  20498497.459 9 107720310.887 9       576.507 9        55.976 9  20498496.632 6         0.000 6       449.226 6        37.977 6
G26  20650995.534 9 108521691.736 9     -1485.328 9        55.875 9  20650998.349 6         0.000 6     -1157.399 6        37.977 6
G20  21950067.782 9 115348351.578 9      2539.935 9        55.313 9  21950068.107 6         0.000 6      1979.171 6        37.977 6
> 2019 07 03 12 00 48.0000000  0  8       0.000000000000
G07  25351774.583 9 133224428.484 9      2230.557 9        54.130 9  25351775.255 6         0.000 6      1738.097 6        37.977 6
G10  23817179.280 9 125160067.079 9      3496.292 9        54.667 9  23817183.014 6         0.000 6      2724.386 6        37.977 6
G21  21168210.679 9 111239677.257 9     -1252.767 9        55.710 9  21168209.964 6         0.000 6      -976.182 6        37.977 6
G29  24293119.585 9 127661148.791 9     -3147.950 9        54.477 9  24293121.152 6         0.000 6     -2452.950 6        37.977 6
G27  22010024.308 9 115663431.375 9      2530.253 9        55.372 9  22010026.243 6         0.000 6      1971.627 6        37.977 6
G16  20498387.767 9 107719734.453 9       576.236 9        55.976 9  20498386.941 6         0.000 6       449.015 6        37.977 6
G26  20651278.228 9 108523177.299 9     -1485.833 9        55.874 9  20651281.043 6         0.000 6     -1157.792 6        37.977 6
G20  21949584.553 9 115345812.197 9      2539.002 9        55.313 9  21949584.878 6         0.000 6      1978.444 6        37.977 6
> 2019 07 03 12 00 49.0000000  0  8       0.000000000000
G07  25351350.158 9 133222198.123 9      2230.154 9        54.130 9  25351350.831 6         0.000 6      1737.783 6        37.977 6
G10  23816513.975 9 125156570.892 9      3496.117 9        54.667 9  23816517.709 6         0.000 6      2724.250 6        37.977 6
G21  21168449.111 9 111240930.225 9     -1253.156 9        55.710 9  21168448.396 6         0.000 6      -976.485 6        37.977 6
G29  24293718.642 9 127664296.843 9     -3148.133 9        54.477 9  24293720.209 6         0.000 6     -2453.093 6        37.977 6
G27  22009542.830 9 115660901.191 9      2530.089 9        55.372 9  22009544.765 6         0.000 6      1971.499 6        37.977 6
G16  20498278.168 9 107719158.504 9       575.646 9        55.976 9  20498277.341 6         0.000 6       448.555 6        37.977 6
G26  20651561.027 9 108524663.418 9     -1486.413 9        55.874 9  20651563.842 6         0.000 6     -1158.244 6        37.977 6
G20  21949101.446 9 115343273.455 9      2538.512 9        55.314 9  21949101.770 6         0.000 6      1978.063 6        37.977 6
> 2019 07 03 12 00 50.0000000  0  8       0.000000000000
G07  25350925.817 9 133219968.195 9      2229.709 9        54.130 9  25350926.489 6         0.000 6      1737.437 6        37.977 6
G10  23815848.700 9 125153074.859 9      3495.972 9        54.667 9  23815852.433 6         0.000 6      2724.137 6        37.977 6
G21  21168687.614 9 111242183.566 9     -1253.519 9        55.710 9  21168686.899 6         0.000 6      -976.769 6        37.977 6
G29  24294317.721 9 127667445.017 9     -3148.234 9        54.477 9  24294319.290 6         0.000 6     -2453.172 6        37.977 6
G27  22009061.392 9 115658371.222 9      2529.858 9        55.373 9  22009063.327 6         0.000 6      1971.319 6        37.977 6
G16  20498168.686 9 107718583.174 9       575.023 9        55.976 9  20498167.859 6         0.000 6       448.070 6        37.977 6
G26  20651843.939 9 108526150.127 9     -1487.001 9        55.874 9  20651846.754 6         0.000 6     -1158.702 6        37.977 6
G20  21948618.426 9 115340735.173 9      2538.065 9        55.314 9  21948618.750 6         0.000 6      1977.714 6        37.977 6
> 2019 07 03 12 00 51.0000000  0  8       0.000000000000
G07  25350501.559 9 133217738.709 9      2229.261 9        54.130 9  25350502.231 6         0.000 6      1737.088 6        37.977 6
G10  23815183.453 9 125149578.973 9      3495.829 9        54.667 9  23815187.186 6         0.000 6      2724.026 6        37.977 6
G21  21168926.185 9 111243437.265 9     -1253.881 9        55.710 9  21168925.470 6         0.000 6      -977.050 6        37.977 6
G29  24294916.820 9 127670593.291 9     -3148.330 9        54.477 9  24294918.389 6         0.000 6     -2453.247 6        37.977 6
G27  22008579.998 9 115655841.481 9      2529.624 9        55.373 9  22008581.932 6         0.000 6      1971.136 6        37.977 6
G16  20498059.322 9 107718008.461 9       574.399 9        55.976 9  20498058.495 6         0.000 6       447.584 6        37.977 6
G26  20652126.962 9 108527637.422 9     -1487.589 9        55.874 9  20652129.777 6         0.000 6     -1159.160 6        37.977 6
G20  21948135.491 9 115338197.338 9      2537.621 9        55.314 9  21948135.815 6         0.000 6      1977.368 6        37.977 6
> 2019 07 03 12 00 52.0000000  0  8       0.000000000000
G07  25350077.388 9 133215509.679 9      2228.811 9        54.130 9  25350078.060 6         0.000 6      1736.737 6        37.977 6
G10  23814518.232 9 125146083.221 9      3495.689 9        54.668 9  23814521.963 6         0.000 6      2723.916 6        37.977 6
G21  21169164.824 9 111244691.320 9     -1254.240 9        55.710 9  21169164.109 6         0.000 6      -977.330 6        37.977 6
G29  24295515.935 9 127673741.651 9     -3148.421 9        54.476 9  24295517.504 6         0.000 6     -2453.318 6        37.977 6
G27  22008098.650 9 115653311.980 9      2529.386 9        55.373 9  22008100.584 6         0.000 6      1970.951 6        37.977 6
G16  20497950.077 9 107717434.373 9       573.773 9        55.976 9  20497949.250 6         0.000 6       447.096 6        37.977 6
G26  20652410.096 9 108529125.299 9     -1488.176 9        55.874 9  20652412.911 6         0.000 6     -1159.618 6        37.977 6
G20  21947652.639 9 115335659.936 9      2537.180 9        55.314 9  21947652.962 6         0.000 6      1977.025 6        37.977 6
> 2019 07 03 12 00 53.0000000  0  8       0.000000000000
G07  25349653.302 9 133213281.097 9      2228.354 9        54.131 9  25349653.974 6         0.000 6      1736.381 6        37.977 6
G10  23813853.038 9 125142587.615 9      3495.554 9        54.668 9  23813856.769 6         0.000 6      2723.811 6        37.977 6
G21  21169403.532 9 111245945.742 9     -1254.601 9        55.710 9  21169402.818 6         0.000 6      -977.611 6        37.977 6
G29  24296115.068 9 127676890.107 9     -3148.513 9        54.476 9  24296116.638 6         0.000 6     -2453.389 6        37.977 6
G27  22007617.346 9 115650782.718 9      2529.147 9        55.373 9  22007619.280 6         0.000 6      1970.765 6        37.977 6
G16  20497840.952 9 107716860.916 9       573.147 9        55.976 9  20497840.125 6         0.000 6       446.608 6        37.977 6
G26  20652693.343 9 108530613.770 9     -1488.761 9        55.874 9  20652696.158 6         0.000 6     -1160.074 6        37.977 6
G20  21947169.872 9 115333122.984 9      2536.743 9        55.314 9  21947170.195 6         0.000 6      1976.684 6        37.977 6
> 2019 07 03 12 00 54.0000000  0  8       0.000000000000
G07  25349229.304 9 133211052.975 9      2227.900 9        54.131 9  25349229.975 6         0.000 6      1736.027 6        37.977 6
G10  23813187.869 9 125139092.140 9      3495.415 9        54.668 9  23813191.599 6         0.000 6      2723.702 6        37.977 6
G21  21169642.309 9 111247200.523 9     -1254.965 9        55.710 9  21169641.595 6         0.000 6      -977.895 6        37.977 6
G29  24296714.219 9 127680038.656 9     -3148.604 9        54.476 9  24296715.790 6         0.000 6     -2453.460 6        37.977 6
G27  22007136.089 9 115648253.694 9      2528.906 9        55.373 9  22007138.022 6         0.000 6      1970.577 6        37.977 6
G16  20497731.945 9 107716288.082 9       572.517 9        55.976 9  20497731.118 6         0.000 6       446.118 6        37.977 6
G26  20652976.700 9 108532102.822 9     -1489.350 9        55.874 9  20652979.516 6         0.000 6     -1160.533 6        37.977 6
G20  21946687.187 9 115330586.464 9      2536.301 9        55.315 9  21946687.510 6         0.000 6      1976.340 6        37.977 6
> 2019 07 03 12 00 55.0000000  0  8       0.000000000000
G07  25348805.392 9 133208825.308 9      2227.443 9        54.131 9  25348806.063 6         0.000 6      1735.671 6        37.977 6
G10  23812522.727 9 125135596.803 9      3495.280 9        54.668 9  23812526.456 6         0.000 6      2723.597 6        37.977 6
G21  21169881.156 9 111248455.668 9     -1255.325 9        55.710 9  21169880.441 6         0.000 6      -978.176 6        37.977 6
G29  24297313.387 9 127683187.295 9     -3148.696 9        54.476 9  24297314.958 6         0.000 6     -2453.532 6        37.977 6
G27  22006654.877 9 115645724.911 9      2528.666 9        55.373 9  22006656.810 6         0.000 6      1970.390 6        37.977 6
G16  20497623.058 9 107715715.878 9       571.891 9        55.976 9  20497622.231 6         0.000 6       445.629 6        37.977 6
G26  20653260.170 9 108533592.463 9     -1489.935 9        55.874 9  20653262.986 6         0.000 6     -1160.989 6        37.977 6
G20  21946204.587 9 115328050.387 9      2535.863 9        55.315 9  21946204.910 6         0.000 6      1975.999 6        37.977 6
> 2019 07 03 12 00 56.0000000  0  8       0.000000000000
G07  25348381.567 9 133206598.094 9      2226.989 9        54.131 9  25348382.238 6         0.000 6      1735.317 6        37.977 6
G10  23811857.610 9 125132101.604 9      3495.143 9        54.668 9  23811861.339 6         0.000 6      2723.491 6        37.977 6
G21  21170120.070 9 111249711.169 9     -1255.682 9        55.710 9  21170119.355 6         0.000 6      -978.454 6        37.977 6
G29  24297912.572 9 127686336.026 9     -3148.786 9        54.476 9  24297914.144 6         0.000 6     -2453.602 6        37.977 6
G27  22006173.710 9 115643196.364 9      2528.430 9        55.374 9  22006175.643 6         0.000 6      1970.206 6        37.977 6
G16  20497514.290 9 107715144.297 9       571.269 9        55.976 9  20497513.463 6         0.000 6       445.144 6        37.977 6
G26  20653543.750 9 108535082.687 9     -1490.518 9        55.873 9  20653546.566 6         0.000 6     -1161.443 6        37.977 6
G20  21945722.070 9 115325514.746 9      2535.426 9        55.315 9  21945722.392 6         0.000 6      1975.658 6        37.977 6
> 2019 07 03 12 00 57.0000000  0  8       0.000000000000
G07  25347957.829 9 133204371.340 9      2226.510 9        54.131 9  25347958.500 6         0.000 6      1734.944 6        37.977 6
G10  23811192.519 9 125128606.537 9      3495.028 9        54.669 9  23811196.248 6         0.000 6      2723.401 6        37.977 6
G21  21170359.053 9 111250967.035 9     -1256.046 9        55.709 9  21170358.339 6         0.000 6      -978.737 6        37.977 6
G29  24298511.775 9 127689484.848 9     -3148.875 9        54.475 9  24298513.348 6         0.000 6     -2453.671 6        37.977 6
G27  22005692.589 9 115640668.060 9      2528.183 9        55.374 9  22005694.522 6         0.000 6      1970.013 6        37.977 6
G16  20497405.641 9 107714573.345 9       570.639 9        55.976 9  20497404.814 6         0.000 6       444.653 6        37.977 6
G26  20653827.442 9 108536573.497 9     -1491.094 9        55.873 9  20653830.258 6         0.000 6     -1161.892 6        37.977 6
G20  21945239.636 9 115322979.544 9      2535.003 9        55.315 9  21945239.958 6         0.000 6      1975.328 6        37.977 6
> 2019 07 03 12 00 58.0000000  0  8       0.000000000000
G07  25347534.211 9 133202145.214 9      2225.942 9        54.131 9  25347534.881 6         0.000 6      1734.501 6        37.977 6
G10  23810527.426 9 125125111.458 9      3495.020 9        54.669 9  23810531.153 6         0.000 6      2723.395 6        37.977 6
G21  21170598.097 9 111252223.216 9     -1256.471 9        55.709 9  21170597.382 6         0.000 6      -979.068 6        37.977 6
G29  24299110.964 9 127692633.597 9     -3149.077 9        54.475 9  24299112.537 6         0.000 6     -2453.829 6        37.977 6
G27  22005211.541 9 115638140.142 9      2527.990 9        55.374 9  22005213.474 6         0.000 6      1969.863 6        37.977 6
G16  20497297.124 9 107714003.083 9       570.041 9        55.977 9  20497296.297 6         0.000 6       444.188 6        37.977 6
G26  20654111.239 9 108538064.859 9     -1491.593 9        55.873 9  20654114.056 6         0.000 6     -1162.280 6        37.977 6
G20  21944757.257 9 115320444.630 9      2534.619 9        55.315 9  21944757.579 6         0.000 6      1975.029 6        37.977 6
> 2019 07 03 12 00 59.0000000  0  8       0.000000000000
G07  25347110.305 9 133199917.578 9      2228.339 9        54.131 9  25347110.975 6         0.000 6      1736.369 6        37.977 6
G10  23809862.536 9 125121617.450 9      3494.059 9        54.669 9  23809866.263 6         0.000 6      2722.646 6        37.977 6
G21  21170837.691 9 111253482.292 9     -1261.952 9        55.709 9  21170836.977 6         0.000 6      -983.340 6        37.977 6
G29  24299711.492 9 127695789.384 9     -3162.781 9        54.475 9  24299713.066 6         0.000 6     -2464.507 6        37.977 6
G27  22004729.572 9 115635607.376 9      2537.487 9        55.374 9  22004731.505 6         0.000 6      1977.263 6        37.977 6
G16  20497188.257 9 107713430.982 9       574.181 9        55.977 9  20497187.430 6         0.000 6       447.414 6        37.977 6
G26  20654394.908 9 108539555.546 9     -1489.231 9        55.873 9  20654397.724 6         0.000 6     -1160.440 6        37.977 6
G20  21944275.460 9 115317912.772 9      2529.734 9        55.315 9  21944275.781 6         0.000 6      1971.222 6        37.977 6
> 2019 07 03 12 01  0.0000000  0  8       0.000000000000
G07  25346686.650 9 133197691.259 9      2222.762 9        54.132 9  25346687.320 6         0.000 6      1732.023 6        37.977 6
G10  23809197.147 9 125118120.815 9      3500.671 9        54.669 9  23809200.873 6         0.000 6      2727.798 6        37.977 6
G21  21171078.369 9 111254747.062 9     -1267.511 9        55.709 9  21171077.654 6         0.000 6      -987.671 6        37.977 6
G29  24300314.448 9 127698957.928 9     -3173.542 9        54.475 9  24300316.023 6         0.000 6     -2472.892 6        37.977 6
G27  22004246.080 9 115633066.616 9      2543.160 9        55.374 9  22004248.013 6         0.000 6      1981.684 6        37.977 6
G16  20497078.710 9 107712855.312 9       576.798 9        55.977 9  20497077.883 6         0.000 6       449.453 6        37.977 6
G26  20654677.851 9 108541042.418 9     -1484.027 9        55.873 9  20654680.667 6         0.000 6     -1156.385 6        37.977 6
G20  21943794.081 9 115315383.112 9      2530.788 9        55.316 9  21943794.402 6         0.000 6      1972.044 6        37.977 6
> 2019 07 03 12 01  1.0000000  0  8       0.000000000000
G07  25346264.830 9 133195474.586 9      2213.092 9        54.132 9  25346265.500 6         0.000 6      1724.489 6        37.977 6
G10  23808529.809 9 125114613.941 9      3510.306 9        54.670 9  23808533.534 6         0.000 6      2735.306 6        37.977 6
G21  21171319.985 9 111256016.762 9     -1270.736 9        55.709 9  21171319.271 6         0.000 6      -990.184 6        37.977 6
G29  24300918.859 9 127702134.119 9     -3177.011 9        54.474 9  24300920.434 6         0.000 6     -2475.596 6        37.977 6
G27  22003762.084 9 115630523.201 9      2543.024 9        55.375 9  22003764.017 6         0.000 6      1981.578 6        37.977 6
G16  20496968.915 9 107712278.334 9       576.701 9        55.977 9  20496968.088 6         0.000 6       449.377 6        37.977 6
G26  20654959.622 9 108542523.134 9     -1479.176 9        55.873 9  20654962.438 6         0.000 6     -1152.605 6        37.977 6
G20  21943311.867 9 115312849.065 9      2535.961 9        55.316 9  21943312.188 6         0.000 6      1976.075 6        37.977 6
> 2019 07 03 12 01  2.0000000  0  8       0.000000000000
G07  25345843.926 9 133193262.725 9      2211.136 9        54.132 9  25345844.596 6         0.000 6      1722.964 6        37.977 6
G10  23807861.640 9 125111102.702 9      3511.688 9        54.670 9  23807865.365 6         0.000 6      2736.383 6        37.977 6
G21  21171561.867 9 111257287.860 9     -1271.367 9        55.709 9  21171561.153 6         0.000 6      -990.676 6        37.977 6
G29  24301523.440 9 127705311.204 9     -3177.149 9        54.474 9  24301525.016 6         0.000 6     -2475.703 6        37.977 6
G27  22003278.226 9 115627980.510 9      2542.460 9        55.375 9  22003280.158 6         0.000 6      1981.138 6        37.977 6
G16  20496859.242 9 107711701.998 9       575.996 9        55.977 9  20496858.415 6         0.000 6       448.828 6        37.977 6
G26  20655241.062 9 108544002.111 9     -1479.026 9        55.873 9  20655243.879 6         0.000 6     -1152.488 6        37.977 6
G20  21942829.204 9 115310312.660 9      2536.527 9        55.316 9  21942829.524 6         0.000 6      1976.516 6        37.977 6
> 2019 07 03 12 01  3.0000000  0  8       0.000000000000
G07  25345423.225 9 133191051.927 9      2210.530 9        54.132 9  25345423.894 6         0.000 6      1722.492 6        37.977 6
G10  23807193.381 9 125107590.987 9      3511.703 9        54.670 9  23807197.105 6         0.000 6      2736.394 6        37.977 6
G21  21171803.839 9 111258559.433 9     -1271.768 9        55.709 9  21171803.125 6         0.000 6      -990.989 6        37.977 6
G29  24302128.040 9 127708488.388 9     -3177.244 9        54.474 9  24302129.617 6         0.000 6     -2475.777 6        37.977 6
G27  22002794.440 9 115625438.203 9      2542.178 9        55.375 9  22002796.372 6         0.000 6      1980.919 6        37.977 6
G16  20496749.695 9 107711126.324 9       575.361 9        55.977 9  20496748.868 6         0.000 6       448.334 6        37.977 6
G26  20655522.557 9 108545481.377 9     -1479.534 9        55.873 9  20655525.374 6         0.000 6     -1152.884 6        37.977 6
G20  21942346.548 9 115307776.290 9      2536.183 9        55.316 9  21942346.868 6         0.000 6      1976.247 6        37.977 6
> 2019 07 03 12 01  4.0000000  0  8       0.000000000000
G07  25345002.619 9 133188841.633 9      2210.066 9        54.132 9  25345003.288 6         0.000 6      1722.131 6        37.977 6
G10  23806525.138 9 125104079.357 9      3511.577 9        54.670 9  23806528.862 6         0.000 6      2736.296 6        37.977 6
G21  21172045.884 9 111259831.387 9     -1272.142 9        55.709 9  21172045.170 6         0.000 6      -991.279 6        37.977 6
G29  24302732.659 9 127711665.672 9     -3177.339 9        54.474 9  24302734.236 6         0.000 6     -2475.851 6        37.977 6
G27  22002310.703 9 115622896.147 9      2541.934 9        55.375 9  22002312.635 6         0.000 6      1980.729 6        37.977 6
G16  20496640.266 9 107710551.270 9       574.742 9        55.977 9  20496639.439 6         0.000 6       447.851 6        37.977 6
G26  20655804.157 9 108546961.192 9     -1480.103 9        55.873 9  20655806.974 6         0.000 6     -1153.327 6        37.977 6
G20  21941863.970 9 115305240.329 9      2535.745 9        55.316 9  21941864.290 6         0.000 6      1975.907 6        37.977 6
> 2019 07 03 12 01  5.0000000  0  8       0.000000000000
G07  25344582.100 9 133186631.793 9      2209.618 9        54.132 9  25344582.768 6         0.000 6      1721.781 6        37.977 6
G10  23805856.921 9 125100567.863 9      3511.434 9        54.671 9  23805860.644 6         0.000 6      2736.185 6        37.977 6
G21  21172288.000 9 111261103.715 9     -1272.514 9        55.709 9  21172287.286 6         0.000 6      -991.570 6        37.977 6
G29  24303337.296 9 127714843.050 9     -3177.432 9        54.474 9  24303338.874 6         0.000 6     -2475.924 6        37.977 6
G27  22001827.011 9 115620354.336 9      2541.690 9        55.375 9  22001828.943 6         0.000 6      1980.539 6        37.977 6
G16  20496530.955 9 107709976.838 9       574.121 9        55.977 9  20496530.128 6         0.000 6       447.367 6        37.977 6
G26  20656085.867 9 108548441.583 9     -1480.682 9        55.872 9  20656088.683 6         0.000 6     -1153.779 6        37.977 6
G20  21941381.476 9 115302704.814 9      2535.297 9        55.317 9  21941381.796 6         0.000 6      1975.557 6        37.977 6
> 2019 07 03 12 01  6.0000000  0  8       0.000000000000
G07  25344161.665 9 133184422.397 9      2209.170 9        54.132 9  25344162.334 6         0.000 6      1721.432 6        37.977 6
G10  23805188.731 9 125097056.514 9      3511.291 9        54.671 9  23805192.454 6         0.000 6      2736.074 6        37.977 6
G21  21172530.187 9 111262376.411 9     -1272.886 9        55.709 9  21172529.472 6         0.000 6      -991.860 6        37.977 6
G29  24303941.950 9 127718020.520 9     -3177.525 9        54.473 9  24303943.529 6         0.000 6     -2475.996 6        37.977 6
G27  22001343.366 9 115617812.765 9      2541.447 9        55.376 9  22001345.298 6         0.000 6      1980.349 6        37.977 6
G16  20496421.761 9 107709403.023 9       573.499 9        55.977 9  20496420.935 6         0.000 6       446.883 6        37.977 6
G26  20656367.686 9 108549922.551 9     -1481.262 9        55.872 9  20656370.503 6         0.000 6     -1154.230 6        37.977 6
G20  21940899.068 9 115300169.748 9      2534.848 9        55.317 9  21940899.388 6         0.000 6      1975.207 6        37.977 6
> 2019 07 03 12 01  7.0000000  0  8       0.000000000000
G07  25343741.317 9 133182213.456 9      2208.719 9        54.133 9  25343741.985 6         0.000 6      1721.081 6        37.977 6
G10  23804520.568 9 125093545.304 9      3511.151 9        54.671 9  23804524.290 6         0.000 6      2735.964 6        37.977 6
G21  21172772.444 9 111263649.482 9     -1273.256 9        55.708 9  21172771.730 6         0.000 6      -992.148 6        37.977 6
G29  24304546.622 9 127721198.079 9     -3177.613 9        54.473 9  24304548.201 6         0.000 6     -2476.065 6        37.977 6
G27  22000859.768 9 115615271.445 9      2541.199 9        55.376 9  22000861.700 6         0.000 6      1980.156 6        37.977 6
G16  20496312.687 9 107708829.835 9       572.877 9        55.977 9  20496311.860 6         0.000 6       446.398 6        37.977 6
G26  20656649.616 9 108551404.101 9     -1481.841 9        55.872 9  20656652.433 6         0.000 6     -1154.681 6        37.977 6
G20  21940416.745 9 115297635.128 9      2534.402 9        55.317 9  21940417.065 6         0.000 6      1974.860 6        37.977 6
> 2019 07 03 12 01  8.0000000  0  8       0.000000000000
G07  25343321.055 9 133180004.969 9      2208.271 9        54.133 9  25343321.723 6         0.000 6      1720.731 6        37.977 6
G10  23803852.431 9 125090034.230 9      3511.008 9        54.671 9  23803856.152 6         0.000 6      2735.853 6        37.977 6
G21  21173014.771 9 111264922.920 9     -1273.628 9        55.708 9  21173014.057 6         0.000 6      -992.438 6        37.977 6
G29  24305151.310 9 127724375.726 9     -3177.706 9        54.473 9  24305152.890 6         0.000 6     -2476.137 6        37.977 6
G27  22000376.217 9 115612730.370 9      2540.956 9        55.376 9  22000378.149 6         0.000 6      1979.966 6        37.977 6
G16  20496203.731 9 107708257.267 9       572.255 9        55.977 9  20496202.904 6         0.000 6       445.913 6        37.977 6
G26  20656931.655 9 108552886.224 9     -1482.420 9        55.872 9  20656934.472 6         0.000 6     -1155.133 6        37.977 6
G20  21939934.506 9 115295100.949 9      2533.953 9        55.317 9  21939934.825 6         0.000 6      1974.510 6        37.977 6
> 2019 07 03 12 01  9.0000000  0  8       0.000000000000
G07  25342900.878 9 133177796.928 9      2207.819 9        54.133 9  25342901.546 6         0.000 6      1720.380 6        37.977 6
G10  23803184.322 9 125086523.304 9      3510.867 9        54.672 9  23803188.042 6         0.000 6      2735.743 6        37.977 6
G21  21173257.170 9 111266196.733 9     -1273.998 9        55.708 9  21173256.456 6         0.000 6      -992.726 6        37.977 6
G29  24305756.016 9 127727553.466 9     -3177.794 9        54.473 9  24305757.596 6         0.000 6     -2476.206 6        37.977 6
G27  21999892.713 9 115610189.541 9      2540.708 9        55.376 9  21999894.644 6         0.000 6      1979.773 6        37.977 6
G16  20496094.894 9 107707685.323 9       571.633 9        55.977 9  20496094.067 6         0.000 6       445.428 6        37.977 6
G26  20657213.805 9 108554368.932 9     -1482.999 9        55.872 9  20657216.622 6         0.000 6     -1155.584 6        37.977 6
G20  21939452.354 9 115292567.224 9      2533.507 9        55.317 9  21939452.672 6         0.000 6      1974.162 6        37.977 6
> 2019 07 03 12 01 10.0000000  0  8       0.000000000000
G07  25342480.790 9 133175589.354 9      2207.329 9        54.133 9  25342481.458 6         0.000 6      1719.998 6        37.977 6
G10  23802516.237 9 125083012.505 9      3510.753 9        54.672 9  23802519.957 6         0.000 6      2735.654 6        37.977 6
G21  21173499.636 9 111267470.902 9     -1274.339 9        55.708 9  21173498.922 6         0.000 6      -992.991 6        37.977 6
G29  24306360.732 9 127730731.263 9     -3177.799 9        54.473 9  24306362.313 6         0.000 6     -2476.210 6        37.977 6
G27  21999409.260 9 115607648.981 9      2540.398 9        55.376 9  21999411.191 6         0.000 6      1979.532 6        37.977 6
G16  20495986.177 9 107707114.010 9       570.981 9        55.977 9  20495985.350 6         0.000 6       444.921 6        37.977 6
G26  20657496.065 9 108555852.217 9     -1483.584 9        55.872 9  20657498.882 6         0.000 6     -1156.040 6        37.977 6
G20  21938970.282 9 115290033.925 9      2533.103 9        55.318 9  21938970.601 6         0.000 6      1973.848 6        37.977 6
> 2019 07 03 12 01 11.0000000  0  8       0.000000000000
G07  25342061.118 9 133173383.966 9      2199.642 9        54.133 9  25342061.785 6         0.000 6      1714.008 6        37.977 6
G10  23801847.856 9 125079500.152 9      3517.703 9        54.672 9  23801851.576 6         0.000 6      2741.070 6        37.977 6
G21  21173742.203 9 111268745.595 9     -1275.374 9        55.708 9  21173741.489 6         0.000 6      -993.798 6        37.977 6
G29  24306965.406 9 127733908.835 9     -3176.667 9        54.472 9  24306966.988 6         0.000 6     -2475.327 6        37.977 6
G27  21998925.971 9 115605109.282 9      2537.656 9        55.377 9  21998927.902 6         0.000 6      1977.395 6        37.977 6
G16  20495877.620 9 107706543.540 9       569.481 9        55.977 9  20495876.793 6         0.000 6       443.751 6        37.977 6
G26  20657778.298 9 108557335.358 9     -1481.109 9        55.872 9  20657781.115 6         0.000 6     -1154.111 6        37.977 6
G20  21938488.062 9 115287499.845 9      2537.773 9        55.318 9  21938488.380 6         0.000 6      1977.487 6        37.977 6
> 2019 07 03 12 01 12.0000000  0  8       0.000000000000
G07  25341644.051 9 133171192.267 9      2184.003 9        54.133 9  25341644.718 6         0.000 6      1701.821 6        37.977 6
G10  23801177.094 9 125075975.282 9      3531.655 9        54.672 9  23801180.813 6         0.000 6      2751.942 6        37.977 6
G21  21173984.907 9 111270021.017 9     -1274.989 9        55.708 9  21173984.194 6         0.000 6      -993.498 6        37.977 6
G29  24307569.274 9 127737082.173 9     -3168.956 9        54.472 9  24307570.856 6         0.000 6     -2469.319 6        37.977 6
G27  21998443.862 9 115602575.783 9      2528.691 9        55.377 9  21998445.792 6         0.000 6      1970.409 6        37.977 6
G16  20495769.620 9 107705975.998 9       565.261 9        55.977 9  20495768.793 6         0.000 6       440.463 6        37.977 6
G26  20658059.703 9 108558814.150 9     -1476.930 9        55.872 9  20658062.520 6         0.000 6     -1150.855 6        37.977 6
G20  21938004.072 9 115284956.466 9      2549.031 9        55.318 9  21938004.390 6         0.000 6      1986.259 6        37.977 6
> 2019 07 03 12 01 13.0000000  0  8       0.000000000000
G07  25341229.944 9 133169016.122 9      2169.665 9        54.133 9  25341230.610 6         0.000 6      1690.649 6        37.977 6
G10  23800503.814 9 125072437.182 9      3543.170 9        54.673 9  23800507.532 6         0.000 6      2760.914 6        37.977 6
G21  21174227.207 9 111271294.311 9     -1271.306 9        55.708 9  21174226.493 6         0.000 6      -990.628 6        37.977 6
G29  24308170.874 9 127740243.594 9     -3153.747 9        54.472 9  24308172.457 6         0.000 6     -2457.468 6        37.977 6
G27  21997963.987 9 115600054.025 9      2515.050 9        55.377 9  21997965.917 6         0.000 6      1959.780 6        37.977 6
G16  20495662.691 9 107705414.083 9       558.612 9        55.977 9  20495661.864 6         0.000 6       435.282 6        37.977 6
G26  20658340.574 9 108560290.135 9     -1475.734 9        55.871 9  20658343.391 6         0.000 6     -1149.923 6        37.977 6
G20  21937517.804 9 115282401.113 9      2560.793 9        55.318 9  21937518.121 6         0.000 6      1995.424 6        37.977 6
> 2019 07 03 12 01 14.0000000  0  8       0.000000000000
G07  25340817.391 9 133166848.146 9      2167.022 9        54.134 9  25340818.058 6         0.000 6      1688.589 6        37.977 6
G10  23799829.381 9 125068893.024 9      3544.615 9        54.673 9  23799833.098 6         0.000 6      2762.041 6        37.977 6
G21  21174469.003 9 111272564.953 9     -1270.361 9        55.708 9  21174468.289 6         0.000 6      -989.892 6        37.977 6
G29  24308770.519 9 127743394.738 9     -3149.771 9        54.472 9  24308772.103 6         0.000 6     -2454.370 6        37.977 6
G27  21997485.809 9 115597541.190 9      2511.596 9        55.377 9  21997487.740 6         0.000 6      1957.089 6        37.977 6
G16  20495556.636 9 107704856.756 9       556.492 9        55.977 9  20495555.809 6         0.000 6       433.630 6        37.977 6
G26  20658621.477 9 108561766.291 9     -1476.549 9        55.871 9  20658624.295 6         0.000 6     -1150.558 6        37.977 6
G20  21937030.264 9 115279839.078 9      2562.569 9        55.318 9  21937030.581 6         0.000 6      1996.808 6        37.977 6
> 2019 07 03 12 01 15.0000000  0  8       0.000000000000
G07  25340405.095 9 133164681.523 9      2166.329 9        54.134 9  25340405.762 6         0.000 6      1688.049 6        37.977 6
G10  23799154.854 9 125065348.373 9      3544.638 9        54.673 9  23799158.571 6         0.000 6      2762.058 6        37.977 6
G21  21174710.758 9 111273835.385 9     -1270.563 9        55.708 9  21174710.044 6         0.000 6      -990.049 6        37.977 6
G29  24309369.844 9 127746544.200 9     -3149.352 9        54.471 9  24309371.428 6         0.000 6     -2454.043 6        37.977 6
G27  21997007.942 9 115595029.983 9      2510.963 9        55.377 9  21997009.872 6         0.000 6      1956.595 6        37.977 6
G16  20495450.821 9 107704300.694 9       555.697 9        55.977 9  20495449.994 6         0.000 6       433.010 6        37.977 6
G26  20658902.514 9 108563243.150 9     -1477.162 9        55.871 9  20658905.332 6         0.000 6     -1151.036 6        37.977 6
G20  21936542.632 9 115277276.563 9      2562.373 9        55.318 9  21936542.949 6         0.000 6      1996.655 6        37.977 6
> 2019 07 03 12 01 16.0000000  0  8       0.000000000000
G07  25339992.903 9 133162515.442 9      2165.847 9        54.134 9  25339993.570 6         0.000 6      1687.674 6        37.977 6
G10  23798480.344 9 125061803.807 9      3544.517 9        54.673 9  23798484.060 6         0.000 6      2761.964 6        37.977 6
G21  21174952.572 9 111275106.126 9     -1270.918 9        55.708 9  21174951.858 6         0.000 6      -990.326 6        37.977 6
G29  24309969.148 9 127749693.552 9     -3149.388 9        54.471 9  24309970.732 6         0.000 6     -2454.071 6        37.977 6
G27  21996530.150 9 115592519.173 9      2510.682 9        55.377 9  21996532.080 6         0.000 6      1956.376 6        37.977 6
G16  20495345.136 9 107703745.320 9       555.068 9        55.977 9  20495344.309 6         0.000 6       432.520 6        37.977 6
G26  20659183.664 9 108564720.600 9     -1477.731 9        55.871 9  20659186.482 6         0.000 6     -1151.479 6        37.977 6
G20  21936055.069 9 115274714.406 9      2561.949 9        55.319 9  21936055.386 6         0.000 6      1996.325 6        37.977 6
> 2019 07 03 12 01 17.0000000  0  8       0.000000000000
G07  25339580.800 9 133160349.828 9      2165.387 9        54.134 9  25339581.466 6         0.000 6      1687.315 6        37.977 6
G10  23797805.858 9 125058259.370 9      3544.378 9        54.674 9  23797809.573 6         0.000 6      2761.855 6        37.977 6
G21  21175194.454 9 111276377.225 9     -1271.289 9        55.707 9  21175193.741 6         0.000 6      -990.615 6        37.977 6
G29  24310568.463 9 127752842.965 9     -3149.466 9        54.471 9  24310570.049 6         0.000 6     -2454.132 6        37.977 6
G27  21996052.407 9 115590008.620 9      2510.430 9        55.378 9  21996054.337 6         0.000 6      1956.180 6        37.977 6
G16  20495239.569 9 107703190.559 9       554.450 9        55.977 9  20495238.742 6         0.000 6       432.039 6        37.977 6
G26  20659464.921 9 108566198.613 9     -1478.302 9        55.871 9  20659467.739 6         0.000 6     -1151.924 6        37.977 6
G20  21935567.589 9 115272152.684 9      2561.500 9        55.319 9  21935567.906 6         0.000 6      1995.975 6        37.977 6
> 2019 07 03 12 01 18.0000000  0  8       0.000000000000
G07  25339168.784 9 133158184.675 9      2164.930 9        54.134 9  25339169.450 6         0.000 6      1686.960 6        37.977 6
G10  23797131.398 9 125054715.072 9      3544.236 9        54.674 9  23797135.113 6         0.000 6      2761.745 6        37.977 6
G21  21175436.407 9 111277648.697 9     -1271.657 9        55.707 9  21175435.694 6         0.000 6      -990.902 6        37.977 6
G29  24311167.793 9 127755992.456 9     -3149.542 9        54.471 9  24311169.379 6         0.000 6     -2454.191 6        37.977 6
G27  21995574.712 9 115587498.319 9      2510.181 9        55.378 9  21995576.642 6         0.000 6      1955.986 6        37.977 6
G16  20495134.119 9 107702636.417 9       553.836 9        55.977 9  20495133.292 6         0.000 6       431.561 6        37.977 6
G26  20659746.287 9 108567677.197 9     -1478.870 9        55.871 9  20659749.105 6         0.000 6     -1152.367 6        37.977 6
G20  21935080.194 9 115269591.411 9      2561.051 9        55.319 9  21935080.510 6         0.000 6      1995.625 6        37.977 6
> 2019 07 03 12 01 19.0000000  0  8       0.000000000000
G07  25338756.855 9 133156019.977 9      2164.474 9        54.134 9  25338757.521 6         0.000 6      1686.604 6        37.977 6
G10  23796456.965 9 125051170.914 9      3544.097 9        54.674 9  23796460.679 6         0.000 6      2761.637 6        37.977 6
G21  21175678.430 9 111278920.535 9     -1272.024 9        55.707 9  21175677.717 6         0.000 6      -991.188 6        37.977 6
G29  24311767.139 9 127759142.029 9     -3149.624 9        54.471 9  24311768.726 6         0.000 6     -2454.255 6        37.977 6
G27  21995097.064 9 115584988.261 9      2509.938 9        55.378 9  21995098.993 6         0.000 6      1955.797 6        37.977 6
G16  20495028.785 9 107702082.884 9       553.227 9        55.978 9  20495027.958 6         0.000 6       431.086 6        37.977 6
G26  20660027.759 9 108569156.345 9     -1479.434 9        55.871 9  20660030.578 6         0.000 6     -1152.806 6        37.977 6
G20  21934592.885 9 115267030.587 9      2560.603 9        55.319 9  21934593.201 6         0.000 6      1995.276 6        37.977 6
> 2019 07 03 12 01 20.0000000  0  8       0.000000000000
G07  25338345.014 9 133153855.737 9      2164.020 9        54.134 9  25338345.679 6         0.000 6      1686.250 6        37.977 6
G10  23795782.560 9 125047626.897 9      3543.954 9        54.674 9  23795786.273 6         0.000 6      2761.525 6        37.977 6
G21  21175920.524 9 111280192.748 9     -1272.394 9        55.707 9  21175919.811 6         0.000 6      -991.476 6        37.977 6
G29  24312366.500 9 127762291.685 9     -3149.706 9        54.470 9  24312368.088 6         0.000 6     -2454.319 6        37.977 6
G27  21994619.462 9 115582478.451 9      2509.693 9        55.378 9  21994621.392 6         0.000 6      1955.606 6        37.977 6
G16  20494923.569 9 107701529.967 9       552.614 9        55.978 9  20494922.742 6         0.000 6       430.608 6        37.977 6
G26  20660309.341 9 108570636.064 9     -1480.003 9        55.871 9  20660312.159 6         0.000 6     -1153.250 6        37.977 6
G20  21934105.661 9 115264470.215 9      2560.151 9        55.319 9  21934105.977 6         0.000 6      1994.924 6        37.977 6
> 2019 07 03 12 01 21.0000000  0  8       0.000000000000
G07  25337933.257 9 133151691.948 9      2163.563 9        54.135 9  25337933.923 6         0.000 6      1685.894 6        37.977 6
G10  23795108.181 9 125044083.026 9      3543.812 9        54.675 9  23795111.894 6         0.000 6      2761.414 6        37.977 6
G21  21176162.688 9 111281465.325 9     -1272.767 9        55.707 9  21176161.975 6         0.000 6      -991.767 6        37.977 6
G29  24312965.877 9 127765441.421 9     -3149.788 9        54.470 9  24312967.465 6         0.000 6     -2454.383 6        37.977 6
G27  21994141.907 9 115579968.883 9      2509.445 9        55.378 9  21994143.836 6         0.000 6      1955.412 6        37.977 6
G16  20494818.468 9 107700977.659 9       551.998 9        55.978 9  20494817.641 6         0.000 6       430.128 6        37.977 6
G26  20660591.030 9 108572116.350 9     -1480.574 9        55.871 9  20660593.849 6         0.000 6     -1153.694 6        37.977 6
G20  21933618.524 9 115261910.294 9      2559.698 9        55.320 9  21933618.839 6         0.000 6      1994.571 6        37.977 6
> 2019 07 03 12 01 22.0000000  0  8       0.000000000000
G07  25337521.588 9 133149528.615 9      2163.109 9        54.135 9  25337522.253 6         0.000 6      1685.540 6        37.977 6
G10  23794433.830 9 125040539.297 9      3543.668 9        54.675 9  23794437.542 6         0.000 6      2761.302 6        37.977 6
G21  21176404.923 9 111282738.277 9     -1273.137 9        55.707 9  21176404.209 6         0.000 6      -992.055 6        37.977 6
G29  24313565.270 9 127768591.240 9     -3149.870 9        54.470 9  24313566.859 6         0.000 6     -2454.447 6        37.977 6
G27  21993664.399 9 115577459.564 9      2509.200 9        55.379 9  21993666.328 6         0.000 6      1955.221 6        37.977 6
G16  20494713.485 9 107700425.968 9       551.385 9        55.978 9  20494712.658 6         0.000 6       429.651 6        37.977 6
G26  20660872.828 9 108573597.206 9     -1481.143 9        55.870 9  20660875.647 6         0.000 6     -1154.138 6        37.977 6
G20  21933131.472 9 115259350.827 9      2559.246 9        55.320 9  21933131.788 6         0.000 6      1994.219 6        37.977 6
> 2019 07 03 12 01 23.0000000  0  8       0.000000000000
G07  25337110.005 9 133147365.734 9      2162.655 9        54.135 9  25337110.670 6         0.000 6      1685.187 6        37.977 6
G10  23793759.507 9 125036995.714 9      3543.524 9        54.675 9  23793763.218 6         0.000 6      2761.190 6        37.977 6
G21  21176647.227 9 111284011.593 9     -1273.506 9        55.707 9  21176646.514 6         0.000 6      -992.343 6        37.977 6
G29  24314164.678 9 127771741.140 9     -3149.952 9        54.470 9  24314166.267 6         0.000 6     -2454.511 6        37.977 6
G27  21993186.937 9 115574950.486 9      2508.954 9        55.379 9  21993188.866 6         0.000 6      1955.030 6        37.977 6
G16  20494608.617 9 107699874.885 9       550.772 9        55.978 9  20494607.790 6         0.000 6       429.173 6        37.977 6
G26  20661154.734 9 108575078.630 9     -1481.712 9        55.870 9  20661157.553 6         0.000 6     -1154.581 6        37.977 6
G20  21932644.507 9 115256791.812 9      2558.793 9        55.320 9  21932644.822 6         0.000 6      1993.866 6        37.977 6
> 2019 07 03 12 01 24.0000000  0  8       0.000000000000
G07  25336698.507 9 133145203.300 9      2162.238 9        54.135 9  25336699.171 6         0.000 6      1684.861 6        37.977 6
G10  23793085.212 9 125033452.281 9      3543.342 9        54.675 9  23793088.922 6         0.000 6      2761.048 6        37.977 6
G21  21176889.602 9 111285285.283 9     -1273.871 9        55.707 9  21176888.889 6         0.000 6      -992.627 6        37.977 6
G29  24314764.102 9 127774891.126 9     -3150.035 9        54.470 9  24314765.692 6         0.000 6     -2454.575 6        37.977 6
G27  21992709.521 9 115572441.652 9      2508.718 9        55.379 9  21992711.450 6         0.000 6      1954.846 6        37.977 6
G16  20494503.866 9 107699324.417 9       550.161 9        55.978 9  20494503.039 6         0.000 6       428.697 6        37.977 6
G26  20661436.749 9 108576560.627 9     -1482.299 9        55.870 9  20661439.568 6         0.000 6     -1155.038 6        37.977 6
G20  21932157.629 9 115254233.256 9      2558.315 9        55.320 9  21932157.944 6         0.000 6      1993.493 6        37.977 6
> 2019 07 03 12 01 25.0000000  0  8       0.000000000000
G07  25336287.108 9 133143041.386 9      2160.444 9        54.135 9  25336287.772 6         0.000 6      1683.464 6        37.977 6
G10  23792410.942 9 125029908.980 9      3543.993 9        54.676 9  23792414.652 6         0.000 6      2761.556 6        37.977 6
G21  21177132.021 9 111286559.203 9     -1272.940 9        55.707 9  21177131.308 6         0.000 6      -991.901 6        37.977 6
G29  24315363.474 9 127778040.837 9     -3146.455 9        54.469 9  24315365.065 6         0.000 6     -2451.786 6        37.977 6
G27  21992232.200 9 115569933.314 9      2505.737 9        55.379 9  21992234.128 6         0.000 6      1952.523 6        37.977 6
G16  20494399.256 9 107698774.684 9       548.239 9        55.978 9  20494398.429 6         0.000 6       427.199 6        37.977 6
G26  20661718.887 9 108578043.272 9     -1483.384 9        55.870 9  20661721.706 6         0.000 6     -1155.884 6        37.977 6
G20  21931670.816 9 115251675.041 9      2559.446 9        55.320 9  21931671.131 6         0.000 6      1994.375 6        37.977 6
> 2019 07 03 12 01 26.0000000  0  8       0.000000000000
G07  25335876.252 9 133140882.330 9      2159.036 9        54.135 9  25335876.916 6         0.000 6      1682.366 6        37.977 6
G10  23791736.541 9 125026364.989 9      3542.740 9        54.676 9  23791740.250 6         0.000 6      2760.579 6        37.977 6
G21  21177373.764 9 111287829.567 9     -1267.814 9        55.707 9  21177373.051 6         0.000 6      -987.907 6        37.977 6
G29  24315960.874 9 127781180.182 9     -3132.878 9        54.469 9  24315962.465 6         0.000 6     -2441.207 6        37.977 6
G27  21991756.350 9 115567432.711 9      2496.212 9        55.379 9  21991758.279 6         0.000 6      1945.101 6        37.977 6
G16  20494295.459 9 107698229.231 9       542.971 9        55.978 9  20494294.632 6         0.000 6       423.094 6        37.977 6
G26  20662001.547 9 108579528.659 9     -1487.837 9        55.870 9  20662004.367 6         0.000 6     -1159.354 6        37.977 6
G20  21931183.414 9 115249113.728 9      2562.162 9        55.321 9  21931183.728 6         0.000 6      1996.491 6        37.977 6
> 2019 07 03 12 01 27.0000000  0  8       0.000000000000
G07  25335464.815 9 133138720.216 9      2167.584 9        54.135 9  25335465.479 6         0.000 6      1689.027 6        37.977 6
G10  23791063.175 9 125022826.436 9      3532.100 9        54.676 9  23791066.883 6         0.000 6      2752.289 6        37.977 6
G21  21177614.548 9 111289094.897 9     -1262.758 9        55.706 9  21177613.835 6         0.000 6      -983.967 6        37.977 6
G29  24316556.073 9 127784307.963 9     -3123.430 9        54.469 9  24316557.665 6         0.000 6     -2433.844 6        37.977 6
G27  21991281.860 9 115564939.251 9      2491.749 9        55.380 9  21991283.788 6         0.000 6      1941.623 6        37.977 6
G16  20494192.483 9 107697688.085 9       539.712 9        55.978 9  20494191.656 6         0.000 6       420.555 6        37.977 6
G26  20662285.339 9 108581019.990 9     -1495.741 9        55.870 9  20662288.158 6         0.000 6     -1165.513 6        37.977 6
G20  21930696.138 9 115246553.079 9      2557.404 9        55.321 9  21930696.451 6         0.000 6      1992.783 6        37.977 6
> 2019 07 03 12 01 28.0000000  0  8       0.000000000000
G07  25335051.702 9 133136549.296 9      2172.679 9        54.136 9  25335052.366 6         0.000 6      1692.997 6        37.977 6
G10  23790391.756 9 125019298.118 9      3526.230 9        54.676 9  23790395.464 6         0.000 6      2747.715 6        37.977 6
G21  21177854.708 9 111290356.943 9     -1261.823 9        55.706 9  21177853.995 6         0.000 6      -983.239 6        37.977 6
G29  24317150.309 9 127787430.686 9     -3122.577 9        54.469 9  24317151.902 6         0.000 6     -2433.180 6        37.977 6
G27  21990807.654 9 115562447.283 9      2492.179 9        55.380 9  21990809.582 6         0.000 6      1941.958 6        37.977 6
G16  20494089.843 9 107697148.708 9       539.120 9        55.978 9  20494089.016 6         0.000 6       420.094 6        37.977 6
G26  20662570.393 9 108582517.959 9     -1499.275 9        55.870 9  20662573.212 6         0.000 6     -1168.267 6        37.977 6
G20  21930209.954 9 115243998.173 9      2553.382 9        55.321 9  21930210.268 6         0.000 6      1989.649 6        37.977 6
> 2019 07 03 12 01 29.0000000  0  8       0.000000000000
G07  25334638.194 9 133134376.303 9      2173.026 9        54.136 9  25334638.858 6         0.000 6      1693.268 6        37.977 6
G10  23789720.855 9 125015772.521 9      3525.278 9        54.677 9  23789724.563 6         0.000 6      2746.973 6        37.977 6
G21  21178094.842 9 111291618.857 9     -1262.044 9        55.706 9  21178094.129 6         0.000 6      -983.411 6        37.977 6
G29  24317744.523 9 127790553.293 9     -3122.657 9        54.468 9  24317746.117 6         0.000 6     -2433.242 6        37.977 6
G27  21990333.407 9 115559955.101 9      2492.129 9        55.380 9  21990335.335 6         0.000 6      1941.919 6        37.977 6
G16  20493987.304 9 107696609.865 9       538.556 9        55.978 9  20493986.477 6         0.000 6       419.654 6        37.977 6
G26  20662855.801 9 108584017.784 9     -1500.233 9        55.870 9  20662858.620 6         0.000 6     -1169.013 6        37.977 6
G20  21929724.175 9 115241445.389 9      2552.395 9        55.321 9  21929724.488 6         0.000 6      1988.880 6        37.977 6
> 2019 07 03 12 01 30.0000000  0  8       0.000000000000
G07  25334224.716 9 133132203.461 9      2172.639 9        54.136 9  25334225.379 6         0.000 6      1692.966 6        37.977 6
G10  23789050.040 9 125012247.373 9      3525.062 9        54.677 9  23789053.747 6         0.000 6      2746.804 6        37.977 6
G21  21178335.033 9 111292881.066 9     -1262.389 9        55.706 9  21178334.320 6         0.000 6      -983.680 6        37.977 6
G29  24318338.752 9 127793675.975 9     -3122.733 9        54.468 9  24318340.346 6         0.000 6     -2433.301 6        37.977 6
G27  21989859.191 9 115557463.084 9      2491.902 9        55.380 9  21989861.119 6         0.000 6      1941.742 6        37.977 6
G16  20493884.878 9 107696071.613 9       537.939 9        55.978 9  20493884.051 6         0.000 6       419.173 6        37.977 6
G26  20663141.344 9 108585518.324 9     -1500.846 9        55.869 9  20663144.164 6         0.000 6     -1169.491 6        37.977 6
G20  21929238.518 9 115238893.252 9      2551.900 9        55.321 9  21929238.831 6         0.000 6      1988.494 6        37.977 6
> 2019 07 03 12 01 31.0000000  0  8       0.000000000000
G07  25333811.320 9 133130031.054 9      2172.183 9        54.136 9  25333811.983 6         0.000 6      1692.611 6        37.977 6
G10  23788379.257 9 125008722.397 9      3524.915 9        54.677 9  23788382.963 6         0.000 6      2746.690 6        37.977 6
G21  21178575.292 9 111294143.636 9     -1262.746 9        55.706 9  21178574.579 6         0.000 6      -983.958 6        37.977 6
G29  24318932.997 9 127796798.741 9     -3122.817 9        54.468 9  24318934.591 6         0.000 6     -2433.367 6        37.977 6
G27  21989385.021 9 115554971.306 9      2491.665 9        55.380 9  21989386.949 6         0.000 6      1941.558 6        37.977 6
G16  20493782.571 9 107695533.986 9       537.322 9        55.978 9  20493781.744 6         0.000 6       418.693 6        37.977 6
G26  20663427.001 9 108587019.460 9     -1501.422 9        55.869 9  20663429.821 6         0.000 6     -1169.940 6        37.977 6
G20  21928752.951 9 115236341.584 9      2551.450 9        55.322 9  21928753.264 6         0.000 6      1988.144 6        37.977 6
> 2019 07 03 12 01 32.0000000  0  8       0.000000000000
G07  25333398.011 9 133127859.105 9      2171.722 9        54.136 9  25333398.674 6         0.000 6      1692.252 6        37.977 6
G10  23787708.501 9 125005197.562 9      3524.775 9        54.677 9  23787712.207 6         0.000 6      2746.580 6        37.977 6
G21  21178815.618 9 111295406.560 9     -1263.105 9        55.706 9  21178814.906 6         0.000 6      -984.238 6        37.977 6
G29  24319527.257 9 127799921.590 9     -3122.902 9        54.468 9  24319528.852 6         0.000 6     -2433.433 6        37.977 6
G27  21988910.896 9 115552479.762 9      2491.427 9        55.380 9  21988912.823 6         0.000 6      1941.372 6        37.977 6
G16  20493680.381 9 107694996.972 9       536.705 9        55.978 9  20493679.554 6         0.000 6       418.212 6        37.977 6
G26  20663712.767 9 108588521.167 9     -1501.996 9        55.869 9  20663715.587 6         0.000 6     -1170.387 6        37.977 6
G20  21928267.469 9 115233790.362 9      2551.004 9        55.322 9  21928267.782 6         0.000 6      1987.796 6        37.977 6
> 2019 07 03 12 01 33.0000000  0  8       0.000000000000
G07  25332984.790 9 133125687.618 9      2171.257 9        54.136 9  25332985.452 6         0.000 6      1691.890 6        37.977 6
G10  23787037.772 9 125001672.868 9      3524.636 9        54.678 9  23787041.477 6         0.000 6      2746.473 6        37.977 6
G21  21179056.014 9 111296669.844 9     -1263.462 9        55.706 9  21179055.301 6         0.000 6      -984.516 6        37.977 6
G29  24320121.533 9 127803044.524 9     -3122.981 9        54.468 9  24320123.129 6         0.000 6     -2433.495 6        37.977 6
G27  21988436.815 9 115549988.457 9      2491.185 9        55.381 9  21988438.743 6         0.000 6      1941.184 6        37.977 6
G16  20493578.308 9 107694460.576 9       536.087 9        55.978 9  20493577.481 6         0.000 6       417.730 6        37.977 6
G26  20663998.642 9 108590023.448 9     -1502.569 9        55.869 9  20664001.462 6         0.000 6     -1170.834 6        37.977 6
G20  21927782.072 9 115231239.586 9      2550.560 9        55.322 9  21927782.384 6         0.000 6      1987.451 6        37.977 6
> 2019 07 03 12 01 34.0000000  0  8       0.000000000000
G07  25332571.657 9 133123516.592 9      2170.795 9        54.136 9  25332572.319 6         0.000 6      1691.530 6        37.977 6
G10  23786367.071 9 124998148.318 9      3524.496 9        54.678 9  23786370.775 6         0.000 6      2746.363 6        37.977 6
G21  21179296.477 9 111297933.487 9     -1263.821 9        55.706 9  21179295.764 6         0.000 6      -984.796 6        37.977 6
G29  24320715.825 9 127806167.538 9     -3123.066 9        54.467 9  24320717.421 6         0.000 6     -2433.561 6        37.977 6
G27  21987962.782 9 115547497.395 9      2490.947 9        55.381 9  21987964.709 6         0.000 6      1940.998 6        37.977 6
G16  20493476.354 9 107693924.801 9       535.469 9        55.978 9  20493475.527 6         0.000 6       417.249 6        37.977 6
G26  20664284.627 9 108591526.307 9     -1503.143 9        55.869 9  20664287.447 6         0.000 6     -1171.281 6        37.977 6
G20  21927296.759 9 115228689.257 9      2550.114 9        55.322 9  21927297.071 6         0.000 6      1987.103 6        37.977 6
> 2019 07 03 12 01 35.0000000  0  8       0.000000000000
G07  25332158.613 9 133121346.035 9      2170.334 9        54.137 9  25332159.275 6         0.000 6      1691.170 6        37.977 6
G10  23785696.395 9 124994623.901 9      3524.355 9        54.678 9  23785700.098 6         0.000 6      2746.253 6        37.977 6
G21  21179537.009 9 111299197.491 9     -1264.180 9        55.706 9  21179536.296 6         0.000 6      -985.075 6        37.977 6
G29  24321310.133 9 127809290.637 9     -3123.151 9        54.467 9  24321311.730 6         0.000 6     -2433.627 6        37.977 6
G27  21987488.793 9 115545006.573 9      2490.709 9        55.381 9  21987490.720 6         0.000 6      1940.813 6        37.977 6
G16  20493374.517 9 107693389.645 9       534.852 9        55.978 9  20493373.690 6         0.000 6       416.768 6        37.977 6
G26  20664570.720 9 108593029.737 9     -1503.717 9        55.869 9  20664573.541 6         0.000 6     -1171.728 6        37.977 6
G20  21926811.531 9 115226139.372 9      2549.667 9        55.322 9  21926811.843 6         0.000 6      1986.755 6        37.977 6
> 2019 07 03 12 01 36.0000000  0  8       0.000000000000
G07  25331745.655 9 133119175.933 9      2169.872 9        54.137 9  25331746.317 6         0.000 6      1690.810 6        37.977 6
G10  23785025.746 9 124991099.632 9      3524.214 9        54.678 9  23785029.449 6         0.000 6      2746.143 6        37.977 6
G21  21179777.609 9 111300461.852 9     -1264.539 9        55.706 9  21179776.896 6         0.000 6      -985.355 6        37.977 6
G29  24321904.457 9 127812413.820 9     -3123.236 9        54.467 9  24321906.055 6         0.000 6     -2433.693 6        37.977 6
G27  21987014.850 9 115542515.988 9      2490.471 9        55.381 9  21987016.777 6         0.000 6      1940.627 6        37.977 6
G16  20493272.797 9 107692855.105 9       534.234 9        55.978 9  20493271.970 6         0.000 6       416.286 6        37.977 6
G26  20664856.924 9 108594533.744 9     -1504.290 9        55.869 9  20664859.744 6         0.000 6     -1172.175 6        37.977 6
G20  21926326.389 9 115223589.936 9      2549.221 9        55.323 9  21926326.700 6         0.000 6      1986.407 6        37.977 6
> 2019 07 03 12 01 37.0000000  0  8       0.000000000000
G07  25331332.800 9 133117006.365 9      2168.729 9        54.137 9  25331333.461 6         0.000 6      1689.919 6        37.977 6
G10  23784355.110 9 124987575.425 9      3524.765 9        54.679 9  23784358.812 6         0.000 6      2746.572 6        37.977 6
G21  21180018.282 9 111301726.595 9     -1265.036 9        55.705 9  21180017.569 6         0.000 6      -985.742 6        37.977 6
G29  24322498.803 9 127815537.118 9     -3123.376 9        54.467 9  24322500.401 6         0.000 6     -2433.802 6        37.977 6
G27  21986540.952 9 115540025.637 9      2490.109 9        55.381 9  21986542.878 6         0.000 6      1940.345 6        37.977 6
G16  20493171.194 9 107692321.175 9       533.591 9        55.978 9  20493170.367 6         0.000 6       415.786 6        37.977 6
G26  20665143.227 9 108596038.278 9     -1504.522 9        55.869 9  20665146.048 6         0.000 6     -1172.355 6        37.977 6
G20  21925841.323 9 115221040.903 9      2549.220 9        55.323 9  21925841.634 6         0.000 6      1986.407 6        37.977 6
> 2019 07 03 12 01 38.0000000  0  8       0.000000000000
G07  25330919.132 9 133114832.530 9      2180.830 9        54.137 9  25330919.793 6         0.000 6      1699.349 6        37.977 6
G10  23783685.381 9 124984055.984 9      3512.424 9        54.679 9  23783689.082 6         0.000 6      2736.956 6        37.977 6
G21  21180258.942 9 111302991.271 9     -1264.499 9        55.705 9  21180258.229 6         0.000 6      -985.324 6        37.977 6
G29  24323093.328 9 127818661.360 9     -3126.306 9        54.467 9  24323094.927 6         0.000 6     -2436.086 6        37.977 6
G27  21986066.781 9 115537533.853 9      2494.677 9        55.382 9  21986068.707 6         0.000 6      1943.905 6        37.977 6
G16  20493069.598 9 107691787.288 9       534.687 9        55.978 9  20493068.771 6         0.000 6       416.639 6        37.977 6
G26  20665430.020 9 108597545.383 9     -1510.227 9        55.868 9  20665432.841 6         0.000 6     -1176.801 6        37.977 6
G20  21925356.979 9 115218495.659 9      2539.790 9        55.323 9  21925357.289 6         0.000 6      1979.059 6        37.977 6
> 2019 07 03 12 01 39.0000000  0  8       0.000000000000
G07  25330502.728 9 133112644.318 9      2195.381 9        54.137 9  25330503.390 6         0.000 6      1710.687 6        37.977 6
G10  23783018.331 9 124980550.623 9      3498.707 9        54.679 9  23783022.032 6         0.000 6      2726.268 6        37.977 6
G21  21180499.712 9 111304256.527 9     -1266.526 9        55.705 9  21180498.999 6         0.000 6      -986.904 6        37.977 6
G29  24323689.096 9 127821792.128 9     -3136.383 9        54.466 9  24323690.695 6         0.000 6     -2443.938 6        37.977 6
G27  21985591.187 9 115535034.593 9      2504.540 9        55.382 9  21985593.113 6         0.000 6      1951.590 6        37.977 6
G16  20492967.539 9 107691250.962 9       538.325 9        55.978 9  20492966.712 6         0.000 6       419.474 6        37.977 6
G26  20665717.889 9 108599058.144 9     -1514.841 9        55.868 9  20665720.710 6         0.000 6     -1180.396 6        37.977 6
G20  21924874.846 9 115215962.038 9      2527.392 9        55.323 9  21924875.156 6         0.000 6      1969.398 6        37.977 6
> 2019 07 03 12 01 40.0000000  0  8       0.000000000000
G07  25330083.691 9 133110442.264 9      2205.572 9        54.137 9  25330084.352 6         0.000 6      1718.628 6        37.977 6
G10  23782353.646 9 124977057.694 9      3489.925 9        54.679 9  23782357.347 6         0.000 6      2719.425 6        37.977 6
G21  21180741.190 9 111305525.502 9     -1270.781 9        55.705 9  21180740.478 6         0.000 6      -990.219 6        37.977 6
G29  24324287.500 9 127824936.755 9     -3150.083 9        54.466 9  24324289.100 6         0.000 6     -2454.612 6        37.977 6
G27  21985113.272 9 115532523.139 9      2515.780 9        55.382 9  21985115.198 6         0.000 6      1960.349 6        37.977 6
G16  20492864.555 9 107690709.776 9       542.914 9        55.978 9  20492863.728 6         0.000 6       423.050 6        37.977 6
G26  20666006.344 9 108600573.981 9     -1516.210 9        55.868 9  20666009.165 6         0.000 6     -1181.463 6        37.977 6
G20  21924395.115 9 115213441.040 9      2517.261 9        55.323 9  21924395.425 6         0.000 6      1961.503 6        37.977 6
> 2019 07 03 12 01 41.0000000  0  8       0.000000000000
G07  25329663.880 9 133108236.148 9      2206.274 9        54.137 9  25329664.541 6         0.000 6      1719.175 6        37.977 6
G10  23781689.654 9 124973568.398 9      3488.968 9        54.679 9  23781693.353 6         0.000 6      2718.679 6        37.977 6
G21  21180983.141 9 111306796.964 9     -1271.907 9        55.705 9  21180982.429 6         0.000 6      -991.096 6        37.977 6
G29  24324887.240 9 127828088.397 9     -3152.482 9        54.466 9  24324888.840 6         0.000 6     -2456.482 6        37.977 6
G27  21984634.332 9 115530006.291 9      2517.337 9        55.382 9  21984636.257 6         0.000 6      1961.562 6        37.977 6
G16  20492761.194 9 107690166.614 9       543.132 9        55.978 9  20492760.367 6         0.000 6       423.220 6        37.977 6
G26  20666294.903 9 108602090.366 9     -1516.616 9        55.868 9  20666297.724 6         0.000 6     -1181.779 6        37.977 6
G20  21923916.291 9 115210924.809 9      2515.610 9        55.323 9  21923916.601 6         0.000 6      1960.217 6        37.977 6
> 2019 07 03 12 01 42.0000000  0  8       0.000000000000
G07  25329244.069 9 133106030.030 9      2205.931 9        54.138 9  25329244.730 6         0.000 6      1718.908 6        37.977 6
G10  23781025.748 9 124970079.563 9      3488.749 9        54.680 9  23781029.447 6         0.000 6      2718.508 6        37.977 6
G21  21181225.223 9 111308069.108 9     -1272.347 9        55.705 9  21181224.510 6         0.000 6      -991.440 6        37.977 6
G29  24325487.178 9 127831241.085 9     -3152.821 9        54.466 9  24325488.780 6         0.000 6     -2456.746 6        37.977 6
G27  21984155.296 9 115527488.947 9      2517.289 9        55.382 9  21984157.222 6         0.000 6      1961.524 6        37.977 6
G16  20492657.888 9 107689623.735 9       542.596 9        55.979 9  20492657.061 6         0.000 6       422.802 6        37.977 6
G26  20666583.557 9 108603607.256 9     -1517.175 9        55.868 9  20666586.378 6         0.000 6     -1182.214 6        37.977 6
G20  21923437.645 9 115208409.509 9      2515.044 9        55.324 9  21923437.955 6         0.000 6      1959.776 6        37.977 6
> 2019 07 03 12 01 43.0000000  0  8       0.000000000000
G07  25328824.338 9 133103824.331 9      2205.481 9        54.138 9  25328824.998 6         0.000 6      1718.558 6        37.977 6
G10  23780361.875 9 124966590.895 9      3488.600 9        54.680 9  23780365.573 6         0.000 6      2718.392 6        37.977 6
G21  21181467.377 9 111309341.636 9     -1272.714 9        55.705 9  21181466.664 6         0.000 6      -991.725 6        37.977 6
G29  24326087.151 9 127834393.951 9     -3152.932 9        54.466 9  24326088.753 6         0.000 6     -2456.833 6        37.977 6
G27  21983676.293 9 115524971.772 9      2517.062 9        55.383 9  21983678.219 6         0.000 6      1961.348 6        37.977 6
G16  20492554.694 9 107689081.447 9       541.973 9        55.979 9  20492553.867 6         0.000 6       422.317 6        37.977 6
G26  20666872.321 9 108605124.716 9     -1517.759 9        55.868 9  20666875.142 6         0.000 6     -1182.669 6        37.977 6
G20  21922959.090 9 115205894.693 9      2514.589 9        55.324 9  21922959.400 6         0.000 6      1959.421 6        37.977 6
> 2019 07 03 12 01 44.0000000  0  8       0.000000000000
G07  25328404.692 9 133101619.081 9      2205.023 9        54.138 9  25328405.352 6         0.000 6      1718.201 6        37.977 6
G10  23779698.030 9 124963102.379 9      3488.457 9        54.680 9  23779701.728 6         0.000 6      2718.281 6        37.977 6
G21  21181709.601 9 111310614.531 9     -1273.074 9        55.705 9  21181708.888 6         0.000 6      -992.006 6        37.977 6
G29  24326687.143 9 127837546.923 9     -3153.027 9        54.465 9  24326688.746 6         0.000 6     -2456.907 6        37.977 6
G27  21983197.335 9 115522454.830 9      2516.824 9        55.383 9  21983199.260 6         0.000 6      1961.162 6        37.977 6
G16  20492451.619 9 107688539.787 9       541.346 9        55.979 9  20492450.792 6         0.000 6       421.828 6        37.977 6
G26  20667161.196 9 108606642.764 9     -1518.342 9        55.868 9  20667164.017 6         0.000 6     -1183.124 6        37.977 6
G20  21922480.623 9 115203380.333 9      2514.144 9        55.324 9  21922480.932 6         0.000 6      1959.074 6        37.977 6
> 2019 07 03 12 01 45.0000000  0  8       0.000000000000
G07  25327985.133 9 133099414.288 9      2204.562 9        54.138 9  25327985.793 6         0.000 6      1717.842 6        37.977 6
G10  23779034.212 9 124959614.004 9      3488.317 9        54.680 9  23779037.909 6         0.000 6      2718.172 6        37.977 6
G21  21181951.892 9 111311887.779 9     -1273.433 9        55.705 9  21181951.180 6         0.000 6      -992.285 6        37.977 6
G29  24327287.153 9 127840699.985 9     -3153.118 9        54.465 9  24327288.756 6         0.000 6     -2456.977 6        37.977 6
G27  21982718.421 9 115519938.126 9      2516.583 9        55.383 9  21982720.347 6         0.000 6      1960.974 6        37.977 6
G16  20492348.664 9 107687998.751 9       540.718 9        55.979 9  20492347.837 6         0.000 6       421.339 6        37.977 6
G26  20667450.182 9 108608161.394 9     -1518.925 9        55.868 9  20667453.003 6         0.000 6     -1183.578 6        37.977 6
G20  21922002.239 9 115200866.414 9      2513.701 9        55.324 9  21922002.548 6         0.000 6      1958.730 6        37.977 6
> 2019 07 03 12 01 46.0000000  0  8       0.000000000000
G07  25327565.663 9 133097209.963 9      2204.105 9        54.138 9  25327566.323 6         0.000 6      1717.485 6        37.977 6
G10  23778370.421 9 124956125.765 9      3488.175 9        54.681 9  23778374.117 6         0.000 6      2718.061 6        37.977 6
G21  21182194.252 9 111313161.388 9     -1273.786 9        55.705 9  21182193.539 6         0.000 6      -992.561 6        37.977 6
G29  24327887.179 9 127843853.132 9     -3153.207 9        54.465 9  24327888.783 6         0.000 6     -2457.047 6        37.977 6
G27  21982239.555 9 115517421.671 9      2516.345 9        55.383 9  21982241.480 6         0.000 6      1960.789 6        37.977 6
G16  20492245.828 9 107687458.348 9       540.093 9        55.979 9  20492245.001 6         0.000 6       420.852 6        37.977 6
G26  20667739.279 9 108609680.608 9     -1519.505 9        55.868 9  20667742.101 6         0.000 6     -1184.031 6        37.977 6
G20  21921523.939 9 115198352.935 9      2513.260 9        55.324 9  21921524.248 6         0.000 6      1958.385 6        37.977 6
> 2019 07 03 12 01 47.0000000  0  8       0.000000000000
G07  25327146.280 9 133095006.092 9      2203.644 9        54.138 9  25327146.940 6         0.000 6      1717.126 6        37.977 6
G10  23777706.656 9 124952637.671 9      3488.035 9        54.681 9  23777710.352 6         0.000 6      2717.952 6        37.977 6
G21  21182436.679 9 111314435.353 9     -1274.145 9        55.704 9  21182435.967 6         0.000 6      -992.840 6        37.977 6
G29  24328487.223 9 127847006.374 9     -3153.297 9        54.465 9  24328488.827 6         0.000 6     -2457.117 6        37.977 6
G27  21981760.734 9 115514905.450 9      2516.103 9        55.383 9  21981762.659 6         0.000 6      1960.601 6        37.977 6
G16  20492143.112 9 107686918.569 9       539.465 9        55.979 9  20492142.285 6         0.000 6       420.362 6        37.977 6
G26  20668028.487 9 108611200.403 9     -1520.088 9        55.867 9  20668031.309 6         0.000 6     -1184.485 6        37.977 6
G20  21921045.724 9 115195839.901 9      2512.817 9        55.325 9  21921046.032 6         0.000 6      1958.040 6        37.977 6
> 2019 07 03 12 01 48.0000000  0  8       0.000000000000
G07  25326726.985 9 133092802.686 9      2203.183 9        54.138 9  25326727.644 6         0.000 6      1716.767 6        37.977 6
G10  23777042.919 9 124949149.715 9      3487.894 9        54.681 9  23777046.614 6         0.000 6      2717.842 6        37.977 6
G21  21182679.176 9 111315709.680 9     -1274.502 9        55.704 9  21182678.464 6         0.000 6      -993.119 6        37.977 6
G29  24329087.284 9 127850159.707 9     -3153.387 9        54.464 9  24329088.889 6         0.000 6     -2457.188 6        37.977 6
G27  21981281.959 9 115512389.473 9      2515.862 9        55.384 9  21981283.884 6         0.000 6      1960.412 6        37.977 6
G16  20492040.516 9 107686379.422 9       538.836 9        55.979 9  20492039.689 6         0.000 6       419.873 6        37.977 6
G26  20668317.806 9 108612720.783 9     -1520.671 9        55.867 9  20668320.628 6         0.000 6     -1184.939 6        37.977 6
G20  21920567.593 9 115193327.310 9      2512.375 9        55.325 9  21920567.901 6         0.000 6      1957.696 6        37.977 6
> 2019 07 03 12 01 49.0000000  0  8       0.000000000000
G07  25326307.777 9 133090599.738 9      2202.721 9        54.139 9  25326308.436 6         0.000 6      1716.407 6        37.977 6
G10  23776379.208 9 124945661.901 9      3487.754 9        54.681 9  23776382.902 6         0.000 6      2717.733 6        37.977 6
G21  21182921.740 9 111316984.361 9     -1274.860 9        55.704 9  21182921.027 6         0.000 6      -993.398 6        37.977 6
G29  24329687.362 9 127853313.129 9     -3153.478 9        54.464 9  24329688.968 6         0.000 6     -2457.258 6        37.977 6
G27  21980803.229 9 115509873.736 9      2515.620 9        55.384 9  21980805.154 6         0.000 6      1960.224 6        37.977 6
G16  20491938.038 9 107685840.900 9       538.208 9        55.979 9  20491937.211 6         0.000 6       419.383 6        37.977 6
G26  20668607.236 9 108614241.744 9     -1521.254 9        55.867 9  20668610.057 6         0.000 6     -1185.393 6        37.977 6
G20  21920089.546 9 115190815.162 9      2511.932 9        55.325 9  21920089.854 6         0.000 6      1957.351 6        37.977 6
> 2019 07 03 12 01 50.0000000  0  8       0.000000000000
G07  25325888.657 9 133088397.251 9      2202.260 9        54.139 9  25325889.316 6         0.000 6      1716.048 6        37.977 6
G10  23775715.524 9 124942174.228 9      3487.613 9        54.682 9  23775719.217 6         0.000 6      2717.623 6        37.977 6
G21  21183164.372 9 111318259.399 9     -1275.218 9        55.704 9  21183163.659 6         0.000 6      -993.677 6        37.977 6
G29  24330287.458 9 127856466.641 9     -3153.568 9        54.464 9  24330289.064 6         0.000 6     -2457.328 6        37.977 6
G27  21980324.546 9 115507358.239 9      2515.378 9        55.384 9  21980326.470 6         0.000 6      1960.036 6        37.977 6
G16  20491835.681 9 107685303.007 9       537.579 9        55.979 9  20491834.854 6         0.000 6       418.893 6        37.977 6
G26  20668896.776 9 108615763.287 9     -1521.837 9        55.867 9  20668899.598 6         0.000 6     -1185.847 6        37.977 6
G20  21919611.583 9 115188303.455 9      2511.489 9        55.325 9  21919611.891 6         0.000 6      1957.006 6        37.977 6
> 2019 07 03 12 01 51.0000000  0  8       0.000000000000
G07  25325469.627 9 133086195.237 9      2201.765 9        54.139 9  25325470.286 6         0.000 6      1715.662 6        37.977 6
G10  23775051.864 9 124938686.684 9      3487.505 9        54.682 9  23775055.557 6         0.000 6      2717.539 6        37.977 6
G21  21183407.072 9 111319534.799 9     -1275.583 9        55.704 9  21183406.360 6         0.000 6      -993.961 6        37.977 6
G29  24330887.570 9 127859620.245 9     -3153.656 9        54.464 9  24330889.177 6         0.000 6     -2457.397 6        37.977 6
G27  21979845.909 9 115504842.987 9      2515.126 9        55.384 9  21979847.833 6         0.000 6      1959.839 6        37.977 6
G16  20491733.443 9 107684765.743 9       536.946 9        55.979 9  20491732.616 6         0.000 6       418.400 6        37.977 6
G26  20669186.426 9 108617285.408 9     -1522.405 9        55.867 9  20669189.248 6         0.000 6     -1186.290 6        37.977 6
G20  21919133.704 9 115185792.185 9      2511.068 9        55.325 9  21919134.011 6         0.000 6      1956.678 6        37.977 6
> 2019 07 03 12 01 52.0000000  0  8       0.000000000000
G07  25325050.551 9 133083992.978 9      2203.836 9        54.139 9  25325051.209 6         0.000 6      1717.276 6        37.977 6
G10  23774388.304 9 124935199.665 9      3486.057 9        54.682 9  23774391.997 6         0.000 6      2716.411 6        37.977 6
G21  21183649.989 9 111320811.337 9     -1278.908 9        55.704 9  21183649.277 6         0.000 6      -996.552 6        37.977 6
G29  24331488.108 9 127862776.083 9     -3161.863 9        54.464 9  24331489.716 6         0.000 6     -2463.792 6        37.977 6
G27  21979367.018 9 115502326.400 9      2520.829 9        55.384 9  21979368.942 6         0.000 6      1964.283 6        37.977 6
G16  20491631.180 9 107684228.349 9       539.195 9        55.979 9  20491630.353 6         0.000 6       420.152 6        37.977 6
G26  20669476.123 9 108618807.771 9     -1521.618 9        55.867 9  20669478.945 6         0.000 6     -1185.677 6        37.977 6
G20  21918656.074 9 115183282.231 9      2507.421 9        55.326 9  21918656.381 6         0.000 6      1953.835 6        37.977 6
> 2019 07 03 12 01 53.0000000  0  8       0.000000000000
G07  25324631.231 9 133081789.440 9      2201.874 9        54.139 9  25324631.889 6         0.000 6      1715.747 6        37.977 6
G10  23773724.737 9 124931712.604 9      3489.338 9        54.682 9  23773728.428 6         0.000 6      2718.967 6        37.977 6
G21  21183893.925 9 111322093.227 9     -1284.754 9        55.704 9  21183893.213 6         0.000 6     -1001.107 6        37.977 6
G29  24332091.072 9 127865944.666 9     -3174.475 9        54.463 9  24332092.680 6         0.000 6     -2473.619 6        37.977 6
G27  21978886.506 9 115499801.298 9      2528.496 9        55.384 9  21978888.430 6         0.000 6      1970.258 6        37.977 6
G16  20491528.207 9 107683687.221 9       542.692 9        55.979 9  20491527.380 6         0.000 6       422.877 6        37.977 6
G26  20669765.319 9 108620327.508 9     -1517.472 9        55.867 9  20669768.142 6         0.000 6     -1182.446 6        37.977 6
G20  21918179.197 9 115180776.230 9      2505.666 9        55.326 9  21918179.504 6         0.000 6      1952.468 6        37.977 6
> 2019 07 03 12 01 54.0000000  0  8       0.000000000000
G07  25324213.223 9 133079592.797 9      2190.969 9        54.139 9  25324213.881 6         0.000 6      1707.250 6        37.977 6
G10  23773059.669 9 124928217.662 9      3500.753 9        54.683 9  23773063.360 6         0.000 6      2727.862 6        37.977 6
G21  21184138.943 9 111323380.806 9     -1289.749 9        55.704 9  21184138.231 6         0.000 6     -1004.999 6        37.977 6
G29  24332695.985 9 127869123.497 9     -3181.455 9        54.463 9  24332697.594 6         0.000 6     -2479.059 6        37.977 6
G27  21978405.051 9 115497271.240 9      2530.365 9        55.385 9  21978406.975 6         0.000 6      1971.714 6        37.977 6
G16  20491424.773 9 107683143.674 9       543.786 9        55.979 9  20491423.946 6         0.000 6       423.729 6        37.977 6
G26  20670053.417 9 108621841.468 9     -1510.792 9        55.867 9  20670056.239 6         0.000 6     -1177.241 6        37.977 6
G20  21917701.941 9 115178268.236 9      2510.959 9        55.326 9  21917702.248 6         0.000 6      1956.593 6        37.977 6
> 2019 07 03 12 01 55.0000000  0  8       0.000000000000
G07  25323796.732 9 133077404.128 9      2187.307 9        54.139 9  25323797.390 6         0.000 6      1704.396 6        37.977 6
G10  23772393.111 9 124924714.883 9      3503.868 9        54.683 9  23772396.801 6         0.000 6      2730.290 6        37.977 6
G21  21184384.490 9 111324671.160 9     -1290.751 9        55.704 9  21184383.778 6         0.000 6     -1005.780 6        37.977 6
G29  24333301.439 9 127872305.168 9     -3181.775 9        54.463 9  24333303.048 6         0.000 6     -2479.308 6        37.977 6
G27  21977923.631 9 115494741.362 9      2529.524 9        55.385 9  21977925.555 6         0.000 6      1971.058 6        37.977 6
G16  20491321.364 9 107682600.257 9       543.056 9        55.979 9  20491320.537 6         0.000 6       423.160 6        37.977 6
G26  20670340.764 9 108623351.488 9     -1509.744 9        55.866 9  20670343.587 6         0.000 6     -1176.424 6        37.977 6
G20  21917223.906 9 115175756.150 9      2512.620 9        55.326 9  21917224.212 6         0.000 6      1957.887 6        37.977 6
> 2019 07 03 12 01 56.0000000  0  8       0.000000000000
G07  25323380.597 9 133075217.326 9      2186.449 9        54.140 9  25323381.254 6         0.000 6      1703.728 6        37.977 6
G10  23771726.308 9 124921210.823 9      3504.128 9        54.683 9  23771729.998 6         0.000 6      2730.492 6        37.977 6
G21  21184630.155 9 111325962.139 9     -1291.182 9        55.704 9  21184629.443 6         0.000 6     -1006.116 6        37.977 6
G29  24333906.918 9 127875486.974 9     -3181.858 9        54.463 9  24333908.529 6         0.000 6     -2479.372 6        37.977 6
G27  21977442.315 9 115492212.031 9      2529.179 9        55.385 9  21977444.238 6         0.000 6      1970.790 6        37.977 6
G16  20491218.087 9 107682057.531 9       542.409 9        55.979 9  20491217.260 6         0.000 6       422.656 6        37.977 6
G26  20670628.089 9 108624861.387 9     -1510.125 9        55.866 9  20670630.911 6         0.000 6     -1176.721 6        37.977 6
G20  21916745.778 9 115173243.576 9      2512.442 9        55.326 9  21916746.084 6         0.000 6      1957.748 6        37.977 6
> 2019 07 03 12 01 57.0000000  0  8       0.000000000000
G07  25322964.577 9 133073031.132 9      2185.958 9        54.140 9  25322965.235 6         0.000 6      1703.345 6        37.977 6
G10  23771059.504 9 124917706.754 9      3504.020 9        54.683 9  23771063.193 6         0.000 6      2730.408 6        37.977 6
G21  21184875.894 9 111327253.504 9     -1291.554 9        55.703 9  21184875.182 6         0.000 6     -1006.406 6        37.977 6
G29  24334512.413 9 127878668.862 9     -3181.943 9        54.463 9  24334514.024 6         0.000 6     -2479.439 6        37.977 6
G27  21976961.053 9 115489682.985 9      2528.922 9        55.385 9  21976962.976 6         0.000 6      1970.589 6        37.977 6
G16  20491114.929 9 107681515.434 9       541.783 9        55.979 9  20491114.102 6         0.000 6       422.169 6        37.977 6
G26  20670915.508 9 108626371.785 9     -1510.683 9        55.866 9  20670918.331 6         0.000 6     -1177.156 6        37.977 6
G20  21916267.716 9 115170731.344 9      2512.018 9        55.326 9  21916268.021 6         0.000 6      1957.418 6        37.977 6
> 2019 07 03 12 01 58.0000000  0  8       0.000000000000
G07  25322548.647 9 133070845.406 9      2185.502 9        54.140 9  25322549.304 6         0.000 6      1702.989 6        37.977 6
G10  23770392.725 9 124914202.818 9      3503.873 9        54.684 9  23770396.414 6         0.000 6      2730.293 6        37.977 6
G21  21185121.704 9 111328545.247 9     -1291.927 9        55.703 9  21185120.992 6         0.000 6     -1006.697 6        37.977 6
G29  24335117.926 9 127881850.843 9     -3182.035 9        54.462 9  24335119.538 6         0.000 6     -2479.511 6        37.977 6
G27  21976479.839 9 115487154.191 9      2528.673 9        55.385 9  21976481.762 6         0.000 6      1970.395 6        37.977 6
G16  20491011.891 9 107680973.966 9       541.156 9        55.979 9  20491011.064 6         0.000 6       421.680 6        37.977 6
G26  20671203.037 9 108627882.758 9     -1511.263 9        55.866 9  20671205.860 6         0.000 6     -1177.608 6        37.977 6
G20  21915789.738 9 115168219.560 9      2511.563 9        55.327 9  21915790.044 6         0.000 6      1957.064 6        37.977 6
> 2019 07 03 12 01 59.0000000  0  8       0.000000000000
G07  25322132.803 9 133068660.138 9      2185.047 9        54.140 9  25322133.460 6         0.000 6      1702.635 6        37.977 6
G10  23769725.974 9 124910699.026 9      3503.727 9        54.684 9  23769729.662 6         0.000 6      2730.180 6        37.977 6
G21  21185367.584 9 111329837.355 9     -1292.294 9        55.703 9  21185366.873 6         0.000 6     -1006.983 6        37.977 6
G29  24335723.455 9 127885032.906 9     -3182.122 9        54.462 9  24335725.067 6         0.000 6     -2479.578 6        37.977 6
G27  21975998.673 9 115484625.649 9      2528.423 9        55.386 9  21976000.596 6         0.000 6      1970.201 6        37.977 6
G16  20490908.973 9 107680433.124 9       540.531 9        55.979 9  20490908.146 6         0.000 6       421.193 6        37.977 6
G26  20671490.676 9 108629394.307 9     -1511.840 9        55.866 9  20671493.499 6         0.000 6     -1178.058 6        37.977 6
G20  21915311.846 9 115165708.223 9      2511.113 9        55.327 9  21915312.151 6         0.000 6      1956.712 6        37.977 6
> 2019 07 03 12 02  0.0000000  0  8       0.000000000000
G07  25321717.046 9 133066475.319 9      2184.592 9        54.140 9  25321717.702 6         0.000 6      1702.280 6        37.977 6
G10  23769059.250 9 124907195.382 9      3503.581 9        54.684 9  23769062.938 6         0.000 6      2730.066 6        37.977 6
G21  21185613.534 9 111331129.826 9     -1292.661 9        55.703 9  21185612.822 6         0.000 6     -1007.269 6        37.977 6
G29  24336329.001 9 127888215.062 9     -3182.209 9        54.462 9  24336330.614 6         0.000 6     -2479.646 6        37.977 6
G27  21975517.553 9 115482097.348 9      2528.174 9        55.386 9  21975519.475 6         0.000 6      1970.006 6        37.977 6
G16  20490806.171 9 107679892.899 9       539.906 9        55.979 9  20490805.344 6         0.000 6       420.706 6        37.977 6
G26  20671778.423 9 108630906.428 9     -1512.417 9        55.866 9  20671781.246 6         0.000 6     -1178.507 6        37.977 6
G20  21914834.039 9 115163197.338 9      2510.662 9        55.327 9  21914834.344 6         0.000 6      1956.361 6        37.977 6
