     3.00           Observation Data    M (Mixed)           RINEX VERSION / TYPE
SimGEN V6.06.00     Spirent             03-Jul-19 12:00     PGM / RUN BY / DATE 
                                                            MARKER NAME         
1                                                           MARKER NUMBER       
GROUND_CRAFT                                                MARKER TYPE         
jin4hi              Spirent                                 OBSERVER / AGENCY   
rec_num             rec_type            rec_vers            REC # / TYPE / VERS 
1                   ant_type                                ANT # / TYPE        
  1000.000                                                  INTERVAL            
  2019     7     3    12     0    0.0000000     GPS         TIME OF FIRST OBS   
  4162635.7650   664328.3520  4770574.6900                  APPROX POSITION XYZ 
        0.0000        0.0000        0.0000                  ANTENNA: DELTA H/E/N
G    8 C1C L1C D1C S1C C2C L2C D2C S2C                      SYS / # / OBS TYPES 
        0.0000        0.0000        0.0000                  ANTENNA: DELTA X/Y/Z
DBHZ                                                        SIGNAL STRENGTH UNIT
                                                            END OF HEADER       
> 2019 07 03 12 00  0.0000000  0  8       0.000000000000
G07  25371934.177 9 133330367.691 9      2204.037 9        54.123 9  25371934.860 6         0.000 6      1717.432 6        37.977 6
G10  23849448.666 9 125329643.333 9      3551.057 9        54.655 9  23849452.432 6         0.000 6      2767.058 6        37.977 6
G21  21156829.708 9 111179869.886 9     -1242.276 9        55.715 9  21156828.991 6         0.000 6      -968.007 6        37.977 6
G29  24264461.150 9 127510548.187 9     -3142.955 9        54.487 9  24264462.688 6         0.000 6     -2449.056 6        37.977 6
G27  22033064.493 9 115784508.229 9      2530.040 9        55.363 9  22033066.436 6         0.000 6      1971.460 6        37.977 6
G16  20503739.024 9 107747855.495 9       602.096 9        55.974 9  20503738.198 6         0.000 6       469.165 6        37.977 6
G26  20637956.528 9 108453171.380 9     -1435.893 9        55.880 9  20637959.338 6         0.000 6     -1118.878 6        37.977 6
G20  21973100.039 9 115469386.690 9      2593.106 9        55.304 9  21973100.377 6         0.000 6      2020.602 6        37.977 6
> 2019 07 03 12 00  1.0000000  0  8       0.000000000000
G07  25371514.825 9 133328163.987 9      2203.162 9        54.123 9  25371515.508 6         0.000 6      1716.750 6        37.977 6
G10  23848772.901 9 125326092.174 9      3551.425 9        54.655 9  23848776.666 6         0.000 6      2767.347 6        37.977 6
G21  21157066.145 9 111181112.369 9     -1242.722 9        55.715 9  21157065.428 6         0.000 6      -968.355 6        37.977 6
G29  24265059.247 9 127513691.193 9     -3143.060 9        54.487 9  24265060.784 6         0.000 6     -2449.140 6        37.977 6
G27  22032583.072 9 115781978.349 9      2529.685 9        55.363 9  22032585.015 6         0.000 6      1971.184 6        37.977 6
G16  20503624.510 9 107747253.718 9       601.444 9        55.974 9  20503623.683 6         0.000 6       468.658 6        37.977 6
G26  20638229.811 9 108454607.487 9     -1436.249 9        55.880 9  20638232.621 6         0.000 6     -1119.155 6        37.977 6
G20  21972606.607 9 115466793.693 9      2592.997 9        55.304 9  21972606.945 6         0.000 6      2020.519 6        37.977 6
> 2019 07 03 12 00  2.0000000  0  8       0.000000000000
G07  25371095.636 9 133325961.137 9      2202.590 9        54.123 9  25371096.319 6         0.000 6      1716.305 6        37.977 6
G10  23848097.084 9 125322540.745 9      3551.413 9        54.655 9  23848100.849 6         0.000 6      2767.337 6        37.977 6
G21  21157302.665 9 111182355.290 9     -1243.111 9        55.715 9  21157301.948 6         0.000 6      -968.658 6        37.977 6
G29  24265657.359 9 127516834.284 9     -3143.137 9        54.487 9  24265658.897 6         0.000 6     -2449.200 6        37.977 6
G27  22032101.716 9 115779448.809 9      2529.410 9        55.363 9  22032103.659 6         0.000 6      1970.969 6        37.977 6
G16  20503510.119 9 107746652.587 9       600.822 9        55.974 9  20503509.292 6         0.000 6       468.173 6        37.977 6
G26  20638503.167 9 108456043.983 9     -1436.766 9        55.880 9  20638505.978 6         0.000 6     -1119.559 6        37.977 6
G20  21972113.208 9 115464200.866 9      2592.639 9        55.305 9  21972113.545 6         0.000 6      2020.239 6        37.977 6
> 2019 07 03 12 00  3.0000000  0  8       0.000000000000
G07  25370676.533 9 133323758.741 9      2202.228 9        54.123 9  25370677.216 6         0.000 6      1716.023 6        37.977 6
G10  23847421.292 9 125318989.444 9      3551.192 9        54.656 9  23847425.056 6         0.000 6      2767.165 6        37.977 6
G21  21157539.256 9 111183598.581 9     -1243.472 9        55.715 9  21157538.539 6         0.000 6      -968.940 6        37.977 6
G29  24266255.486 9 127519977.454 9     -3143.227 9        54.487 9  24266257.025 6         0.000 6     -2449.271 6        37.977 6
G27  22031620.407 9 115776919.513 9      2529.193 9        55.364 9  22031622.349 6         0.000 6      1970.800 6        37.977 6
G16  20503395.843 9 107746052.065 9       600.221 9        55.974 9  20503395.016 6         0.000 6       467.705 6        37.977 6
G26  20638776.632 9 108457481.048 9     -1437.376 9        55.880 9  20638779.442 6         0.000 6     -1120.033 6        37.977 6
G20  21971619.891 9 115461608.476 9      2592.136 9        55.305 9  21971620.229 6         0.000 6      2019.847 6        37.977 6
> 2019 07 03 12 00  4.0000000  0  8       0.000000000000
G07  25370257.489 9 133321556.654 9      2201.972 9        54.124 9  25370258.172 6         0.000 6      1715.823 6        37.977 6
G10  23846745.552 9 125315438.418 9      3550.863 9        54.656 9  23846749.315 6         0.000 6      2766.909 6        37.977 6
G21  21157775.914 9 111184842.227 9     -1243.817 9        55.715 9  21157775.197 6         0.000 6      -969.208 6        37.977 6
G29  24266853.631 9 127523120.714 9     -3143.310 9        54.487 9  24266855.170 6         0.000 6     -2449.335 6        37.977 6
G27  22031139.137 9 115774390.425 9      2528.993 9        55.364 9  22031141.079 6         0.000 6      1970.645 6        37.977 6
G16  20503281.682 9 107745452.144 9       599.623 9        55.974 9  20503280.855 6         0.000 6       467.239 6        37.977 6
G26  20639050.218 9 108458918.749 9     -1438.039 9        55.880 9  20639053.028 6         0.000 6     -1120.550 6        37.977 6
G20  21971126.678 9 115459016.627 9      2591.560 9        55.305 9  21971127.015 6         0.000 6      2019.398 6        37.977 6
> 2019 07 03 12 00  5.0000000  0  8       0.000000000000
G07  25369838.484 9 133319354.768 9      2201.814 9        54.124 9  25369839.166 6         0.000 6      1715.700 6        37.977 6
G10  23846069.885 9 125311887.775 9      3550.438 9        54.656 9  23846073.648 6         0.000 6      2766.578 6        37.977 6
G21  21158012.636 9 111186086.209 9     -1244.146 9        55.715 9  21158011.919 6         0.000 6      -969.465 6        37.977 6
G29  24267451.791 9 127526264.061 9     -3143.403 9        54.486 9  24267453.332 6         0.000 6     -2449.407 6        37.977 6
G27  22030657.901 9 115771861.518 9      2528.827 9        55.364 9  22030659.843 6         0.000 6      1970.515 6        37.977 6
G16  20503167.633 9 107744852.812 9       599.041 9        55.974 9  20503166.806 6         0.000 6       466.785 6        37.977 6
G26  20639323.934 9 108460357.135 9     -1438.740 9        55.879 9  20639326.744 6         0.000 6     -1121.096 6        37.977 6
G20  21970633.581 9 115456425.391 9      2590.918 9        55.305 9  21970633.918 6         0.000 6      2018.898 6        37.977 6
> 2019 07 03 12 00  6.0000000  0  8       0.000000000000
G07  25369419.502 9 133317153.005 9      2201.737 9        54.124 9  25369420.184 6         0.000 6      1715.640 6        37.977 6
G10  23845394.306 9 125308337.592 9      3549.930 9        54.656 9  23845398.068 6         0.000 6      2766.182 6        37.977 6
G21  21158249.419 9 111187330.514 9     -1244.466 9        55.714 9  21158248.703 6         0.000 6      -969.714 6        37.977 6
G29  24268049.969 9 127529407.496 9     -3143.491 9        54.486 9  24268051.510 6         0.000 6     -2449.476 6        37.977 6
G27  22030176.696 9 115769332.772 9      2528.674 9        55.364 9  22030178.638 6         0.000 6      1970.396 6        37.977 6
G16  20503053.695 9 107744254.063 9       598.458 9        55.974 9  20503052.868 6         0.000 6       466.331 6        37.977 6
G26  20639597.787 9 108461796.240 9     -1439.484 9        55.879 9  20639600.597 6         0.000 6     -1121.676 6        37.977 6
G20  21970140.611 9 115453834.820 9      2590.219 9        55.305 9  21970140.948 6         0.000 6      2018.353 6        37.977 6
> 2019 07 03 12 00  7.0000000  0  8       0.000000000000
G07  25369000.528 9 133314951.286 9      2201.717 9        54.124 9  25369001.210 6         0.000 6      1715.625 6        37.977 6
G10  23844718.830 9 125304787.953 9      3549.363 9        54.656 9  23844722.591 6         0.000 6      2765.740 6        37.977 6
G21  21158486.264 9 111188575.138 9     -1244.778 9        55.714 9  21158485.547 6         0.000 6      -969.957 6        37.977 6
G29  24268648.164 9 127532551.022 9     -3143.584 9        54.486 9  24268649.706 6         0.000 6     -2449.549 6        37.977 6
G27  22029695.520 9 115766804.175 9      2528.536 9        55.364 9  22029697.462 6         0.000 6      1970.288 6        37.977 6
G16  20502939.868 9 107743655.898 9       597.880 9        55.974 9  20502939.041 6         0.000 6       465.881 6        37.977 6
G26  20639871.785 9 108463236.110 9     -1440.255 9        55.879 9  20639874.596 6         0.000 6     -1122.277 6        37.977 6
G20  21969647.779 9 115451244.975 9      2589.479 9        55.305 9  21969648.115 6         0.000 6      2017.777 6        37.977 6
> 2019 07 03 12 00  8.0000000  0  8       0.000000000000
G07  25368581.553 9 133312749.565 9      2201.733 9        54.124 9  25368582.235 6         0.000 6      1715.637 6        37.977 6
G10  23844043.465 9 125301238.900 9      3548.763 9        54.657 9  23844047.226 6         0.000 6      2765.273 6        37.977 6
G21  21158723.165 9 111189820.065 9     -1245.084 9        55.714 9  21158722.449 6         0.000 6      -970.195 6        37.977 6
G29  24269246.377 9 127535694.642 9     -3143.678 9        54.486 9  24269247.919 6         0.000 6     -2449.622 6        37.977 6
G27  22029214.367 9 115764275.703 9      2528.408 9        55.365 9  22029216.309 6         0.000 6      1970.189 6        37.977 6
G16  20502826.149 9 107743058.301 9       597.307 9        55.974 9  20502825.322 6         0.000 6       465.434 6        37.977 6
G26  20640145.930 9 108464676.751 9     -1441.039 9        55.879 9  20640148.741 6         0.000 6     -1122.888 6        37.977 6
G20  21969155.090 9 115448655.879 9      2588.716 9        55.306 9  21969155.426 6         0.000 6      2017.183 6        37.977 6
> 2019 07 03 12 00  9.0000000  0  8       0.000000000000
G07  25368162.580 9 133310547.847 9      2201.695 9        54.124 9  25368163.261 6         0.000 6      1715.607 6        37.977 6
G10  23843368.212 9 125297690.430 9      3548.215 9        54.657 9  23843371.972 6         0.000 6      2764.846 6        37.977 6
G21  21158960.126 9 111191065.303 9     -1245.395 9        55.714 9  21158959.410 6         0.000 6      -970.438 6        37.977 6
G29  24269844.608 9 127538838.354 9     -3143.767 9        54.486 9  24269846.150 6         0.000 6     -2449.691 6        37.977 6
G27  22028733.240 9 115761747.368 9      2528.266 9        55.365 9  22028735.182 6         0.000 6      1970.078 6        37.977 6
G16  20502712.540 9 107742461.283 9       596.730 9        55.974 9  20502711.713 6         0.000 6       464.984 6        37.977 6
G26  20640420.224 9 108466118.174 9     -1441.799 9        55.879 9  20640423.035 6         0.000 6     -1123.481 6        37.977 6
G20  21968662.544 9 115446067.536 9      2587.991 9        55.306 9  21968662.879 6         0.000 6      2016.618 6        37.977 6
> 2019 07 03 12 00 10.0000000  0  8       0.000000000000
G07  25367743.620 9 133308346.203 9      2201.611 9        54.124 9  25367744.301 6         0.000 6      1715.542 6        37.977 6
G10  23842693.056 9 125294142.470 9      3547.713 9        54.657 9  23842696.815 6         0.000 6      2764.454 6        37.977 6
G21  21159197.147 9 111192310.856 9     -1245.715 9        55.714 9  21159196.431 6         0.000 6      -970.687 6        37.977 6
G29  24270442.855 9 127541982.154 9     -3143.857 9        54.485 9  24270444.398 6         0.000 6     -2449.762 6        37.977 6
G27  22028252.142 9 115759219.184 9      2528.111 9        55.365 9  22028254.084 6         0.000 6      1969.958 6        37.977 6
G16  20502599.042 9 107741864.845 9       596.145 9        55.974 9  20502598.215 6         0.000 6       464.529 6        37.977 6
G26  20640694.659 9 108467560.339 9     -1442.542 9        55.879 9  20640697.471 6         0.000 6     -1124.059 6        37.977 6
G20  21968170.130 9 115443479.891 9      2587.296 9        55.306 9  21968170.466 6         0.000 6      2016.076 6        37.977 6
> 2019 07 03 12 00 11.0000000  0  8       0.000000000000
G07  25367324.679 9 133306144.657 9      2201.446 9        54.125 9  25367325.360 6         0.000 6      1715.413 6        37.977 6
G10  23842017.992 9 125290594.998 9      3547.292 9        54.657 9  23842021.751 6         0.000 6      2764.126 6        37.977 6
G21  21159434.230 9 111193556.733 9     -1246.045 9        55.714 9  21159433.514 6         0.000 6      -970.945 6        37.977 6
G29  24271041.120 9 127545126.051 9     -3143.946 9        54.485 9  24271042.665 6         0.000 6     -2449.830 6        37.977 6
G27  22027771.073 9 115756691.151 9      2527.938 9        55.365 9  22027773.014 6         0.000 6      1969.823 6        37.977 6
G16  20502485.654 9 107741268.989 9       595.556 9        55.974 9  20502484.827 6         0.000 6       464.070 6        37.977 6
G26  20640969.234 9 108469003.236 9     -1443.245 9        55.879 9  20640972.045 6         0.000 6     -1124.607 6        37.977 6
G20  21967677.848 9 115440892.933 9      2586.657 9        55.306 9  21967678.183 6         0.000 6      2015.578 6        37.977 6
> 2019 07 03 12 00 12.0000000  0  8       0.000000000000
G07  25366905.795 9 133303943.411 9      2201.006 9        54.125 9  25366906.476 6         0.000 6      1715.071 6        37.977 6
G10  23841342.983 9 125287047.812 9      3547.148 9        54.658 9  23841346.741 6         0.000 6      2764.014 6        37.977 6
G21  21159671.379 9 111194802.959 9     -1246.418 9        55.714 9  21159670.663 6         0.000 6      -971.235 6        37.977 6
G29  24271639.402 9 127548270.030 9     -3144.035 9        54.485 9  24271640.947 6         0.000 6     -2449.900 6        37.977 6
G27  22027290.044 9 115754163.328 9      2527.701 9        55.365 9  22027291.985 6         0.000 6      1969.638 6        37.977 6
G16  20502372.381 9 107740673.734 9       594.947 9        55.974 9  20502371.554 6         0.000 6       463.595 6        37.977 6
G26  20641243.931 9 108470446.777 9     -1443.821 9        55.879 9  20641246.742 6         0.000 6     -1125.056 6        37.977 6
G20  21967185.669 9 115438306.521 9      2586.206 9        55.306 9  21967186.004 6         0.000 6      2015.227 6        37.977 6
> 2019 07 03 12 00 13.0000000  0  8       0.000000000000
G07  25366487.105 9 133301743.180 9      2198.577 9        54.125 9  25366487.785 6         0.000 6      1713.178 6        37.977 6
G10  23840667.923 9 125283500.357 9      3548.340 9        54.658 9  23840671.680 6         0.000 6      2764.943 6        37.977 6
G21  21159908.530 9 111196049.197 9     -1245.280 9        55.714 9  21159907.814 6         0.000 6      -970.348 6        37.977 6
G29  24272237.488 9 127551412.985 9     -3139.626 9        54.485 9  24272239.034 6         0.000 6     -2446.464 6        37.977 6
G27  22026809.228 9 115751636.623 9      2523.982 9        55.365 9  22026811.168 6         0.000 6      1966.740 6        37.977 6
G16  20502259.303 9 107740079.506 9       592.682 9        55.974 9  20502258.476 6         0.000 6       461.830 6        37.977 6
G26  20641518.753 9 108471890.975 9     -1444.873 9        55.879 9  20641521.564 6         0.000 6     -1125.876 6        37.977 6
G20  21966693.463 9 115435719.963 9      2587.943 9        55.307 9  21966693.797 6         0.000 6      2016.580 6        37.977 6
> 2019 07 03 12 00 14.0000000  0  8       0.000000000000
G07  25366068.984 9 133299545.945 9      2196.523 9        54.125 9  25366069.664 6         0.000 6      1711.577 6        37.977 6
G10  23839992.629 9 125279951.674 9      3548.434 9        54.658 9  23839996.385 6         0.000 6      2765.016 6        37.977 6
G21  21160145.206 9 111197292.933 9     -1242.131 9        55.714 9  21160144.489 6         0.000 6      -967.894 6        37.977 6
G29  24272834.050 9 127554547.926 9     -3130.360 9        54.485 9  24272835.596 6         0.000 6     -2439.244 6        37.977 6
G27  22026329.605 9 115749116.195 9      2517.083 9        55.366 9  22026331.546 6         0.000 6      1961.364 6        37.977 6
G16  20502146.895 9 107739488.798 9       588.809 9        55.974 9  20502146.068 6         0.000 6       458.812 6        37.977 6
G26  20641793.940 9 108473337.089 9     -1447.621 9        55.878 9  20641796.751 6         0.000 6     -1128.017 6        37.977 6
G20  21966200.726 9 115433130.619 9      2590.316 9        55.307 9  21966201.060 6         0.000 6      2018.429 6        37.977 6
> 2019 07 03 12 00 15.0000000  0  8       0.000000000000
G07  25365650.821 9 133297348.487 9      2199.929 9        54.125 9  25365651.501 6         0.000 6      1714.232 6        37.977 6
G10  23839317.743 9 125276405.138 9      3543.146 9        54.658 9  23839321.499 6         0.000 6      2760.895 6        37.977 6
G21  21160381.241 9 111198533.307 9     -1238.428 9        55.714 9  21160380.525 6         0.000 6      -965.009 6        37.977 6
G29  24273428.912 9 127557673.939 9     -3121.812 9        54.484 9  24273430.458 6         0.000 6     -2432.583 6        37.977 6
G27  22025851.152 9 115746601.908 9      2511.942 9        55.366 9  22025853.092 6         0.000 6      1957.358 6        37.977 6
G16  20502035.170 9 107738901.683 9       585.584 9        55.975 9  20502034.344 6         0.000 6       456.299 6        37.977 6
G26  20642069.831 9 108474786.906 9     -1452.680 9        55.878 9  20642072.643 6         0.000 6     -1131.959 6        37.977 6
G20  21965707.845 9 115430540.518 9      2588.836 9        55.307 9  21965708.179 6         0.000 6      2017.276 6        37.977 6
> 2019 07 03 12 00 16.0000000  0  8       0.000000000000
G07  25365231.466 9 133295144.765 9      2205.811 9        54.125 9  25365232.146 6         0.000 6      1718.815 6        37.977 6
G10  23838644.353 9 125272866.456 9      3536.146 9        54.659 9  23838648.108 6         0.000 6      2755.442 6        37.977 6
G21  21160616.645 9 111199770.363 9     -1236.465 9        55.713 9  21160615.929 6         0.000 6      -963.479 6        37.977 6
G29  24274022.539 9 127560793.460 9     -3118.534 9        54.484 9  24274024.086 6         0.000 6     -2430.029 6        37.977 6
G27  22025373.287 9 115744090.713 9      2510.919 9        55.366 9  22025375.227 6         0.000 6      1956.561 6        37.977 6
G16  20501923.888 9 107738316.888 9       584.308 9        55.975 9  20501923.061 6         0.000 6       455.305 6        37.977 6
G26  20642346.815 9 108476242.465 9     -1457.248 9        55.878 9  20642349.627 6         0.000 6     -1135.519 6        37.977 6
G20  21965215.688 9 115427954.219 9      2584.698 9        55.307 9  21965216.022 6         0.000 6      2014.051 6        37.977 6
> 2019 07 03 12 00 17.0000000  0  8       0.000000000000
G07  25364811.622 9 133292938.473 9      2206.394 9        54.125 9  25364812.301 6         0.000 6      1719.269 6        37.977 6
G10  23837971.607 9 125269331.166 9      3534.853 9        54.659 9  23837975.362 6         0.000 6      2754.434 6        37.977 6
G21  21160851.916 9 111201006.719 9     -1236.349 9        55.713 9  21160851.200 6         0.000 6      -963.389 6        37.977 6
G29  24274615.901 9 127563911.587 9     -3117.826 9        54.484 9  24274617.449 6         0.000 6     -2429.477 6        37.977 6
G27  22024895.522 9 115741580.041 9      2510.391 9        55.366 9  22024897.462 6         0.000 6      1956.149 6        37.977 6
G16  20501812.773 9 107737732.978 9       583.504 9        55.975 9  20501811.947 6         0.000 6       454.678 6        37.977 6
G26  20642624.263 9 108477700.463 9     -1458.555 9        55.878 9  20642627.075 6         0.000 6     -1136.537 6        37.977 6
G20  21964723.955 9 115425370.147 9      2583.698 9        55.307 9  21964724.288 6         0.000 6      2013.272 6        37.977 6
> 2019 07 03 12 00 18.0000000  0  8       0.000000000000
G07  25364391.802 9 133290732.311 9      2205.895 9        54.126 9  25364392.482 6         0.000 6      1718.880 6        37.977 6
G10  23837298.967 9 125265796.428 9      3534.692 9        54.659 9  23837302.721 6         0.000 6      2754.308 6        37.977 6
G21  21161087.199 9 111202243.140 9     -1236.520 9        55.713 9  21161086.483 6         0.000 6      -963.522 6        37.977 6
G29  24275209.161 9 127567029.179 9     -3117.422 9        54.484 9  24275210.709 6         0.000 6     -2429.162 6        37.977 6
G27  22024417.866 9 115739069.949 9      2509.816 9        55.366 9  22024419.806 6         0.000 6      1955.702 6        37.977 6
G16  20501701.811 9 107737149.870 9       582.722 9        55.975 9  20501700.985 6         0.000 6       454.069 6        37.977 6
G26  20642901.888 9 108479159.387 9     -1459.263 9        55.878 9  20642904.699 6         0.000 6     -1137.089 6        37.977 6
G20  21964232.325 9 115422786.623 9      2583.379 9        55.308 9  21964232.658 6         0.000 6      2013.024 6        37.977 6
> 2019 07 03 12 00 19.0000000  0  8       0.000000000000
G07  25363972.090 9 133288526.709 9      2205.318 9        54.126 9  25363972.769 6         0.000 6      1718.430 6        37.977 6
G10  23836626.343 9 125262261.777 9      3534.634 9        54.659 9  23836630.096 6         0.000 6      2754.263 6        37.977 6
G21  21161322.525 9 111203479.782 9     -1236.773 9        55.713 9  21161321.809 6         0.000 6      -963.720 6        37.977 6
G29  24275802.362 9 127570146.461 9     -3117.190 9        54.483 9  24275803.911 6         0.000 6     -2428.982 6        37.977 6
G27  22023940.312 9 115736560.385 9      2509.340 9        55.367 9  22023942.251 6         0.000 6      1955.330 6        37.977 6
G16  20501590.994 9 107736567.519 9       581.993 9        55.975 9  20501590.167 6         0.000 6       453.501 6        37.977 6
G26  20643179.636 9 108480618.963 9     -1459.882 9        55.878 9  20643182.448 6         0.000 6     -1137.571 6        37.977 6
G20  21963740.753 9 115420203.395 9      2583.082 9        55.308 9  21963741.085 6         0.000 6      2012.792 6        37.977 6
> 2019 07 03 12 00 20.0000000  0  8       0.000000000000
G07  25363552.485 9 133286321.673 9      2204.774 9        54.126 9  25363553.163 6         0.000 6      1718.007 6        37.977 6
G10  23835953.731 9 125258727.188 9      3534.559 9        54.660 9  23835957.484 6         0.000 6      2754.205 6        37.977 6
G21  21161557.902 9 111204716.699 9     -1237.064 9        55.713 9  21161557.186 6         0.000 6      -963.946 6        37.977 6
G29  24276395.530 9 127573263.571 9     -3117.069 9        54.483 9  24276397.080 6         0.000 6     -2428.887 6        37.977 6
G27  22023462.839 9 115734051.254 9      2508.946 9        55.367 9  22023464.779 6         0.000 6      1955.024 6        37.977 6
G16  20501480.311 9 107735985.877 9       581.304 9        55.975 9  20501479.484 6         0.000 6       452.964 6        37.977 6
G26  20643457.500 9 108482079.145 9     -1460.480 9        55.878 9  20643460.312 6         0.000 6     -1138.037 6        37.977 6
G20  21963249.240 9 115417620.484 9      2582.741 9        55.308 9  21963249.573 6         0.000 6      2012.527 6        37.977 6
> 2019 07 03 12 00 21.0000000  0  8       0.000000000000
G07  25363132.979 9 133284117.161 9      2204.260 9        54.126 9  25363133.658 6         0.000 6      1717.606 6        37.977 6
G10  23835281.136 9 125255192.688 9      3534.463 9        54.660 9  23835284.888 6         0.000 6      2754.130 6        37.977 6
G21  21161793.338 9 111205953.922 9     -1237.385 9        55.713 9  21161792.622 6         0.000 6      -964.196 6        37.977 6
G29  24276988.683 9 127576380.600 9     -3117.021 9        54.483 9  24276990.233 6         0.000 6     -2428.850 6        37.977 6
G27  22022985.436 9 115731542.486 9      2508.605 9        55.367 9  22022987.376 6         0.000 6      1954.758 6        37.977 6
G16  20501369.757 9 107735404.910 9       580.637 9        55.975 9  20501368.930 6         0.000 6       452.444 6        37.977 6
G26  20643735.477 9 108483539.923 9     -1461.075 9        55.878 9  20643738.289 6         0.000 6     -1138.500 6        37.977 6
G20  21962757.797 9 115415037.935 9      2582.364 9        55.308 9  21962758.129 6         0.000 6      2012.233 6        37.977 6
> 2019 07 03 12 00 22.0000000  0  8       0.000000000000
G07  25362713.570 9 133281913.157 9      2203.763 9        54.126 9  25362714.249 6         0.000 6      1717.219 6        37.977 6
G10  23834608.559 9 125251658.284 9      3534.359 9        54.660 9  23834612.311 6         0.000 6      2754.049 6        37.977 6
G21  21162028.835 9 111207191.469 9     -1237.716 9        55.713 9  21162028.120 6         0.000 6      -964.454 6        37.977 6
G29  24277581.831 9 127579497.603 9     -3117.019 9        54.483 9  24277583.381 6         0.000 6     -2428.849 6        37.977 6
G27  22022508.094 9 115729034.041 9      2508.302 9        55.367 9  22022510.034 6         0.000 6      1954.522 6        37.977 6
G16  20501259.327 9 107734824.597 9       579.992 9        55.975 9  20501258.500 6         0.000 6       451.942 6        37.977 6
G26  20644013.566 9 108485001.287 9     -1461.657 9        55.877 9  20644016.378 6         0.000 6     -1138.954 6        37.977 6
G20  21962266.426 9 115412455.768 9      2581.970 9        55.308 9  21962266.757 6         0.000 6      2011.926 6        37.977 6
> 2019 07 03 12 00 23.0000000  0  8       0.000000000000
G07  25362294.254 9 133279709.636 9      2203.301 9        54.126 9  25362294.932 6         0.000 6      1716.859 6        37.977 6
G10  23833936.004 9 125248123.995 9      3534.229 9        54.660 9  23833939.755 6         0.000 6      2753.947 6        37.977 6
G21  21162264.398 9 111208429.358 9     -1238.075 9        55.713 9  21162263.682 6         0.000 6      -964.734 6        37.977 6
G29  24278174.983 9 127582614.629 9     -3117.090 9        54.483 9  24278176.534 6         0.000 6     -2428.904 6        37.977 6
G27  22022030.807 9 115726525.879 9      2508.054 9        55.367 9  22022032.746 6         0.000 6      1954.328 6        37.977 6
G16  20501149.018 9 107734244.922 9       579.370 9        55.975 9  20501148.192 6         0.000 6       451.457 6        37.977 6
G26  20644291.765 9 108486463.234 9     -1462.237 9        55.877 9  20644294.578 6         0.000 6     -1139.406 6        37.977 6
G20  21961775.132 9 115409874.010 9      2581.536 9        55.309 9  21961775.464 6         0.000 6      2011.588 6        37.977 6
> 2019 07 03 12 00 24.0000000  0  8       0.000000000000
G07  25361875.006 9 133277506.479 9      2203.048 9        54.126 9  25361875.684 6         0.000 6      1716.662 6        37.977 6
G10  23833263.487 9 125244589.903 9      3533.958 9        54.661 9  23833267.237 6         0.000 6      2753.736 6        37.977 6
G21  21162500.043 9 111209667.680 9     -1238.591 9        55.713 9  21162499.327 6         0.000 6      -965.136 6        37.977 6
G29  24278768.191 9 127585731.949 9     -3117.632 9        54.482 9  24278769.743 6         0.000 6     -2429.326 6        37.977 6
G27  22021553.533 9 115724017.794 9      2508.171 9        55.368 9  22021555.472 6         0.000 6      1954.420 6        37.977 6
G16  20501038.813 9 107733665.787 9       578.923 9        55.975 9  20501037.986 6         0.000 6       451.109 6        37.977 6
G26  20644570.070 9 108487925.737 9     -1462.766 9        55.877 9  20644572.883 6         0.000 6     -1139.818 6        37.977 6
G20  21961283.943 9 115407292.795 9      2580.874 9        55.309 9  21961284.274 6         0.000 6      2011.071 6        37.977 6
> 2019 07 03 12 00 25.0000000  0  8       0.000000000000
G07  25361455.795 9 133275303.511 9      2202.898 9        54.127 9  25361456.472 6         0.000 6      1716.544 6        37.977 6
G10  23832591.029 9 125241056.125 9      3533.619 9        54.661 9  23832594.779 6         0.000 6      2753.472 6        37.977 6
G21  21162735.795 9 111210906.566 9     -1239.183 9        55.713 9  21162735.079 6         0.000 6      -965.598 6        37.977 6
G29  24279361.529 9 127588849.951 9     -3118.401 9        54.482 9  24279363.082 6         0.000 6     -2429.926 6        37.977 6
G27  22021076.217 9 115721509.483 9      2508.464 9        55.368 9  22021078.156 6         0.000 6      1954.648 6        37.977 6
G16  20500928.682 9 107733087.049 9       578.560 9        55.975 9  20500927.855 6         0.000 6       450.826 6        37.977 6
G26  20644848.474 9 108489388.755 9     -1463.271 9        55.877 9  20644851.287 6         0.000 6     -1140.211 6        37.977 6
G20  21960792.892 9 115404712.311 9      2580.100 9        55.309 9  21960793.223 6         0.000 6      2010.468 6        37.977 6
> 2019 07 03 12 00 26.0000000  0  8       0.000000000000
G07  25361036.551 9 133273100.375 9      2205.925 9        54.127 9  25361037.228 6         0.000 6      1718.904 6        37.977 6
G10  23831918.698 9 125237523.009 9      3530.101 9        54.661 9  23831922.446 6         0.000 6      2750.730 6        37.977 6
G21  21162971.650 9 111212145.989 9     -1239.329 9        55.712 9  21162970.934 6         0.000 6      -965.711 6        37.977 6
G29  24279955.011 9 127591968.711 9     -3119.284 9        54.482 9  24279956.565 6         0.000 6     -2430.613 6        37.977 6
G27  22020598.832 9 115719000.812 9      2509.572 9        55.368 9  22020600.771 6         0.000 6      1955.511 6        37.977 6
G16  20500818.617 9 107732508.653 9       578.463 9        55.975 9  20500817.790 6         0.000 6       450.750 6        37.977 6
G26  20645127.002 9 108490852.430 9     -1465.224 9        55.877 9  20645129.815 6         0.000 6     -1141.734 6        37.977 6
G20  21960302.030 9 115402132.817 9      2577.141 9        55.309 9  21960302.361 6         0.000 6      2008.163 6        37.977 6
> 2019 07 03 12 00 27.0000000  0  8       0.000000000000
G07  25360615.538 9 133270887.941 9      2219.033 9        54.127 9  25360616.215 6         0.000 6      1729.118 6        37.977 6
G10  23831248.187 9 125233999.464 9      3517.061 9        54.661 9  23831251.935 6         0.000 6      2740.570 6        37.977 6
G21  21163207.475 9 111213385.256 9     -1239.572 9        55.712 9  21163206.759 6         0.000 6      -965.900 6        37.977 6
G29  24280548.978 9 127595090.016 9     -3124.271 9        54.482 9  24280550.532 6         0.000 6     -2434.500 6        37.977 6
G27  22020120.747 9 115716488.458 9      2515.776 9        55.368 9  22020122.685 6         0.000 6      1960.346 6        37.977 6
G16  20500708.378 9 107731929.342 9       580.469 9        55.975 9  20500707.551 6         0.000 6       452.314 6        37.977 6
G26  20645406.360 9 108492320.462 9     -1470.599 9        55.877 9  20645409.173 6         0.000 6     -1145.921 6        37.977 6
G20  21959812.600 9 115399560.850 9      2566.570 9        55.309 9  21959812.930 6         0.000 6      1999.926 6        37.977 6
> 2019 07 03 12 00 28.0000000  0  8       0.000000000000
G07  25360191.982 9 133268662.142 9      2233.295 9        54.127 9  25360192.659 6         0.000 6      1740.231 6        37.977 6
G10  23830580.117 9 125230488.740 9      3504.027 9        54.662 9  23830583.864 6         0.000 6      2730.413 6        37.977 6
G21  21163443.587 9 111214626.034 9     -1242.809 9        55.712 9  21163442.871 6         0.000 6      -968.422 6        37.977 6
G29  24281144.507 9 127598219.535 9     -3137.104 9        54.482 9  24281146.062 6         0.000 6     -2444.499 6        37.977 6
G27  22019641.058 9 115713967.681 9      2527.505 9        55.368 9  22019642.997 6         0.000 6      1969.485 6        37.977 6
G16  20500597.549 9 107731346.930 9       585.187 9        55.975 9  20500596.722 6         0.000 6       455.990 6        37.977 6
G26  20645686.572 9 108493792.985 9     -1474.062 9        55.877 9  20645689.385 6         0.000 6     -1148.620 6        37.977 6
G20  21959325.329 9 115397000.227 9      2553.770 9        55.310 9  21959325.659 6         0.000 6      1989.952 6        37.977 6
> 2019 07 03 12 00 29.0000000  0  8       0.000000000000
G07  25359766.357 9 133266425.470 9      2238.124 9        54.127 9  25359767.033 6         0.000 6      1743.994 6        37.977 6
G10  23829913.880 9 125226987.651 9      3499.749 9        54.662 9  23829917.626 6         0.000 6      2727.080 6        37.977 6
G21  21163680.410 9 111215870.549 9     -1245.532 9        55.712 9  21163679.695 6         0.000 6      -970.545 6        37.977 6
G29  24281742.468 9 127601361.832 9     -3145.053 9        54.481 9  24281744.024 6         0.000 6     -2450.693 6        37.977 6
G27  22019159.295 9 115711436.000 9      2533.763 9        55.369 9  22019161.233 6         0.000 6      1974.362 6        37.977 6
G16  20500485.871 9 107730760.061 9       587.582 9        55.975 9  20500485.044 6         0.000 6       457.856 6        37.977 6
G26  20645967.145 9 108495267.406 9     -1474.654 9        55.877 9  20645969.958 6         0.000 6     -1149.082 6        37.977 6
G20  21958840.052 9 115394450.084 9      2548.289 9        55.310 9  21958840.382 6         0.000 6      1985.681 6        37.977 6
> 2019 07 03 12 00 30.0000000  0  8       0.000000000000
G07  25359340.409 9 133264187.106 9      2238.406 9        54.127 9  25359341.086 6         0.000 6      1744.214 6        37.977 6
G10  23829247.980 9 125223488.336 9      3499.047 9        54.662 9  23829251.726 6         0.000 6      2726.532 6        37.977 6
G21  21163917.507 9 111217116.500 9     -1246.250 9        55.712 9  21163916.792 6         0.000 6      -971.104 6        37.977 6
G29  24282341.108 9 127604507.693 9     -3146.300 9        54.481 9  24282342.664 6         0.000 6     -2451.665 6        37.977 6
G27  22018677.039 9 115708901.730 9      2534.469 9        55.369 9  22018678.977 6         0.000 6      1974.912 6        37.977 6
G16  20500374.061 9 107730172.496 9       587.396 9        55.975 9  20500373.234 6         0.000 6       457.711 6        37.977 6
G26  20646247.814 9 108496742.327 9     -1475.224 9        55.877 9  20646250.627 6         0.000 6     -1149.526 6        37.977 6
G20  21958355.258 9 115391902.479 9      2547.138 9        55.310 9  21958355.587 6         0.000 6      1984.784 6        37.977 6
> 2019 07 03 12 00 31.0000000  0  8       0.000000000000
G07  25358914.478 9 133261948.824 9      2238.130 9        54.127 9  25358915.154 6         0.000 6      1743.999 6        37.977 6
G10  23828582.164 9 125219989.460 9      3498.753 9        54.662 9  23828585.910 6         0.000 6      2726.304 6        37.977 6
G21  21164154.698 9 111218362.946 9     -1246.631 9        55.712 9  21164153.983 6         0.000 6      -971.401 6        37.977 6
G29  24282939.854 9 127607654.114 9     -3146.513 9        54.481 9  24282941.410 6         0.000 6     -2451.831 6        37.977 6
G27  22018194.752 9 115706367.299 9      2534.354 9        55.369 9  22018196.690 6         0.000 6      1974.822 6        37.977 6
G16  20500262.336 9 107729585.374 9       586.826 9        55.975 9  20500261.509 6         0.000 6       457.267 6        37.977 6
G26  20646528.599 9 108498217.864 9     -1475.854 9        55.876 9  20646531.413 6         0.000 6     -1150.016 6        37.977 6
G20  21957870.611 9 115389355.650 9      2546.560 9        55.310 9  21957870.941 6         0.000 6      1984.334 6        37.977 6
> 2019 07 03 12 00 32.0000000  0  8       0.000000000000
G07  25358488.610 9 133259710.876 9      2237.764 9        54.128 9  25358489.286 6         0.000 6      1743.713 6        37.977 6
G10  23827916.395 9 125216490.832 9      3498.535 9        54.663 9  23827920.140 6         0.000 6      2726.134 6        37.977 6
G21  21164391.958 9 111219609.757 9     -1246.983 9        55.712 9  21164391.243 6         0.000 6      -971.675 6        37.977 6
G29  24283538.626 9 127610800.674 9     -3146.621 9        54.481 9  24283540.183 6         0.000 6     -2451.915 6        37.977 6
G27  22017712.500 9 115703833.050 9      2534.150 9        55.369 9  22017714.437 6         0.000 6      1974.663 6        37.977 6
G16  20500150.725 9 107728998.856 9       586.216 9        55.975 9  20500149.898 6         0.000 6       456.792 6        37.977 6
G26  20646809.505 9 108499694.030 9     -1476.472 9        55.876 9  20646812.318 6         0.000 6     -1150.498 6        37.977 6
G20  21957386.065 9 115386809.348 9      2546.063 9        55.310 9  21957386.395 6         0.000 6      1983.947 6        37.977 6
> 2019 07 03 12 00 33.0000000  0  8       0.000000000000
G07  25358062.816 9 133257473.316 9      2237.361 9        54.128 9  25358063.491 6         0.000 6      1743.399 6        37.977 6
G10  23827250.665 9 125212992.404 9      3498.348 9        54.663 9  23827254.409 6         0.000 6      2725.988 6        37.977 6
G21  21164629.285 9 111220856.916 9     -1247.340 9        55.712 9  21164628.569 6         0.000 6      -971.954 6        37.977 6
G29  24284137.416 9 127613947.327 9     -3146.713 9        54.480 9  24284138.974 6         0.000 6     -2451.986 6        37.977 6
G27  22017230.289 9 115701299.018 9      2533.921 9        55.369 9  22017232.227 6         0.000 6      1974.484 6        37.977 6
G16  20500039.231 9 107728412.953 9       585.590 9        55.975 9  20500038.405 6         0.000 6       456.304 6        37.977 6
G26  20647090.527 9 108501170.808 9     -1477.086 9        55.876 9  20647093.340 6         0.000 6     -1150.976 6        37.977 6
G20  21956901.611 9 115384263.527 9      2545.590 9        55.310 9  21956901.940 6         0.000 6      1983.578 6        37.977 6
> 2019 07 03 12 00 34.0000000  0  8       0.000000000000
G07  25357637.100 9 133255236.168 9      2236.940 9        54.128 9  25357637.775 6         0.000 6      1743.071 6        37.977 6
G10  23826584.967 9 125209494.152 9      3498.182 9        54.663 9  23826588.711 6         0.000 6      2725.859 6        37.977 6
G21  21164866.680 9 111222104.437 9     -1247.696 9        55.712 9  21164865.965 6         0.000 6      -972.231 6        37.977 6
G29  24284736.225 9 127617094.080 9     -3146.806 9        54.480 9  24284737.784 6         0.000 6     -2452.059 6        37.977 6
G27  22016748.122 9 115698765.215 9      2533.692 9        55.369 9  22016750.059 6         0.000 6      1974.307 6        37.977 6
G16  20499927.857 9 107727827.677 9       584.970 9        55.975 9  20499927.030 6         0.000 6       455.820 6        37.977 6
G26  20647371.664 9 108502648.196 9     -1477.685 9        55.876 9  20647374.478 6         0.000 6     -1151.443 6        37.977 6
G20  21956417.245 9 115381718.174 9      2545.132 9        55.311 9  21956417.574 6         0.000 6      1983.221 6        37.977 6
> 2019 07 03 12 00 35.0000000  0  8       0.000000000000
G07  25357211.465 9 133252999.447 9      2236.509 9        54.128 9  25357212.141 6         0.000 6      1742.735 6        37.977 6
G10  23825919.300 9 125205996.060 9      3498.024 9        54.663 9  23825923.043 6         0.000 6      2725.736 6        37.977 6
G21  21165104.143 9 111223352.310 9     -1248.057 9        55.712 9  21165103.427 6         0.000 6      -972.512 6        37.977 6
G29  24285335.051 9 127620240.920 9     -3146.901 9        54.480 9  24285336.610 6         0.000 6     -2452.133 6        37.977 6
G27  22016265.999 9 115696231.642 9      2533.460 9        55.370 9  22016267.936 6         0.000 6      1974.125 6        37.977 6
G16  20499816.600 9 107727243.018 9       584.344 9        55.975 9  20499815.773 6         0.000 6       455.333 6        37.977 6
G26  20647652.915 9 108504126.177 9     -1478.283 9        55.876 9  20647655.729 6         0.000 6     -1151.909 6        37.977 6
G20  21955932.966 9 115379173.271 9      2544.678 9        55.311 9  21955933.294 6         0.000 6      1982.867 6        37.977 6
> 2019 07 03 12 00 36.0000000  0  8       0.000000000000
G07  25356785.913 9 133250763.161 9      2236.066 9        54.128 9  25356786.589 6         0.000 6      1742.390 6        37.977 6
G10  23825253.663 9 125202498.122 9      3497.878 9        54.664 9  23825257.405 6         0.000 6      2725.622 6        37.977 6
G21  21165341.675 9 111224600.547 9     -1248.415 9        55.712 9  21165340.959 6         0.000 6      -972.791 6        37.977 6
G29  24285933.896 9 127623387.860 9     -3146.991 9        54.480 9  24285935.455 6         0.000 6     -2452.203 6        37.977 6
G27  22015783.919 9 115693698.299 9      2533.224 9        55.370 9  22015785.856 6         0.000 6      1973.941 6        37.977 6
G16  20499705.462 9 107726658.985 9       583.720 9        55.976 9  20499704.635 6         0.000 6       454.847 6        37.977 6
G26  20647934.279 9 108505604.754 9     -1478.874 9        55.876 9  20647937.093 6         0.000 6     -1152.370 6        37.977 6
G20  21955448.772 9 115376628.823 9      2544.235 9        55.311 9  21955449.100 6         0.000 6      1982.522 6        37.977 6
> 2019 07 03 12 00 37.0000000  0  8       0.000000000000
G07  25356360.447 9 133248527.323 9      2235.619 9        54.128 9  25356361.122 6         0.000 6      1742.042 6        37.977 6
G10  23824588.052 9 125199000.322 9      3497.737 9        54.664 9  23824591.793 6         0.000 6      2725.512 6        37.977 6
G21  21165579.274 9 111225849.139 9     -1248.778 9        55.711 9  21165578.559 6         0.000 6      -973.074 6        37.977 6
G29  24286532.757 9 127626534.886 9     -3147.087 9        54.480 9  24286534.317 6         0.000 6     -2452.278 6        37.977 6
G27  22015301.885 9 115691165.195 9      2532.990 9        55.370 9  22015303.821 6         0.000 6      1973.759 6        37.977 6
G16  20499594.443 9 107726075.574 9       583.096 9        55.976 9  20499593.616 6         0.000 6       454.361 6        37.977 6
G26  20648215.755 9 108507083.916 9     -1479.462 9        55.876 9  20648218.569 6         0.000 6     -1152.828 6        37.977 6
G20  21954964.662 9 115374084.810 9      2543.792 9        55.311 9  21954964.990 6         0.000 6      1982.177 6        37.977 6
> 2019 07 03 12 00 38.0000000  0  8       0.000000000000
G07  25355935.067 9 133246291.942 9      2235.114 9        54.128 9  25355935.742 6         0.000 6      1741.648 6        37.977 6
G10  23823922.466 9 125195502.659 9      3497.651 9        54.664 9  23823926.207 6         0.000 6      2725.445 6        37.977 6
G21  21165816.943 9 111227098.099 9     -1249.147 9        55.711 9  21165816.228 6         0.000 6      -973.362 6        37.977 6
G29  24287131.636 9 127629682.005 9     -3147.174 9        54.479 9  24287133.196 6         0.000 6     -2452.346 6        37.977 6
G27  22014819.897 9 115688632.334 9      2532.735 9        55.370 9  22014821.833 6         0.000 6      1973.560 6        37.977 6
G16  20499483.544 9 107725492.796 9       582.463 9        55.976 9  20499482.717 6         0.000 6       453.867 6        37.977 6
G26  20648497.343 9 108508563.671 9     -1480.028 9        55.876 9  20648500.157 6         0.000 6     -1153.269 6        37.977 6
G20  21954480.636 9 115371541.238 9      2543.389 9        55.311 9  21954480.963 6         0.000 6      1981.862 6        37.977 6
> 2019 07 03 12 00 39.0000000  0  8       0.000000000000
G07  25355509.817 9 133244057.238 9      2234.245 9        54.129 9  25355510.491 6         0.000 6      1740.971 6        37.977 6
G10  23823256.864 9 125192004.903 9      3497.934 9        54.664 9  23823260.604 6         0.000 6      2725.666 6        37.977 6
G21  21166054.687 9 111228347.452 9     -1249.570 9        55.711 9  21166053.972 6         0.000 6      -973.691 6        37.977 6
G29  24287730.531 9 127632829.214 9     -3147.260 9        54.479 9  24287732.093 6         0.000 6     -2452.413 6        37.977 6
G27  22014337.964 9 115686099.762 9      2532.397 9        55.370 9  22014339.900 6         0.000 6      1973.297 6        37.977 6
G16  20499372.766 9 107724910.656 9       581.809 9        55.976 9  20499371.939 6         0.000 6       453.357 6        37.977 6
G26  20648779.023 9 108510043.904 9     -1480.419 9        55.875 9  20648781.837 6         0.000 6     -1153.574 6        37.977 6
G20  21953996.663 9 115368997.949 9      2543.236 9        55.312 9  21953996.990 6         0.000 6      1981.743 6        37.977 6
> 2019 07 03 12 00 40.0000000  0  8       0.000000000000
G07  25355084.762 9 133241823.563 9      2232.890 9        54.129 9  25355085.436 6         0.000 6      1739.915 6        37.977 6
G10  23822591.180 9 125188506.720 9      3498.594 9        54.665 9  23822594.919 6         0.000 6      2726.180 6        37.977 6
G21  21166292.510 9 111229597.216 9     -1249.768 9        55.711 9  21166291.794 6         0.000 6      -973.845 6        37.977 6
G29  24288329.427 9 127635976.419 9     -3146.608 9        54.479 9  24288330.989 6         0.000 6     -2451.905 6        37.977 6
G27  22013856.114 9 115683567.625 9      2531.453 9        55.371 9  22013858.050 6         0.000 6      1972.561 6        37.977 6
G16  20499262.121 9 107724329.214 9       580.872 9        55.976 9  20499261.295 6         0.000 6       452.628 6        37.977 6
G26  20649060.768 9 108511524.483 9     -1480.814 9        55.875 9  20649063.582 6         0.000 6     -1153.881 6        37.977 6
G20  21953512.696 9 115366454.689 9      2543.549 9        55.312 9  21953513.022 6         0.000 6      1981.987 6        37.977 6
> 2019 07 03 12 00 41.0000000  0  8       0.000000000000
G07  25354659.608 9 133239589.366 9      2235.399 9        54.129 9  25354660.282 6         0.000 6      1741.871 6        37.977 6
G10  23821925.588 9 125185009.025 9      3497.151 9        54.665 9  23821929.327 6         0.000 6      2725.056 6        37.977 6
G21  21166530.699 9 111230848.911 9     -1254.236 9        55.711 9  21166529.984 6         0.000 6      -977.327 6        37.977 6
G29  24288929.143 9 127639127.939 9     -3157.925 9        54.479 9  24288930.706 6         0.000 6     -2460.723 6        37.977 6
G27  22013373.729 9 115681032.679 9      2539.407 9        55.371 9  22013375.665 6         0.000 6      1978.759 6        37.977 6
G16  20499151.313 9 107723746.913 9       584.222 9        55.976 9  20499150.486 6         0.000 6       455.238 6        37.977 6
G26  20649342.460 9 108513004.782 9     -1479.269 9        55.875 9  20649345.274 6         0.000 6     -1152.677 6        37.977 6
G20  21953029.087 9 115363913.311 9      2539.023 9        55.312 9  21953029.413 6         0.000 6      1978.461 6        37.977 6
> 2019 07 03 12 00 42.0000000  0  8       0.000000000000
G07  25354234.388 9 133237354.827 9      2232.410 9        54.129 9  25354235.062 6         0.000 6      1739.541 6        37.977 6
G10  23821259.827 9 125181510.434 9      3501.231 9        54.665 9  23821263.565 6         0.000 6      2728.235 6        37.977 6
G21  21166769.884 9 111232105.834 9     -1259.544 9        55.711 9  21166769.169 6         0.000 6      -981.463 6        37.977 6
G29  24289531.211 9 127642291.820 9     -3169.181 9        54.479 9  24289532.775 6         0.000 6     -2469.494 6        37.977 6
G27  22012889.793 9 115678489.580 9      2546.040 9        55.371 9  22012891.728 6         0.000 6      1983.928 6        37.977 6
G16  20499039.828 9 107723161.054 9       587.172 9        55.976 9  20499039.001 6         0.000 6       457.537 6        37.977 6
G26  20649623.600 9 108514482.182 9     -1475.154 9        55.875 9  20649626.414 6         0.000 6     -1149.471 6        37.977 6
G20  21952546.094 9 115361375.174 9      2538.246 9        55.312 9  21952546.421 6         0.000 6      1977.855 6        37.977 6
> 2019 07 03 12 00 43.0000000  0  8       0.000000000000
G07  25353810.627 9 133235127.949 9      2222.118 9        54.129 9  25353811.300 6         0.000 6      1731.521 6        37.977 6
G10  23820592.457 9 125178003.393 9      3511.822 9        54.665 9  23820596.194 6         0.000 6      2736.487 6        37.977 6
G21  21167010.051 9 111233367.919 9     -1263.736 9        55.711 9  21167009.336 6         0.000 6      -984.729 6        37.977 6
G29  24290135.008 9 127645464.782 9     -3174.863 9        54.478 9  24290136.572 6         0.000 6     -2473.922 6        37.977 6
G27  22012405.079 9 115675942.394 9      2547.247 9        55.371 9  22012407.014 6         0.000 6      1984.868 6        37.977 6
G16  20498927.983 9 107722573.303 9       587.747 9        55.976 9  20498927.156 6         0.000 6       457.985 6        37.977 6
G26  20649903.670 9 108515953.957 9     -1469.353 9        55.875 9  20649906.484 6         0.000 6     -1144.951 6        37.977 6
G20  21952062.571 9 115358834.245 9      2543.453 9        55.312 9  21952062.897 6         0.000 6      1981.913 6        37.977 6
> 2019 07 03 12 00 44.0000000  0  8       0.000000000000
G07  25353388.109 9 133232907.609 9      2219.294 9        54.129 9  25353388.783 6         0.000 6      1729.321 6        37.977 6
G10  23819923.890 9 125174490.064 9      3514.116 9        54.666 9  23819927.627 6         0.000 6      2738.275 6        37.977 6
G21  21167250.630 9 111234632.168 9     -1264.610 9        55.711 9  21167249.915 6         0.000 6      -985.410 6        37.977 6
G29  24290739.211 9 127648639.883 9     -3175.264 9        54.478 9  24290740.776 6         0.000 6     -2474.234 6        37.977 6
G27  22011920.420 9 115673395.498 9      2546.655 9        55.371 9  22011922.355 6         0.000 6      1984.407 6        37.977 6
G16  20498816.205 9 107721985.907 9       587.063 9        55.976 9  20498815.378 6         0.000 6       457.452 6        37.977 6
G26  20650183.183 9 108517422.809 9     -1468.723 9        55.875 9  20650185.998 6         0.000 6     -1144.460 6        37.977 6
G20  21951578.417 9 115356290.005 9      2544.562 9        55.313 9  21951578.743 6         0.000 6      1982.777 6        37.977 6
> 2019 07 03 12 00 45.0000000  0  8       0.000000000000
G07  25352965.868 9 133230688.718 9      2218.600 9        54.129 9  25352966.541 6         0.000 6      1728.780 6        37.977 6
G10  23819255.155 9 125170975.845 9      3514.240 9        54.666 9  23819258.891 6         0.000 6      2738.371 6        37.977 6
G21  21167491.323 9 111235897.018 9     -1265.067 9        55.711 9  21167490.608 6         0.000 6      -985.766 6        37.977 6
G29  24291343.465 9 127651815.245 9     -3175.468 9        54.478 9  24291345.030 6         0.000 6     -2474.393 6        37.977 6
G27  22011435.831 9 115670848.969 9      2546.429 9        55.372 9  22011437.766 6         0.000 6      1984.231 6        37.977 6
G16  20498704.548 9 107721399.148 9       586.463 9        55.976 9  20498703.721 6         0.000 6       456.984 6        37.977 6
G26  20650462.708 9 108518891.720 9     -1469.151 9        55.875 9  20650465.523 6         0.000 6     -1144.794 6        37.977 6
G20  21951094.225 9 115353745.565 9      2544.263 9        55.313 9  21951094.551 6         0.000 6      1982.543 6        37.977 6
> 2019 07 03 12 00 46.0000000  0  8       0.000000000000
G07  25352543.725 9 133228470.348 9      2218.159 9        54.130 9  25352544.398 6         0.000 6      1728.436 6        37.977 6
G10  23818586.429 9 125167461.676 9      3514.105 9        54.666 9  23818590.164 6         0.000 6      2738.267 6        37.977 6
G21  21167732.096 9 111237162.287 9     -1265.469 9        55.711 9  21167731.381 6         0.000 6      -986.080 6        37.977 6
G29  24291947.753 9 127654990.791 9     -3175.637 9        54.478 9  24291949.319 6         0.000 6     -2474.525 6        37.977 6
G27  22010951.280 9 115668302.637 9      2546.238 9        55.372 9  22010953.215 6         0.000 6      1984.082 6        37.977 6
G16  20498593.004 9 107720812.981 9       585.869 9        55.976 9  20498592.178 6         0.000 6       456.521 6        37.977 6
G26  20650742.330 9 108520361.144 9     -1469.710 9        55.875 9  20650745.145 6         0.000 6     -1145.229 6        37.977 6
G20  21950610.112 9 115351201.535 9      2543.798 9        55.313 9  21950610.437 6         0.000 6      1982.182 6        37.977 6
> 2019 07 03 12 00 47.0000000  0  8       0.000000000000
G07  25352121.666 9 133226252.413 9      2217.725 9        54.130 9  25352122.338 6         0.000 6      1728.098 6        37.977 6
G10  23817917.730 9 125163947.654 9      3513.957 9        54.666 9  23817921.465 6         0.000 6      2738.151 6        37.977 6
G21  21167972.944 9 111238427.952 9     -1265.859 9        55.710 9  21167972.229 6         0.000 6      -986.384 6        37.977 6
G29  24292552.069 9 127658166.484 9     -3175.773 9        54.477 9  24292553.636 6         0.000 6     -2474.631 6        37.977 6
G27  22010466.768 9 115665756.511 9      2546.025 9        55.372 9  22010468.702 6         0.000 6      1983.917 6        37.977 6
G16  20498481.576 9 107720227.418 9       585.262 9        55.976 9  20498480.749 6         0.000 6       456.048 6        37.977 6
G26  20651022.062 9 108521831.140 9     -1470.284 9        55.875 9  20651024.877 6         0.000 6     -1145.676 6        37.977 6
G20  21950126.087 9 115348657.972 9      2543.334 9        55.313 9  21950126.412 6         0.000 6      1981.819 6        37.977 6
> 2019 07 03 12 00 48.0000000  0  8       0.000000000000
G07  25351699.688 9 133224034.911 9      2217.289 9        54.130 9  25351700.361 6         0.000 6      1727.759 6        37.977 6
G10  23817249.060 9 125160433.777 9      3513.811 9        54.667 9  23817252.794 6         0.000 6      2738.037 6        37.977 6
G21  21168213.865 9 111239694.000 9     -1266.240 9        55.710 9  21168213.150 6         0.000 6      -986.681 6        37.977 6
G29  24293156.411 9 127661342.312 9     -3175.898 9        54.477 9  24293157.978 6         0.000 6     -2474.728 6        37.977 6
G27  22009982.295 9 115663210.593 9      2545.808 9        55.372 9  22009984.230 6         0.000 6      1983.748 6        37.977 6
G16  20498370.261 9 107719642.455 9       584.656 9        55.976 9  20498369.434 6         0.000 6       455.576 6        37.977 6
G26  20651301.901 9 108523301.704 9     -1470.856 9        55.874 9  20651304.716 6         0.000 6     -1146.122 6        37.977 6
G20  21949642.150 9 115346114.869 9      2542.875 9        55.313 9  21949642.474 6         0.000 6      1981.463 6        37.977 6
> 2019 07 03 12 00 49.0000000  0  8       0.000000000000
G07  25351277.793 9 133221817.839 9      2216.850 9        54.130 9  25351278.465 6         0.000 6      1727.417 6        37.977 6
G10  23816580.419 9 125156920.057 9      3513.663 9        54.667 9  23816584.153 6         0.000 6      2737.922 6        37.977 6
G21  21168454.858 9 111240960.427 9     -1266.620 9        55.710 9  21168454.143 6         0.000 6      -986.977 6        37.977 6
G29  24293760.775 9 127664518.254 9     -3176.007 9        54.477 9  24293762.342 6         0.000 6     -2474.813 6        37.977 6
G27  22009497.866 9 115660664.902 9      2545.577 9        55.372 9  22009499.800 6         0.000 6      1983.567 6        37.977 6
G16  20498259.063 9 107719058.107 9       584.040 9        55.976 9  20498258.236 6         0.000 6       455.096 6        37.977 6
G26  20651581.851 9 108524772.851 9     -1471.436 9        55.874 9  20651584.666 6         0.000 6     -1146.574 6        37.977 6
G20  21949158.301 9 115343572.231 9      2542.419 9        55.314 9  21949158.625 6         0.000 6      1981.106 6        37.977 6
> 2019 07 03 12 00 50.0000000  0  8       0.000000000000
G07  25350855.983 9 133219601.217 9      2216.404 9        54.130 9  25350856.655 6         0.000 6      1727.069 6        37.977 6
G10  23815911.804 9 125153406.471 9      3513.524 9        54.667 9  23815915.537 6         0.000 6      2737.814 6        37.977 6
G21  21168695.923 9 111242227.231 9     -1266.992 9        55.710 9  21168695.208 6         0.000 6      -987.267 6        37.977 6
G29  24294365.158 9 127667694.300 9     -3176.106 9        54.477 9  24294366.726 6         0.000 6     -2474.890 6        37.977 6
G27  22009013.481 9 115658119.446 9      2545.339 9        55.373 9  22009015.415 6         0.000 6      1983.382 6        37.977 6
G16  20498147.982 9 107718474.374 9       583.423 9        55.976 9  20498147.155 6         0.000 6       454.616 6        37.977 6
G26  20651861.911 9 108526244.570 9     -1472.012 9        55.874 9  20651864.726 6         0.000 6     -1147.022 6        37.977 6
G20  21948674.537 9 115341030.038 9      2541.972 9        55.314 9  21948674.861 6         0.000 6      1980.759 6        37.977 6
> 2019 07 03 12 00 51.0000000  0  8       0.000000000000
G07  25350434.259 9 133217385.045 9      2215.921 9        54.130 9  25350434.930 6         0.000 6      1726.692 6        37.977 6
G10  23815243.216 9 125149893.027 9      3513.406 9        54.667 9  23815246.948 6         0.000 6      2737.722 6        37.977 6
G21  21168937.058 9 111243494.407 9     -1267.339 9        55.710 9  21168936.344 6         0.000 6      -987.537 6        37.977 6
G29  24294969.557 9 127670870.429 9     -3176.116 9        54.477 9  24294971.126 6         0.000 6     -2474.898 6        37.977 6
G27  22008529.144 9 115655574.243 9      2545.031 9        55.373 9  22008531.078 6         0.000 6      1983.142 6        37.977 6
G16  20498037.021 9 107717891.268 9       582.771 9        55.976 9  20498036.194 6         0.000 6       454.107 6        37.977 6
G26  20652142.081 9 108527716.874 9     -1472.602 9        55.874 9  20652144.896 6         0.000 6     -1147.483 6        37.977 6
G20  21948190.857 9 115338488.290 9      2541.563 9        55.314 9  21948191.181 6         0.000 6      1980.440 6        37.977 6
> 2019 07 03 12 00 52.0000000  0  8       0.000000000000
G07  25350012.645 9 133215169.452 9      2215.252 9        54.130 9  25350013.316 6         0.000 6      1726.172 6        37.977 6
G10  23814574.637 9 125146379.632 9      3513.414 9        54.667 9  23814578.369 6         0.000 6      2737.728 6        37.977 6
G21  21169178.246 9 111244761.855 9     -1267.545 9        55.710 9  21169177.531 6         0.000 6      -987.698 6        37.977 6
G29  24295573.919 9 127674046.362 9     -3175.718 9        54.476 9  24295575.489 6         0.000 6     -2474.588 6        37.977 6
G27  22008044.896 9 115653029.504 9      2544.409 9        55.373 9  22008046.830 6         0.000 6      1982.657 6        37.977 6
G16  20497926.197 9 107717308.885 9       581.970 9        55.976 9  20497925.370 6         0.000 6       453.484 6        37.977 6
G26  20652422.367 9 108529189.784 9     -1473.232 9        55.874 9  20652425.182 6         0.000 6     -1147.973 6        37.977 6
G20  21947707.236 9 115335946.844 9      2541.357 9        55.314 9  21947707.559 6         0.000 6      1980.279 6        37.977 6
> 2019 07 03 12 00 53.0000000  0  8       0.000000000000
G07  25349591.182 9 133212954.655 9      2212.276 9        54.131 9  25349591.853 6         0.000 6      1723.852 6        37.977 6
G10  23813906.035 9 125142866.115 9      3515.716 9        54.668 9  23813909.766 6         0.000 6      2739.522 6        37.977 6
G21  21169419.472 9 111246029.504 9     -1268.050 9        55.710 9  21169418.757 6         0.000 6      -988.091 6        37.977 6
G29  24296178.192 9 127677221.830 9     -3175.153 9        54.476 9  24296179.763 6         0.000 6     -2474.148 6        37.977 6
G27  22007560.781 9 115650485.463 9      2543.139 9        55.373 9  22007562.714 6         0.000 6      1981.667 6        37.977 6
G16  20497815.532 9 107716727.337 9       580.958 9        55.976 9  20497814.705 6         0.000 6       452.695 6        37.977 6
G26  20652702.765 9 108530663.287 9     -1472.825 9        55.874 9  20652705.581 6         0.000 6     -1147.657 6        37.977 6
G20  21947223.635 9 115333405.509 9      2542.745 9        55.314 9  21947223.958 6         0.000 6      1981.361 6        37.977 6
> 2019 07 03 12 00 54.0000000  0  8       0.000000000000
G07  25349171.569 9 133210749.577 9      2197.703 9        54.131 9  25349172.240 6         0.000 6      1712.497 6        37.977 6
G10  23813235.750 9 125139343.757 9      3529.052 9        54.668 9  23813239.481 6         0.000 6      2749.913 6        37.977 6
G21  21169660.872 9 111247298.073 9     -1268.694 9        55.710 9  21169660.158 6         0.000 6      -988.593 6        37.977 6
G29  24296782.052 9 127680395.121 9     -3170.419 9        54.476 9  24296783.623 6         0.000 6     -2470.459 6        37.977 6
G27  22007077.410 9 115647945.337 9      2536.392 9        55.373 9  22007079.344 6         0.000 6      1976.410 6        37.977 6
G16  20497705.250 9 107716147.798 9       577.765 9        55.976 9  20497704.423 6         0.000 6       450.207 6        37.977 6
G26  20652982.577 9 108532133.708 9     -1468.255 9        55.874 9  20652985.393 6         0.000 6     -1144.095 6        37.977 6
G20  21946738.843 9 115330857.919 9      2552.761 9        55.314 9  21946739.166 6         0.000 6      1989.165 6        37.977 6
> 2019 07 03 12 00 55.0000000  0  8       0.000000000000
G07  25348754.774 9 133208559.305 9      2182.203 9        54.131 9  25348755.445 6         0.000 6      1700.419 6        37.977 6
G10  23812562.979 9 125135808.333 9      3542.127 9        54.668 9  23812566.709 6         0.000 6      2760.102 6        37.977 6
G21  21169902.139 9 111248565.935 9     -1266.235 9        55.710 9  21169901.424 6         0.000 6      -986.677 6        37.977 6
G29  24297384.367 9 127683560.298 9     -3157.731 9        54.476 9  24297385.938 6         0.000 6     -2460.572 6        37.977 6
G27  22006595.762 9 115645414.261 9      2524.125 9        55.373 9  22006597.695 6         0.000 6      1966.852 6        37.977 6
G16  20497595.792 9 107715572.594 9       571.843 9        55.976 9  20497594.965 6         0.000 6       445.592 6        37.977 6
G26  20653261.700 9 108533600.505 9     -1465.748 9        55.874 9  20653264.516 6         0.000 6     -1142.142 6        37.977 6
G20  21946251.997 9 115328299.528 9      2564.870 9        55.315 9  21946252.320 6         0.000 6      1998.601 6        37.977 6
> 2019 07 03 12 00 56.0000000  0  8       0.000000000000
G07  25348340.333 9 133206381.412 9      2175.881 9        54.131 9  25348341.004 6         0.000 6      1695.492 6        37.977 6
G10  23811888.333 9 125132263.054 9      3546.578 9        54.668 9  23811892.062 6         0.000 6      2763.570 6        37.977 6
G21  21170142.804 9 111249830.641 9     -1263.968 9        55.710 9  21170142.090 6         0.000 6      -984.910 6        37.977 6
G29  24297984.170 9 127686712.275 9     -3149.077 9        54.476 9  24297985.742 6         0.000 6     -2453.829 6        37.977 6
G27  22006116.375 9 115642895.071 9      2516.686 9        55.374 9  22006118.309 6         0.000 6      1961.055 6        37.977 6
G16  20497487.455 9 107715003.280 9       567.896 9        55.976 9  20497486.628 6         0.000 6       442.517 6        37.977 6
G26  20653540.658 9 108535066.436 9     -1466.302 9        55.873 9  20653543.474 6         0.000 6     -1142.573 6        37.977 6
G20  21945763.232 9 115325731.057 9      2570.010 9        55.315 9  21945763.555 6         0.000 6      2002.606 6        37.977 6
> 2019 07 03 12 00 57.0000000  0  8       0.000000000000
G07  25347926.407 9 133204206.218 9      2174.731 9        54.131 9  25347927.078 6         0.000 6      1694.596 6        37.977 6
G10  23811213.392 9 125128716.223 9      3546.954 9        54.669 9  23811217.120 6         0.000 6      2763.863 6        37.977 6
G21  21170383.314 9 111251094.527 9     -1263.942 9        55.709 9  21170382.600 6         0.000 6      -984.890 6        37.977 6
G29  24298583.269 9 127689860.553 9     -3147.922 9        54.475 9  24298584.842 6         0.000 6     -2452.929 6        37.977 6
G27  22005637.615 9 115640379.168 9      2515.456 9        55.374 9  22005639.548 6         0.000 6      1960.096 6        37.977 6
G16  20497379.505 9 107714436.000 9       566.823 9        55.977 9  20497378.678 6         0.000 6       441.681 6        37.977 6
G26  20653819.749 9 108536533.067 9     -1466.930 9        55.873 9  20653822.565 6         0.000 6     -1143.063 6        37.977 6
G20  21945274.131 9 115323160.814 9      2570.263 9        55.315 9  21945274.453 6         0.000 6      2002.803 6        37.977 6
> 2019 07 03 12 00 58.0000000  0  8       0.000000000000
G07  25347512.628 9 133202031.796 9      2174.146 9        54.131 9  25347513.298 6         0.000 6      1694.141 6        37.977 6
G10  23810538.430 9 125125169.284 9      3546.926 9        54.669 9  23810542.157 6         0.000 6      2763.841 6        37.977 6
G21  21170623.865 9 111252358.632 9     -1264.284 9        55.709 9  21170623.151 6         0.000 6      -985.156 6        37.977 6
G29  24299182.291 9 127693008.422 9     -3147.878 9        54.475 9  24299183.864 6         0.000 6     -2452.895 6        37.977 6
G27  22005158.977 9 115637863.912 9      2515.096 9        55.374 9  22005160.910 6         0.000 6      1959.815 6        37.977 6
G16  20497271.707 9 107713869.516 9       566.159 9        55.977 9  20497270.880 6         0.000 6       441.162 6        37.977 6
G26  20654098.948 9 108538000.269 9     -1467.479 9        55.873 9  20654101.764 6         0.000 6     -1143.490 6        37.977 6
G20  21944785.056 9 115320590.712 9      2569.924 9        55.315 9  21944785.377 6         0.000 6      2002.540 6        37.977 6
> 2019 07 03 12 00 59.0000000  0  8       0.000000000000
G07  25347098.950 9 133199857.907 9      2173.645 9        54.131 9  25347099.620 6         0.000 6      1693.750 6        37.977 6
G10  23809863.480 9 125121622.412 9      3546.832 9        54.669 9  23809867.207 6         0.000 6      2763.768 6        37.977 6
G21  21170864.486 9 111253623.099 9     -1264.656 9        55.709 9  21170863.771 6         0.000 6      -985.447 6        37.977 6
G29  24299781.319 9 127696156.323 9     -3147.949 9        54.475 9  24299782.893 6         0.000 6     -2452.950 6        37.977 6
G27  22004680.395 9 115635348.950 9      2514.834 9        55.374 9  22004682.328 6         0.000 6      1959.612 6        37.977 6
G16  20497164.029 9 107713303.665 9       565.542 9        55.977 9  20497163.202 6         0.000 6       440.682 6        37.977 6
G26  20654378.252 9 108539468.018 9     -1468.027 9        55.873 9  20654381.068 6         0.000 6     -1143.917 6        37.977 6
G20  21944296.054 9 115318020.995 9      2569.511 9        55.315 9  21944296.375 6         0.000 6      2002.217 6        37.977 6
> 2019 07 03 12 01  0.0000000  0  8       0.000000000000
G07  25346685.366 9 133197684.513 9      2173.159 9        54.132 9  25346686.036 6         0.000 6      1693.371 6        37.977 6
G10  23809188.550 9 125118075.640 9      3546.724 9        54.669 9  23809192.276 6         0.000 6      2763.684 6        37.977 6
G21  21171105.178 9 111254887.943 9     -1265.033 9        55.709 9  21171104.463 6         0.000 6      -985.741 6        37.977 6
G29  24300380.361 9 127699304.301 9     -3148.031 9        54.475 9  24300381.935 6         0.000 6     -2453.013 6        37.977 6
G27  22004201.863 9 115632834.249 9      2514.579 9        55.374 9  22004203.795 6         0.000 6      1959.413 6        37.977 6
G16  20497056.469 9 107712738.433 9       564.925 9        55.977 9  20497055.642 6         0.000 6       440.201 6        37.977 6
G26  20654657.661 9 108540936.319 9     -1468.583 9        55.873 9  20654660.477 6         0.000 6     -1144.351 6        37.977 6
G20  21943807.132 9 115315451.700 9      2569.082 9        55.316 9  21943807.454 6         0.000 6      2001.883 6        37.977 6
> 2019 07 03 12 01  1.0000000  0  8       0.000000000000
G07  25346271.873 9 133195511.595 9      2172.685 9        54.132 9  25346272.542 6         0.000 6      1693.002 6        37.977 6
G10  23808513.642 9 125114528.985 9      3546.603 9        54.670 9  23808517.368 6         0.000 6      2763.589 6        37.977 6
G21  21171345.940 9 111256153.158 9     -1265.407 9        55.709 9  21171345.226 6         0.000 6      -986.032 6        37.977 6
G29  24300979.418 9 127702452.357 9     -3148.110 9        54.474 9  24300980.993 6         0.000 6     -2453.075 6        37.977 6
G27  22003723.378 9 115630319.797 9      2514.327 9        55.375 9  22003725.310 6         0.000 6      1959.217 6        37.977 6
G16  20496949.025 9 107712173.812 9       564.310 9        55.977 9  20496948.198 6         0.000 6       439.722 6        37.977 6
G26  20654937.175 9 108542405.177 9     -1469.144 9        55.873 9  20654939.992 6         0.000 6     -1144.788 6        37.977 6
G20  21943318.293 9 115312882.837 9      2568.646 9        55.316 9  21943318.614 6         0.000 6      2001.544 6        37.977 6
> 2019 07 03 12 01  2.0000000  0  8       0.000000000000
G07  25345858.469 9 133193339.149 9      2172.223 9        54.132 9  25345859.139 6         0.000 6      1692.643 6        37.977 6
G10  23807838.757 9 125110982.453 9      3546.472 9        54.670 9  23807842.482 6         0.000 6      2763.487 6        37.977 6
G21  21171586.774 9 111257418.749 9     -1265.777 9        55.709 9  21171586.060 6         0.000 6      -986.320 6        37.977 6
G29  24301578.491 9 127705600.499 9     -3148.193 9        54.474 9  24301580.067 6         0.000 6     -2453.140 6        37.977 6
G27  22003244.940 9 115627805.594 9      2514.084 9        55.375 9  22003246.873 6         0.000 6      1959.027 6        37.977 6
G16  20496841.698 9 107711609.806 9       563.700 9        55.977 9  20496840.871 6         0.000 6       439.247 6        37.977 6
G26  20655216.797 9 108543874.597 9     -1469.706 9        55.873 9  20655219.614 6         0.000 6     -1145.226 6        37.977 6
G20  21942829.537 9 115310314.412 9      2568.204 9        55.316 9  21942829.858 6         0.000 6      2001.199 6        37.977 6
> 2019 07 03 12 01  3.0000000  0  8       0.000000000000
G07  25345445.153 9 133191167.162 9      2171.756 9        54.132 9  25345445.822 6         0.000 6      1692.278 6        37.977 6
G10  23807163.899 9 125107436.056 9      3546.345 9        54.670 9  23807167.623 6         0.000 6      2763.388 6        37.977 6
G21  21171827.679 9 111258684.713 9     -1266.149 9        55.709 9  21171826.965 6         0.000 6      -986.610 6        37.977 6
G29  24302177.580 9 127708748.723 9     -3148.271 9        54.474 9  24302179.157 6         0.000 6     -2453.201 6        37.977 6
G27  22002766.550 9 115625291.637 9      2513.833 9        55.375 9  22002768.482 6         0.000 6      1958.831 6        37.977 6
G16  20496734.488 9 107711046.412 9       563.086 9        55.977 9  20496733.661 6         0.000 6       438.768 6        37.977 6
G26  20655496.526 9 108545344.583 9     -1470.270 9        55.873 9  20655499.343 6         0.000 6     -1145.665 6        37.977 6
G20  21942340.867 9 115307746.435 9      2567.764 9        55.316 9  21942341.187 6         0.000 6      2000.856 6        37.977 6
> 2019 07 03 12 01  4.0000000  0  8       0.000000000000
G07  25345031.925 9 133188995.636 9      2171.300 9        54.132 9  25345032.594 6         0.000 6      1691.923 6        37.977 6
G10  23806489.065 9 125103889.794 9      3546.207 9        54.670 9  23806492.789 6         0.000 6      2763.281 6        37.977 6
G21  21172068.655 9 111259951.046 9     -1266.517 9        55.709 9  21172067.940 6         0.000 6      -986.897 6        37.977 6
G29  24302776.684 9 127711897.026 9     -3148.354 9        54.474 9  24302778.262 6         0.000 6     -2453.265 6        37.977 6
G27  22002288.206 9 115622777.929 9      2513.590 9        55.375 9  22002290.138 6         0.000 6      1958.642 6        37.977 6
G16  20496627.395 9 107710483.633 9       562.477 9        55.977 9  20496626.568 6         0.000 6       438.294 6        37.977 6
G26  20655776.364 9 108546815.136 9     -1470.834 9        55.873 9  20655779.180 6         0.000 6     -1146.105 6        37.977 6
G20  21941852.280 9 115305178.901 9      2567.317 9        55.316 9  21941852.600 6         0.000 6      2000.508 6        37.977 6
> 2019 07 03 12 01  5.0000000  0  8       0.000000000000
G07  25344618.783 9 133186824.566 9      2170.844 9        54.132 9  25344619.452 6         0.000 6      1691.568 6        37.977 6
G10  23805814.258 9 125100343.668 9      3546.067 9        54.671 9  23805817.981 6         0.000 6      2763.171 6        37.977 6
G21  21172309.700 9 111261217.747 9     -1266.891 9        55.709 9  21172308.986 6         0.000 6      -987.188 6        37.977 6
G29  24303375.804 9 127715045.410 9     -3148.437 9        54.474 9  24303377.382 6         0.000 6     -2453.330 6        37.977 6
G27  22001809.909 9 115620264.463 9      2513.343 9        55.375 9  22001811.841 6         0.000 6      1958.449 6        37.977 6
G16  20496520.417 9 107709921.462 9       561.861 9        55.977 9  20496519.590 6         0.000 6       437.814 6        37.977 6
G26  20656056.308 9 108548286.253 9     -1471.406 9        55.872 9  20656059.125 6         0.000 6     -1146.551 6        37.977 6
G20  21941363.779 9 115302611.814 9      2566.866 9        55.317 9  21941364.099 6         0.000 6      2000.156 6        37.977 6
> 2019 07 03 12 01  6.0000000  0  8       0.000000000000
G07  25344205.717 9 133184653.893 9      2170.583 9        54.132 9  25344206.386 6         0.000 6      1691.364 6        37.977 6
G10  23805139.488 9 125096797.742 9      3545.733 9        54.671 9  23805143.211 6         0.000 6      2762.912 6        37.977 6
G21  21172550.815 9 111262484.816 9     -1267.232 9        55.709 9  21172550.101 6         0.000 6      -987.454 6        37.977 6
G29  24303974.940 9 127718193.881 9     -3148.524 9        54.473 9  24303976.519 6         0.000 6     -2453.398 6        37.977 6
G27  22001331.656 9 115617751.230 9      2513.147 9        55.376 9  22001333.588 6         0.000 6      1958.297 6        37.977 6
G16  20496413.556 9 107709359.902 9       561.264 9        55.977 9  20496412.729 6         0.000 6       437.349 6        37.977 6
G26  20656336.367 9 108549757.968 9     -1472.063 9        55.872 9  20656339.184 6         0.000 6     -1147.063 6        37.977 6
G20  21940875.371 9 115300045.218 9      2566.286 9        55.317 9  21940875.691 6         0.000 6      1999.704 6        37.977 6
> 2019 07 03 12 01  7.0000000  0  8       0.000000000000
G07  25343792.659 9 133182483.262 9      2170.919 9        54.133 9  25343793.328 6         0.000 6      1691.626 6        37.977 6
G10  23804464.822 9 125093252.354 9      3544.912 9        54.671 9  23804468.543 6         0.000 6      2762.272 6        37.977 6
G21  21172791.996 9 111263752.230 9     -1267.785 9        55.708 9  21172791.282 6         0.000 6      -987.884 6        37.977 6
G29  24304574.112 9 127721342.540 9     -3149.359 9        54.473 9  24304575.691 6         0.000 6     -2454.049 6        37.977 6
G27  22000853.418 9 115615238.074 9      2513.587 9        55.376 9  22000855.350 6         0.000 6      1958.640 6        37.977 6
G16  20496306.799 9 107708798.890 9       560.957 9        55.977 9  20496305.972 6         0.000 6       437.110 6        37.977 6
G26  20656616.564 9 108551230.414 9     -1472.768 9        55.872 9  20656619.381 6         0.000 6     -1147.612 6        37.977 6
G20  21940387.106 9 115297479.370 9      2565.162 9        55.317 9  21940387.425 6         0.000 6      1998.829 6        37.977 6
> 2019 07 03 12 01  8.0000000  0  8       0.000000000000
G07  25343379.908 9 133180314.245 9      2167.347 9        54.133 9  25343380.576 6         0.000 6      1688.843 6        37.977 6
G10  23803790.091 9 125089706.630 9      3546.126 9        54.671 9  23803793.812 6         0.000 6      2763.217 6        37.977 6
G21  21173032.926 9 111265018.323 9     -1263.794 9        55.708 9  21173032.212 6         0.000 6      -984.775 6        37.977 6
G29  24305172.429 9 127724486.707 9     -3137.613 9        54.473 9  24305174.009 6         0.000 6     -2444.896 6        37.977 6
G27  22000375.857 9 115612728.477 9      2504.748 9        55.376 9  22000377.789 6         0.000 6      1951.752 6        37.977 6
G16  20496200.466 9 107708240.106 9       556.166 9        55.977 9  20496199.639 6         0.000 6       433.376 6        37.977 6
G26  20656897.040 9 108552704.324 9     -1475.597 9        55.872 9  20656899.858 6         0.000 6     -1149.816 6        37.977 6
G20  21939898.616 9 115294912.343 9      2569.007 9        55.317 9  21939898.935 6         0.000 6      2001.825 6        37.977 6
> 2019 07 03 12 01  9.0000000  0  8       0.000000000000
G07  25342967.358 9 133178146.283 9      2169.942 9        54.133 9  25342968.026 6         0.000 6      1690.865 6        37.977 6
G10  23803115.632 9 125086162.338 9      3541.226 9        54.672 9  23803119.353 6         0.000 6      2759.400 6        37.977 6
G21  21173272.957 9 111266279.696 9     -1259.045 9        55.708 9  21173272.244 6         0.000 6      -981.074 6        37.977 6
G29  24305768.363 9 127727618.353 9     -3126.451 9        54.473 9  24305769.944 6         0.000 6     -2436.198 6        37.977 6
G27  21999899.964 9 115610227.645 9      2497.737 9        55.376 9  21999901.895 6         0.000 6      1946.290 6        37.977 6
G16  20496095.062 9 107707686.207 9       551.973 9        55.977 9  20496094.235 6         0.000 6       430.109 6        37.977 6
G26  20657178.328 9 108554182.501 9     -1481.170 9        55.872 9  20657181.146 6         0.000 6     -1154.159 6        37.977 6
G20  21939409.690 9 115292343.027 9      2568.575 9        55.317 9  21939410.009 6         0.000 6      2001.488 6        37.977 6
> 2019 07 03 12 01 10.0000000  0  8       0.000000000000
G07  25342553.416 9 133175971.008 9      2179.429 9        54.133 9  25342554.084 6         0.000 6      1698.257 6        37.977 6
G10  23802442.939 9 125082627.322 9      3530.318 9        54.672 9  23802446.659 6         0.000 6      2750.900 6        37.977 6
G21  21173512.132 9 111267536.568 9     -1255.696 9        55.708 9  21173511.418 6         0.000 6      -978.464 6        37.977 6
G29  24306362.640 9 127730741.289 9     -3121.410 9        54.473 9  24306364.221 6         0.000 6     -2432.270 6        37.977 6
G27  21999424.886 9 115607731.095 9      2496.405 9        55.376 9  21999426.817 6         0.000 6      1945.251 6        37.977 6
G16  20495990.242 9 107707135.374 9       550.282 9        55.977 9  20495989.415 6         0.000 6       428.791 6        37.977 6
G26  20657460.957 9 108555667.721 9     -1488.085 9        55.872 9  20657463.774 6         0.000 6     -1159.548 6        37.977 6
G20  21938921.541 9 115289777.788 9      2562.354 9        55.318 9  21938921.859 6         0.000 6      1996.640 6        37.977 6
> 2019 07 03 12 01 11.0000000  0  8       0.000000000000
G07  25342138.455 9 133173790.374 9      2181.158 9        54.133 9  25342139.122 6         0.000 6      1699.604 6        37.977 6
G10  23801771.435 9 125079098.552 9      3527.948 9        54.672 9  23801775.154 6         0.000 6      2749.053 6        37.977 6
G21  21173751.063 9 111268792.157 9     -1255.621 9        55.708 9  21173750.349 6         0.000 6      -978.406 6        37.977 6
G29  24306956.607 9 127733862.594 9     -3121.292 9        54.472 9  24306958.189 6         0.000 6     -2432.178 6        37.977 6
G27  21998949.813 9 115605234.572 9      2496.540 9        55.377 9  21998951.744 6         0.000 6      1945.356 6        37.977 6
G16  20495885.577 9 107706585.357 9       549.737 9        55.977 9  20495884.750 6         0.000 6       428.367 6        37.977 6
G26  20657744.324 9 108557156.823 9     -1489.766 9        55.872 9  20657747.141 6         0.000 6     -1160.857 6        37.977 6
G20  21938434.164 9 115287216.610 9      2560.466 9        55.318 9  21938434.482 6         0.000 6      1995.169 6        37.977 6
> 2019 07 03 12 01 12.0000000  0  8       0.000000000000
G07  25341723.407 9 133171609.285 9      2180.929 9        54.133 9  25341724.074 6         0.000 6      1699.426 6        37.977 6
G10  23801100.134 9 125075570.856 9      3527.567 9        54.672 9  23801103.853 6         0.000 6      2748.756 6        37.977 6
G21  21173990.027 9 111270047.921 9     -1255.918 9        55.708 9  21173989.313 6         0.000 6      -978.638 6        37.977 6
G29  24307550.572 9 127736983.889 9     -3121.313 9        54.472 9  24307552.154 6         0.000 6     -2432.194 6        37.977 6
G27  21998474.757 9 115602738.137 9      2496.313 9        55.377 9  21998476.687 6         0.000 6      1945.179 6        37.977 6
G16  20495781.025 9 107706035.930 9       549.113 9        55.977 9  20495780.198 6         0.000 6       427.880 6        37.977 6
G26  20658027.889 9 108558646.965 9     -1490.472 9        55.872 9  20658030.706 6         0.000 6     -1161.407 6        37.977 6
G20  21937946.986 9 115284656.479 9      2559.876 9        55.318 9  21937947.304 6         0.000 6      1994.710 6        37.977 6
> 2019 07 03 12 01 13.0000000  0  8       0.000000000000
G07  25341308.433 9 133169428.588 9      2180.471 9        54.133 9  25341309.100 6         0.000 6      1699.069 6        37.977 6
G10  23800428.875 9 125072043.374 9      3527.419 9        54.673 9  23800432.593 6         0.000 6      2748.641 6        37.977 6
G21  21174229.052 9 111271304.007 9     -1256.261 9        55.708 9  21174228.339 6         0.000 6      -978.904 6        37.977 6
G29  24308144.541 9 127740105.207 9     -3121.354 9        54.472 9  24308146.123 6         0.000 6     -2432.227 6        37.977 6
G27  21997999.750 9 115600241.963 9      2496.046 9        55.377 9  21998001.681 6         0.000 6      1944.972 6        37.977 6
G16  20495676.593 9 107705487.134 9       548.481 9        55.977 9  20495675.766 6         0.000 6       427.388 6        37.977 6
G26  20658311.572 9 108560137.731 9     -1491.062 9        55.871 9  20658314.390 6         0.000 6     -1161.867 6        37.977 6
G20  21937459.900 9 115282096.825 9      2559.438 9        55.318 9  21937460.217 6         0.000 6      1994.368 6        37.977 6
> 2019 07 03 12 01 14.0000000  0  8       0.000000000000
G07  25340893.548 9 133167248.352 9      2180.004 9        54.134 9  25340894.214 6         0.000 6      1698.705 6        37.977 6
G10  23799757.642 9 125068516.035 9      3527.283 9        54.673 9  23799761.360 6         0.000 6      2748.535 6        37.977 6
G21  21174468.144 9 111272560.439 9     -1256.608 9        55.708 9  21174467.430 6         0.000 6      -979.176 6        37.977 6
G29  24308738.520 9 127743226.577 9     -3121.408 9        54.472 9  24308740.103 6         0.000 6     -2432.268 6        37.977 6
G27  21997524.793 9 115597746.048 9      2495.786 9        55.377 9  21997526.723 6         0.000 6      1944.769 6        37.977 6
G16  20495572.279 9 107704938.965 9       547.854 9        55.977 9  20495571.453 6         0.000 6       426.899 6        37.977 6
G26  20658595.367 9 108561629.080 9     -1491.642 9        55.871 9  20658598.185 6         0.000 6     -1162.319 6        37.977 6
G20  21936972.896 9 115279537.608 9      2559.005 9        55.318 9  21936973.213 6         0.000 6      1994.031 6        37.977 6
> 2019 07 03 12 01 15.0000000  0  8       0.000000000000
G07  25340478.751 9 133165068.585 9      2179.535 9        54.134 9  25340479.418 6         0.000 6      1698.340 6        37.977 6
G10  23799086.435 9 125064988.829 9      3527.152 9        54.673 9  23799090.152 6         0.000 6      2748.432 6        37.977 6
G21  21174707.302 9 111273817.224 9     -1256.962 9        55.708 9  21174706.588 6         0.000 6      -979.451 6        37.977 6
G29  24309332.511 9 127746348.012 9     -3121.477 9        54.471 9  24309334.095 6         0.000 6     -2432.323 6        37.977 6
G27  21997049.884 9 115595250.387 9      2495.538 9        55.377 9  21997051.814 6         0.000 6      1944.575 6        37.977 6
G16  20495468.085 9 107704391.421 9       547.233 9        55.977 9  20495467.258 6         0.000 6       426.415 6        37.977 6
G26  20658879.272 9 108563121.007 9     -1492.216 9        55.871 9  20658882.090 6         0.000 6     -1162.766 6        37.977 6
G20  21936485.975 9 115276978.827 9      2558.570 9        55.319 9  21936486.292 6         0.000 6      1993.692 6        37.977 6
> 2019 07 03 12 01 16.0000000  0  8       0.000000000000
G07  25340064.044 9 133162889.287 9      2179.069 9        54.134 9  25340064.710 6         0.000 6      1697.977 6        37.977 6
G10  23798415.254 9 125061461.757 9      3527.015 9        54.673 9  23798418.970 6         0.000 6      2748.326 6        37.977 6
G21  21174946.528 9 111275074.364 9     -1257.318 9        55.708 9  21174945.814 6         0.000 6      -979.729 6        37.977 6
G29  24309926.514 9 127749469.512 9     -3121.547 9        54.471 9  24309928.099 6         0.000 6     -2432.377 6        37.977 6
G27  21996575.023 9 115592754.981 9      2495.287 9        55.377 9  21996576.953 6         0.000 6      1944.380 6        37.977 6
G16  20495364.010 9 107703844.502 9       546.609 9        55.977 9  20495363.183 6         0.000 6       425.929 6        37.977 6
G26  20659163.286 9 108564613.513 9     -1492.794 9        55.871 9  20659166.104 6         0.000 6     -1163.217 6        37.977 6
G20  21935999.137 9 115274420.481 9      2558.131 9        55.319 9  21935999.454 6         0.000 6      1993.350 6        37.977 6
> 2019 07 03 12 01 17.0000000  0  8       0.000000000000
G07  25339649.425 9 133160710.455 9      2178.606 9        54.134 9  25339650.091 6         0.000 6      1697.616 6        37.977 6
G10  23797744.098 9 125057934.820 9      3526.878 9        54.674 9  23797747.813 6         0.000 6      2748.220 6        37.977 6
G21  21175185.821 9 111276331.859 9     -1257.676 9        55.707 9  21175185.108 6         0.000 6      -980.007 6        37.977 6
G29  24310520.532 9 127752591.086 9     -3121.627 9        54.471 9  24310522.118 6         0.000 6     -2432.439 6        37.977 6
G27  21996100.209 9 115590259.819 9      2495.046 9        55.378 9  21996102.139 6         0.000 6      1944.192 6        37.977 6
G16  20495260.053 9 107703298.203 9       545.991 9        55.977 9  20495259.226 6         0.000 6       425.447 6        37.977 6
G26  20659447.410 9 108566106.592 9     -1493.368 9        55.871 9  20659450.228 6         0.000 6     -1163.664 6        37.977 6
G20  21935512.383 9 115271862.575 9      2557.689 9        55.319 9  21935512.700 6         0.000 6      1993.005 6        37.977 6
> 2019 07 03 12 01 18.0000000  0  8       0.000000000000
G07  25339234.895 9 133158532.086 9      2178.145 9        54.134 9  25339235.561 6         0.000 6      1697.257 6        37.977 6
G10  23797072.968 9 125054408.020 9      3526.739 9        54.674 9  23797076.683 6         0.000 6      2748.111 6        37.977 6
G21  21175425.184 9 111277589.718 9     -1258.036 9        55.707 9  21175424.471 6         0.000 6      -980.288 6        37.977 6
G29  24311114.566 9 127755712.746 9     -3121.712 9        54.471 9  24311116.152 6         0.000 6     -2432.506 6        37.977 6
G27  21995625.441 9 115587764.897 9      2494.808 9        55.378 9  21995627.371 6         0.000 6      1944.007 6        37.977 6
G16  20495156.214 9 107702752.525 9       545.374 9        55.977 9  20495155.387 6         0.000 6       424.967 6        37.977 6
G26  20659731.644 9 108567600.248 9     -1493.942 9        55.871 9  20659734.462 6         0.000 6     -1164.111 6        37.977 6
G20  21935025.713 9 115269305.113 9      2557.244 9        55.319 9  21935026.030 6         0.000 6      1992.659 6        37.977 6
> 2019 07 03 12 01 19.0000000  0  8       0.000000000000
G07  25338820.440 9 133156354.114 9      2177.837 9        54.134 9  25338821.105 6         0.000 6      1697.017 6        37.977 6
G10  23796401.873 9 125050881.402 9      3526.499 9        54.674 9  23796405.587 6         0.000 6      2747.924 6        37.977 6
G21  21175664.623 9 111278847.979 9     -1258.510 9        55.707 9  21175663.910 6         0.000 6      -980.658 6        37.977 6
G29  24311708.642 9 127758834.625 9     -3122.139 9        54.471 9  24311710.229 6         0.000 6     -2432.838 6        37.977 6
G27  21995150.698 9 115585270.107 9      2494.835 9        55.378 9  21995152.627 6         0.000 6      1944.028 6        37.977 6
G16  20495052.482 9 107702207.410 9       544.884 9        55.977 9  20495051.655 6         0.000 6       424.585 6        37.977 6
G26  20660015.984 9 108569094.462 9     -1494.479 9        55.871 9  20660018.802 6         0.000 6     -1164.530 6        37.977 6
G20  21934539.141 9 115266748.163 9      2556.634 9        55.319 9  21934539.457 6         0.000 6      1992.183 6        37.977 6
> 2019 07 03 12 01 20.0000000  0  8       0.000000000000
G07  25338405.968 9 133154176.054 9      2181.034 9        54.134 9  25338406.633 6         0.000 6      1699.508 6        37.977 6
G10  23795730.897 9 125047355.406 9      3522.785 9        54.674 9  23795734.610 6         0.000 6      2745.030 6        37.977 6
G21  21175904.149 9 111280106.691 9     -1258.563 9        55.707 9  21175903.435 6         0.000 6      -980.698 6        37.977 6
G29  24312302.818 9 127761957.033 9     -3122.912 9        54.470 9  24312304.406 6         0.000 6     -2433.440 6        37.977 6
G27  21994675.919 9 115582775.130 9      2495.901 9        55.378 9  21994677.848 6         0.000 6      1944.859 6        37.977 6
G16  20494948.832 9 107701662.726 9       544.725 9        55.978 9  20494948.005 6         0.000 6       424.461 6        37.977 6
G26  20660300.455 9 108570589.369 9     -1496.585 9        55.871 9  20660303.274 6         0.000 6     -1166.170 6        37.977 6
G20  21934052.739 9 115264192.108 9      2553.590 9        55.319 9  21934053.055 6         0.000 6      1989.811 6        37.977 6
> 2019 07 03 12 01 21.0000000  0  8       0.000000000000
G07  25337989.584 9 133151987.943 9      2195.232 9        54.135 9  25337990.249 6         0.000 6      1710.571 6        37.977 6
G10  23795061.879 9 125043839.706 9      3508.769 9        54.675 9  23795065.592 6         0.000 6      2734.108 6        37.977 6
G21  21176143.632 9 111281365.186 9     -1258.875 9        55.707 9  21176142.919 6         0.000 6      -980.942 6        37.977 6
G29  24312897.532 9 127765082.263 9     -3128.676 9        54.470 9  24312899.120 6         0.000 6     -2437.932 6        37.977 6
G27  21994200.375 9 115580276.132 9      2502.846 9        55.378 9  21994202.304 6         0.000 6      1950.271 6        37.977 6
G16  20494844.999 9 107701117.082 9       546.943 9        55.978 9  20494844.172 6         0.000 6       426.189 6        37.977 6
G26  20660585.827 9 108572089.004 9     -1502.351 9        55.871 9  20660588.645 6         0.000 6     -1170.664 6        37.977 6
G20  21933567.869 9 115261644.101 9      2542.206 9        55.320 9  21933568.184 6         0.000 6      1980.941 6        37.977 6
> 2019 07 03 12 01 22.0000000  0  8       0.000000000000
G07  25337570.473 9 133149785.505 9      2210.180 9        54.135 9  25337571.138 6         0.000 6      1722.219 6        37.977 6
G10  23794395.446 9 125040337.587 9      3495.308 9        54.675 9  23794399.158 6         0.000 6      2723.620 6        37.977 6
G21  21176383.465 9 111282625.513 9     -1262.657 9        55.707 9  21176382.751 6         0.000 6      -983.888 6        37.977 6
G29  24313494.053 9 127768216.992 9     -3143.124 9        54.470 9  24313495.642 6         0.000 6     -2449.190 6        37.977 6
G27  21993723.032 9 115577767.681 9      2515.721 9        55.379 9  21993724.961 6         0.000 6      1960.303 6        37.977 6
G16  20494740.504 9 107700567.957 9       552.114 9        55.978 9  20494739.677 6         0.000 6       430.219 6        37.977 6
G26  20660872.082 9 108573593.284 9     -1505.735 9        55.870 9  20660874.901 6         0.000 6     -1173.300 6        37.977 6
G20  21933085.312 9 115259108.253 9      2528.710 9        55.320 9  21933085.627 6         0.000 6      1970.424 6        37.977 6
> 2019 07 03 12 01 23.0000000  0  8       0.000000000000
G07  25337149.381 9 133147572.658 9      2213.989 9        54.135 9  25337150.046 6         0.000 6      1725.188 6        37.977 6
G10  23793730.750 9 125036844.595 9      3491.920 9        54.675 9  23793734.461 6         0.000 6      2720.979 6        37.977 6
G21  21176624.039 9 111283889.737 9     -1265.165 9        55.707 9  21176623.325 6         0.000 6      -985.843 6        37.977 6
G29  24314093.035 9 127771364.652 9     -3150.103 9        54.470 9  24314094.624 6         0.000 6     -2454.628 6        37.977 6
G27  21993243.632 9 115575248.423 9      2521.046 9        55.379 9  21993245.561 6         0.000 6      1964.452 6        37.977 6
G16  20494635.178 9 107700014.463 9       554.073 9        55.978 9  20494634.351 6         0.000 6       431.745 6        37.977 6
G26  20661158.661 9 108575099.268 9     -1506.170 9        55.870 9  20661161.480 6         0.000 6     -1173.639 6        37.977 6
G20  21932604.688 9 115256582.559 9      2524.115 9        55.320 9  21932605.003 6         0.000 6      1966.844 6        37.977 6
> 2019 07 03 12 01 24.0000000  0  8       0.000000000000
G07  25336728.053 9 133145358.564 9      2214.041 9        54.135 9  25336728.717 6         0.000 6      1725.228 6        37.977 6
G10  23793066.319 9 125033352.997 9      3491.412 9        54.675 9  23793070.029 6         0.000 6      2720.583 6        37.977 6
G21  21176864.866 9 111285155.291 9     -1265.838 9        55.707 9  21176864.152 6         0.000 6      -986.368 6        37.977 6
G29  24314692.610 9 127774515.433 9     -3151.149 9        54.470 9  24314694.200 6         0.000 6     -2455.444 6        37.977 6
G27  21992763.820 9 115572726.994 9      2521.556 9        55.379 9  21992765.749 6         0.000 6      1964.850 6        37.977 6
G16  20494529.756 9 107699460.465 9       553.796 9        55.978 9  20494528.929 6         0.000 6       431.529 6        37.977 6
G26  20661445.323 9 108576605.685 9     -1506.697 9        55.870 9  20661448.142 6         0.000 6     -1174.050 6        37.977 6
G20  21932124.472 9 115254059.015 9      2523.152 9        55.320 9  21932124.787 6         0.000 6      1966.093 6        37.977 6
> 2019 07 03 12 01 25.0000000  0  8       0.000000000000
G07  25336306.769 9 133143144.707 9      2213.664 9        54.135 9  25336307.433 6         0.000 6      1724.934 6        37.977 6
G10  23792401.946 9 125029861.704 9      3491.207 9        54.676 9  23792405.656 6         0.000 6      2720.423 6        37.977 6
G21  21177105.784 9 111286421.326 9     -1266.221 9        55.707 9  21177105.071 6         0.000 6      -986.666 6        37.977 6
G29  24315292.275 9 127777666.683 9     -3151.334 9        54.469 9  24315293.866 6         0.000 6     -2455.587 6        37.977 6
G27  21992283.996 9 115570205.506 9      2521.399 9        55.379 9  21992285.925 6         0.000 6      1964.727 6        37.977 6
G16  20494424.426 9 107698906.957 9       553.208 9        55.978 9  20494423.600 6         0.000 6       431.071 6        37.977 6
G26  20661732.094 9 108578112.674 9     -1507.287 9        55.870 9  20661734.913 6         0.000 6     -1174.510 6        37.977 6
G20  21931644.383 9 115251536.133 9      2522.641 9        55.320 9  21931644.697 6         0.000 6      1965.695 6        37.977 6
> 2019 07 03 12 01 26.0000000  0  8       0.000000000000
G07  25335885.563 9 133140931.259 9      2213.235 9        54.135 9  25335886.227 6         0.000 6      1724.599 6        37.977 6
G10  23791737.608 9 125026370.596 9      3491.039 9        54.676 9  23791741.317 6         0.000 6      2720.293 6        37.977 6
G21  21177346.772 9 111287687.726 9     -1266.577 9        55.707 9  21177346.059 6         0.000 6      -986.943 6        37.977 6
G29  24315891.963 9 127780818.055 9     -3151.432 9        54.469 9  24315893.554 6         0.000 6     -2455.664 6        37.977 6
G27  21991804.212 9 115567684.225 9      2521.171 9        55.379 9  21991806.140 6         0.000 6      1964.550 6        37.977 6
G16  20494319.214 9 107698354.064 9       552.586 9        55.978 9  20494318.387 6         0.000 6       430.586 6        37.977 6
G26  20662018.979 9 108579620.262 9     -1507.882 9        55.870 9  20662021.798 6         0.000 6     -1174.974 6        37.977 6
G20  21931164.385 9 115249013.732 9      2522.179 9        55.321 9  21931164.699 6         0.000 6      1965.335 6        37.977 6
> 2019 07 03 12 01 27.0000000  0  8       0.000000000000
G07  25335464.440 9 133138718.245 9      2212.793 9        54.135 9  25335465.104 6         0.000 6      1724.255 6        37.977 6
G10  23791073.301 9 125022879.649 9      3490.882 9        54.676 9  23791077.009 6         0.000 6      2720.171 6        37.977 6
G21  21177587.829 9 111288954.485 9     -1266.937 9        55.706 9  21177587.115 6         0.000 6      -987.224 6        37.977 6
G29  24316491.670 9 127783969.527 9     -3151.526 9        54.469 9  24316493.262 6         0.000 6     -2455.737 6        37.977 6
G27  21991324.471 9 115565163.174 9      2520.935 9        55.380 9  21991326.399 6         0.000 6      1964.366 6        37.977 6
G16  20494214.121 9 107697801.793 9       551.957 9        55.978 9  20494213.294 6         0.000 6       430.097 6        37.977 6
G26  20662305.976 9 108581128.442 9     -1508.476 9        55.870 9  20662308.796 6         0.000 6     -1175.436 6        37.977 6
G20  21930684.475 9 115246491.789 9      2521.723 9        55.321 9  21930684.788 6         0.000 6      1964.980 6        37.977 6
> 2019 07 03 12 01 28.0000000  0  8       0.000000000000
G07  25335043.402 9 133136505.679 9      2212.346 9        54.136 9  25335044.066 6         0.000 6      1723.907 6        37.977 6
G10  23790409.022 9 125019388.853 9      3490.731 9        54.676 9  23790412.730 6         0.000 6      2720.053 6        37.977 6
G21  21177828.953 9 111290221.599 9     -1267.293 9        55.706 9  21177828.239 6         0.000 6      -987.501 6        37.977 6
G29  24317091.394 9 127787121.088 9     -3151.616 9        54.469 9  24317092.987 6         0.000 6     -2455.807 6        37.977 6
G27  21990844.776 9 115562642.361 9      2520.697 9        55.380 9  21990846.704 6         0.000 6      1964.180 6        37.977 6
G16  20494109.146 9 107697250.149 9       551.331 9        55.978 9  20494108.319 6         0.000 6       429.609 6        37.977 6
G26  20662593.086 9 108582637.210 9     -1509.065 9        55.870 9  20662595.905 6         0.000 6     -1175.895 6        37.977 6
G20  21930204.649 9 115243970.294 9      2521.275 9        55.321 9  21930204.963 6         0.000 6      1964.631 6        37.977 6
> 2019 07 03 12 01 29.0000000  0  8       0.000000000000
G07  25334622.449 9 133134293.560 9      2211.896 9        54.136 9  25334623.112 6         0.000 6      1723.556 6        37.977 6
G10  23789744.772 9 125015898.206 9      3490.585 9        54.677 9  23789748.480 6         0.000 6      2719.939 6        37.977 6
G21  21178070.144 9 111291489.068 9     -1267.652 9        55.706 9  21178069.431 6         0.000 6      -987.781 6        37.977 6
G29  24317691.136 9 127790272.743 9     -3151.711 9        54.469 9  24317692.729 6         0.000 6     -2455.881 6        37.977 6
G27  21990365.125 9 115560121.781 9      2520.461 9        55.380 9  21990367.053 6         0.000 6      1963.996 6        37.977 6
G16  20494004.290 9 107696699.127 9       550.705 9        55.978 9  20494003.463 6         0.000 6       429.121 6        37.977 6
G26  20662880.307 9 108584146.564 9     -1509.651 9        55.870 9  20662883.126 6         0.000 6     -1176.352 6        37.977 6
G20  21929724.909 9 115241449.246 9      2520.828 9        55.321 9  21929725.222 6         0.000 6      1964.282 6        37.977 6
> 2019 07 03 12 01 30.0000000  0  8       0.000000000000
G07  25334201.582 9 133132081.896 9      2211.442 9        54.136 9  25334202.246 6         0.000 6      1723.203 6        37.977 6
G10  23789080.550 9 125012407.705 9      3490.440 9        54.677 9  23789084.257 6         0.000 6      2719.826 6        37.977 6
G21  21178311.405 9 111292756.901 9     -1268.009 9        55.706 9  21178310.692 6         0.000 6      -988.059 6        37.977 6
G29  24318290.895 9 127793424.488 9     -3151.800 9        54.468 9  24318292.489 6         0.000 6     -2455.951 6        37.977 6
G27  21989885.520 9 115557601.445 9      2520.222 9        55.380 9  21989887.448 6         0.000 6      1963.810 6        37.977 6
G16  20493899.555 9 107696148.739 9       550.078 9        55.978 9  20493898.728 6         0.000 6       428.632 6        37.977 6
G26  20663167.640 9 108585656.510 9     -1510.238 9        55.869 9  20663170.460 6         0.000 6     -1176.809 6        37.977 6
G20  21929245.254 9 115238928.648 9      2520.383 9        55.321 9  21929245.567 6         0.000 6      1963.936 6        37.977 6
> 2019 07 03 12 01 31.0000000  0  8       0.000000000000
G07  25333780.803 9 133129870.690 9      2210.982 9        54.136 9  25333781.466 6         0.000 6      1722.844 6        37.977 6
G10  23788416.354 9 125008917.343 9      3490.301 9        54.677 9  23788420.060 6         0.000 6      2719.718 6        37.977 6
G21  21178552.733 9 111294025.087 9     -1268.368 9        55.706 9  21178552.020 6         0.000 6      -988.339 6        37.977 6
G29  24318890.671 9 127796576.319 9     -3151.891 9        54.468 9  24318892.265 6         0.000 6     -2456.022 6        37.977 6
G27  21989405.962 9 115555081.350 9      2519.981 9        55.380 9  21989407.889 6         0.000 6      1963.622 6        37.977 6
G16  20493794.939 9 107695598.976 9       549.450 9        55.978 9  20493794.112 6         0.000 6       428.143 6        37.977 6
G26  20663455.084 9 108587167.037 9     -1510.821 9        55.869 9  20663457.904 6         0.000 6     -1177.264 6        37.977 6
G20  21928765.682 9 115236408.487 9      2519.942 9        55.322 9  21928765.995 6         0.000 6      1963.592 6        37.977 6
> 2019 07 03 12 01 32.0000000  0  8       0.000000000000
G07  25333360.111 9 133127659.941 9      2210.525 9        54.136 9  25333360.774 6         0.000 6      1722.488 6        37.977 6
G10  23787752.185 9 125005427.122 9      3490.158 9        54.677 9  23787755.891 6         0.000 6      2719.606 6        37.977 6
G21  21178794.129 9 111295293.634 9     -1268.729 9        55.706 9  21178793.416 6         0.000 6      -988.620 6        37.977 6
G29  24319490.464 9 127799728.245 9     -3151.982 9        54.468 9  24319492.059 6         0.000 6     -2456.092 6        37.977 6
G27  21988926.448 9 115552561.493 9      2519.738 9        55.380 9  21988928.376 6         0.000 6      1963.433 6        37.977 6
G16  20493690.441 9 107695049.840 9       548.819 9        55.978 9  20493689.614 6         0.000 6       427.651 6        37.977 6
G26  20663742.639 9 108588678.148 9     -1511.409 9        55.869 9  20663745.459 6         0.000 6     -1177.722 6        37.977 6
G20  21928286.195 9 115233888.770 9      2519.497 9        55.322 9  21928286.508 6         0.000 6      1963.245 6        37.977 6
> 2019 07 03 12 01 33.0000000  0  8       0.000000000000
G07  25332939.512 9 133125449.680 9      2209.936 9        54.136 9  25332940.174 6         0.000 6      1722.029 6        37.977 6
G10  23787088.038 9 125001937.013 9      3490.150 9        54.678 9  23787091.742 6         0.000 6      2719.600 6        37.977 6
G21  21179035.595 9 111296562.544 9     -1269.106 9        55.706 9  21179034.882 6         0.000 6      -988.914 6        37.977 6
G29  24320090.275 9 127802880.259 9     -3152.070 9        54.468 9  24320091.870 6         0.000 6     -2456.161 6        37.977 6
G27  21988446.982 9 115550041.885 9      2519.467 9        55.381 9  21988448.909 6         0.000 6      1963.222 6        37.977 6
G16  20493586.064 9 107694501.335 9       548.185 9        55.978 9  20493585.237 6         0.000 6       427.157 6        37.977 6
G26  20664030.303 9 108590189.832 9     -1511.929 9        55.869 9  20664033.123 6         0.000 6     -1178.127 6        37.977 6
G20  21927806.789 9 115231369.476 9      2519.145 9        55.322 9  21927807.101 6         0.000 6      1962.971 6        37.977 6
> 2019 07 03 12 01 34.0000000  0  8       0.000000000000
G07  25332519.068 9 133123240.235 9      2209.106 9        54.136 9  25332519.730 6         0.000 6      1721.382 6        37.977 6
G10  23786423.853 9 124998446.711 9      3490.375 9        54.678 9  23786427.557 6         0.000 6      2719.775 6        37.977 6
G21  21179277.127 9 111297831.803 9     -1269.502 9        55.706 9  21179276.414 6         0.000 6      -989.222 6        37.977 6
G29  24320690.071 9 127806032.198 9     -3152.105 9        54.467 9  24320691.667 6         0.000 6     -2456.188 6        37.977 6
G27  21987967.599 9 115547522.712 9      2519.104 9        55.381 9  21987969.526 6         0.000 6      1962.939 6        37.977 6
G16  20493481.822 9 107693953.537 9       547.517 9        55.978 9  20493480.995 6         0.000 6       426.637 6        37.977 6
G26  20664318.056 9 108591701.981 9     -1512.351 9        55.869 9  20664320.876 6         0.000 6     -1178.456 6        37.977 6
G20  21927327.415 9 115228850.352 9      2518.964 9        55.322 9  21927327.727 6         0.000 6      1962.830 6        37.977 6
> 2019 07 03 12 01 35.0000000  0  8       0.000000000000
G07  25332098.369 9 133121029.454 9      2211.621 9        54.137 9  25332099.031 6         0.000 6      1723.342 6        37.977 6
G10  23785759.850 9 124994957.364 9      3489.251 9        54.678 9  23785763.554 6         0.000 6      2718.900 6        37.977 6
G21  21179519.187 9 111299103.835 9     -1274.854 9        55.706 9  21179518.474 6         0.000 6      -993.393 6        37.977 6
G29  24321291.125 9 127809190.751 9     -3165.406 9        54.467 9  24321292.722 6         0.000 6     -2466.553 6        37.977 6
G27  21987487.360 9 115544999.043 9      2528.302 9        55.381 9  21987489.287 6         0.000 6      1970.106 6        37.977 6
G16  20493377.260 9 107693404.064 9       551.516 9        55.978 9  20493376.433 6         0.000 6       429.753 6        37.977 6
G26  20664605.689 9 108593213.500 9     -1510.155 9        55.869 9  20664608.509 6         0.000 6     -1176.745 6        37.977 6
G20  21926848.585 9 115226334.089 9      2514.075 9        55.322 9  21926848.896 6         0.000 6      1959.021 6        37.977 6
> 2019 07 03 12 01 36.0000000  0  8       0.000000000000
G07  25331677.845 9 133118819.590 9      2206.623 9        54.137 9  25331678.507 6         0.000 6      1719.447 6        37.977 6
G10  23785095.425 9 124991465.793 9      3495.297 9        54.678 9  23785099.127 6         0.000 6      2723.611 6        37.977 6
G21  21179762.318 9 111300381.499 9     -1280.410 9        55.706 9  21179761.606 6         0.000 6      -997.722 6        37.977 6
G29  24321894.580 9 127812361.917 9     -3176.187 9        54.467 9  24321896.177 6         0.000 6     -2474.954 6        37.977 6
G27  21987005.611 9 115542467.434 9      2534.073 9        55.381 9  21987007.537 6         0.000 6      1974.603 6        37.977 6
G16  20493272.022 9 107692851.031 9       554.204 9        55.978 9  20493271.195 6         0.000 6       431.848 6        37.977 6
G26  20664892.632 9 108594721.393 9     -1505.159 9        55.869 9  20664895.452 6         0.000 6     -1172.851 6        37.977 6
G20  21926370.221 9 115223820.274 9      2514.707 9        55.322 9  21926370.532 6         0.000 6      1959.513 6        37.977 6
> 2019 07 03 12 01 37.0000000  0  8       0.000000000000
G07  25331259.084 9 133116618.986 9      2196.838 9        54.137 9  25331259.745 6         0.000 6      1711.823 6        37.977 6
G10  23784429.116 9 124987964.331 9      3505.102 9        54.678 9  23784432.819 6         0.000 6      2731.251 6        37.977 6
G21  21180006.411 9 111301664.215 9     -1283.865 9        55.705 9  21180005.698 6         0.000 6     -1000.415 6        37.977 6
G29  24322499.532 9 127815540.950 9     -3180.006 9        54.467 9  24322501.130 6         0.000 6     -2477.929 6        37.977 6
G27  21986523.318 9 115539932.972 9      2534.124 9        55.381 9  21986525.245 6         0.000 6      1974.643 6        37.977 6
G16  20493166.506 9 107692296.543 9       554.272 9        55.978 9  20493165.679 6         0.000 6       431.900 6        37.977 6
G26  20665178.410 9 108596223.164 9     -1500.068 9        55.869 9  20665181.230 6         0.000 6     -1168.885 6        37.977 6
G20  21925891.088 9 115221302.417 9      2519.853 9        55.323 9  21925891.399 6         0.000 6      1963.523 6        37.977 6
> 2019 07 03 12 01 38.0000000  0  8       0.000000000000
G07  25330841.288 9 133114423.457 9      2194.765 9        54.137 9  25330841.949 6         0.000 6      1710.208 6        37.977 6
G10  23783761.923 9 124984458.216 9      3506.603 9        54.679 9  23783765.625 6         0.000 6      2732.421 6        37.977 6
G21  21180250.797 9 111302948.469 9     -1284.540 9        55.705 9  21180250.084 6         0.000 6     -1000.941 6        37.977 6
G29  24323104.688 9 127818721.057 9     -3180.194 9        54.467 9  24323106.287 6         0.000 6     -2478.076 6        37.977 6
G27  21986041.153 9 115537399.181 9      2533.568 9        55.382 9  21986043.079 6         0.000 6      1974.210 6        37.977 6
G16  20493061.099 9 107691742.624 9       553.587 9        55.978 9  20493060.272 6         0.000 6       431.367 6        37.977 6
G26  20665463.815 9 108597722.978 9     -1499.832 9        55.868 9  20665466.636 6         0.000 6     -1168.701 6        37.977 6
G20  21925411.483 9 115218782.078 9      2520.478 9        55.323 9  21925411.793 6         0.000 6      1964.010 6        37.977 6
> 2019 07 03 12 01 39.0000000  0  8       0.000000000000
G07  25330423.702 9 133112229.034 9      2194.155 9        54.137 9  25330424.363 6         0.000 6      1709.732 6        37.977 6
G10  23783094.630 9 124980951.580 9      3506.622 9        54.679 9  23783098.331 6         0.000 6      2732.435 6        37.977 6
G21  21180495.276 9 111304233.218 9     -1284.952 9        55.705 9  21180494.564 6         0.000 6     -1001.262 6        37.977 6
G29  24323709.871 9 127821901.302 9     -3180.321 9        54.466 9  24323711.470 6         0.000 6     -2478.175 6        37.977 6
G27  21985559.057 9 115534865.753 9      2533.308 9        55.382 9  21985560.983 6         0.000 6      1974.007 6        37.977 6
G16  20492955.814 9 107691189.349 9       552.966 9        55.978 9  20492954.987 6         0.000 6       430.882 6        37.977 6
G26  20665749.267 9 108599223.038 9     -1500.324 9        55.868 9  20665752.088 6         0.000 6     -1169.084 6        37.977 6
G20  21924931.880 9 115216261.757 9      2520.126 9        55.323 9  21924932.191 6         0.000 6      1963.736 6        37.977 6
> 2019 07 03 12 01 40.0000000  0  8       0.000000000000
G07  25330006.213 9 133110035.116 9      2193.697 9        54.137 9  25330006.874 6         0.000 6      1709.375 6        37.977 6
G10  23782427.355 9 124977445.033 9      3506.485 9        54.679 9  23782431.055 6         0.000 6      2732.328 6        37.977 6
G21  21180739.831 9 111305518.361 9     -1285.336 9        55.705 9  21180739.119 6         0.000 6     -1001.561 6        37.977 6
G29  24324315.076 9 127825081.669 9     -3180.436 9        54.466 9  24324316.676 6         0.000 6     -2478.265 6        37.977 6
G27  21985077.008 9 115532332.568 9      2533.074 9        55.382 9  21985078.934 6         0.000 6      1973.824 6        37.977 6
G16  20492850.647 9 107690636.693 9       552.347 9        55.978 9  20492849.820 6         0.000 6       430.400 6        37.977 6
G26  20666034.824 9 108600723.644 9     -1500.895 9        55.868 9  20666037.644 6         0.000 6     -1169.529 6        37.977 6
G20  21924452.359 9 115213741.859 9      2519.672 9        55.323 9  21924452.669 6         0.000 6      1963.382 6        37.977 6
> 2019 07 03 12 01 41.0000000  0  8       0.000000000000
G07  25329588.809 9 133107841.646 9      2193.249 9        54.137 9  25329589.470 6         0.000 6      1709.026 6        37.977 6
G10  23781760.107 9 124973938.631 9      3506.338 9        54.679 9  23781763.806 6         0.000 6      2732.214 6        37.977 6
G21  21180984.458 9 111306803.883 9     -1285.709 9        55.705 9  21180983.745 6         0.000 6     -1001.851 6        37.977 6
G29  24324920.303 9 127828262.148 9     -3180.539 9        54.466 9  24324921.904 6         0.000 6     -2478.345 6        37.977 6
G27  21984595.002 9 115529799.612 9      2532.838 9        55.382 9  21984596.927 6         0.000 6      1973.641 6        37.977 6
G16  20492745.598 9 107690084.653 9       551.730 9        55.978 9  20492744.771 6         0.000 6       429.920 6        37.977 6
G26  20666320.489 9 108602224.822 9     -1501.469 9        55.868 9  20666323.310 6         0.000 6     -1169.976 6        37.977 6
G20  21923972.924 9 115211222.418 9      2519.218 9        55.323 9  21923973.234 6         0.000 6      1963.028 6        37.977 6
> 2019 07 03 12 01 42.0000000  0  8       0.000000000000
G07  25329171.489 9 133105648.622 9      2192.798 9        54.138 9  25329172.150 6         0.000 6      1708.675 6        37.977 6
G10  23781092.887 9 124970432.380 9      3506.193 9        54.680 9  23781096.586 6         0.000 6      2732.101 6        37.977 6
G21  21181229.155 9 111308089.773 9     -1286.079 9        55.705 9  21181228.442 6         0.000 6     -1002.139 6        37.977 6
G29  24325525.549 9 127831442.725 9     -3180.636 9        54.466 9  24325527.150 6         0.000 6     -2478.420 6        37.977 6
G27  21984113.041 9 115527266.894 9      2532.598 9        55.382 9  21984114.966 6         0.000 6      1973.454 6        37.977 6
G16  20492640.665 9 107689533.229 9       551.112 9        55.979 9  20492639.838 6         0.000 6       429.438 6        37.977 6
G26  20666606.263 9 108603726.576 9     -1502.042 9        55.868 9  20666609.084 6         0.000 6     -1170.423 6        37.977 6
G20  21923493.577 9 115208703.432 9      2518.766 9        55.324 9  21923493.886 6         0.000 6      1962.676 6        37.977 6
> 2019 07 03 12 01 43.0000000  0  8       0.000000000000
G07  25328754.256 9 133103456.051 9      2192.347 9        54.138 9  25328754.917 6         0.000 6      1708.323 6        37.977 6
G10  23780425.695 9 124966926.272 9      3506.047 9        54.680 9  23780429.393 6         0.000 6      2731.987 6        37.977 6
G21  21181473.923 9 111309376.037 9     -1286.449 9        55.705 9  21181473.210 6         0.000 6     -1002.428 6        37.977 6
G29  24326130.813 9 127834623.399 9     -3180.728 9        54.465 9  24326132.415 6         0.000 6     -2478.492 6        37.977 6
G27  21983631.126 9 115524734.419 9      2532.353 9        55.383 9  21983633.052 6         0.000 6      1973.263 6        37.977 6
G16  20492535.851 9 107688982.428 9       550.489 9        55.979 9  20492535.024 6         0.000 6       428.953 6        37.977 6
G26  20666892.148 9 108605228.906 9     -1502.620 9        55.868 9  20666894.969 6         0.000 6     -1170.873 6        37.977 6
G20  21923014.315 9 115206184.898 9      2518.314 9        55.324 9  21923014.624 6         0.000 6      1962.324 6        37.977 6
> 2019 07 03 12 01 44.0000000  0  8       0.000000000000
G07  25328337.110 9 133101263.935 9      2191.896 9        54.138 9  25328337.770 6         0.000 6      1707.972 6        37.977 6
G10  23779758.530 9 124963420.306 9      3505.900 9        54.680 9  23779762.227 6         0.000 6      2731.873 6        37.977 6
G21  21181718.761 9 111310662.669 9     -1286.819 9        55.705 9  21181718.048 6         0.000 6     -1002.716 6        37.977 6
G29  24326736.095 9 127837804.166 9     -3180.821 9        54.465 9  24326737.697 6         0.000 6     -2478.564 6        37.977 6
G27  21983149.258 9 115522202.187 9      2532.108 9        55.383 9  21983151.183 6         0.000 6      1973.072 6        37.977 6
G16  20492431.155 9 107688432.246 9       549.867 9        55.979 9  20492430.328 6         0.000 6       428.468 6        37.977 6
G26  20667178.141 9 108606731.809 9     -1503.198 9        55.868 9  20667180.962 6         0.000 6     -1171.324 6        37.977 6
G20  21922535.138 9 115203666.812 9      2517.861 9        55.324 9  21922535.447 6         0.000 6      1961.971 6        37.977 6
> 2019 07 03 12 01 45.0000000  0  8       0.000000000000
G07  25327920.049 9 133099072.269 9      2191.442 9        54.138 9  25327920.709 6         0.000 6      1707.618 6        37.977 6
G10  23779091.393 9 124959914.489 9      3505.755 9        54.680 9  23779095.090 6         0.000 6      2731.760 6        37.977 6
G21  21181963.669 9 111311949.671 9     -1287.187 9        55.705 9  21181962.957 6         0.000 6     -1003.003 6        37.977 6
G29  24327341.393 9 127840985.020 9     -3180.908 9        54.465 9  24327342.996 6         0.000 6     -2478.632 6        37.977 6
G27  21982667.438 9 115519670.206 9      2531.859 9        55.383 9  21982669.363 6         0.000 6      1972.878 6        37.977 6
G16  20492326.578 9 107687882.691 9       549.243 9        55.979 9  20492325.751 6         0.000 6       427.981 6        37.977 6
G26  20667464.245 9 108608235.294 9     -1503.776 9        55.868 9  20667467.066 6         0.000 6     -1171.774 6        37.977 6
G20  21922056.048 9 115201149.180 9      2517.412 9        55.324 9  21922056.357 6         0.000 6      1961.621 6        37.977 6
> 2019 07 03 12 01 46.0000000  0  8       0.000000000000
G07  25327503.084 9 133096881.108 9      2190.863 9        54.138 9  25327503.744 6         0.000 6      1707.167 6        37.977 6
G10  23778424.277 9 124956408.782 9      3505.696 9        54.681 9  23778427.973 6         0.000 6      2731.714 6        37.977 6
G21  21182208.641 9 111313237.002 9     -1287.460 9        55.705 9  21182207.928 6         0.000 6     -1003.215 6        37.977 6
G29  24327946.687 9 127844165.852 9     -3180.720 9        54.465 9  24327948.291 6         0.000 6     -2478.486 6        37.977 6
G27  21982185.680 9 115517138.557 9      2531.401 9        55.383 9  21982187.605 6         0.000 6      1972.521 6        37.977 6
G16  20492222.127 9 107687333.799 9       548.520 9        55.979 9  20492221.300 6         0.000 6       427.418 6        37.977 6
G26  20667750.461 9 108609739.366 9     -1504.379 9        55.868 9  20667753.282 6         0.000 6     -1172.244 6        37.977 6
G20  21921577.032 9 115198631.943 9      2517.099 9        55.324 9  21921577.341 6         0.000 6      1961.377 6        37.977 6
> 2019 07 03 12 01 47.0000000  0  8       0.000000000000
G07  25327086.464 9 133094691.757 9      2184.255 9        54.138 9  25327087.123 6         0.000 6      1702.017 6        37.977 6
G10  23777756.942 9 124952901.925 9      3511.574 9        54.681 9  23777760.638 6         0.000 6      2736.294 6        37.977 6
G21  21182453.690 9 111314524.744 9     -1288.407 9        55.704 9  21182452.977 6         0.000 6     -1003.953 6        37.977 6
G29  24328551.913 9 127847346.324 9     -3179.733 9        54.465 9  24328553.517 6         0.000 6     -2477.716 6        37.977 6
G27  21981704.087 9 115514607.769 9      2529.009 9        55.383 9  21981706.012 6         0.000 6      1970.657 6        37.977 6
G16  20492117.840 9 107686785.764 9       547.172 9        55.979 9  20492117.013 6         0.000 6       426.368 6        37.977 6
G26  20668036.689 9 108611243.507 9     -1502.333 9        55.867 9  20668039.511 6         0.000 6     -1170.649 6        37.977 6
G20  21921097.914 9 115196114.162 9      2520.983 9        55.325 9  21921098.222 6         0.000 6      1964.404 6        37.977 6
> 2019 07 03 12 01 48.0000000  0  8       0.000000000000
G07  25326672.294 9 133092515.283 9      2168.868 9        54.138 9  25326672.953 6         0.000 6      1690.028 6        37.977 6
G10  23777087.368 9 124949383.299 9      3525.363 9        54.681 9  23777091.063 6         0.000 6      2747.039 6        37.977 6
G21  21182698.901 9 111315813.337 9     -1288.306 9        55.704 9  21182698.189 6         0.000 6     -1003.875 6        37.977 6
G29  24329156.432 9 127850523.084 9     -3172.728 9        54.464 9  24329158.037 6         0.000 6     -2472.258 6        37.977 6
G27  21981223.568 9 115512082.625 9      2520.605 9        55.384 9  21981225.492 6         0.000 6      1964.108 6        37.977 6
G16  20492014.051 9 107686240.351 9       543.295 9        55.979 9  20492013.224 6         0.000 6       423.347 6        37.977 6
G26  20668322.117 9 108612743.438 9     -1497.963 9        55.867 9  20668324.939 6         0.000 6     -1167.244 6        37.977 6
G20  21920617.158 9 115193587.775 9      2531.883 9        55.325 9  21920617.466 6         0.000 6      1972.897 6        37.977 6
> 2019 07 03 12 01 49.0000000  0  8       0.000000000000
G07  25326261.063 9 133090354.254 9      2153.890 9        54.139 9  25326261.722 6         0.000 6      1678.357 6        37.977 6
G10  23776415.279 9 124945851.456 9      3537.496 9        54.681 9  23776418.973 6         0.000 6      2756.493 6        37.977 6
G21  21182943.770 9 111317100.133 9     -1284.743 9        55.704 9  21182943.058 6         0.000 6     -1001.098 6        37.977 6
G29  24329758.837 9 127853688.733 9     -3157.575 9        54.464 9  24329760.443 6         0.000 6     -2460.450 6        37.977 6
G27  21980745.167 9 115509568.616 9      2506.915 9        55.384 9  21980747.091 6         0.000 6      1953.441 6        37.977 6
G16  20491911.265 9 107685700.205 9       536.703 9        55.979 9  20491910.438 6         0.000 6       418.210 6        37.977 6
G26  20668606.958 9 108614240.287 9     -1496.390 9        55.867 9  20668609.780 6         0.000 6     -1166.018 6        37.977 6
G20  21920134.176 9 115191049.696 9      2544.010 9        55.325 9  21920134.484 6         0.000 6      1982.347 6        37.977 6
> 2019 07 03 12 01 50.0000000  0  8       0.000000000000
G07  25325851.575 9 133088202.380 9      2150.748 9        54.139 9  25325852.233 6         0.000 6      1675.909 6        37.977 6
G10  23775741.877 9 124942312.717 9      3539.328 9        54.682 9  23775745.571 6         0.000 6      2757.921 6        37.977 6
G21  21183188.097 9 111318384.079 9     -1283.579 9        55.704 9  21183187.385 6         0.000 6     -1000.192 6        37.977 6
G29  24330359.129 9 127856843.275 9     -3152.918 9        54.464 9  24330360.735 6         0.000 6     -2456.822 6        37.977 6
G27  21980268.604 9 115507064.264 9      2502.918 9        55.384 9  21980270.528 6         0.000 6      1950.326 6        37.977 6
G16  20491809.408 9 107685164.944 9       534.341 9        55.979 9  20491808.581 6         0.000 6       416.370 6        37.977 6
G26  20668891.788 9 108615737.076 9     -1497.172 9        55.867 9  20668894.610 6         0.000 6     -1166.628 6        37.977 6
G20  21919649.774 9 115188504.151 9      2546.239 9        55.325 9  21919650.082 6         0.000 6      1984.084 6        37.977 6
> 2019 07 03 12 01 51.0000000  0  8       0.000000000000
G07  25325442.386 9 133086052.081 9      2149.964 9        54.139 9  25325443.044 6         0.000 6      1675.297 6        37.977 6
G10  23775068.350 9 124938773.319 9      3539.415 9        54.682 9  23775072.043 6         0.000 6      2757.989 6        37.977 6
G21  21183432.363 9 111319667.703 9     -1283.745 9        55.704 9  21183431.651 6         0.000 6     -1000.321 6        37.977 6
G29  24330959.036 9 127859995.801 9     -3152.377 9        54.464 9  24330960.643 6         0.000 6     -2456.400 6        37.977 6
G27  21979792.401 9 115504561.803 9      2502.183 9        55.384 9  21979794.325 6         0.000 6      1949.753 6        37.977 6
G16  20491707.815 9 107684631.067 9       533.496 9        55.979 9  20491706.988 6         0.000 6       415.711 6        37.977 6
G26  20669176.750 9 108617234.561 9     -1497.782 9        55.867 9  20669179.572 6         0.000 6     -1167.103 6        37.977 6
G20  21919165.242 9 115185957.921 9      2546.118 9        55.325 9  21919165.549 6         0.000 6      1983.989 6        37.977 6
> 2019 07 03 12 01 52.0000000  0  8       0.000000000000
G07  25325033.309 9 133083902.374 9      2149.461 9        54.139 9  25325033.968 6         0.000 6      1674.906 6        37.977 6
G10  23774394.831 9 124935233.966 9      3539.307 9        54.682 9  23774398.524 6         0.000 6      2757.905 6        37.977 6
G21  21183676.684 9 111320951.617 9     -1284.096 9        55.704 9  21183675.972 6         0.000 6     -1000.595 6        37.977 6
G29  24331558.915 9 127863148.172 9     -3152.403 9        54.464 9  24331560.522 6         0.000 6     -2456.421 6        37.977 6
G27  21979316.280 9 115502059.773 9      2501.890 9        55.384 9  21979318.204 6         0.000 6      1949.525 6        37.977 6
G16  20491606.354 9 107684097.888 9       532.862 9        55.979 9  20491605.527 6         0.000 6       415.217 6        37.977 6
G26  20669461.822 9 108618732.621 9     -1498.344 9        55.867 9  20669464.644 6         0.000 6     -1167.541 6        37.977 6
G20  21918680.770 9 115183412.008 9      2545.705 9        55.326 9  21918681.077 6         0.000 6      1983.668 6        37.977 6
> 2019 07 03 12 01 53.0000000  0  8       0.000000000000
G07  25324624.327 9 133081753.160 9      2148.981 9        54.139 9  25324624.985 6         0.000 6      1674.531 6        37.977 6
G10  23773721.335 9 124931694.728 9      3539.183 9        54.682 9  23773725.027 6         0.000 6      2757.808 6        37.977 6
G21  21183921.074 9 111322235.898 9     -1284.465 9        55.704 9  21183920.362 6         0.000 6     -1000.882 6        37.977 6
G29  24332158.804 9 127866300.602 9     -3152.476 9        54.463 9  24332160.412 6         0.000 6     -2456.477 6        37.977 6
G27  21978840.211 9 115499558.016 9      2501.632 9        55.384 9  21978842.135 6         0.000 6      1949.325 6        37.977 6
G16  20491505.013 9 107683565.335 9       532.244 9        55.979 9  20491504.185 6         0.000 6       414.735 6        37.977 6
G26  20669747.000 9 108620231.241 9     -1498.903 9        55.867 9  20669749.823 6         0.000 6     -1167.977 6        37.977 6
G20  21918196.380 9 115180866.525 9      2545.267 9        55.326 9  21918196.687 6         0.000 6      1983.326 6        37.977 6
> 2019 07 03 12 01 54.0000000  0  8       0.000000000000
G07  25324215.433 9 133079604.411 9      2148.518 9        54.139 9  25324216.091 6         0.000 6      1674.171 6        37.977 6
G10  23773047.865 9 124928155.629 9      3539.042 9        54.683 9  23773051.556 6         0.000 6      2757.698 6        37.977 6
G21  21184165.535 9 111323520.546 9     -1284.834 9        55.704 9  21184164.823 6         0.000 6     -1001.170 6        37.977 6
G29  24332758.708 9 127869453.108 9     -3152.558 9        54.463 9  24332760.317 6         0.000 6     -2456.541 6        37.977 6
G27  21978364.190 9 115497056.509 9      2501.385 9        55.385 9  21978366.113 6         0.000 6      1949.132 6        37.977 6
G16  20491403.788 9 107683033.398 9       531.629 9        55.979 9  20491402.961 6         0.000 6       414.257 6        37.977 6
G26  20670032.286 9 108621730.426 9     -1499.468 9        55.867 9  20670035.108 6         0.000 6     -1168.417 6        37.977 6
G20  21917712.075 9 115178321.489 9      2544.816 9        55.326 9  21917712.381 6         0.000 6      1982.974 6        37.977 6
> 2019 07 03 12 01 55.0000000  0  8       0.000000000000
G07  25323806.629 9 133077456.134 9      2148.053 9        54.139 9  25323807.286 6         0.000 6      1673.808 6        37.977 6
G10  23772374.420 9 124924616.663 9      3538.903 9        54.683 9  23772378.110 6         0.000 6      2757.589 6        37.977 6
G21  21184410.066 9 111324805.563 9     -1285.202 9        55.704 9  21184409.354 6         0.000 6     -1001.456 6        37.977 6
G29  24333358.627 9 127872605.691 9     -3152.634 9        54.463 9  24333360.236 6         0.000 6     -2456.601 6        37.977 6
G27  21977888.216 9 115494555.255 9      2501.133 9        55.385 9  21977890.140 6         0.000 6      1948.936 6        37.977 6
G16  20491302.681 9 107682502.078 9       531.013 9        55.979 9  20491301.854 6         0.000 6       413.777 6        37.977 6
G26  20670317.679 9 108623230.173 9     -1500.032 9        55.866 9  20670320.501 6         0.000 6     -1168.857 6        37.977 6
G20  21917227.855 9 115175776.899 9      2544.367 9        55.326 9  21917228.161 6         0.000 6      1982.625 6        37.977 6
> 2019 07 03 12 01 56.0000000  0  8       0.000000000000
G07  25323397.911 9 133075308.313 9      2147.590 9        54.140 9  25323398.569 6         0.000 6      1673.448 6        37.977 6
G10  23771701.003 9 124921077.844 9      3538.762 9        54.683 9  23771704.693 6         0.000 6      2757.479 6        37.977 6
G21  21184654.666 9 111326090.948 9     -1285.571 9        55.704 9  21184653.955 6         0.000 6     -1001.744 6        37.977 6
G29  24333958.561 9 127875758.355 9     -3152.716 9        54.463 9  24333960.171 6         0.000 6     -2456.664 6        37.977 6
G27  21977412.290 9 115492054.248 9      2500.885 9        55.385 9  21977414.213 6         0.000 6      1948.743 6        37.977 6
G16  20491201.691 9 107681971.371 9       530.399 9        55.979 9  20491200.864 6         0.000 6       413.298 6        37.977 6
G26  20670603.179 9 108624730.487 9     -1500.597 9        55.866 9  20670606.002 6         0.000 6     -1169.297 6        37.977 6
G20  21916743.721 9 115173232.764 9      2543.915 9        55.326 9  21916744.027 6         0.000 6      1982.273 6        37.977 6
> 2019 07 03 12 01 57.0000000  0  8       0.000000000000
G07  25322989.282 9 133073160.955 9      2147.133 9        54.140 9  25322989.939 6         0.000 6      1673.092 6        37.977 6
G10  23771027.613 9 124917539.164 9      3538.614 9        54.683 9  23771031.302 6         0.000 6      2757.364 6        37.977 6
G21  21184899.337 9 111327376.701 9     -1285.938 9        55.703 9  21184898.626 6         0.000 6     -1002.030 6        37.977 6
G29  24334558.511 9 127878911.106 9     -3152.797 9        54.462 9  24334560.122 6         0.000 6     -2456.727 6        37.977 6
G27  21976936.410 9 115489553.483 9      2500.639 9        55.385 9  21976938.333 6         0.000 6      1948.550 6        37.977 6
G16  20491100.817 9 107681441.275 9       529.785 9        55.979 9  20491099.990 6         0.000 6       412.819 6        37.977 6
G26  20670888.787 9 108626231.362 9     -1501.165 9        55.866 9  20670891.609 6         0.000 6     -1169.739 6        37.977 6
G20  21916259.673 9 115170689.080 9      2543.459 9        55.326 9  21916259.979 6         0.000 6      1981.918 6        37.977 6
> 2019 07 03 12 01 58.0000000  0  8       0.000000000000
G07  25322580.739 9 133071014.053 9      2146.674 9        54.140 9  25322581.396 6         0.000 6      1672.734 6        37.977 6
G10  23770354.251 9 124914000.635 9      3538.471 9        54.684 9  23770357.939 6         0.000 6      2757.253 6        37.977 6
G21  21185144.078 9 111328662.822 9     -1286.303 9        55.703 9  21185143.366 6         0.000 6     -1002.314 6        37.977 6
G29  24335158.476 9 127882063.933 9     -3152.877 9        54.462 9  24335160.088 6         0.000 6     -2456.790 6        37.977 6
G27  21976460.577 9 115487052.970 9      2500.394 9        55.385 9  21976462.500 6         0.000 6      1948.360 6        37.977 6
G16  20491000.061 9 107680911.797 9       529.174 9        55.979 9  20490999.234 6         0.000 6       412.343 6        37.977 6
G26  20671174.503 9 108627732.808 9     -1501.727 9        55.866 9  20671177.326 6         0.000 6     -1170.178 6        37.977 6
G20  21915775.712 9 115168145.853 9      2543.008 9        55.327 9  21915776.018 6         0.000 6      1981.566 6        37.977 6
> 2019 07 03 12 01 59.0000000  0  8       0.000000000000
G07  25322172.285 9 133068867.615 9      2146.217 9        54.140 9  25322172.942 6         0.000 6      1672.378 6        37.977 6
G10  23769680.916 9 124910462.246 9      3538.323 9        54.684 9  23769684.604 6         0.000 6      2757.137 6        37.977 6
G21  21185388.889 9 111329949.313 9     -1286.671 9        55.703 9  21185388.178 6         0.000 6     -1002.601 6        37.977 6
G29  24335758.457 9 127885216.841 9     -3152.958 9        54.462 9  24335760.069 6         0.000 6     -2456.853 6        37.977 6
G27  21975984.792 9 115484552.705 9      2500.148 9        55.386 9  21975986.715 6         0.000 6      1948.168 6        37.977 6
G16  20490899.422 9 107680382.934 9       528.560 9        55.979 9  20490898.595 6         0.000 6       411.865 6        37.977 6
G26  20671460.327 9 108629234.820 9     -1502.295 9        55.866 9  20671463.149 6         0.000 6     -1170.620 6        37.977 6
G20  21915291.838 9 115165603.078 9      2542.552 9        55.327 9  21915292.143 6         0.000 6      1981.210 6        37.977 6
> 2019 07 03 12 02  0.0000000  0  8       0.000000000000
G07  25321763.911 9 133066721.596 9      2145.893 9        54.140 9  25321764.567 6         0.000 6      1672.125 6        37.977 6
G10  23769007.616 9 124906924.042 9      3538.041 9        54.684 9  23769011.303 6         0.000 6      2756.918 6        37.977 6
G21  21185633.769 9 111331236.161 9     -1287.020 9        55.703 9  21185633.057 6         0.000 6     -1002.873 6        37.977 6
G29  24336358.452 9 127888369.827 9     -3153.043 9        54.462 9  24336360.065 6         0.000 6     -2456.920 6        37.977 6
G27  21975509.052 9 115482052.678 9      2499.932 9        55.386 9  21975510.975 6         0.000 6      1948.000 6        37.977 6
G16  20490798.899 9 107679854.681 9       527.951 9        55.979 9  20490798.072 6         0.000 6       411.391 6        37.977 6
G26  20671746.261 9 108630737.415 9     -1502.929 9        55.866 9  20671749.084 6         0.000 6     -1171.114 6        37.977 6
G20  21914808.054 9 115163060.782 9      2542.004 9        55.327 9  21914808.359 6         0.000 6      1980.784 6        37.977 6
