     3.00           Observation Data    M (Mixed)           RINEX VERSION / TYPE
SimGEN V6.06.00     Spirent             03-Jul-19 12:00     PGM / RUN BY / DATE 
                                                            MARKER NAME         
1                                                           MARKER NUMBER       
GROUND_CRAFT                                                MARKER TYPE         
jin4hi              Spirent                                 OBSERVER / AGENCY   
rec_num             rec_type            rec_vers            REC # / TYPE / VERS 
1                   ant_type                                ANT # / TYPE        
  1000.000                                                  INTERVAL            
  2019     7     3    12     0    0.0000000     GPS         TIME OF FIRST OBS   
  4162619.6680   664352.6680  4770585.2790                  APPROX POSITION XYZ 
        0.0000        0.0000        0.0000                  ANTENNA: DELTA H/E/N
G    8 C1C L1C D1C S1C C2C L2C D2C S2C                      SYS / # / OBS TYPES 
        0.0000        0.0000        0.0000                  ANTENNA: DELTA X/Y/Z
DBHZ                                                        SIGNAL STRENGTH UNIT
                                                            END OF HEADER       
> 2019 07 03 12 00  0.0000000  0  8       0.000000000000
G07  25371931.301 9 133330352.578 9      2238.859 9        54.123 9  25371931.984 6         0.000 6      1744.566 6        37.977 6
G10  23849455.314 9 125329678.268 9      3520.280 9        54.655 9  23849459.080 6         0.000 6      2743.076 6        37.977 6
G21  21156819.024 9 111179813.740 9     -1248.504 9        55.715 9  21156818.307 6         0.000 6      -972.860 6        37.977 6
G29  24264435.583 9 127510413.829 9     -3171.688 9        54.488 9  24264437.120 6         0.000 6     -2471.445 6        37.977 6
G27  22033081.049 9 115784595.233 9      2557.514 9        55.363 9  22033082.992 6         0.000 6      1992.868 6        37.977 6
G16  20503747.390 9 107747899.459 9       614.407 9        55.974 9  20503746.564 6         0.000 6       478.759 6        37.977 6
G26  20637965.805 9 108453220.130 9     -1443.038 9        55.880 9  20637968.615 6         0.000 6     -1124.446 6        37.977 6
G20  21973097.287 9 115469372.228 9      2564.025 9        55.304 9  21973097.625 6         0.000 6      1997.942 6        37.977 6
> 2019 07 03 12 00  1.0000000  0  8       0.000000000000
G07  25371505.531 9 133328115.145 9      2236.770 9        54.123 9  25371506.214 6         0.000 6      1742.939 6        37.977 6
G10  23848785.275 9 125326157.200 9      3521.311 9        54.655 9  23848789.040 6         0.000 6      2743.882 6        37.977 6
G21  21157056.463 9 111181061.491 9     -1247.606 9        55.715 9  21157055.746 6         0.000 6      -972.160 6        37.977 6
G29  24265038.613 9 127513582.761 9     -3167.988 9        54.487 9  24265040.150 6         0.000 6     -2468.565 6        37.977 6
G27  22032594.810 9 115782040.030 9      2554.308 9        55.363 9  22032596.752 6         0.000 6      1990.370 6        37.977 6
G16  20503630.730 9 107747286.404 9       612.375 9        55.974 9  20503629.903 6         0.000 6       477.176 6        37.977 6
G26  20638240.518 9 108454663.756 9     -1444.025 9        55.880 9  20638243.329 6         0.000 6     -1125.215 6        37.977 6
G20  21972609.148 9 115466807.045 9      2565.455 9        55.304 9  21972609.486 6         0.000 6      1999.057 6        37.977 6
> 2019 07 03 12 00  2.0000000  0  8       0.000000000000
G07  25371079.945 9 133325878.681 9      2236.211 9        54.123 9  25371080.628 6         0.000 6      1742.503 6        37.977 6
G10  23848115.194 9 125322635.914 9      3521.253 9        54.655 9  23848118.959 6         0.000 6      2743.836 6        37.977 6
G21  21157293.899 9 111182309.223 9     -1247.894 9        55.715 9  21157293.182 6         0.000 6      -972.385 6        37.977 6
G29  24265641.435 9 127516750.603 9     -3167.824 9        54.487 9  24265642.973 6         0.000 6     -2468.437 6        37.977 6
G27  22032108.791 9 115779485.989 9      2553.866 9        55.363 9  22032110.734 6         0.000 6      1990.026 6        37.977 6
G16  20503514.271 9 107746674.407 9       611.661 9        55.974 9  20503513.444 6         0.000 6       476.619 6        37.977 6
G26  20638515.367 9 108456108.091 9     -1444.634 9        55.880 9  20638518.177 6         0.000 6     -1125.689 6        37.977 6
G20  21972120.983 9 115464241.727 9      2565.138 9        55.305 9  21972121.321 6         0.000 6      1998.810 6        37.977 6
> 2019 07 03 12 00  3.0000000  0  8       0.000000000000
G07  25370654.437 9 133323642.622 9      2236.294 9        54.123 9  25370655.119 6         0.000 6      1742.568 6        37.977 6
G10  23847445.146 9 125319114.796 9      3520.639 9        54.655 9  23847448.910 6         0.000 6      2743.358 6        37.977 6
G21  21157531.409 9 111183557.348 9     -1248.333 9        55.715 9  21157530.692 6         0.000 6      -972.727 6        37.977 6
G29  24266244.285 9 127519918.595 9     -3168.275 9        54.487 9  24266245.825 6         0.000 6     -2468.788 6        37.977 6
G27  22031622.810 9 115776932.143 9      2553.988 9        55.364 9  22031624.752 6         0.000 6      1990.121 6        37.977 6
G16  20503397.925 9 107746063.008 9       611.202 9        55.974 9  20503397.099 6         0.000 6       476.261 6        37.977 6
G26  20638790.326 9 108457553.010 9     -1445.349 9        55.880 9  20638793.136 6         0.000 6     -1126.246 6        37.977 6
G20  21971632.910 9 115461676.891 9      2564.269 9        55.305 9  21971633.248 6         0.000 6      1998.133 6        37.977 6
> 2019 07 03 12 00  4.0000000  0  8       0.000000000000
G07  25370229.412 9 133321409.108 9      2228.290 9        54.124 9  25370230.095 6         0.000 6      1736.331 6        37.977 6
G10  23846774.714 9 125315591.664 9      3528.025 9        54.656 9  23846778.477 6         0.000 6      2749.113 6        37.977 6
G21  21157769.071 9 111184806.268 9     -1249.648 9        55.715 9  21157768.354 6         0.000 6      -973.752 6        37.977 6
G29  24266847.203 9 127523086.940 9     -3167.854 9        54.487 9  24266848.743 6         0.000 6     -2468.460 6        37.977 6
G27  22031136.934 9 115774378.849 9      2551.643 9        55.364 9  22031138.876 6         0.000 6      1988.294 6        37.977 6
G16  20503281.711 9 107745452.297 9       609.839 9        55.974 9  20503280.884 6         0.000 6       475.199 6        37.977 6
G26  20639065.195 9 108458997.456 9     -1442.594 9        55.880 9  20639068.005 6         0.000 6     -1124.099 6        37.977 6
G20  21971144.658 9 115459111.110 9      2569.083 9        55.305 9  21971144.995 6         0.000 6      2001.884 6        37.977 6
> 2019 07 03 12 00  5.0000000  0  8       0.000000000000
G07  25369806.655 9 133319187.508 9      2214.903 9        54.124 9  25369807.337 6         0.000 6      1725.899 6        37.977 6
G10  23846102.199 9 125312057.584 9      3540.020 9        54.656 9  23846105.962 6         0.000 6      2758.460 6        37.977 6
G21  21158006.905 9 111186056.091 9     -1249.601 9        55.715 9  21158006.188 6         0.000 6      -973.716 6        37.977 6
G29  24267449.565 9 127526252.359 9     -3161.998 9        54.486 9  24267451.105 6         0.000 6     -2463.897 6        37.977 6
G27  22030651.998 9 115771830.495 9      2544.388 9        55.364 9  22030653.940 6         0.000 6      1982.641 6        37.977 6
G16  20503165.972 9 107744844.083 9       606.247 9        55.974 9  20503165.145 6         0.000 6       472.400 6        37.977 6
G26  20639339.344 9 108460438.115 9     -1439.038 9        55.879 9  20639342.154 6         0.000 6     -1121.329 6        37.977 6
G20  21970654.893 9 115456537.385 9      2578.570 9        55.305 9  21970655.230 6         0.000 6      2009.276 6        37.977 6
> 2019 07 03 12 00  6.0000000  0  8       0.000000000000
G07  25369386.551 9 133316979.849 9      2201.225 9        54.124 9  25369387.233 6         0.000 6      1715.241 6        37.977 6
G10  23845427.408 9 125308511.547 9      3551.168 9        54.656 9  23845431.170 6         0.000 6      2767.146 6        37.977 6
G21  21158244.438 9 111187304.339 9     -1246.494 9        55.714 9  21158243.722 6         0.000 6      -971.295 6        37.977 6
G29  24268050.046 9 127529407.899 9     -3148.407 9        54.486 9  24268051.587 6         0.000 6     -2453.307 6        37.977 6
G27  22030168.982 9 115769292.231 9      2531.862 9        55.364 9  22030170.923 6         0.000 6      1972.880 6        37.977 6
G16  20503051.181 9 107744240.853 9       600.041 9        55.974 9  20503050.354 6         0.000 6       467.564 6        37.977 6
G26  20639613.005 9 108461876.214 9     -1437.750 9        55.879 9  20639615.816 6         0.000 6     -1120.325 6        37.977 6
G20  21970163.111 9 115453953.055 9      2589.678 9        55.305 9  21970163.447 6         0.000 6      2017.932 6        37.977 6
> 2019 07 03 12 00  7.0000000  0  8       0.000000000000
G07  25368968.048 9 133314780.602 9      2198.056 9        54.124 9  25368968.729 6         0.000 6      1712.772 6        37.977 6
G10  23844751.399 9 125304959.105 9      3553.133 9        54.656 9  23844755.160 6         0.000 6      2768.678 6        37.977 6
G21  21158481.515 9 111188550.187 9     -1245.563 9        55.714 9  21158480.799 6         0.000 6      -970.569 6        37.977 6
G29  24268648.654 9 127532553.595 9     -3144.208 9        54.486 9  24268650.195 6         0.000 6     -2450.035 6        37.977 6
G27  22029687.636 9 115766762.748 9      2528.103 9        55.364 9  22029689.578 6         0.000 6      1969.951 6        37.977 6
G16  20502937.256 9 107743642.174 9       597.785 9        55.974 9  20502936.429 6         0.000 6       465.806 6        37.977 6
G26  20639886.664 9 108463314.297 9     -1438.400 9        55.879 9  20639889.474 6         0.000 6     -1120.831 6        37.977 6
G20  21969670.031 9 115451361.907 9      2591.878 9        55.305 9  21969670.367 6         0.000 6      2019.646 6        37.977 6
> 2019 07 03 12 00  8.0000000  0  8       0.000000000000
G07  25368549.875 9 133312583.096 9      2197.077 9        54.124 9  25368550.557 6         0.000 6      1712.009 6        37.977 6
G10  23844075.223 9 125301405.785 9      3553.443 9        54.657 9  23844078.983 6         0.000 6      2768.919 6        37.977 6
G21  21158718.551 9 111189795.815 9     -1245.768 9        55.714 9  21158717.834 6         0.000 6      -970.728 6        37.977 6
G29  24269246.906 9 127535697.421 9     -3143.679 9        54.486 9  24269248.448 6         0.000 6     -2449.623 6        37.977 6
G27  22029206.644 9 115764235.119 9      2527.329 9        55.365 9  22029208.586 6         0.000 6      1969.348 6        37.977 6
G16  20502823.590 9 107743044.853 9       596.933 9        55.974 9  20502822.763 6         0.000 6       465.143 6        37.977 6
G26  20640160.432 9 108464752.956 9     -1438.912 9        55.879 9  20640163.242 6         0.000 6     -1121.231 6        37.977 6
G20  21969176.798 9 115448769.956 9      2591.911 9        55.306 9  21969177.134 6         0.000 6      2019.672 6        37.977 6
> 2019 07 03 12 00  9.0000000  0  8       0.000000000000
G07  25368131.848 9 133310386.353 9      2196.437 9        54.124 9  25368132.530 6         0.000 6      1711.510 6        37.977 6
G10  23843399.019 9 125297852.321 9      3553.489 9        54.657 9  23843402.779 6         0.000 6      2768.956 6        37.977 6
G21  21158955.649 9 111191041.773 9     -1246.145 9        55.714 9  21158954.932 6         0.000 6      -971.022 6        37.977 6
G29  24269845.129 9 127538841.096 9     -3143.699 9        54.486 9  24269846.672 6         0.000 6     -2449.638 6        37.977 6
G27  22028725.742 9 115761707.965 9      2526.999 9        55.365 9  22028727.683 6         0.000 6      1969.091 6        37.977 6
G16  20502710.059 9 107742448.247 9       596.287 9        55.974 9  20502709.232 6         0.000 6       464.640 6        37.977 6
G26  20640434.295 9 108466192.116 9     -1439.415 9        55.879 9  20640437.106 6         0.000 6     -1121.622 6        37.977 6
G20  21968683.601 9 115446178.195 9      2591.608 9        55.306 9  21968683.937 6         0.000 6      2019.436 6        37.977 6
> 2019 07 03 12 00 10.0000000  0  8       0.000000000000
G07  25367713.934 9 133308190.200 9      2195.890 9        54.124 9  25367714.615 6         0.000 6      1711.084 6        37.977 6
G10  23842722.815 9 125294298.856 9      3553.451 9        54.657 9  23842726.574 6         0.000 6      2768.926 6        37.977 6
G21  21159192.819 9 111192288.113 9     -1246.534 9        55.714 9  21159192.103 6         0.000 6      -971.325 6        37.977 6
G29  24270443.363 9 127541984.822 9     -3143.778 9        54.485 9  24270444.906 6         0.000 6     -2449.700 6        37.977 6
G27  22028244.897 9 115759181.108 9      2526.729 9        55.365 9  22028246.838 6         0.000 6      1968.880 6        37.977 6
G16  20502596.649 9 107741852.273 9       595.666 9        55.974 9  20502595.822 6         0.000 6       464.156 6        37.977 6
G26  20640708.257 9 108467631.793 9     -1439.944 9        55.879 9  20640711.068 6         0.000 6     -1122.035 6        37.977 6
G20  21968190.470 9 115443586.778 9      2591.229 9        55.306 9  21968190.805 6         0.000 6      2019.141 6        37.977 6
> 2019 07 03 12 00 11.0000000  0  8       0.000000000000
G07  25367296.098 9 133305994.461 9      2195.691 9        54.125 9  25367296.779 6         0.000 6      1710.929 6        37.977 6
G10  23842046.644 9 125290745.563 9      3553.063 9        54.657 9  23842050.402 6         0.000 6      2768.623 6        37.977 6
G21  21159430.060 9 111193534.820 9     -1246.871 9        55.714 9  21159429.344 6         0.000 6      -971.588 6        37.977 6
G29  24271041.611 9 127545128.629 9     -3143.865 9        54.485 9  24271043.155 6         0.000 6     -2449.767 6        37.977 6
G27  22027764.097 9 115756654.489 9      2526.545 9        55.365 9  22027766.038 6         0.000 6      1968.737 6        37.977 6
G16  20502483.355 9 107741256.909 9       595.074 9        55.974 9  20502482.528 6         0.000 6       463.694 6        37.977 6
G26  20640982.331 9 108469072.059 9     -1440.632 9        55.879 9  20640985.142 6         0.000 6     -1122.571 6        37.977 6
G20  21967697.428 9 115440995.829 9      2590.611 9        55.306 9  21967697.763 6         0.000 6      2018.659 6        37.977 6
> 2019 07 03 12 00 12.0000000  0  8       0.000000000000
G07  25366878.256 9 133303798.694 9      2195.889 9        54.125 9  25366878.937 6         0.000 6      1711.083 6        37.977 6
G10  23841370.589 9 125287192.881 9      3552.279 9        54.658 9  23841374.347 6         0.000 6      2768.012 6        37.977 6
G21  21159667.358 9 111194781.830 9     -1247.148 9        55.714 9  21159666.642 6         0.000 6      -971.804 6        37.977 6
G29  24271639.878 9 127548272.531 9     -3143.958 9        54.485 9  24271641.422 6         0.000 6     -2449.840 6        37.977 6
G27  22027283.319 9 115754127.989 9      2526.460 9        55.365 9  22027285.260 6         0.000 6      1968.671 6        37.977 6
G16  20502370.169 9 107740662.110 9       594.517 9        55.974 9  20502369.342 6         0.000 6       463.260 6        37.977 6
G26  20641256.554 9 108470513.109 9     -1441.499 9        55.879 9  20641259.365 6         0.000 6     -1123.246 6        37.977 6
G20  21967204.533 9 115438405.650 9      2589.724 9        55.306 9  21967204.867 6         0.000 6      2017.968 6        37.977 6
> 2019 07 03 12 00 13.0000000  0  8       0.000000000000
G07  25366460.358 9 133301602.627 9      2196.272 9        54.125 9  25366461.039 6         0.000 6      1711.382 6        37.977 6
G10  23840694.703 9 125283641.088 9      3551.309 9        54.658 9  23840698.460 6         0.000 6      2767.257 6        37.977 6
G21  21159904.707 9 111196029.104 9     -1247.398 9        55.714 9  21159903.991 6         0.000 6      -971.999 6        37.977 6
G29  24272238.162 9 127551416.526 9     -3144.056 9        54.485 9  24272239.707 6         0.000 6     -2449.916 6        37.977 6
G27  22026802.554 9 115751601.554 9      2526.423 9        55.365 9  22026804.495 6         0.000 6      1968.642 6        37.977 6
G16  20502257.088 9 107740067.866 9       593.975 9        55.974 9  20502256.261 6         0.000 6       462.838 6        37.977 6
G26  20641530.951 9 108471955.078 9     -1442.450 9        55.879 9  20641533.763 6         0.000 6     -1123.987 6        37.977 6
G20  21966711.820 9 115435816.431 9      2588.710 9        55.307 9  21966712.154 6         0.000 6      2017.178 6        37.977 6
> 2019 07 03 12 00 14.0000000  0  8       0.000000000000
G07  25366042.380 9 133299406.139 9      2196.713 9        54.125 9  25366043.060 6         0.000 6      1711.726 6        37.977 6
G10  23840019.009 9 125280090.305 9      3550.280 9        54.658 9  23840022.766 6         0.000 6      2766.454 6        37.977 6
G21  21160142.103 9 111197276.626 9     -1247.641 9        55.714 9  21160141.386 6         0.000 6      -972.188 6        37.977 6
G29  24272836.465 9 127554560.621 9     -3144.153 9        54.485 9  24272838.011 6         0.000 6     -2449.992 6        37.977 6
G27  22026321.795 9 115749075.151 9      2526.395 9        55.366 9  22026323.735 6         0.000 6      1968.621 6        37.977 6
G16  20502144.110 9 107739474.165 9       593.434 9        55.974 9  20502143.283 6         0.000 6       462.416 6        37.977 6
G26  20641805.535 9 108473398.020 9     -1443.431 9        55.878 9  20641808.346 6         0.000 6     -1124.752 6        37.977 6
G20  21966219.305 9 115433228.255 9      2587.655 9        55.307 9  21966219.639 6         0.000 6      2016.356 6        37.977 6
> 2019 07 03 12 00 15.0000000  0  8       0.000000000000
G07  25365624.319 9 133297209.218 9      2197.108 9        54.125 9  25365624.999 6         0.000 6      1712.033 6        37.977 6
G10  23839343.510 9 125276540.542 9      3549.298 9        54.658 9  23839347.266 6         0.000 6      2765.689 6        37.977 6
G21  21160379.544 9 111198524.390 9     -1247.893 9        55.714 9  21160378.828 6         0.000 6      -972.384 6        37.977 6
G29  24273434.787 9 127557704.813 9     -3144.256 9        54.484 9  24273436.334 6         0.000 6     -2450.072 6        37.977 6
G27  22025841.041 9 115746548.773 9      2526.361 9        55.366 9  22025842.981 6         0.000 6      1968.594 6        37.977 6
G16  20502031.235 9 107738881.003 9       592.891 9        55.975 9  20502030.408 6         0.000 6       461.993 6        37.977 6
G26  20642080.303 9 108474841.937 9     -1444.390 9        55.878 9  20642083.115 6         0.000 6     -1125.499 6        37.977 6
G20  21965726.990 9 115430641.126 9      2586.631 9        55.307 9  21965727.324 6         0.000 6      2015.557 6        37.977 6
> 2019 07 03 12 00 16.0000000  0  8       0.000000000000
G07  25365206.197 9 133295011.977 9      2197.354 9        54.125 9  25365206.877 6         0.000 6      1712.225 6        37.977 6
G10  23838668.183 9 125272991.685 9      3548.464 9        54.659 9  23838671.938 6         0.000 6      2765.040 6        37.977 6
G21  21160617.035 9 111199772.414 9     -1248.161 9        55.713 9  21160616.319 6         0.000 6      -972.593 6        37.977 6
G29  24274033.128 9 127560849.106 9     -3144.349 9        54.484 9  24274034.675 6         0.000 6     -2450.145 6        37.977 6
G27  22025360.296 9 115744022.447 9      2526.288 9        55.366 9  22025362.237 6         0.000 6      1968.537 6        37.977 6
G16  20501918.464 9 107738288.388 9       592.335 9        55.975 9  20501917.638 6         0.000 6       461.560 6        37.977 6
G26  20642355.247 9 108476286.776 9     -1445.282 9        55.878 9  20642358.059 6         0.000 6     -1126.194 6        37.977 6
G20  21965234.860 9 115428054.970 9      2585.710 9        55.307 9  21965235.194 6         0.000 6      2014.840 6        37.977 6
> 2019 07 03 12 00 17.0000000  0  8       0.000000000000
G07  25364788.032 9 133292814.510 9      2197.554 9        54.125 9  25364788.712 6         0.000 6      1712.380 6        37.977 6
G10  23837993.011 9 125269443.641 9      3547.676 9        54.659 9  23837996.765 6         0.000 6      2764.426 6        37.977 6
G21  21160854.578 9 111201020.709 9     -1248.439 9        55.713 9  21160853.862 6         0.000 6      -972.810 6        37.977 6
G29  24274631.486 9 127563993.490 9     -3144.443 9        54.484 9  24274633.034 6         0.000 6     -2450.218 6        37.977 6
G27  22024879.567 9 115741496.202 9      2526.201 9        55.366 9  22024881.507 6         0.000 6      1968.469 6        37.977 6
G16  20501805.800 9 107737696.333 9       591.773 9        55.975 9  20501804.973 6         0.000 6       461.122 6        37.977 6
G26  20642630.360 9 108477732.499 9     -1446.154 9        55.878 9  20642633.171 6         0.000 6     -1126.874 6        37.977 6
G20  21964742.902 9 115425469.718 9      2584.820 9        55.307 9  21964743.236 6         0.000 6      2014.147 6        37.977 6
> 2019 07 03 12 00 18.0000000  0  8       0.000000000000
G07  25364369.853 9 133290616.966 9      2197.481 9        54.126 9  25364370.532 6         0.000 6      1712.324 6        37.977 6
G10  23837317.965 9 125265896.263 9      3547.163 9        54.659 9  23837321.719 6         0.000 6      2764.026 6        37.977 6
G21  21161092.177 9 111202269.300 9     -1248.755 9        55.713 9  21161091.461 6         0.000 6      -973.056 6        37.977 6
G29  24275229.863 9 127567137.971 9     -3144.536 9        54.484 9  24275231.411 6         0.000 6     -2450.290 6        37.977 6
G27  22024398.859 9 115738970.067 9      2526.055 9        55.366 9  22024400.799 6         0.000 6      1968.355 6        37.977 6
G16  20501693.243 9 107737104.845 9       591.194 9        55.975 9  20501692.417 6         0.000 6       460.670 6        37.977 6
G26  20642905.627 9 108479179.035 9     -1446.897 9        55.878 9  20642908.438 6         0.000 6     -1127.453 6        37.977 6
G20  21964251.098 9 115422885.274 9      2584.118 9        55.308 9  21964251.431 6         0.000 6      2013.599 6        37.977 6
> 2019 07 03 12 00 19.0000000  0  8       0.000000000000
G07  25363951.715 9 133288419.639 9      2196.644 9        54.126 9  25363952.394 6         0.000 6      1711.672 6        37.977 6
G10  23836642.989 9 125262349.249 9      3547.262 9        54.659 9  23836646.742 6         0.000 6      2764.103 6        37.977 6
G21  21161329.845 9 111203518.252 9     -1248.766 9        55.713 9  21161329.129 6         0.000 6      -973.065 6        37.977 6
G29  24275828.265 9 127570282.585 9     -3143.582 9        54.483 9  24275829.814 6         0.000 6     -2449.547 6        37.977 6
G27  22023918.182 9 115736444.092 9      2525.026 9        55.367 9  22023920.122 6         0.000 6      1967.554 6        37.977 6
G16  20501580.798 9 107736513.941 9       590.206 9        55.975 9  20501579.972 6         0.000 6       459.901 6        37.977 6
G26  20643181.021 9 108480626.243 9     -1447.613 9        55.878 9  20643183.833 6         0.000 6     -1128.010 6        37.977 6
G20  21963759.411 9 115420301.446 9      2584.129 9        55.308 9  21963759.744 6         0.000 6      2013.608 6        37.977 6
> 2019 07 03 12 00 20.0000000  0  8       0.000000000000
G07  25363534.046 9 133286224.779 9      2193.496 9        54.126 9  25363534.725 6         0.000 6      1709.219 6        37.977 6
G10  23835967.810 9 125258801.172 9      3548.452 9        54.660 9  23835971.562 6         0.000 6      2765.031 6        37.977 6
G21  21161567.210 9 111204765.613 9     -1245.779 9        55.713 9  21161566.494 6         0.000 6      -970.737 6        37.977 6
G29  24276425.615 9 127573421.670 9     -3134.315 9        54.483 9  24276427.165 6         0.000 6     -2442.326 6        37.977 6
G27  22023438.356 9 115733922.591 9      2517.878 9        55.367 9  22023440.295 6         0.000 6      1961.984 6        37.977 6
G16  20501468.855 9 107735925.676 9       586.254 9        55.975 9  20501468.028 6         0.000 6       456.821 6        37.977 6
G26  20643456.679 9 108482074.830 9     -1449.853 9        55.878 9  20643459.491 6         0.000 6     -1129.756 6        37.977 6
G20  21963267.349 9 115417715.649 9      2587.246 9        55.308 9  21963267.682 6         0.000 6      2016.037 6        37.977 6
> 2019 07 03 12 00 21.0000000  0  8       0.000000000000
G07  25363116.642 9 133284031.307 9      2194.335 9        54.126 9  25363117.320 6         0.000 6      1709.873 6        37.977 6
G10  23835292.746 9 125255253.697 9      3545.670 9        54.660 9  23835296.498 6         0.000 6      2762.863 6        37.977 6
G21  21161803.943 9 111206009.654 9     -1242.267 9        55.713 9  21161803.227 6         0.000 6      -968.000 6        37.977 6
G29  24277021.173 9 127576551.338 9     -3125.285 9        54.483 9  24277022.724 6         0.000 6     -2435.290 6        37.977 6
G27  22022959.830 9 115731407.927 9      2511.823 9        55.367 9  22022961.770 6         0.000 6      1957.265 6        37.977 6
G16  20501357.649 9 107735341.283 9       582.676 9        55.975 9  20501356.822 6         0.000 6       454.033 6        37.977 6
G26  20643732.927 9 108483526.525 9     -1453.875 9        55.878 9  20643735.739 6         0.000 6     -1132.890 6        37.977 6
G20  21962774.917 9 115415127.905 9      2587.605 9        55.308 9  21962775.249 6         0.000 6      2016.317 6        37.977 6
> 2019 07 03 12 00 22.0000000  0  8       0.000000000000
G07  25362698.357 9 133281833.209 9      2201.702 9        54.126 9  25362699.035 6         0.000 6      1715.613 6        37.977 6
G10  23834618.909 9 125251712.672 9      3536.789 9        54.660 9  23834622.660 6         0.000 6      2755.942 6        37.977 6
G21  21162039.970 9 111207249.981 9     -1239.006 9        55.713 9  21162039.254 6         0.000 6      -965.459 6        37.977 6
G29  24277615.194 9 127579672.926 9     -3119.385 9        54.483 9  24277616.745 6         0.000 6     -2430.692 6        37.977 6
G27  22022482.169 9 115728897.802 9      2509.389 9        55.367 9  22022484.108 6         0.000 6      1955.369 6        37.977 6
G16  20501247.011 9 107734759.877 9       580.624 9        55.975 9  20501246.184 6         0.000 6       452.435 6        37.977 6
G26  20644010.221 9 108484983.711 9     -1459.960 9        55.877 9  20644013.033 6         0.000 6     -1137.631 6        37.977 6
G20  21962282.941 9 115412542.558 9      2582.943 9        55.308 9  21962283.273 6         0.000 6      2012.684 6        37.977 6
> 2019 07 03 12 00 23.0000000  0  8       0.000000000000
G07  25362279.154 9 133279630.286 9      2203.483 9        54.126 9  25362279.832 6         0.000 6      1717.000 6        37.977 6
G10  23833946.188 9 125248177.509 9      3534.257 9        54.660 9  23833949.938 6         0.000 6      2753.970 6        37.977 6
G21  21162275.693 9 111208488.711 9     -1238.619 9        55.713 9  21162274.977 6         0.000 6      -965.158 6        37.977 6
G29  24278208.689 9 127582791.758 9     -3118.464 9        54.483 9  24278210.241 6         0.000 6     -2429.975 6        37.977 6
G27  22022004.682 9 115726388.593 9      2508.995 9        55.367 9  22022006.621 6         0.000 6      1955.062 6        37.977 6
G16  20501136.599 9 107734179.656 9       579.831 9        55.975 9  20501135.772 6         0.000 6       451.817 6        37.977 6
G26  20644288.262 9 108486444.823 9     -1461.895 9        55.877 9  20644291.074 6         0.000 6     -1139.140 6        37.977 6
G20  21961791.633 9 115409960.723 9      2581.165 9        55.309 9  21961791.965 6         0.000 6      2011.298 6        37.977 6
> 2019 07 03 12 00 24.0000000  0  8       0.000000000000
G07  25361859.863 9 133277426.901 9      2203.183 9        54.126 9  25361860.541 6         0.000 6      1716.767 6        37.977 6
G10  23833273.687 9 125244643.503 9      3533.889 9        54.661 9  23833277.437 6         0.000 6      2753.683 6        37.977 6
G21  21162511.401 9 111209727.368 9     -1238.741 9        55.713 9  21162510.685 6         0.000 6      -965.253 6        37.977 6
G29  24278802.067 9 127585909.966 9     -3118.019 9        54.482 9  24278803.619 6         0.000 6     -2429.628 6        37.977 6
G27  22021527.289 9 115723879.877 9      2508.441 9        55.368 9  22021529.227 6         0.000 6      1954.630 6        37.977 6
G16  20501026.334 9 107733600.214 9       579.052 9        55.975 9  20501025.507 6         0.000 6       451.209 6        37.977 6
G26  20644566.534 9 108487907.151 9     -1462.708 9        55.877 9  20644569.346 6         0.000 6     -1139.773 6        37.977 6
G20  21961300.502 9 115407379.817 9      2580.718 9        55.309 9  21961300.834 6         0.000 6      2010.950 6        37.977 6
> 2019 07 03 12 00 25.0000000  0  8       0.000000000000
G07  25361440.666 9 133275224.008 9      2202.613 9        54.127 9  25361441.343 6         0.000 6      1716.323 6        37.977 6
G10  23832601.217 9 125241109.662 9      3533.819 9        54.661 9  23832604.967 6         0.000 6      2753.628 6        37.977 6
G21  21162747.149 9 111210966.228 9     -1238.981 9        55.713 9  21162746.433 6         0.000 6      -965.440 6        37.977 6
G29  24279395.379 9 127589027.835 9     -3117.759 9        54.482 9  24279396.932 6         0.000 6     -2429.426 6        37.977 6
G27  22021049.997 9 115721371.695 9      2507.948 9        55.368 9  22021051.936 6         0.000 6      1954.246 6        37.977 6
G16  20500916.216 9 107733021.538 9       578.314 9        55.975 9  20500915.389 6         0.000 6       450.634 6        37.977 6
G26  20644844.939 9 108489370.179 9     -1463.338 9        55.877 9  20644847.752 6         0.000 6     -1140.264 6        37.977 6
G20  21960809.436 9 115404799.252 9      2580.420 9        55.309 9  21960809.767 6         0.000 6      2010.718 6        37.977 6
> 2019 07 03 12 00 26.0000000  0  8       0.000000000000
G07  25361021.574 9 133273021.673 9      2202.060 9        54.127 9  25361022.252 6         0.000 6      1715.892 6        37.977 6
G10  23831928.761 9 125237575.892 9      3533.748 9        54.661 9  23831932.510 6         0.000 6      2753.572 6        37.977 6
G21  21162982.945 9 111212205.348 9     -1239.272 9        55.712 9  21162982.230 6         0.000 6      -965.666 6        37.977 6
G29  24279988.655 9 127592145.508 9     -3117.623 9        54.482 9  24279990.208 6         0.000 6     -2429.319 6        37.977 6
G27  22020572.790 9 115718863.959 9      2507.538 9        55.368 9  22020574.729 6         0.000 6      1953.926 6        37.977 6
G16  20500806.233 9 107732443.576 9       577.614 9        55.975 9  20500805.407 6         0.000 6       450.089 6        37.977 6
G26  20645123.461 9 108490833.820 9     -1463.943 9        55.877 9  20645126.274 6         0.000 6     -1140.735 6        37.977 6
G20  21960318.430 9 115402219.003 9      2580.084 9        55.309 9  21960318.761 6         0.000 6      2010.457 6        37.977 6
> 2019 07 03 12 00 27.0000000  0  8       0.000000000000
G07  25360602.586 9 133270819.877 9      2201.544 9        54.127 9  25360603.263 6         0.000 6      1715.490 6        37.977 6
G10  23831256.320 9 125234042.201 9      3533.653 9        54.661 9  23831260.068 6         0.000 6      2753.499 6        37.977 6
G21  21163218.801 9 111213444.776 9     -1239.583 9        55.712 9  21163218.085 6         0.000 6      -965.909 6        37.977 6
G29  24280581.912 9 127595263.087 9     -3117.564 9        54.482 9  24280583.466 6         0.000 6     -2429.273 6        37.977 6
G27  22020095.656 9 115716356.603 9      2507.192 9        55.368 9  22020097.594 6         0.000 6      1953.657 6        37.977 6
G16  20500696.381 9 107731866.300 9       576.948 9        55.975 9  20500695.555 6         0.000 6       449.570 6        37.977 6
G26  20645402.097 9 108492298.060 9     -1464.534 9        55.877 9  20645404.910 6         0.000 6     -1141.196 6        37.977 6
G20  21959827.492 9 115399639.108 9      2579.713 9        55.309 9  21959827.822 6         0.000 6      2010.167 6        37.977 6
> 2019 07 03 12 00 28.0000000  0  8       0.000000000000
G07  25360183.694 9 133268618.590 9      2201.046 9        54.127 9  25360184.371 6         0.000 6      1715.102 6        37.977 6
G10  23830583.897 9 125230508.607 9      3533.547 9        54.662 9  23830587.645 6         0.000 6      2753.416 6        37.977 6
G21  21163454.717 9 111214684.521 9     -1239.915 9        55.712 9  21163454.001 6         0.000 6      -966.167 6        37.977 6
G29  24281175.163 9 127598380.632 9     -3117.557 9        54.482 9  24281176.718 6         0.000 6     -2429.268 6        37.977 6
G27  22019618.583 9 115713849.570 9      2506.884 9        55.368 9  22019620.521 6         0.000 6      1953.417 6        37.977 6
G16  20500586.654 9 107731289.677 9       576.298 9        55.975 9  20500585.827 6         0.000 6       449.064 6        37.977 6
G26  20645680.844 9 108493762.883 9     -1465.120 9        55.877 9  20645683.657 6         0.000 6     -1141.653 6        37.977 6
G20  21959336.625 9 115397059.591 9      2579.318 9        55.310 9  21959336.956 6         0.000 6      2009.859 6        37.977 6
> 2019 07 03 12 00 29.0000000  0  8       0.000000000000
G07  25359764.896 9 133266417.792 9      2200.562 9        54.127 9  25359765.572 6         0.000 6      1714.724 6        37.977 6
G10  23829911.496 9 125226975.127 9      3533.432 9        54.662 9  23829915.243 6         0.000 6      2753.326 6        37.977 6
G21  21163690.697 9 111215924.603 9     -1240.257 9        55.712 9  21163689.981 6         0.000 6      -966.434 6        37.977 6
G29  24281768.416 9 127601498.186 9     -3117.581 9        54.481 9  24281769.971 6         0.000 6     -2429.287 6        37.977 6
G27  22019141.566 9 115711342.835 9      2506.600 9        55.369 9  22019143.504 6         0.000 6      1953.196 6        37.977 6
G16  20500477.049 9 107730713.699 9       575.660 9        55.975 9  20500476.222 6         0.000 6       448.567 6        37.977 6
G26  20645959.702 9 108495228.293 9     -1465.703 9        55.877 9  20645962.515 6         0.000 6     -1142.107 6        37.977 6
G20  21958845.836 9 115394480.480 9      2578.908 9        55.310 9  21958846.166 6         0.000 6      2009.540 6        37.977 6
> 2019 07 03 12 00 30.0000000  0  8       0.000000000000
G07  25359346.178 9 133264217.421 9      2200.232 9        54.127 9  25359346.855 6         0.000 6      1714.467 6        37.977 6
G10  23829239.125 9 125223441.800 9      3533.213 9        54.662 9  23829242.871 6         0.000 6      2753.156 6        37.977 6
G21  21163926.750 9 111217165.071 9     -1240.714 9        55.712 9  21163926.034 6         0.000 6      -966.790 6        37.977 6
G29  24282361.698 9 127604615.894 9     -3117.952 9        54.481 9  24282363.254 6         0.000 6     -2429.576 6        37.977 6
G27  22018664.585 9 115708836.283 9      2506.585 9        55.369 9  22018666.522 6         0.000 6      1953.184 6        37.977 6
G16  20500367.556 9 107730138.312 9       575.151 9        55.975 9  20500366.729 6         0.000 6       448.170 6        37.977 6
G26  20646238.669 9 108496694.272 9     -1466.248 9        55.877 9  20646241.482 6         0.000 6     -1142.532 6        37.977 6
G20  21958355.136 9 115391901.842 9      2578.329 9        55.310 9  21958355.466 6         0.000 6      2009.089 6        37.977 6
> 2019 07 03 12 00 31.0000000  0  8       0.000000000000
G07  25358927.505 9 133262017.281 9      2200.064 9        54.127 9  25358928.181 6         0.000 6      1714.337 6        37.977 6
G10  23828566.808 9 125219908.761 9      3532.884 9        54.662 9  23828570.553 6         0.000 6      2752.899 6        37.977 6
G21  21164162.905 9 111218406.072 9     -1241.294 9        55.712 9  21164162.189 6         0.000 6      -967.242 6        37.977 6
G29  24282955.092 9 127607734.189 9     -3118.685 9        54.481 9  24282956.648 6         0.000 6     -2430.147 6        37.977 6
G27  22018187.574 9 115706329.579 9      2506.850 9        55.369 9  22018189.512 6         0.000 6      1953.390 6        37.977 6
G16  20500258.146 9 107729563.356 9       574.774 9        55.975 9  20500257.319 6         0.000 6       447.876 6        37.977 6
G26  20646517.736 9 108498160.777 9     -1466.757 9        55.876 9  20646520.549 6         0.000 6     -1142.928 6        37.977 6
G20  21957864.568 9 115389323.891 9      2577.573 9        55.310 9  21957864.897 6         0.000 6      2008.499 6        37.977 6
> 2019 07 03 12 00 32.0000000  0  8       0.000000000000
G07  25358508.887 9 133259817.434 9      2199.674 9        54.128 9  25358509.563 6         0.000 6      1714.032 6        37.977 6
G10  23827894.528 9 125216375.919 9      3532.780 9        54.663 9  23827898.273 6         0.000 6      2752.818 6        37.977 6
G21  21164399.176 9 111219647.686 9     -1241.911 9        55.712 9  21164398.461 6         0.000 6      -967.723 6        37.977 6
G29  24283548.632 9 127610853.255 9     -3119.423 9        54.481 9  24283550.189 6         0.000 6     -2430.722 6        37.977 6
G27  22017710.514 9 115703822.614 9      2507.066 9        55.369 9  22017712.452 6         0.000 6      1953.558 6        37.977 6
G16  20500148.806 9 107728988.773 9       574.382 9        55.975 9  20500147.979 6         0.000 6       447.570 6        37.977 6
G26  20646796.886 9 108499627.719 9     -1467.160 9        55.876 9  20646799.700 6         0.000 6     -1143.242 6        37.977 6
G20  21957374.128 9 115386746.618 9      2576.966 9        55.310 9  21957374.457 6         0.000 6      2008.027 6        37.977 6
> 2019 07 03 12 00 33.0000000  0  8       0.000000000000
G07  25358089.281 9 133257612.390 9      2211.386 9        54.128 9  25358089.957 6         0.000 6      1723.159 6        37.977 6
G10  23827223.318 9 125212848.699 9      3520.848 9        54.663 9  23827227.062 6         0.000 6      2743.520 6        37.977 6
G21  21164635.450 9 111220889.313 9     -1241.557 9        55.712 9  21164634.735 6         0.000 6      -967.447 6        37.977 6
G29  24284142.438 9 127613973.716 9     -3122.424 9        54.480 9  24284143.996 6         0.000 6     -2433.060 6        37.977 6
G27  22017233.082 9 115701313.695 9      2511.612 9        55.369 9  22017235.020 6         0.000 6      1957.101 6        37.977 6
G16  20500039.424 9 107728413.965 9       575.610 9        55.975 9  20500038.597 6         0.000 6       448.527 6        37.977 6
G26  20647076.572 9 108501097.473 9     -1472.516 9        55.876 9  20647079.385 6         0.000 6     -1147.415 6        37.977 6
G20  21956884.550 9 115384173.871 9      2567.717 9        55.311 9  21956884.879 6         0.000 6      2000.820 6        37.977 6
> 2019 07 03 12 00 34.0000000  0  8       0.000000000000
G07  25357667.202 9 133255394.355 9      2224.647 9        54.128 9  25357667.878 6         0.000 6      1733.492 6        37.977 6
G10  23826554.543 9 125209334.273 9      3508.232 9        54.663 9  23826558.287 6         0.000 6      2733.690 6        37.977 6
G21  21164871.838 9 111222131.540 9     -1243.351 9        55.712 9  21164871.123 6         0.000 6      -968.845 6        37.977 6
G29  24284737.357 9 127617100.025 9     -3131.310 9        54.480 9  24284738.915 6         0.000 6     -2439.984 6        37.977 6
G27  22016754.366 9 115698798.025 9      2520.455 9        55.369 9  22016756.303 6         0.000 6      1963.991 6        37.977 6
G16  20499929.609 9 107727836.883 9       578.915 9        55.975 9  20499928.782 6         0.000 6       451.103 6        37.977 6
G26  20647357.220 9 108502572.291 9     -1476.762 9        55.876 9  20647360.034 6         0.000 6     -1150.724 6        37.977 6
G20  21956396.997 9 115381611.766 9      2556.329 9        55.311 9  21956397.325 6         0.000 6      1991.946 6        37.977 6
> 2019 07 03 12 00 35.0000000  0  8       0.000000000000
G07  25357242.647 9 133253163.310 9      2234.585 9        54.128 9  25357243.323 6         0.000 6      1741.236 6        37.977 6
G10  23825888.013 9 125205831.644 9      3499.558 9        54.663 9  23825891.756 6         0.000 6      2726.931 6        37.977 6
G21  21165108.866 9 111223377.131 9     -1247.288 9        55.712 9  21165108.151 6         0.000 6      -971.913 6        37.977 6
G29  24285334.687 9 127620239.005 9     -3144.210 9        54.480 9  24285336.246 6         0.000 6     -2450.036 6        37.977 6
G27  22016273.495 9 115696271.034 9      2531.211 9        55.370 9  22016275.432 6         0.000 6      1972.373 6        37.977 6
G16  20499818.926 9 107727255.240 9       583.332 9        55.975 9  20499818.099 6         0.000 6       454.544 6        37.977 6
G26  20647638.428 9 108504050.048 9     -1478.194 9        55.876 9  20647641.242 6         0.000 6     -1151.840 6        37.977 6
G20  21955911.710 9 115379061.571 9      2546.466 9        55.311 9  21955912.038 6         0.000 6      1984.260 6        37.977 6
> 2019 07 03 12 00 36.0000000  0  8       0.000000000000
G07  25356817.291 9 133250928.051 9      2235.538 9        54.128 9  25356817.966 6         0.000 6      1741.978 6        37.977 6
G10  23825222.212 9 125202332.844 9      3498.362 9        54.664 9  23825225.954 6         0.000 6      2725.999 6        37.977 6
G21  21165346.344 9 111224625.087 9     -1248.387 9        55.712 9  21165345.629 6         0.000 6      -972.769 6        37.977 6
G29  24285933.313 9 127623384.795 9     -3146.664 9        54.480 9  24285934.872 6         0.000 6     -2451.948 6        37.977 6
G27  22015791.607 9 115693738.702 9      2532.883 9        55.370 9  22015793.544 6         0.000 6      1973.676 6        37.977 6
G16  20499707.871 9 107726671.641 9       583.602 9        55.976 9  20499707.044 6         0.000 6       454.755 6        37.977 6
G26  20647919.764 9 108505528.474 9     -1478.696 9        55.876 9  20647922.578 6         0.000 6     -1152.231 6        37.977 6
G20  21955427.347 9 115376516.230 9      2544.638 9        55.311 9  21955427.675 6         0.000 6      1982.836 6        37.977 6
> 2019 07 03 12 00 37.0000000  0  8       0.000000000000
G07  25356391.894 9 133248692.579 9      2235.354 9        54.128 9  25356392.569 6         0.000 6      1741.836 6        37.977 6
G10  23824556.535 9 125198834.698 9      3497.997 9        54.664 9  23824560.276 6         0.000 6      2725.714 6        37.977 6
G21  21165583.949 9 111225873.708 9     -1248.819 9        55.711 9  21165583.234 6         0.000 6      -973.106 6        37.977 6
G29  24286532.148 9 127626531.688 9     -3147.034 9        54.480 9  24286533.709 6         0.000 6     -2452.237 6        37.977 6
G27  22015309.607 9 115691205.775 9      2532.894 9        55.370 9  22015311.544 6         0.000 6      1973.685 6        37.977 6
G16  20499596.860 9 107726088.277 9       583.089 9        55.976 9  20499596.033 6         0.000 6       454.355 6        37.977 6
G26  20648201.210 9 108507007.480 9     -1479.321 9        55.876 9  20648204.024 6         0.000 6     -1152.718 6        37.977 6
G20  21954943.188 9 115373971.964 9      2543.966 9        55.311 9  21954943.516 6         0.000 6      1982.312 6        37.977 6
> 2019 07 03 12 00 38.0000000  0  8       0.000000000000
G07  25355966.552 9 133246457.395 9      2235.011 9        54.128 9  25355967.227 6         0.000 6      1741.568 6        37.977 6
G10  23823890.912 9 125195336.837 9      3497.754 9        54.664 9  23823894.652 6         0.000 6      2725.526 6        37.977 6
G21  21165821.625 9 111227122.702 9     -1249.176 9        55.711 9  21165820.910 6         0.000 6      -973.384 6        37.977 6
G29  24287131.020 9 127629678.772 9     -3147.156 9        54.479 9  24287132.581 6         0.000 6     -2452.332 6        37.977 6
G27  22014827.631 9 115688672.978 9      2532.702 9        55.370 9  22014829.567 6         0.000 6      1973.535 6        37.977 6
G16  20499485.959 9 107725505.490 9       582.481 9        55.976 9  20499485.133 6         0.000 6       453.882 6        37.977 6
G26  20648482.775 9 108508487.113 9     -1479.950 9        55.876 9  20648485.589 6         0.000 6     -1153.208 6        37.977 6
G20  21954459.137 9 115371428.263 9      2543.448 9        55.311 9  21954459.464 6         0.000 6      1981.908 6        37.977 6
> 2019 07 03 12 00 39.0000000  0  8       0.000000000000
G07  25355541.281 9 133244222.585 9      2234.617 9        54.129 9  25355541.956 6         0.000 6      1741.261 6        37.977 6
G10  23823225.330 9 125191839.191 9      3497.558 9        54.664 9  23823229.070 6         0.000 6      2725.373 6        37.977 6
G21  21166059.369 9 111228372.055 9     -1249.533 9        55.711 9  21166058.654 6         0.000 6      -973.662 6        37.977 6
G29  24287729.913 9 127632825.966 9     -3147.252 9        54.479 9  24287731.475 6         0.000 6     -2452.407 6        37.977 6
G27  22014345.695 9 115686140.391 9      2532.477 9        55.370 9  22014347.632 6         0.000 6      1973.360 6        37.977 6
G16  20499375.176 9 107724923.320 9       581.858 9        55.976 9  20499374.349 6         0.000 6       453.396 6        37.977 6
G26  20648764.459 9 108509967.370 9     -1480.566 9        55.875 9  20648767.273 6         0.000 6     -1153.688 6        37.977 6
G20  21953975.181 9 115368885.060 9      2542.967 9        55.312 9  21953975.508 6         0.000 6      1981.534 6        37.977 6
> 2019 07 03 12 00 40.0000000  0  8       0.000000000000
G07  25355116.086 9 133241988.175 9      2234.201 9        54.129 9  25355116.761 6         0.000 6      1740.937 6        37.977 6
G10  23822559.784 9 125188341.736 9      3497.386 9        54.665 9  23822563.524 6         0.000 6      2725.238 6        37.977 6
G21  21166297.182 9 111229621.768 9     -1249.886 9        55.711 9  21166296.467 6         0.000 6      -973.937 6        37.977 6
G29  24288328.825 9 127635973.257 9     -3147.344 9        54.479 9  24288330.387 6         0.000 6     -2452.479 6        37.977 6
G27  22013863.802 9 115683608.030 9      2532.250 9        55.371 9  22013865.739 6         0.000 6      1973.183 6        37.977 6
G16  20499264.512 9 107724341.775 9       581.237 9        55.976 9  20499263.685 6         0.000 6       452.912 6        37.977 6
G26  20649046.259 9 108511448.240 9     -1481.167 9        55.875 9  20649049.073 6         0.000 6     -1154.157 6        37.977 6
G20  21953491.315 9 115366342.335 9      2542.505 9        55.312 9  21953491.642 6         0.000 6      1981.174 6        37.977 6
> 2019 07 03 12 00 41.0000000  0  8       0.000000000000
G07  25354690.973 9 133239754.193 9      2233.773 9        54.129 9  25354691.647 6         0.000 6      1740.604 6        37.977 6
G10  23821894.269 9 125184844.440 9      3497.225 9        54.665 9  23821898.008 6         0.000 6      2725.113 6        37.977 6
G21  21166535.061 9 111230871.830 9     -1250.243 9        55.711 9  21166534.346 6         0.000 6      -974.215 6        37.977 6
G29  24288927.753 9 127639120.636 9     -3147.438 9        54.479 9  24288929.316 6         0.000 6     -2452.552 6        37.977 6
G27  22013381.954 9 115681075.900 9      2532.020 9        55.371 9  22013383.889 6         0.000 6      1973.003 6        37.977 6
G16  20499153.965 9 107723760.850 9       580.616 9        55.976 9  20499153.139 6         0.000 6       452.428 6        37.977 6
G26  20649328.173 9 108512929.703 9     -1481.764 9        55.875 9  20649330.987 6         0.000 6     -1154.621 6        37.977 6
G20  21953007.536 9 115363800.060 9      2542.050 9        55.312 9  21953007.862 6         0.000 6      1980.819 6        37.977 6
> 2019 07 03 12 00 42.0000000  0  8       0.000000000000
G07  25354265.941 9 133237520.639 9      2233.333 9        54.129 9  25354266.615 6         0.000 6      1740.260 6        37.977 6
G10  23821228.784 9 125181347.304 9      3497.075 9        54.665 9  23821232.522 6         0.000 6      2724.996 6        37.977 6
G21  21166773.008 9 111232122.250 9     -1250.603 9        55.711 9  21166772.293 6         0.000 6      -974.496 6        37.977 6
G29  24289526.699 9 127642268.108 9     -3147.528 9        54.479 9  24289528.262 6         0.000 6     -2452.622 6        37.977 6
G27  22012900.148 9 115678543.999 9      2531.782 9        55.371 9  22012902.084 6         0.000 6      1972.818 6        37.977 6
G16  20499043.537 9 107723180.546 9       579.988 9        55.976 9  20499042.710 6         0.000 6       451.939 6        37.977 6
G26  20649610.200 9 108514411.763 9     -1482.359 9        55.875 9  20649613.014 6         0.000 6     -1155.085 6        37.977 6
G20  21952523.843 9 115361258.240 9      2541.602 9        55.312 9  21952524.169 6         0.000 6      1980.470 6        37.977 6
> 2019 07 03 12 00 43.0000000  0  8       0.000000000000
G07  25353840.994 9 133235287.531 9      2232.889 9        54.129 9  25353841.668 6         0.000 6      1739.915 6        37.977 6
G10  23820563.327 9 125177850.313 9      3496.929 9        54.665 9  23820567.064 6         0.000 6      2724.882 6        37.977 6
G21  21167011.024 9 111233373.032 9     -1250.961 9        55.711 9  21167010.309 6         0.000 6      -974.775 6        37.977 6
G29  24290125.662 9 127645415.671 9     -3147.619 9        54.478 9  24290127.226 6         0.000 6     -2452.692 6        37.977 6
G27  22012418.389 9 115676012.338 9      2531.546 9        55.371 9  22012420.324 6         0.000 6      1972.634 6        37.977 6
G16  20498933.229 9 107722600.870 9       579.363 9        55.976 9  20498932.402 6         0.000 6       451.452 6        37.977 6
G26  20649892.339 9 108515894.415 9     -1482.949 9        55.875 9  20649895.154 6         0.000 6     -1155.545 6        37.977 6
G20  21952040.234 9 115358716.865 9      2541.158 9        55.312 9  21952040.560 6         0.000 6      1980.124 6        37.977 6
> 2019 07 03 12 00 44.0000000  0  8       0.000000000000
G07  25353416.132 9 133233054.869 9      2232.424 9        54.129 9  25353416.805 6         0.000 6      1739.552 6        37.977 6
G10  23819897.897 9 125174353.469 9      3496.805 9        54.666 9  23819901.634 6         0.000 6      2724.786 6        37.977 6
G21  21167249.109 9 111234624.178 9     -1251.322 9        55.711 9  21167248.394 6         0.000 6      -975.056 6        37.977 6
G29  24290724.644 9 127648563.331 9     -3147.711 9        54.478 9  24290726.209 6         0.000 6     -2452.765 6        37.977 6
G27  22011936.674 9 115673480.913 9      2531.307 9        55.371 9  22011938.609 6         0.000 6      1972.448 6        37.977 6
G16  20498823.039 9 107722021.822 9       578.740 9        55.976 9  20498822.212 6         0.000 6       450.966 6        37.977 6
G26  20650174.592 9 108517377.660 9     -1483.527 9        55.875 9  20650177.406 6         0.000 6     -1155.995 6        37.977 6
G20  21951556.711 9 115356175.937 9      2540.730 9        55.313 9  21951557.036 6         0.000 6      1979.790 6        37.977 6
> 2019 07 03 12 00 45.0000000  0  8       0.000000000000
G07  25352991.387 9 133230822.825 9      2231.609 9        54.129 9  25352992.061 6         0.000 6      1738.917 6        37.977 6
G10  23819232.462 9 125170856.593 9      3497.029 9        54.666 9  23819236.198 6         0.000 6      2724.960 6        37.977 6
G21  21167487.267 9 111235875.703 9     -1251.742 9        55.711 9  21167486.552 6         0.000 6      -975.383 6        37.977 6
G29  24291323.642 9 127651711.074 9     -3147.796 9        54.478 9  24291325.207 6         0.000 6     -2452.831 6        37.977 6
G27  22011455.012 9 115670949.767 9      2530.977 9        55.372 9  22011456.948 6         0.000 6      1972.191 6        37.977 6
G16  20498712.971 9 107721443.408 9       578.082 9        55.976 9  20498712.144 6         0.000 6       450.454 6        37.977 6
G26  20650456.940 9 108518861.412 9     -1483.950 9        55.875 9  20650459.755 6         0.000 6     -1156.325 6        37.977 6
G20  21951073.248 9 115353635.330 9      2540.534 9        55.313 9  21951073.574 6         0.000 6      1979.638 6        37.977 6
> 2019 07 03 12 00 46.0000000  0  8       0.000000000000
G07  25352566.827 9 133228591.747 9      2230.548 9        54.130 9  25352567.500 6         0.000 6      1738.090 6        37.977 6
G10  23818566.955 9 125167359.341 9      3497.501 9        54.666 9  23818570.690 6         0.000 6      2725.328 6        37.977 6
G21  21167725.508 9 111237127.669 9     -1252.193 9        55.711 9  21167724.793 6         0.000 6      -975.735 6        37.977 6
G29  24291922.655 9 127654858.903 9     -3147.877 9        54.478 9  24291924.221 6         0.000 6     -2452.894 6        37.977 6
G27  22010973.420 9 115668418.982 9      2530.591 9        55.372 9  22010975.355 6         0.000 6      1971.890 6        37.977 6
G16  20498603.029 9 107720865.659 9       577.412 9        55.976 9  20498602.202 6         0.000 6       449.932 6        37.977 6
G26  20650739.355 9 108520345.511 9     -1484.253 9        55.875 9  20650742.170 6         0.000 6     -1156.561 6        37.977 6
G20  21950589.803 9 115351094.814 9      2540.510 9        55.313 9  21950590.129 6         0.000 6      1979.620 6        37.977 6
> 2019 07 03 12 00 47.0000000  0  8       0.000000000000
G07  25352142.382 9 133226361.276 9      2231.651 9        54.130 9  25352143.054 6         0.000 6      1738.950 6        37.977 6
G10  23817901.415 9 125163861.916 9      3496.621 9        54.666 9  23817905.150 6         0.000 6      2724.642 6        37.977 6
G21  21167963.904 9 111238380.447 9     -1254.547 9        55.710 9  21167963.189 6         0.000 6      -977.569 6        37.977 6
G29  24292521.885 9 127658007.866 9     -3153.458 9        54.477 9  24292523.452 6         0.000 6     -2457.243 6        37.977 6
G27  22010491.747 9 115665887.777 9      2534.381 9        55.372 9  22010493.682 6         0.000 6      1974.843 6        37.977 6
G16  20498493.141 9 107720288.197 9       578.739 9        55.976 9  20498492.314 6         0.000 6       450.965 6        37.977 6
G26  20651021.806 9 108521829.797 9     -1483.844 9        55.875 9  20651024.621 6         0.000 6     -1156.242 6        37.977 6
G20  21950106.459 9 115348554.825 9      2538.002 9        55.313 9  21950106.784 6         0.000 6      1977.665 6        37.977 6
> 2019 07 03 12 00 48.0000000  0  8       0.000000000000
G07  25351717.626 9 133224129.175 9      2231.439 9        54.130 9  25351718.299 6         0.000 6      1738.785 6        37.977 6
G10  23817235.991 9 125160365.100 9      3498.076 9        54.667 9  23817239.725 6         0.000 6      2725.776 6        37.977 6
G21  21168203.149 9 111239637.688 9     -1259.890 9        55.710 9  21168202.434 6         0.000 6      -981.733 6        37.977 6
G29  24293123.199 9 127661167.781 9     -3165.842 9        54.477 9  24293124.766 6         0.000 6     -2466.893 6        37.977 6
G27  22010008.647 9 115663349.073 9      2542.404 9        55.372 9  22010010.582 6         0.000 6      1981.095 6        37.977 6
G16  20498382.651 9 107719707.568 9       582.258 9        55.976 9  20498381.824 6         0.000 6       453.707 6        37.977 6
G26  20651303.905 9 108523312.234 9     -1480.679 9        55.874 9  20651306.720 6         0.000 6     -1153.776 6        37.977 6
G20  21949623.849 9 115346018.696 9      2535.126 9        55.313 9  21949624.173 6         0.000 6      1975.424 6        37.977 6
> 2019 07 03 12 00 49.0000000  0  8       0.000000000000
G07  25351293.696 9 133221901.411 9      2222.070 9        54.130 9  25351294.368 6         0.000 6      1731.484 6        37.977 6
G10  23816569.547 9 125156862.921 9      3508.209 9        54.667 9  23816573.280 6         0.000 6      2733.672 6        37.977 6
G21  21168443.409 9 111240900.261 9     -1265.229 9        55.710 9  21168442.694 6         0.000 6      -985.893 6        37.977 6
G29  24293726.561 9 127664338.459 9     -3174.665 9        54.477 9  24293728.129 6         0.000 6     -2473.768 6        37.977 6
G27  22009524.409 9 115660804.387 9      2545.918 9        55.372 9  22009526.343 6         0.000 6      1983.833 6        37.977 6
G16  20498271.648 9 107719124.242 9       583.960 9        55.976 9  20498270.821 6         0.000 6       455.034 6        37.977 6
G26  20651585.127 9 108524790.066 9     -1474.312 9        55.874 9  20651587.943 6         0.000 6     -1148.815 6        37.977 6
G20  21949141.196 9 115343482.342 9      2539.121 9        55.314 9  21949141.520 6         0.000 6      1978.537 6        37.977 6
> 2019 07 03 12 00 50.0000000  0  8       0.000000000000
G07  25350871.455 9 133219682.524 9      2216.996 9        54.130 9  25350872.127 6         0.000 6      1727.530 6        37.977 6
G10  23815901.386 9 125153351.725 9      3512.856 9        54.667 9  23815905.119 6         0.000 6      2737.293 6        37.977 6
G21  21168684.349 9 111242166.410 9     -1266.709 9        55.710 9  21168683.634 6         0.000 6      -987.046 6        37.977 6
G29  24294330.813 9 127667513.815 9     -3175.677 9        54.477 9  24294332.381 6         0.000 6     -2474.556 6        37.977 6
G27  22009040.007 9 115658258.844 9      2545.212 9        55.373 9  22009041.942 6         0.000 6      1983.283 6        37.977 6
G16  20498160.580 9 107718540.574 9       583.331 9        55.976 9  20498159.753 6         0.000 6       454.544 6        37.977 6
G26  20651865.431 9 108526263.069 9     -1472.425 9        55.874 9  20651868.246 6         0.000 6     -1147.344 6        37.977 6
G20  21948657.701 9 115340941.566 9      2541.642 9        55.314 9  21948658.025 6         0.000 6      1980.502 6        37.977 6
> 2019 07 03 12 00 51.0000000  0  8       0.000000000000
G07  25350449.703 9 133217466.203 9      2215.898 9        54.130 9  25350450.374 6         0.000 6      1726.675 6        37.977 6
G10  23815232.837 9 125149838.489 9      3513.391 9        54.667 9  23815236.570 6         0.000 6      2737.710 6        37.977 6
G21  21168925.451 9 111243433.411 9     -1267.246 9        55.710 9  21168924.737 6         0.000 6      -987.465 6        37.977 6
G29  24294935.149 9 127670689.610 9     -3175.922 9        54.477 9  24294936.718 6         0.000 6     -2474.747 6        37.977 6
G27  22008555.702 9 115655713.807 9      2544.920 9        55.373 9  22008557.637 6         0.000 6      1983.055 6        37.977 6
G16  20498049.635 9 107717957.558 9       582.718 9        55.976 9  20498048.809 6         0.000 6       454.066 6        37.977 6
G26  20652145.634 9 108527735.547 9     -1472.650 9        55.874 9  20652148.450 6         0.000 6     -1147.520 6        37.977 6
G20  21948174.031 9 115338399.864 9      2541.608 9        55.314 9  21948174.354 6         0.000 6      1980.475 6        37.977 6
> 2019 07 03 12 00 52.0000000  0  8       0.000000000000
G07  25350028.078 9 133215250.555 9      2215.424 9        54.130 9  25350028.750 6         0.000 6      1726.306 6        37.977 6
G10  23814564.269 9 125146325.149 9      3513.291 9        54.667 9  23814568.001 6         0.000 6      2737.632 6        37.977 6
G21  21169166.641 9 111244700.871 9     -1267.663 9        55.710 9  21169165.926 6         0.000 6      -987.790 6        37.977 6
G29  24295539.526 9 127673865.624 9     -3176.112 9        54.476 9  24295541.095 6         0.000 6     -2474.895 6        37.977 6
G27  22008071.438 9 115653168.982 9      2544.734 9        55.373 9  22008073.372 6         0.000 6      1982.910 6        37.977 6
G16  20497938.804 9 107717375.136 9       582.127 9        55.976 9  20497937.977 6         0.000 6       453.605 6        37.977 6
G26  20652425.920 9 108529208.459 9     -1473.188 9        55.874 9  20652428.736 6         0.000 6     -1147.939 6        37.977 6
G20  21947690.420 9 115335858.481 9      2541.160 9        55.314 9  21947690.744 6         0.000 6      1980.126 6        37.977 6
> 2019 07 03 12 00 53.0000000  0  8       0.000000000000
G07  25349606.537 9 133213035.345 9      2214.999 9        54.131 9  25349607.208 6         0.000 6      1725.974 6        37.977 6
G10  23813895.727 9 125142811.945 9      3513.137 9        54.668 9  23813899.458 6         0.000 6      2737.512 6        37.977 6
G21  21169407.907 9 111245968.729 9     -1268.059 9        55.710 9  21169407.192 6         0.000 6      -988.098 6        37.977 6
G29  24296143.935 9 127677041.806 9     -3176.268 9        54.476 9  24296145.505 6         0.000 6     -2475.017 6        37.977 6
G27  22007587.209 9 115650624.344 9      2544.537 9        55.373 9  22007589.143 6         0.000 6      1982.757 6        37.977 6
G16  20497828.085 9 107716793.304 9       581.528 9        55.976 9  20497827.258 6         0.000 6       453.139 6        37.977 6
G26  20652706.312 9 108530681.926 9     -1473.758 9        55.874 9  20652709.128 6         0.000 6     -1148.383 6        37.977 6
G20  21947206.899 9 115333317.561 9      2540.686 9        55.314 9  21947207.222 6         0.000 6      1979.757 6        37.977 6
> 2019 07 03 12 00 54.0000000  0  8       0.000000000000
G07  25349185.078 9 133210820.567 9      2214.568 9        54.131 9  25349185.749 6         0.000 6      1725.638 6        37.977 6
G10  23813227.213 9 125139298.891 9      3512.986 9        54.668 9  23813230.943 6         0.000 6      2737.394 6        37.977 6
G21  21169649.247 9 111247236.978 9     -1268.444 9        55.710 9  21169648.532 6         0.000 6      -988.398 6        37.977 6
G29  24296748.372 9 127680218.134 9     -3176.403 9        54.476 9  24296749.943 6         0.000 6     -2475.122 6        37.977 6
G27  22007103.019 9 115648079.911 9      2544.328 9        55.373 9  22007104.952 6         0.000 6      1982.594 6        37.977 6
G16  20497717.481 9 107716212.074 9       580.925 9        55.976 9  20497716.654 6         0.000 6       452.669 6        37.977 6
G26  20652986.813 9 108532155.964 9     -1474.330 9        55.874 9  20652989.628 6         0.000 6     -1148.829 6        37.977 6
G20  21946723.466 9 115330777.110 9      2540.221 9        55.314 9  21946723.789 6         0.000 6      1979.394 6        37.977 6
> 2019 07 03 12 00 55.0000000  0  8       0.000000000000
G07  25348763.701 9 133208606.219 9      2214.129 9        54.131 9  25348764.372 6         0.000 6      1725.296 6        37.977 6
G10  23812558.728 9 125135785.992 9      3512.840 9        54.668 9  23812562.458 6         0.000 6      2737.280 6        37.977 6
G21  21169890.659 9 111248505.607 9     -1268.823 9        55.710 9  21169889.944 6         0.000 6      -988.693 6        37.977 6
G29  24297352.832 9 127683394.580 9     -3176.517 9        54.476 9  24297354.403 6         0.000 6     -2475.211 6        37.977 6
G27  22006618.871 9 115645535.699 9      2544.101 9        55.373 9  22006620.804 6         0.000 6      1982.417 6        37.977 6
G16  20497606.992 9 107715631.453 9       580.313 9        55.976 9  20497606.166 6         0.000 6       452.192 6        37.977 6
G26  20653267.423 9 108533630.580 9     -1474.906 9        55.874 9  20653270.239 6         0.000 6     -1149.277 6        37.977 6
G20  21946240.121 9 115328237.121 9      2539.765 9        55.315 9  21946240.444 6         0.000 6      1979.038 6        37.977 6
> 2019 07 03 12 00 56.0000000  0  8       0.000000000000
G07  25348342.408 9 133206392.313 9      2213.690 9        54.131 9  25348343.079 6         0.000 6      1724.954 6        37.977 6
G10  23811890.271 9 125132273.237 9      3512.691 9        54.668 9  23811894.000 6         0.000 6      2737.165 6        37.977 6
G21  21170132.144 9 111249774.619 9     -1269.202 9        55.710 9  21170131.429 6         0.000 6      -988.989 6        37.977 6
G29  24297957.313 9 127686571.141 9     -3176.626 9        54.476 9  24297958.885 6         0.000 6     -2475.296 6        37.977 6
G27  22006134.766 9 115642991.717 9      2543.869 9        55.374 9  22006136.700 6         0.000 6      1982.236 6        37.977 6
G16  20497496.621 9 107715051.449 9       579.696 9        55.976 9  20497495.794 6         0.000 6       451.711 6        37.977 6
G26  20653548.143 9 108535105.774 9     -1475.486 9        55.873 9  20653550.959 6         0.000 6     -1149.730 6        37.977 6
G20  21945756.864 9 115325697.590 9      2539.307 9        55.315 9  21945757.186 6         0.000 6      1978.682 6        37.977 6
> 2019 07 03 12 00 57.0000000  0  8       0.000000000000
G07  25347921.200 9 133204178.855 9      2213.226 9        54.131 9  25347921.871 6         0.000 6      1724.592 6        37.977 6
G10  23811221.841 9 125128760.622 9      3512.561 9        54.669 9  23811225.569 6         0.000 6      2737.063 6        37.977 6
G21  21170373.700 9 111251044.003 9     -1269.562 9        55.709 9  21170372.985 6         0.000 6      -989.269 6        37.977 6
G29  24298561.813 9 127689747.801 9     -3176.683 9        54.475 9  24298563.386 6         0.000 6     -2475.340 6        37.977 6
G27  22005650.707 9 115640447.972 9      2543.598 9        55.374 9  22005652.641 6         0.000 6      1982.025 6        37.977 6
G16  20497386.367 9 107714472.061 9       579.062 9        55.977 9  20497385.540 6         0.000 6       451.217 6        37.977 6
G26  20653828.973 9 108536581.543 9     -1476.069 9        55.873 9  20653831.789 6         0.000 6     -1150.184 6        37.977 6
G20  21945273.691 9 115323158.506 9      2538.877 9        55.315 9  21945274.013 6         0.000 6      1978.347 6        37.977 6
> 2019 07 03 12 00 58.0000000  0  8       0.000000000000
G07  25347500.096 9 133201965.941 9      2212.582 9        54.131 9  25347500.766 6         0.000 6      1724.090 6        37.977 6
G10  23810553.425 9 125125248.084 9      3512.554 9        54.669 9  23810557.153 6         0.000 6      2737.058 6        37.977 6
G21  21170615.313 9 111252313.687 9     -1269.786 9        55.709 9  21170614.598 6         0.000 6      -989.444 6        37.977 6
G29  24299166.290 9 127692924.337 9     -3176.347 9        54.475 9  24299167.863 6         0.000 6     -2475.078 6        37.977 6
G27  22005166.727 9 115637904.639 9      2543.026 9        55.374 9  22005168.660 6         0.000 6      1981.579 6        37.977 6
G16  20497276.247 9 107713893.374 9       578.288 9        55.977 9  20497275.420 6         0.000 6       450.614 6        37.977 6
G26  20654109.918 9 108538057.915 9     -1476.687 9        55.873 9  20654112.734 6         0.000 6     -1150.665 6        37.977 6
G20  21944790.584 9 115320619.765 9      2538.644 9        55.315 9  21944790.906 6         0.000 6      1978.166 6        37.977 6
> 2019 07 03 12 00 59.0000000  0  8       0.000000000000
G07  25347079.111 9 133199753.656 9      2212.535 9        54.131 9  25347079.782 6         0.000 6      1724.054 6        37.977 6
G10  23809885.018 9 125121735.592 9      3511.918 9        54.669 9  23809888.745 6         0.000 6      2736.562 6        37.977 6
G21  21170856.958 9 111253583.543 9     -1269.851 9        55.709 9  21170856.244 6         0.000 6      -989.494 6        37.977 6
G29  24299770.677 9 127696100.404 9     -3175.843 9        54.475 9  24299772.252 6         0.000 6     -2474.685 6        37.977 6
G27  22004682.872 9 115635361.967 9      2542.477 9        55.374 9  22004684.805 6         0.000 6      1981.152 6        37.977 6
G16  20497166.283 9 107713315.511 9       577.492 9        55.977 9  20497165.456 6         0.000 6       449.994 6        37.977 6
G26  20654390.991 9 108539534.960 9     -1477.645 9        55.873 9  20654393.807 6         0.000 6     -1151.412 6        37.977 6
G20  21944307.519 9 115318081.246 9      2538.034 9        55.315 9  21944307.841 6         0.000 6      1977.690 6        37.977 6
> 2019 07 03 12 01  0.0000000  0  8       0.000000000000
G07  25346659.020 9 133197546.064 9      2200.813 9        54.132 9  25346659.690 6         0.000 6      1714.920 6        37.977 6
G10  23809215.856 9 125118219.133 9      3522.742 9        54.669 9  23809219.582 6         0.000 6      2744.996 6        37.977 6
G21  21171098.721 9 111254854.012 9     -1271.019 9        55.709 9  21171098.006 6         0.000 6      -990.404 6        37.977 6
G29  24300374.880 9 127699275.499 9     -3173.480 9        54.475 9  24300376.455 6         0.000 6     -2472.844 6        37.977 6
G27  22004199.386 9 115632821.234 9      2537.975 9        55.374 9  22004201.319 6         0.000 6      1977.644 6        37.977 6
G16  20497056.559 9 107712738.908 9       575.297 9        55.977 9  20497055.732 6         0.000 6       448.283 6        37.977 6
G26  20654671.855 9 108541010.911 9     -1473.664 9        55.873 9  20654674.671 6         0.000 6     -1148.310 6        37.977 6
G20  21943823.955 9 115315540.104 9      2545.672 9        55.316 9  21943824.276 6         0.000 6      1983.642 6        37.977 6
> 2019 07 03 12 01  1.0000000  0  8       0.000000000000
G07  25346241.620 9 133195352.617 9      2186.212 9        54.132 9  25346242.290 6         0.000 6      1703.543 6        37.977 6
G10  23808544.255 9 125114689.858 9      3535.547 9        54.670 9  23808547.981 6         0.000 6      2754.974 6        37.977 6
G21  21171340.549 9 111256124.829 9     -1270.163 9        55.709 9  21171339.835 6         0.000 6      -989.738 6        37.977 6
G29  24300978.072 9 127702445.285 9     -3165.052 9        54.474 9  24300979.647 6         0.000 6     -2466.277 6        37.977 6
G27  22003717.237 9 115630287.528 9      2528.764 9        55.375 9  22003719.170 6         0.000 6      1970.466 6        37.977 6
G16  20496947.471 9 107712165.646 9       570.878 9        55.977 9  20496946.644 6         0.000 6       444.840 6        37.977 6
G26  20654951.920 9 108542482.659 9     -1470.229 9        55.873 9  20654954.736 6         0.000 6     -1145.633 6        37.977 6
G20  21943338.522 9 115312989.140 9      2556.376 9        55.316 9  21943338.843 6         0.000 6      1991.983 6        37.977 6
> 2019 07 03 12 01  2.0000000  0  8       0.000000000000
G07  25345826.980 9 133193173.672 9      2174.237 9        54.132 9  25345827.650 6         0.000 6      1694.212 6        37.977 6
G10  23807870.351 9 125111148.481 9      3544.925 9        54.670 9  23807874.077 6         0.000 6      2762.282 6        37.977 6
G21  21171581.897 9 111257393.117 9     -1266.737 9        55.709 9  21171581.182 6         0.000 6      -987.068 6        37.977 6
G29  24301578.892 9 127705602.602 9     -3151.378 9        54.474 9  24301580.467 6         0.000 6     -2455.622 6        37.977 6
G27  22003237.348 9 115627765.698 9      2516.675 9        55.375 9  22003239.281 6         0.000 6      1961.046 6        37.977 6
G16  20496839.480 9 107711598.149 9       564.878 9        55.977 9  20496838.653 6         0.000 6       440.164 6        37.977 6
G26  20655231.581 9 108543952.288 9     -1469.685 9        55.873 9  20655234.398 6         0.000 6     -1145.210 6        37.977 6
G20  21942850.922 9 115310426.792 9      2566.269 9        55.316 9  21942851.243 6         0.000 6      1999.692 6        37.977 6
> 2019 07 03 12 01  3.0000000  0  8       0.000000000000
G07  25345413.477 9 133191000.701 9      2172.200 9        54.132 9  25345414.146 6         0.000 6      1692.624 6        37.977 6
G10  23807195.642 9 125107602.871 9      3545.955 9        54.670 9  23807199.367 6         0.000 6      2763.085 6        37.977 6
G21  21171822.873 9 111258659.458 9     -1266.217 9        55.709 9  21171822.159 6         0.000 6      -986.663 6        37.977 6
G29  24302178.239 9 127708752.187 9     -3148.664 9        54.474 9  24302179.816 6         0.000 6     -2453.507 6        37.977 6
G27  22002758.742 9 115625250.607 9      2514.196 9        55.375 9  22002760.674 6         0.000 6      1959.115 6        37.977 6
G16  20496732.176 9 107711034.263 9       563.218 9        55.977 9  20496731.349 6         0.000 6       438.871 6        37.977 6
G26  20655511.324 9 108545422.345 9     -1470.390 9        55.873 9  20655514.141 6         0.000 6     -1145.759 6        37.977 6
G20  21942362.423 9 115307859.716 9      2567.406 9        55.316 9  21942362.744 6         0.000 6      2000.577 6        37.977 6
> 2019 07 03 12 01  4.0000000  0  8       0.000000000000
G07  25345000.194 9 133188828.889 9      2171.490 9        54.132 9  25345000.863 6         0.000 6      1692.071 6        37.977 6
G10  23806520.859 9 125104056.873 9      3546.022 9        54.670 9  23806524.583 6         0.000 6      2763.137 6        37.977 6
G21  21172063.849 9 111259925.792 9     -1266.490 9        55.709 9  21172063.135 6         0.000 6      -986.875 6        37.977 6
G29  24302777.375 9 127711900.655 9     -3148.411 9        54.474 9  24302778.952 6         0.000 6     -2453.310 6        37.977 6
G27  22002280.365 9 115622736.724 9      2513.670 9        55.375 9  22002282.297 6         0.000 6      1958.704 6        37.977 6
G16  20496625.074 9 107710471.438 9       562.477 9        55.977 9  20496624.247 6         0.000 6       438.294 6        37.977 6
G26  20655791.183 9 108546893.015 9     -1470.942 9        55.873 9  20655794.000 6         0.000 6     -1146.189 6        37.977 6
G20  21941873.877 9 115305292.391 9      2567.192 9        55.316 9  21941874.197 6         0.000 6      2000.411 6        37.977 6
> 2019 07 03 12 01  5.0000000  0  8       0.000000000000
G07  25344587.025 9 133186657.676 9      2170.956 9        54.132 9  25344587.694 6         0.000 6      1691.655 6        37.977 6
G10  23805846.079 9 125100510.888 9      3545.958 9        54.671 9  23805849.802 6         0.000 6      2763.087 6        37.977 6
G21  21172304.888 9 111261192.462 9     -1266.856 9        55.709 9  21172304.174 6         0.000 6      -987.161 6        37.977 6
G29  24303376.500 9 127715049.069 9     -3148.459 9        54.474 9  24303378.078 6         0.000 6     -2453.347 6        37.977 6
G27  22001802.059 9 115620223.208 9      2513.386 9        55.375 9  22001803.990 6         0.000 6      1958.483 6        37.977 6
G16  20496518.099 9 107709909.279 9       561.851 9        55.977 9  20496517.272 6         0.000 6       437.806 6        37.977 6
G26  20656071.146 9 108548364.225 9     -1471.481 9        55.872 9  20656073.963 6         0.000 6     -1146.609 6        37.977 6
G20  21941385.392 9 115302725.390 9      2566.805 9        55.317 9  21941385.712 6         0.000 6      2000.109 6        37.977 6
> 2019 07 03 12 01  6.0000000  0  8       0.000000000000
G07  25344173.953 9 133184486.969 9      2170.460 9        54.132 9  25344174.621 6         0.000 6      1691.269 6        37.977 6
G10  23805171.315 9 125096964.993 9      3545.857 9        54.671 9  23805175.038 6         0.000 6      2763.008 6        37.977 6
G21  21172545.999 9 111262459.508 9     -1267.233 9        55.709 9  21172545.285 6         0.000 6      -987.454 6        37.977 6
G29  24303975.640 9 127718197.561 9     -3148.535 9        54.473 9  24303977.219 6         0.000 6     -2453.407 6        37.977 6
G27  22001323.801 9 115617709.951 9      2513.126 9        55.376 9  22001325.733 6         0.000 6      1958.280 6        37.977 6
G16  20496411.241 9 107709347.736 9       561.232 9        55.977 9  20496410.414 6         0.000 6       437.324 6        37.977 6
G26  20656351.212 9 108549835.981 9     -1472.034 9        55.872 9  20656354.029 6         0.000 6     -1147.040 6        37.977 6
G20  21940896.986 9 115300158.804 9      2566.383 9        55.317 9  21940897.305 6         0.000 6      1999.780 6        37.977 6
> 2019 07 03 12 01  7.0000000  0  8       0.000000000000
G07  25343760.975 9 133182316.760 9      2169.980 9        54.133 9  25343761.643 6         0.000 6      1690.894 6        37.977 6
G10  23804496.571 9 125093419.197 9      3545.744 9        54.671 9  23804500.292 6         0.000 6      2762.920 6        37.977 6
G21  21172787.181 9 111263726.928 9     -1267.608 9        55.708 9  21172786.467 6         0.000 6      -987.747 6        37.977 6
G29  24304574.794 9 127721346.124 9     -3148.620 9        54.473 9  24304576.373 6         0.000 6     -2453.473 6        37.977 6
G27  22000845.594 9 115615196.958 9      2512.878 9        55.376 9  22000847.526 6         0.000 6      1958.087 6        37.977 6
G16  20496304.501 9 107708786.813 9       560.621 9        55.977 9  20496303.674 6         0.000 6       436.847 6        37.977 6
G26  20656631.383 9 108551308.290 9     -1472.588 9        55.872 9  20656634.201 6         0.000 6     -1147.471 6        37.977 6
G20  21940408.660 9 115297592.637 9      2565.951 9        55.317 9  21940408.979 6         0.000 6      1999.444 6        37.977 6
> 2019 07 03 12 01  8.0000000  0  8       0.000000000000
G07  25343348.086 9 133180147.019 9      2169.505 9        54.133 9  25343348.754 6         0.000 6      1690.525 6        37.977 6
G10  23803821.850 9 125089873.524 9      3545.623 9        54.671 9  23803825.571 6         0.000 6      2762.825 6        37.977 6
G21  21173028.434 9 111264994.720 9     -1267.981 9        55.708 9  21173027.720 6         0.000 6      -988.037 6        37.977 6
G29  24305173.964 9 127724494.776 9     -3148.700 9        54.473 9  24305175.544 6         0.000 6     -2453.535 6        37.977 6
G27  22000367.432 9 115612684.205 9      2512.625 9        55.376 9  22000369.364 6         0.000 6      1957.891 6        37.977 6
G16  20496197.876 9 107708226.496 9       560.005 9        55.977 9  20496197.049 6         0.000 6       436.368 6        37.977 6
G26  20656911.660 9 108552781.153 9     -1473.149 9        55.872 9  20656914.478 6         0.000 6     -1147.909 6        37.977 6
G20  21939920.417 9 115295026.907 9      2565.515 9        55.317 9  21939920.736 6         0.000 6      1999.103 6        37.977 6
> 2019 07 03 12 01  9.0000000  0  8       0.000000000000
G07  25342935.287 9 133177977.750 9      2169.040 9        54.133 9  25342935.955 6         0.000 6      1690.162 6        37.977 6
G10  23803147.153 9 125086327.979 9      3545.492 9        54.672 9  23803150.873 6         0.000 6      2762.724 6        37.977 6
G21  21173269.759 9 111266262.887 9     -1268.355 9        55.708 9  21173269.045 6         0.000 6      -988.329 6        37.977 6
G29  24305773.149 9 127727643.501 9     -3148.783 9        54.473 9  24305774.729 6         0.000 6     -2453.600 6        37.977 6
G27  21999889.320 9 115610171.711 9      2512.378 9        55.376 9  21999891.252 6         0.000 6      1957.698 6        37.977 6
G16  20496091.370 9 107707666.802 9       559.391 9        55.977 9  20496090.543 6         0.000 6       435.889 6        37.977 6
G26  20657192.046 9 108554254.587 9     -1473.713 9        55.872 9  20657194.863 6         0.000 6     -1148.348 6        37.977 6
G20  21939432.258 9 115292461.620 9      2565.071 9        55.317 9  21939432.577 6         0.000 6      1998.758 6        37.977 6
> 2019 07 03 12 01 10.0000000  0  8       0.000000000000
G07  25342522.577 9 133175808.943 9      2168.578 9        54.133 9  25342523.244 6         0.000 6      1689.802 6        37.977 6
G10  23802472.481 9 125082782.564 9      3545.358 9        54.672 9  23802476.201 6         0.000 6      2762.619 6        37.977 6
G21  21173511.153 9 111267531.424 9     -1268.725 9        55.708 9  21173510.439 6         0.000 6      -988.617 6        37.977 6
G29  24306372.350 9 127730792.315 9     -3148.861 9        54.473 9  24306373.931 6         0.000 6     -2453.660 6        37.977 6
G27  21999411.254 9 115607659.457 9      2512.128 9        55.376 9  21999413.185 6         0.000 6      1957.503 6        37.977 6
G16  20495984.979 9 107707107.714 9       558.777 9        55.977 9  20495984.152 6         0.000 6       435.411 6        37.977 6
G26  20657472.537 9 108555728.577 9     -1474.279 9        55.872 9  20657475.355 6         0.000 6     -1148.789 6        37.977 6
G20  21938944.183 9 115289896.775 9      2564.627 9        55.318 9  21938944.502 6         0.000 6      1998.411 6        37.977 6
> 2019 07 03 12 01 11.0000000  0  8       0.000000000000
G07  25342109.954 9 133173640.599 9      2168.122 9        54.133 9  25342110.621 6         0.000 6      1689.447 6        37.977 6
G10  23801797.835 9 125079237.286 9      3545.220 9        54.672 9  23801801.554 6         0.000 6      2762.512 6        37.977 6
G21  21173752.620 9 111268800.337 9     -1269.092 9        55.708 9  21173751.906 6         0.000 6      -988.903 6        37.977 6
G29  24306971.566 9 127733941.207 9     -3148.943 9        54.472 9  24306973.148 6         0.000 6     -2453.724 6        37.977 6
G27  21998933.235 9 115605147.456 9      2511.886 9        55.377 9  21998935.166 6         0.000 6      1957.314 6        37.977 6
G16  20495878.706 9 107706549.247 9       558.168 9        55.977 9  20495877.879 6         0.000 6       434.936 6        37.977 6
G26  20657753.138 9 108557203.141 9     -1474.843 9        55.872 9  20657755.955 6         0.000 6     -1149.229 6        37.977 6
G20  21938456.194 9 115287332.379 9      2564.179 9        55.318 9  21938456.512 6         0.000 6      1998.063 6        37.977 6
> 2019 07 03 12 01 12.0000000  0  8       0.000000000000
G07  25341697.411 9 133171472.676 9      2167.798 9        54.133 9  25341698.078 6         0.000 6      1689.194 6        37.977 6
G10  23801123.221 9 125075692.180 9      3544.946 9        54.672 9  23801126.940 6         0.000 6      2762.298 6        37.977 6
G21  21173994.155 9 111270069.611 9     -1269.444 9        55.708 9  21173993.441 6         0.000 6      -989.177 6        37.977 6
G29  24307570.799 9 127737090.183 9     -3149.026 9        54.472 9  24307572.381 6         0.000 6     -2453.789 6        37.977 6
G27  21998455.261 9 115602635.689 9      2511.670 9        55.377 9  21998457.192 6         0.000 6      1957.146 6        37.977 6
G16  20495772.548 9 107705991.384 9       557.562 9        55.977 9  20495771.721 6         0.000 6       434.464 6        37.977 6
G26  20658033.848 9 108558678.283 9     -1475.476 9        55.872 9  20658036.666 6         0.000 6     -1149.722 6        37.977 6
G20  21937968.294 9 115284768.452 9      2563.639 9        55.318 9  21937968.612 6         0.000 6      1997.642 6        37.977 6
> 2019 07 03 12 01 13.0000000  0  8       0.000000000000
G07  25341284.893 9 133169304.880 9      2167.838 9        54.133 9  25341285.560 6         0.000 6      1689.225 6        37.977 6
G10  23800448.698 9 125072147.544 9      3544.309 9        54.673 9  23800452.416 6         0.000 6      2761.802 6        37.977 6
G21  21174235.750 9 111271339.205 9     -1269.741 9        55.708 9  21174235.037 6         0.000 6      -989.409 6        37.977 6
G29  24308170.047 9 127740239.247 9     -3149.123 9        54.472 9  24308171.630 6         0.000 6     -2453.864 6        37.977 6
G27  21997977.319 9 115600124.086 9      2511.548 9        55.377 9  21997979.249 6         0.000 6      1957.051 6        37.977 6
G16  20495666.503 9 107705434.111 9       556.985 9        55.977 9  20495665.676 6         0.000 6       434.014 6        37.977 6
G26  20658314.696 9 108560154.148 9     -1476.277 9        55.871 9  20658317.514 6         0.000 6     -1150.346 6        37.977 6
G20  21937480.523 9 115282205.199 9      2562.850 9        55.318 9  21937480.840 6         0.000 6      1997.027 6        37.977 6
> 2019 07 03 12 01 14.0000000  0  8       0.000000000000
G07  25340872.431 9 133167137.384 9      2165.886 9        54.134 9  25340873.098 6         0.000 6      1687.704 6        37.977 6
G10  23799774.255 9 125068603.334 9      3544.906 9        54.673 9  23799777.972 6         0.000 6      2762.267 6        37.977 6
G21  21174477.346 9 111272608.796 9     -1268.255 9        55.708 9  21174476.632 6         0.000 6      -988.251 6        37.977 6
G29  24308769.151 9 127743387.546 9     -3144.114 9        54.472 9  24308770.735 6         0.000 6     -2449.961 6        37.977 6
G27  21997499.523 9 115597613.255 9      2507.573 9        55.377 9  21997501.453 6         0.000 6      1953.954 6        37.977 6
G16  20495560.626 9 107704877.725 9       554.566 9        55.977 9  20495559.799 6         0.000 6       432.129 6        37.977 6
G26  20658595.718 9 108561630.924 9     -1477.743 9        55.871 9  20658598.536 6         0.000 6     -1151.488 6        37.977 6
G20  21936992.827 9 115279642.346 9      2564.354 9        55.318 9  21936993.144 6         0.000 6      1998.199 6        37.977 6
> 2019 07 03 12 01 15.0000000  0  8       0.000000000000
G07  25340460.473 9 133164972.533 9      2165.024 9        54.134 9  25340461.139 6         0.000 6      1687.032 6        37.977 6
G10  23799099.732 9 125065058.702 9      3543.260 9        54.673 9  23799103.448 6         0.000 6      2760.985 6        37.977 6
G21  21174718.225 9 111273874.627 9     -1263.458 9        55.708 9  21174717.512 6         0.000 6      -984.513 6        37.977 6
G29  24309366.200 9 127746525.049 9     -3131.504 9        54.471 9  24309367.784 6         0.000 6     -2440.136 6        37.977 6
G27  21997023.246 9 115595110.407 9      2498.802 9        55.377 9  21997025.177 6         0.000 6      1947.119 6        37.977 6
G16  20495455.588 9 107704325.750 9       549.661 9        55.977 9  20495454.762 6         0.000 6       428.307 6        37.977 6
G26  20658877.304 9 108563110.669 9     -1482.137 9        55.871 9  20658880.122 6         0.000 6     -1154.912 6        37.977 6
G20  21936504.552 9 115277076.450 9      2566.526 9        55.319 9  21936504.869 6         0.000 6      1999.891 6        37.977 6
> 2019 07 03 12 01 16.0000000  0  8       0.000000000000
G07  25340047.865 9 133162804.267 9      2173.617 9        54.134 9  25340048.531 6         0.000 6      1693.728 6        37.977 6
G10  23798426.290 9 125061519.753 9      3532.681 9        54.673 9  23798430.006 6         0.000 6      2752.741 6        37.977 6
G21  21174958.199 9 111275135.698 9     -1258.691 9        55.708 9  21174957.486 6         0.000 6      -980.798 6        37.977 6
G29  24309961.186 9 127749651.712 9     -3122.702 9        54.471 9  24309962.771 6         0.000 6     -2433.277 6        37.977 6
G27  21996548.226 9 115592614.159 9      2494.766 9        55.377 9  21996550.156 6         0.000 6      1943.974 6        37.977 6
G16  20495351.320 9 107703777.815 9       546.639 9        55.977 9  20495350.493 6         0.000 6       425.953 6        37.977 6
G26  20659160.009 9 108564596.291 9     -1489.831 9        55.871 9  20659162.827 6         0.000 6     -1160.908 6        37.977 6
G20  21936016.477 9 115274511.601 9      2561.608 9        55.319 9  21936016.794 6         0.000 6      1996.060 6        37.977 6
> 2019 07 03 12 01 17.0000000  0  8       0.000000000000
G07  25339633.700 9 133160627.819 9      2177.948 9        54.134 9  25339634.366 6         0.000 6      1697.103 6        37.977 6
G10  23797754.661 9 125057990.328 9      3527.593 9        54.674 9  23797758.376 6         0.000 6      2748.777 6        37.977 6
G21  21175197.610 9 111276393.808 9     -1257.919 9        55.707 9  21175196.896 6         0.000 6      -980.197 6        37.977 6
G29  24310555.303 9 127752773.811 9     -3121.921 9        54.471 9  24310556.889 6         0.000 6     -2432.668 6        37.977 6
G27  21996073.455 9 115590119.222 9      2495.066 9        55.378 9  21996075.384 6         0.000 6      1944.208 6        37.977 6
G16  20495247.360 9 107703231.499 9       546.036 9        55.977 9  20495246.533 6         0.000 6       425.483 6        37.977 6
G26  20659443.885 9 108566088.065 9     -1492.963 9        55.871 9  20659446.703 6         0.000 6     -1163.348 6        37.977 6
G20  21935529.433 9 115271952.171 9      2558.086 9        55.319 9  21935529.749 6         0.000 6      1993.315 6        37.977 6
> 2019 07 03 12 01 18.0000000  0  8       0.000000000000
G07  25339219.206 9 133158449.643 9      2178.165 9        54.134 9  25339219.872 6         0.000 6      1697.273 6        37.977 6
G10  23797083.486 9 125054463.291 9      3526.756 9        54.674 9  23797087.201 6         0.000 6      2748.125 6        37.977 6
G21  21175437.000 9 111277651.810 9     -1258.126 9        55.707 9  21175436.286 6         0.000 6      -980.358 6        37.977 6
G29  24311149.382 9 127755895.705 9     -3121.901 9        54.471 9  24311150.968 6         0.000 6     -2432.653 6        37.977 6
G27  21995598.669 9 115587624.212 9      2494.916 9        55.378 9  21995600.599 6         0.000 6      1944.091 6        37.977 6
G16  20495143.510 9 107702685.766 9       545.426 9        55.977 9  20495142.683 6         0.000 6       425.007 6        37.977 6
G26  20659728.087 9 108567581.556 9     -1493.894 9        55.871 9  20659730.905 6         0.000 6     -1164.074 6        37.977 6
G20  21935042.745 9 115269394.616 9      2557.202 9        55.319 9  21935043.061 6         0.000 6      1992.626 6        37.977 6
> 2019 07 03 12 01 19.0000000  0  8       0.000000000000
G07  25338804.753 9 133156271.679 9      2177.742 9        54.134 9  25338805.418 6         0.000 6      1696.943 6        37.977 6
G10  23796412.387 9 125050936.653 9      3526.570 9        54.674 9  23796416.101 6         0.000 6      2747.979 6        37.977 6
G21  21175676.444 9 111278910.095 9     -1258.450 9        55.707 9  21175675.730 6         0.000 6      -980.611 6        37.977 6
G29  24311743.461 9 127759017.602 9     -3121.916 9        54.471 9  24311745.048 6         0.000 6     -2432.664 6        37.977 6
G27  21995123.928 9 115585129.434 9      2494.642 9        55.378 9  21995125.858 6         0.000 6      1943.877 6        37.977 6
G16  20495039.779 9 107702140.659 9       544.790 9        55.978 9  20495038.953 6         0.000 6       424.511 6        37.977 6
G26  20660012.425 9 108569075.763 9     -1494.507 9        55.871 9  20660015.244 6         0.000 6     -1164.551 6        37.977 6
G20  21934556.171 9 115266837.655 9      2556.746 9        55.319 9  21934556.487 6         0.000 6      1992.271 6        37.977 6
> 2019 07 03 12 01 20.0000000  0  8       0.000000000000
G07  25338390.388 9 133154094.181 9      2177.268 9        54.134 9  25338391.053 6         0.000 6      1696.574 6        37.977 6
G10  23795741.315 9 125047410.156 9      3526.436 9        54.674 9  23795745.028 6         0.000 6      2747.875 6        37.977 6
G21  21175915.952 9 111280168.716 9     -1258.794 9        55.707 9  21175915.238 6         0.000 6      -980.878 6        37.977 6
G29  24312337.545 9 127762139.524 9     -3121.954 9        54.470 9  24312339.133 6         0.000 6     -2432.694 6        37.977 6
G27  21994649.240 9 115582634.934 9      2494.368 9        55.378 9  21994651.170 6         0.000 6      1943.664 6        37.977 6
G16  20494936.170 9 107701596.188 9       544.155 9        55.978 9  20494935.343 6         0.000 6       424.017 6        37.977 6
G26  20660296.876 9 108570570.559 9     -1495.091 9        55.871 9  20660299.694 6         0.000 6     -1165.007 6        37.977 6
G20  21934069.679 9 115264281.125 9      2556.318 9        55.319 9  21934069.994 6         0.000 6      1991.937 6        37.977 6
> 2019 07 03 12 01 21.0000000  0  8       0.000000000000
G07  25337976.113 9 133151917.155 9      2176.796 9        54.135 9  25337976.778 6         0.000 6      1696.206 6        37.977 6
G10  23795070.269 9 125043883.794 9      3526.304 9        54.675 9  23795073.981 6         0.000 6      2747.772 6        37.977 6
G21  21176155.525 9 111281427.683 9     -1259.145 9        55.707 9  21176154.812 6         0.000 6      -981.152 6        37.977 6
G29  24312931.639 9 127765261.495 9     -3122.013 9        54.470 9  24312933.227 6         0.000 6     -2432.740 6        37.977 6
G27  21994174.602 9 115580140.699 9      2494.111 9        55.378 9  21994176.532 6         0.000 6      1943.463 6        37.977 6
G16  20494832.680 9 107701052.346 9       543.528 9        55.978 9  20494831.853 6         0.000 6       423.528 6        37.977 6
G26  20660581.437 9 108572065.934 9     -1495.669 9        55.871 9  20660584.255 6         0.000 6     -1165.457 6        37.977 6
G20  21933583.268 9 115261725.025 9      2555.884 9        55.320 9  21933583.583 6         0.000 6      1991.599 6        37.977 6
> 2019 07 03 12 01 22.0000000  0  8       0.000000000000
G07  25337561.927 9 133149740.599 9      2176.325 9        54.135 9  25337562.592 6         0.000 6      1695.838 6        37.977 6
G10  23794399.248 9 125040357.566 9      3526.173 9        54.675 9  23794402.960 6         0.000 6      2747.670 6        37.977 6
G21  21176395.166 9 111282687.002 9     -1259.496 9        55.707 9  21176394.452 6         0.000 6      -981.426 6        37.977 6
G29  24313525.744 9 127768383.530 9     -3122.077 9        54.470 9  24313527.333 6         0.000 6     -2432.790 6        37.977 6
G27  21993700.013 9 115577646.717 9      2493.858 9        55.379 9  21993701.942 6         0.000 6      1943.267 6        37.977 6
G16  20494729.310 9 107700509.129 9       542.905 9        55.978 9  20494728.483 6         0.000 6       423.043 6        37.977 6
G26  20660866.107 9 108573561.888 9     -1496.242 9        55.870 9  20660868.926 6         0.000 6     -1165.903 6        37.977 6
G20  21933096.941 9 115259169.361 9      2555.452 9        55.320 9  21933097.256 6         0.000 6      1991.262 6        37.977 6
> 2019 07 03 12 01 23.0000000  0  8       0.000000000000
G07  25337147.831 9 133147564.511 9      2175.858 9        54.135 9  25337148.496 6         0.000 6      1695.475 6        37.977 6
G10  23793728.253 9 125036831.473 9      3526.036 9        54.675 9  23793731.964 6         0.000 6      2747.563 6        37.977 6
G21  21176634.874 9 111283946.676 9     -1259.852 9        55.707 9  21176634.160 6         0.000 6      -981.703 6        37.977 6
G29  24314119.862 9 127771505.629 9     -3122.147 9        54.470 9  24314121.451 6         0.000 6     -2432.844 6        37.977 6
G27  21993225.472 9 115575152.990 9      2493.607 9        55.379 9  21993227.401 6         0.000 6      1943.071 6        37.977 6
G16  20494626.058 9 107699966.539 9       542.281 9        55.978 9  20494625.231 6         0.000 6       422.557 6        37.977 6
G26  20661150.888 9 108575058.420 9     -1496.820 9        55.870 9  20661153.707 6         0.000 6     -1166.354 6        37.977 6
G20  21932610.696 9 115256614.134 9      2555.012 9        55.320 9  21932611.011 6         0.000 6      1990.919 6        37.977 6
> 2019 07 03 12 01 24.0000000  0  8       0.000000000000
G07  25336733.824 9 133145388.891 9      2175.394 9        54.135 9  25336734.488 6         0.000 6      1695.113 6        37.977 6
G10  23793057.283 9 125033305.516 9      3525.899 9        54.675 9  23793060.994 6         0.000 6      2747.456 6        37.977 6
G21  21176874.650 9 111285206.710 9     -1260.209 9        55.707 9  21176873.937 6         0.000 6      -981.981 6        37.977 6
G29  24314713.995 9 127774627.808 9     -3122.226 9        54.470 9  24314715.585 6         0.000 6     -2432.906 6        37.977 6
G27  21992750.978 9 115572659.507 9      2493.366 9        55.379 9  21992752.906 6         0.000 6      1942.883 6        37.977 6
G16  20494522.925 9 107699424.570 9       541.663 9        55.978 9  20494522.098 6         0.000 6       422.075 6        37.977 6
G26  20661435.779 9 108576555.527 9     -1497.394 9        55.870 9  20661438.598 6         0.000 6     -1166.801 6        37.977 6
G20  21932124.536 9 115254059.350 9      2554.570 9        55.320 9  21932124.851 6         0.000 6      1990.575 6        37.977 6
> 2019 07 03 12 01 25.0000000  0  8       0.000000000000
G07  25336319.897 9 133143213.697 9      2175.044 9        54.135 9  25336320.562 6         0.000 6      1694.841 6        37.977 6
G10  23792386.344 9 125029779.718 9      3525.683 9        54.676 9  23792390.054 6         0.000 6      2747.288 6        37.977 6
G21  21177114.499 9 111286467.123 9     -1260.652 9        55.707 9  21177113.786 6         0.000 6      -982.327 6        37.977 6
G29  24315308.157 9 127777750.145 9     -3122.555 9        54.469 9  24315309.748 6         0.000 6     -2433.162 6        37.977 6
G27  21992276.517 9 115570166.202 9      2493.314 9        55.379 9  21992278.445 6         0.000 6      1942.843 6        37.977 6
G16  20494419.903 9 107698883.186 9       541.133 9        55.978 9  20494419.076 6         0.000 6       421.662 6        37.977 6
G26  20661720.776 9 108578053.195 9     -1497.945 9        55.870 9  20661723.595 6         0.000 6     -1167.231 6        37.977 6
G20  21931638.467 9 115251505.043 9      2554.003 9        55.320 9  21931638.781 6         0.000 6      1990.133 6        37.977 6
> 2019 07 03 12 01 26.0000000  0  8       0.000000000000
G07  25335906.038 9 133141038.856 9      2174.137 9        54.135 9  25335906.702 6         0.000 6      1694.133 6        37.977 6
G10  23791715.441 9 125026254.106 9      3526.067 9        54.676 9  23791719.150 6         0.000 6      2747.588 6        37.977 6
G21  21177354.447 9 111287728.055 9     -1261.287 9        55.707 9  21177353.734 6         0.000 6      -982.821 6        37.977 6
G29  24315902.417 9 127780872.990 9     -3123.132 9        54.469 9  24315904.008 6         0.000 6     -2433.612 6        37.977 6
G27  21991802.043 9 115567672.830 9      2493.300 9        55.379 9  21991803.972 6         0.000 6      1942.832 6        37.977 6
G16  20494316.970 9 107698342.271 9       540.655 9        55.978 9  20494316.143 6         0.000 6       421.290 6        37.977 6
G26  20662005.867 9 108579551.357 9     -1498.148 9        55.870 9  20662008.686 6         0.000 6     -1167.388 6        37.977 6
G20  21931152.511 9 115248951.335 9      2553.768 9        55.321 9  21931152.826 6         0.000 6      1989.950 6        37.977 6
> 2019 07 03 12 01 27.0000000  0  8       0.000000000000
G07  25335491.387 9 133138859.856 9      2185.579 9        54.135 9  25335492.051 6         0.000 6      1703.050 6        37.977 6
G10  23791045.416 9 125022733.115 9      3514.364 9        54.676 9  23791049.125 6         0.000 6      2738.468 6        37.977 6
G21  21177594.405 9 111288989.042 9     -1260.802 9        55.706 9  21177593.692 6         0.000 6      -982.443 6        37.977 6
G29  24316496.901 9 127783997.011 9     -3125.887 9        54.469 9  24316498.492 6         0.000 6     -2435.759 6        37.977 6
G27  21991327.273 9 115565177.897 9      2497.603 9        55.380 9  21991329.201 6         0.000 6      1946.185 6        37.977 6
G16  20494214.031 9 107697801.320 9       541.674 9        55.978 9  20494213.204 6         0.000 6       422.084 6        37.977 6
G26  20662291.422 9 108581051.956 9     -1503.568 9        55.870 9  20662294.241 6         0.000 6     -1171.612 6        37.977 6
G20  21930667.272 9 115246401.390 9      2544.803 9        55.321 9  21930667.586 6         0.000 6      1982.965 6        37.977 6
> 2019 07 03 12 01 28.0000000  0  8       0.000000000000
G07  25335074.140 9 133136667.209 9      2199.566 9        54.136 9  25335074.804 6         0.000 6      1713.948 6        37.977 6
G10  23790377.950 9 125019225.566 9      3501.079 9        54.676 9  23790381.658 6         0.000 6      2728.116 6        37.977 6
G21  21177834.450 9 111290250.489 9     -1262.575 9        55.706 9  21177833.737 6         0.000 6      -983.825 6        37.977 6
G29  24317092.509 9 127787126.944 9     -3135.101 9        54.469 9  24317094.101 6         0.000 6     -2442.938 6        37.977 6
G27  21990851.188 9 115562676.059 9      2506.773 9        55.380 9  21990853.116 6         0.000 6      1953.330 6        37.977 6
G16  20494110.670 9 107697258.158 9       545.010 9        55.978 9  20494109.844 6         0.000 6       424.683 6        37.977 6
G26  20662578.019 9 108582558.034 9     -1508.167 9        55.870 9  20662580.838 6         0.000 6     -1175.195 6        37.977 6
G20  21930184.133 9 115243862.480 9      2532.928 9        55.321 9  21930184.446 6         0.000 6      1973.711 6        37.977 6
> 2019 07 03 12 01 29.0000000  0  8       0.000000000000
G07  25334654.296 9 133134460.915 9      2210.182 9        54.136 9  25334654.959 6         0.000 6      1722.221 6        37.977 6
G10  23789712.832 9 125015730.358 9      3491.870 9        54.677 9  23789716.539 6         0.000 6      2720.940 6        37.977 6
G21  21178075.153 9 111291515.392 9     -1266.763 9        55.706 9  21178074.440 6         0.000 6      -987.088 6        37.977 6
G29  24317690.621 9 127790270.036 9     -3148.825 9        54.469 9  24317692.214 6         0.000 6     -2453.632 6        37.977 6
G27  21990372.876 9 115560162.511 9      2518.149 9        55.380 9  21990374.803 6         0.000 6      1962.194 6        37.977 6
G16  20494006.426 9 107696710.349 9       549.656 9        55.978 9  20494005.599 6         0.000 6       428.303 6        37.977 6
G26  20662865.221 9 108584067.288 9     -1509.717 9        55.870 9  20662868.040 6         0.000 6     -1176.403 6        37.977 6
G20  21929703.347 9 115241335.938 9      2522.499 9        55.321 9  21929703.660 6         0.000 6      1965.584 6        37.977 6
> 2019 07 03 12 01 30.0000000  0  8       0.000000000000
G07  25334233.582 9 133132250.053 9      2211.115 9        54.136 9  25334234.245 6         0.000 6      1722.947 6        37.977 6
G10  23789048.491 9 125012239.235 9      3490.717 9        54.677 9  23789052.198 6         0.000 6      2720.042 6        37.977 6
G21  21178316.347 9 111292782.875 9     -1267.946 9        55.706 9  21178315.634 6         0.000 6      -988.010 6        37.977 6
G29  24318290.149 9 127793420.563 9     -3151.459 9        54.468 9  24318291.742 6         0.000 6     -2455.685 6        37.977 6
G27  21989893.460 9 115557643.169 9      2519.918 9        55.380 9  21989895.388 6         0.000 6      1963.573 6        37.977 6
G16  20493901.772 9 107696160.392 9       549.970 9        55.978 9  20493900.945 6         0.000 6       428.548 6        37.977 6
G26  20663152.549 9 108585577.204 9     -1510.158 9        55.869 9  20663155.368 6         0.000 6     -1176.747 6        37.977 6
G20  21929223.550 9 115238814.590 9      2520.649 9        55.321 9  21929223.863 6         0.000 6      1964.143 6        37.977 6
> 2019 07 03 12 01 31.0000000  0  8       0.000000000000
G07  25333812.840 9 133130039.042 9      2210.857 9        54.136 9  25333813.503 6         0.000 6      1722.746 6        37.977 6
G10  23788384.262 9 125008748.697 9      3490.420 9        54.677 9  23788387.968 6         0.000 6      2719.811 6        37.977 6
G21  21178557.675 9 111294051.059 9     -1268.393 9        55.706 9  21178556.962 6         0.000 6      -988.358 6        37.977 6
G29  24318889.897 9 127796572.254 9     -3151.843 9        54.468 9  24318891.492 6         0.000 6     -2455.984 6        37.977 6
G27  21989413.928 9 115555123.211 9      2519.919 9        55.380 9  21989415.855 6         0.000 6      1963.574 6        37.977 6
G16  20493797.162 9 107695610.659 9       549.454 9        55.978 9  20493796.335 6         0.000 6       428.146 6        37.977 6
G26  20663439.977 9 108587087.649 9     -1510.744 9        55.869 9  20663442.797 6         0.000 6     -1177.203 6        37.977 6
G20  21928743.951 9 115236294.289 9      2520.018 9        55.322 9  21928744.264 6         0.000 6      1963.652 6        37.977 6
> 2019 07 03 12 01 32.0000000  0  8       0.000000000000
G07  25333392.166 9 133127828.389 9      2210.451 9        54.136 9  25333392.829 6         0.000 6      1722.430 6        37.977 6
G10  23787720.075 9 125005258.384 9      3490.231 9        54.677 9  23787723.781 6         0.000 6      2719.663 6        37.977 6
G21  21178799.077 9 111295319.633 9     -1268.754 9        55.706 9  21178798.364 6         0.000 6      -988.639 6        37.977 6
G29  24319489.685 9 127799724.150 9     -3151.960 9        54.468 9  24319491.280 6         0.000 6     -2456.075 6        37.977 6
G27  21988934.422 9 115552603.396 9      2519.708 9        55.380 9  21988936.350 6         0.000 6      1963.410 6        37.977 6
G16  20493692.662 9 107695061.511 9       548.838 9        55.978 9  20493691.835 6         0.000 6       427.666 6        37.977 6
G26  20663727.519 9 108588598.692 9     -1511.345 9        55.869 9  20663730.339 6         0.000 6     -1177.672 6        37.977 6
G20  21928264.454 9 115233774.519 9      2519.536 9        55.322 9  21928264.767 6         0.000 6      1963.276 6        37.977 6
> 2019 07 03 12 01 33.0000000  0  8       0.000000000000
G07  25332971.572 9 133125618.157 9      2210.022 9        54.136 9  25332972.234 6         0.000 6      1722.096 6        37.977 6
G10  23787055.922 9 125001768.247 9      3490.061 9        54.678 9  23787059.627 6         0.000 6      2719.531 6        37.977 6
G21  21179040.546 9 111296588.564 9     -1269.110 9        55.706 9  21179039.834 6         0.000 6      -988.917 6        37.977 6
G29  24320089.493 9 127802876.149 9     -3152.052 9        54.468 9  24320091.088 6         0.000 6     -2456.147 6        37.977 6
G27  21988454.959 9 115550083.804 9      2519.475 9        55.381 9  21988456.887 6         0.000 6      1963.228 6        37.977 6
G16  20493588.281 9 107694512.984 9       548.211 9        55.978 9  20493587.454 6         0.000 6       427.178 6        37.977 6
G26  20664015.175 9 108590110.332 9     -1511.944 9        55.869 9  20664017.995 6         0.000 6     -1178.139 6        37.977 6
G20  21927785.047 9 115231255.219 9      2519.072 9        55.322 9  21927785.359 6         0.000 6      1962.915 6        37.977 6
> 2019 07 03 12 01 34.0000000  0  8       0.000000000000
G07  25332551.060 9 133123408.354 9      2209.583 9        54.136 9  25332551.722 6         0.000 6      1721.754 6        37.977 6
G10  23786391.802 9 124998278.281 9      3489.901 9        54.678 9  23786395.506 6         0.000 6      2719.406 6        37.977 6
G21  21179282.084 9 111297857.852 9     -1269.466 9        55.706 9  21179281.371 6         0.000 6      -989.194 6        37.977 6
G29  24320689.318 9 127806028.240 9     -3152.146 9        54.467 9  24320690.914 6         0.000 6     -2456.220 6        37.977 6
G27  21987975.541 9 115547564.447 9      2519.241 9        55.381 9  21987977.468 6         0.000 6      1963.046 6        37.977 6
G16  20493484.019 9 107693965.085 9       547.587 9        55.978 9  20493483.192 6         0.000 6       426.691 6        37.977 6
G26  20664302.945 9 108591622.572 9     -1512.536 9        55.869 9  20664305.765 6         0.000 6     -1178.600 6        37.977 6
G20  21927305.727 9 115228736.382 9      2518.617 9        55.322 9  21927306.039 6         0.000 6      1962.560 6        37.977 6
> 2019 07 03 12 01 35.0000000  0  8       0.000000000000
G07  25332130.634 9 133121199.004 9      2209.135 9        54.137 9  25332131.296 6         0.000 6      1721.405 6        37.977 6
G10  23785727.709 9 124994788.460 9      3489.750 9        54.678 9  23785731.412 6         0.000 6      2719.288 6        37.977 6
G21  21179523.689 9 111299127.496 9     -1269.821 9        55.706 9  21179522.977 6         0.000 6      -989.471 6        37.977 6
G29  24321289.160 9 127809180.421 9     -3152.235 9        54.467 9  24321290.756 6         0.000 6     -2456.289 6        37.977 6
G27  21987496.168 9 115545045.328 9      2519.003 9        55.381 9  21987498.095 6         0.000 6      1962.860 6        37.977 6
G16  20493379.877 9 107693417.812 9       546.960 9        55.978 9  20493379.050 6         0.000 6       426.203 6        37.977 6
G26  20664590.827 9 108593135.398 9     -1513.124 9        55.869 9  20664593.647 6         0.000 6     -1179.058 6        37.977 6
G20  21926826.492 9 115226217.991 9      2518.168 9        55.322 9  21926826.804 6         0.000 6      1962.210 6        37.977 6
> 2019 07 03 12 01 36.0000000  0  8       0.000000000000
G07  25331710.292 9 133118990.096 9      2208.684 9        54.137 9  25331710.954 6         0.000 6      1721.054 6        37.977 6
G10  23785063.646 9 124991298.796 9      3489.602 9        54.678 9  23785067.349 6         0.000 6      2719.173 6        37.977 6
G21  21179765.362 9 111300397.493 9     -1270.180 9        55.706 9  21179764.649 6         0.000 6      -989.751 6        37.977 6
G29  24321889.018 9 127812332.690 9     -3152.330 9        54.467 9  24321890.616 6         0.000 6     -2456.363 6        37.977 6
G27  21987016.841 9 115542526.447 9      2518.767 9        55.381 9  21987018.767 6         0.000 6      1962.676 6        37.977 6
G16  20493275.853 9 107692871.165 9       546.334 9        55.978 9  20493275.026 6         0.000 6       425.715 6        37.977 6
G26  20664878.821 9 108594648.815 9     -1513.711 9        55.869 9  20664881.641 6         0.000 6     -1179.515 6        37.977 6
G20  21926347.343 9 115223700.052 9      2517.720 9        55.323 9  21926347.655 6         0.000 6      1961.861 6        37.977 6
> 2019 07 03 12 01 37.0000000  0  8       0.000000000000
G07  25331290.037 9 133116781.646 9      2208.227 9        54.137 9  25331290.699 6         0.000 6      1720.697 6        37.977 6
G10  23784399.610 9 124987809.274 9      3489.458 9        54.678 9  23784403.312 6         0.000 6      2719.061 6        37.977 6
G21  21180007.103 9 111301667.852 9     -1270.541 9        55.705 9  21180006.390 6         0.000 6      -990.032 6        37.977 6
G29  24322488.895 9 127815485.055 9     -3152.420 9        54.467 9  24322490.494 6         0.000 6     -2456.434 6        37.977 6
G27  21986537.558 9 115540007.804 9      2518.524 9        55.381 9  21986539.485 6         0.000 6      1962.487 6        37.977 6
G16  20493171.949 9 107692325.146 9       545.703 9        55.978 9  20493171.122 6         0.000 6       425.223 6        37.977 6
G26  20665166.926 9 108596162.815 9     -1514.299 9        55.869 9  20665169.746 6         0.000 6     -1179.973 6        37.977 6
G20  21925868.279 9 115221182.557 9      2517.274 9        55.323 9  21925868.590 6         0.000 6      1961.513 6        37.977 6
> 2019 07 03 12 01 38.0000000  0  8       0.000000000000
G07  25330869.869 9 133114573.653 9      2207.770 9        54.137 9  25330870.531 6         0.000 6      1720.341 6        37.977 6
G10  23783735.602 9 124984319.896 9      3489.317 9        54.679 9  23783739.303 6         0.000 6      2718.951 6        37.977 6
G21  21180248.913 9 111302938.571 9     -1270.895 9        55.705 9  21180248.200 6         0.000 6      -990.308 6        37.977 6
G29  24323088.790 9 127818637.510 9     -3152.510 9        54.467 9  24323090.388 6         0.000 6     -2456.504 6        37.977 6
G27  21986058.322 9 115537489.403 9      2518.286 9        55.382 9  21986060.248 6         0.000 6      1962.302 6        37.977 6
G16  20493068.165 9 107691779.757 9       545.078 9        55.978 9  20493067.338 6         0.000 6       424.736 6        37.977 6
G26  20665455.143 9 108597677.403 9     -1514.880 9        55.868 9  20665457.963 6         0.000 6     -1180.426 6        37.977 6
G20  21925389.300 9 115218665.508 9      2516.833 9        55.323 9  21925389.611 6         0.000 6      1961.170 6        37.977 6
> 2019 07 03 12 01 39.0000000  0  8       0.000000000000
G07  25330449.790 9 133112366.126 9      2207.257 9        54.137 9  25330450.451 6         0.000 6      1719.941 6        37.977 6
G10  23783071.618 9 124980830.651 9      3489.229 9        54.679 9  23783075.319 6         0.000 6      2718.883 6        37.977 6
G21  21180490.790 9 111304209.644 9     -1271.266 9        55.705 9  21180490.078 6         0.000 6      -990.597 6        37.977 6
G29  24323688.700 9 127821790.050 9     -3152.601 9        54.466 9  24323690.300 6         0.000 6     -2456.575 6        37.977 6
G27  21985579.132 9 115534971.245 9      2518.031 9        55.382 9  21985581.058 6         0.000 6      1962.102 6        37.977 6
G16  20492964.500 9 107691234.995 9       544.444 9        55.978 9  20492963.673 6         0.000 6       424.242 6        37.977 6
G26  20665743.470 9 108599192.570 9     -1515.441 9        55.868 9  20665746.290 6         0.000 6     -1180.863 6        37.977 6
G20  21924910.403 9 115216148.894 9      2516.424 9        55.323 9  21924910.714 6         0.000 6      1960.851 6        37.977 6
> 2019 07 03 12 01 40.0000000  0  8       0.000000000000
G07  25330029.843 9 133110159.291 9      2206.394 9        54.137 9  25330030.504 6         0.000 6      1719.269 6        37.977 6
G10  23782407.617 9 124977341.313 9      3489.494 9        54.679 9  23782411.318 6         0.000 6      2719.089 6        37.977 6
G21  21180732.743 9 111305481.114 9     -1271.681 9        55.705 9  21180732.031 6         0.000 6      -990.921 6        37.977 6
G29  24324288.628 9 127824942.680 9     -3152.677 9        54.466 9  24324290.228 6         0.000 6     -2456.634 6        37.977 6
G27  21985099.998 9 115532453.384 9      2517.689 9        55.382 9  21985101.924 6         0.000 6      1961.836 6        37.977 6
G16  20492860.958 9 107690690.876 9       543.790 9        55.978 9  20492860.131 6         0.000 6       423.733 6        37.977 6
G26  20666031.887 9 108600708.210 9     -1515.831 9        55.868 9  20666034.707 6         0.000 6     -1181.167 6        37.977 6
G20  21924431.561 9 115213632.566 9      2516.259 9        55.323 9  21924431.871 6         0.000 6      1960.722 6        37.977 6
> 2019 07 03 12 01 41.0000000  0  8       0.000000000000
G07  25329609.961 9 133107952.803 9      2207.848 9        54.137 9  25329610.622 6         0.000 6      1720.402 6        37.977 6
G10  23781743.626 9 124973852.027 9      3488.386 9        54.679 9  23781747.326 6         0.000 6      2718.226 6        37.977 6
G21  21180974.865 9 111306753.473 9     -1274.344 9        55.705 9  21180974.153 6         0.000 6      -992.996 6        37.977 6
G29  24324888.824 9 127828096.722 9     -3159.066 9        54.466 9  24324890.424 6         0.000 6     -2461.613 6        37.977 6
G27  21984620.739 9 115529934.862 9      2522.058 9        55.382 9  21984622.665 6         0.000 6      1965.240 6        37.977 6
G16  20492757.449 9 107690146.932 9       545.395 9        55.978 9  20492756.622 6         0.000 6       424.983 6        37.977 6
G26  20666320.345 9 108602224.064 9     -1515.328 9        55.868 9  20666323.165 6         0.000 6     -1180.776 6        37.977 6
G20  21923952.864 9 115211117.000 9      2513.361 9        55.323 9  21923953.174 6         0.000 6      1958.464 6        37.977 6
> 2019 07 03 12 01 42.0000000  0  8       0.000000000000
G07  25329189.769 9 133105744.680 9      2207.127 9        54.138 9  25329190.429 6         0.000 6      1719.841 6        37.977 6
G10  23781079.727 9 124970363.221 9      3490.428 9        54.680 9  23781083.425 6         0.000 6      2719.816 6        37.977 6
G21  21181217.911 9 111308030.686 9     -1280.002 9        55.705 9  21181217.198 6         0.000 6      -997.404 6        37.977 6
G29  24325491.250 9 127831262.483 9     -3171.776 9        54.466 9  24325492.851 6         0.000 6     -2471.516 6        37.977 6
G27  21984139.970 9 115527408.409 9      2530.095 9        55.382 9  21984141.896 6         0.000 6      1971.503 6        37.977 6
G16  20492653.292 9 107689599.583 9       548.994 9        55.979 9  20492652.465 6         0.000 6       427.788 6        37.977 6
G26  20666608.400 9 108603737.806 9     -1511.764 9        55.868 9  20666611.221 6         0.000 6     -1177.998 6        37.977 6
G20  21923474.929 9 115208605.441 9      2510.757 9        55.324 9  21923475.239 6         0.000 6      1956.435 6        37.977 6
> 2019 07 03 12 01 43.0000000  0  8       0.000000000000
G07  25328770.586 9 133103541.863 9      2196.938 9        54.138 9  25328771.246 6         0.000 6      1711.901 6        37.977 6
G10  23780414.617 9 124966868.058 9      3501.310 9        54.680 9  23780418.315 6         0.000 6      2728.296 6        37.977 6
G21  21181462.021 9 111309313.491 9     -1285.357 9        55.705 9  21181461.308 6         0.000 6     -1001.577 6        37.977 6
G29  24326095.718 9 127834438.974 9     -3179.982 9        54.466 9  24326097.320 6         0.000 6     -2477.911 6        37.977 6
G27  21983658.124 9 115524876.291 9      2532.953 9        55.383 9  21983660.049 6         0.000 6      1973.731 6        37.977 6
G16  20492548.627 9 107689049.564 9       550.526 9        55.979 9  20492547.800 6         0.000 6       428.982 6        37.977 6
G26  20666895.476 9 108605246.397 9     -1505.064 9        55.868 9  20666898.297 6         0.000 6     -1172.778 6        37.977 6
G20  21922996.833 9 115206093.030 9      2515.359 9        55.324 9  21922997.142 6         0.000 6      1960.021 6        37.977 6
> 2019 07 03 12 01 44.0000000  0  8       0.000000000000
G07  25328353.059 9 133101347.749 9      2192.431 9        54.138 9  25328353.719 6         0.000 6      1708.388 6        37.977 6
G10  23779747.846 9 124963364.164 9      3505.325 9        54.680 9  23779751.544 6         0.000 6      2731.425 6        37.977 6
G21  21181706.766 9 111310599.638 9     -1286.630 9        55.705 9  21181706.054 6         0.000 6     -1002.569 6        37.977 6
G29  24326700.935 9 127837619.402 9     -3180.624 9        54.465 9  24326702.538 6         0.000 6     -2478.411 6        37.977 6
G27  21983176.206 9 115522343.800 9      2532.127 9        55.383 9  21983178.131 6         0.000 6      1973.087 6        37.977 6
G16  20492443.928 9 107688499.371 9       549.847 9        55.979 9  20492443.101 6         0.000 6       428.453 6        37.977 6
G26  20667181.673 9 108606750.373 9     -1503.514 9        55.868 9  20667184.495 6         0.000 6     -1171.570 6        37.977 6
G20  21922517.902 9 115203576.236 9      2517.533 9        55.324 9  21922518.211 6         0.000 6      1961.715 6        37.977 6
> 2019 07 03 12 01 45.0000000  0  8       0.000000000000
G07  25327935.968 9 133099155.924 9      2191.437 9        54.138 9  25327936.628 6         0.000 6      1707.614 6        37.977 6
G10  23779080.746 9 124959858.540 9      3505.733 9        54.680 9  23779084.443 6         0.000 6      2731.742 6        37.977 6
G21  21181951.654 9 111311886.529 9     -1287.120 9        55.705 9  21181950.942 6         0.000 6     -1002.951 6        37.977 6
G29  24327306.203 9 127840800.096 9     -3180.783 9        54.465 9  24327307.806 6         0.000 6     -2478.535 6        37.977 6
G27  21982694.394 9 115519811.864 9      2531.798 9        55.383 9  21982696.319 6         0.000 6      1972.830 6        37.977 6
G16  20492339.357 9 107687949.847 9       549.212 9        55.979 9  20492338.530 6         0.000 6       427.958 6        37.977 6
G26  20667467.801 9 108608253.983 9     -1503.812 9        55.868 9  20667470.623 6         0.000 6     -1171.802 6        37.977 6
G20  21922038.827 9 115201058.688 9      2517.431 9        55.324 9  21922039.136 6         0.000 6      1961.636 6        37.977 6
> 2019 07 03 12 01 46.0000000  0  8       0.000000000000
G07  25327519.000 9 133096964.746 9      2190.944 9        54.138 9  25327519.660 6         0.000 6      1707.230 6        37.977 6
G10  23778413.635 9 124956352.858 9      3505.634 9        54.681 9  23778417.331 6         0.000 6      2731.666 6        37.977 6
G21  21182196.622 9 111313173.843 9     -1287.510 9        55.705 9  21182195.909 6         0.000 6     -1003.254 6        37.977 6
G29  24327911.498 9 127843980.931 9     -3180.912 9        54.465 9  24327913.102 6         0.000 6     -2478.635 6        37.977 6
G27  21982212.631 9 115517280.185 9      2531.570 9        55.383 9  21982214.556 6         0.000 6      1972.652 6        37.977 6
G16  20492234.904 9 107687400.939 9       548.602 9        55.979 9  20492234.077 6         0.000 6       427.482 6        37.977 6
G26  20667754.018 9 108609758.060 9     -1504.355 9        55.868 9  20667756.839 6         0.000 6     -1172.225 6        37.977 6
G20  21921559.816 9 115198541.468 9      2517.002 9        55.324 9  21921560.124 6         0.000 6      1961.301 6        37.977 6
> 2019 07 03 12 01 47.0000000  0  8       0.000000000000
G07  25327102.120 9 133094774.028 9      2190.500 9        54.138 9  25327102.779 6         0.000 6      1706.884 6        37.977 6
G10  23777746.549 9 124952847.309 9      3505.482 9        54.681 9  23777750.245 6         0.000 6      2731.547 6        37.977 6
G21  21182441.664 9 111314461.546 9     -1287.892 9        55.704 9  21182440.951 6         0.000 6     -1003.552 6        37.977 6
G29  24328516.818 9 127847161.897 9     -3181.031 9        54.465 9  24328518.422 6         0.000 6     -2478.728 6        37.977 6
G27  21981730.911 9 115514748.729 9      2531.341 9        55.383 9  21981732.835 6         0.000 6      1972.475 6        37.977 6
G16  20492130.567 9 107686852.644 9       547.986 9        55.979 9  20492129.740 6         0.000 6       427.002 6        37.977 6
G26  20668040.342 9 108611262.700 9     -1504.931 9        55.867 9  20668043.163 6         0.000 6     -1172.674 6        37.977 6
G20  21921080.891 9 115196024.705 9      2516.537 9        55.325 9  21921081.199 6         0.000 6      1960.939 6        37.977 6
> 2019 07 03 12 01 48.0000000  0  8       0.000000000000
G07  25326685.323 9 133092583.753 9      2190.054 9        54.138 9  25326685.983 6         0.000 6      1706.537 6        37.977 6
G10  23777079.493 9 124949341.915 9      3505.332 9        54.681 9  23777083.188 6         0.000 6      2731.430 6        37.977 6
G21  21182686.777 9 111315749.625 9     -1288.266 9        55.704 9  21182686.065 6         0.000 6     -1003.844 6        37.977 6
G29  24329122.158 9 127850342.972 9     -3181.138 9        54.464 9  24329123.763 6         0.000 6     -2478.812 6        37.977 6
G27  21981249.235 9 115512217.507 9      2531.109 9        55.384 9  21981251.159 6         0.000 6      1972.293 6        37.977 6
G16  20492026.347 9 107686304.967 9       547.370 9        55.979 9  20492025.520 6         0.000 6       426.522 6        37.977 6
G26  20668326.776 9 108612767.918 9     -1505.505 9        55.867 9  20668329.597 6         0.000 6     -1173.121 6        37.977 6
G20  21920602.054 9 115193508.404 9      2516.078 9        55.325 9  21920602.362 6         0.000 6      1960.582 6        37.977 6
> 2019 07 03 12 01 49.0000000  0  8       0.000000000000
G07  25326268.612 9 133090393.925 9      2189.606 9        54.139 9  25326269.271 6         0.000 6      1706.187 6        37.977 6
G10  23776412.464 9 124945836.665 9      3505.185 9        54.681 9  23776416.159 6         0.000 6      2731.315 6        37.977 6
G21  21182931.960 9 111317038.070 9     -1288.638 9        55.704 9  21182931.248 6         0.000 6     -1004.134 6        37.977 6
G29  24329727.518 9 127853524.147 9     -3181.241 9        54.464 9  24329729.123 6         0.000 6     -2478.892 6        37.977 6
G27  21980767.603 9 115509686.517 9      2530.873 9        55.384 9  21980769.527 6         0.000 6      1972.109 6        37.977 6
G16  20491922.244 9 107685757.901 9       546.753 9        55.979 9  20491921.417 6         0.000 6       426.042 6        37.977 6
G26  20668613.317 9 108614273.703 9     -1506.078 9        55.867 9  20668616.139 6         0.000 6     -1173.568 6        37.977 6
G20  21920123.302 9 115190992.553 9      2515.623 9        55.325 9  21920123.610 6         0.000 6      1960.227 6        37.977 6
> 2019 07 03 12 01 50.0000000  0  8       0.000000000000
G07  25325851.987 9 133088204.547 9      2189.154 9        54.139 9  25325852.646 6         0.000 6      1705.836 6        37.977 6
G10  23775745.464 9 124942331.566 9      3505.037 9        54.682 9  23775749.158 6         0.000 6      2731.201 6        37.977 6
G21  21183177.215 9 111318326.893 9     -1289.008 9        55.704 9  21183176.503 6         0.000 6     -1004.422 6        37.977 6
G29  24330332.897 9 127856705.426 9     -3181.333 9        54.464 9  24330334.503 6         0.000 6     -2478.963 6        37.977 6
G27  21980286.017 9 115507155.767 9      2530.628 9        55.384 9  21980287.941 6         0.000 6      1971.918 6        37.977 6
G16  20491818.259 9 107685211.458 9       546.130 9        55.979 9  20491817.432 6         0.000 6       425.556 6        37.977 6
G26  20668899.969 9 108615780.069 9     -1506.656 9        55.867 9  20668902.791 6         0.000 6     -1174.018 6        37.977 6
G20  21919644.639 9 115188477.163 9      2515.170 9        55.325 9  21919644.946 6         0.000 6      1959.874 6        37.977 6
> 2019 07 03 12 01 51.0000000  0  8       0.000000000000
G07  25325435.447 9 133086015.621 9      2188.703 9        54.139 9  25325436.106 6         0.000 6      1705.484 6        37.977 6
G10  23775078.492 9 124938826.614 9      3504.890 9        54.682 9  23775082.185 6         0.000 6      2731.086 6        37.977 6
G21  21183422.541 9 111319616.086 9     -1289.377 9        55.704 9  21183421.828 6         0.000 6     -1004.710 6        37.977 6
G29  24330938.294 9 127859886.797 9     -3181.425 9        54.464 9  24330939.901 6         0.000 6     -2479.035 6        37.977 6
G27  21979804.477 9 115504625.263 9      2530.382 9        55.384 9  21979806.401 6         0.000 6      1971.727 6        37.977 6
G16  20491714.393 9 107684665.639 9       545.507 9        55.979 9  20491713.566 6         0.000 6       425.071 6        37.977 6
G26  20669186.732 9 108617287.012 9     -1507.234 9        55.867 9  20669189.553 6         0.000 6     -1174.468 6        37.977 6
G20  21919166.061 9 115185962.225 9      2514.717 9        55.325 9  21919166.368 6         0.000 6      1959.521 6        37.977 6
> 2019 07 03 12 01 52.0000000  0  8       0.000000000000
G07  25325018.999 9 133083827.174 9      2188.165 9        54.139 9  25325019.658 6         0.000 6      1705.064 6        37.977 6
G10  23774411.544 9 124935321.789 9      3504.802 9        54.682 9  23774415.236 6         0.000 6      2731.017 6        37.977 6
G21  21183667.932 9 111320905.627 9     -1289.681 9        55.704 9  21183667.220 6         0.000 6     -1004.947 6        37.977 6
G29  24331543.697 9 127863068.203 9     -3181.330 9        54.464 9  24331545.305 6         0.000 6     -2478.961 6        37.977 6
G27  21979322.993 9 115502095.047 9      2529.995 9        55.384 9  21979324.916 6         0.000 6      1971.426 6        37.977 6
G16  20491610.649 9 107684120.460 9       544.819 9        55.979 9  20491609.822 6         0.000 6       424.534 6        37.977 6
G26  20669473.604 9 108618794.535 9     -1507.826 9        55.867 9  20669476.426 6         0.000 6     -1174.930 6        37.977 6
G20  21918687.564 9 115183447.710 9      2514.358 9        55.326 9  21918687.871 6         0.000 6      1959.241 6        37.977 6
> 2019 07 03 12 01 53.0000000  0  8       0.000000000000
G07  25324602.639 9 133081639.191 9      2187.720 9        54.139 9  25324603.297 6         0.000 6      1704.718 6        37.977 6
G10  23773744.632 9 124931817.155 9      3504.582 9        54.682 9  23773748.324 6         0.000 6      2730.846 6        37.977 6
G21  21183913.368 9 111322195.400 9     -1289.875 9        55.704 9  21183912.656 6         0.000 6     -1005.098 6        37.977 6
G29  24332149.052 9 127866249.354 9     -3181.002 9        54.463 9  24332150.660 6         0.000 6     -2478.705 6        37.977 6
G27  21978841.599 9 115499565.313 9      2529.473 9        55.384 9  21978843.523 6         0.000 6      1971.019 6        37.977 6
G16  20491507.047 9 107683576.028 9       544.054 9        55.979 9  20491506.220 6         0.000 6       423.938 6        37.977 6
G26  20669760.607 9 108620302.746 9     -1508.543 9        55.867 9  20669763.429 6         0.000 6     -1175.489 6        37.977 6
G20  21918209.140 9 115180933.580 9      2513.977 9        55.326 9  21918209.447 6         0.000 6      1958.944 6        37.977 6
> 2019 07 03 12 01 54.0000000  0  8       0.000000000000
G07  25324187.549 9 133079457.883 9      2173.909 9        54.139 9  25324188.207 6         0.000 6      1693.956 6        37.977 6
G10  23773076.597 9 124928306.617 9      3517.342 9        54.683 9  23773080.288 6         0.000 6      2740.788 6        37.977 6
G21  21184158.961 9 111323485.999 9     -1291.040 9        55.704 9  21184158.249 6         0.000 6     -1006.005 6        37.977 6
G29  24332754.161 9 127869429.216 9     -3177.644 9        54.463 9  24332755.770 6         0.000 6     -2476.089 6        37.977 6
G27  21978360.701 9 115497038.174 9      2523.846 9        55.385 9  21978362.624 6         0.000 6      1966.634 6        37.977 6
G16  20491403.718 9 107683033.031 9       541.507 9        55.979 9  20491402.891 6         0.000 6       421.954 6        37.977 6
G26  20670047.230 9 108621808.955 9     -1503.757 9        55.867 9  20670050.052 6         0.000 6     -1171.759 6        37.977 6
G20  21917729.957 9 115178415.461 9      2523.134 9        55.326 9  21917730.263 6         0.000 6      1966.080 6        37.977 6
> 2019 07 03 12 01 55.0000000  0  8       0.000000000000
G07  25323775.311 9 133077291.557 9      2158.850 9        54.139 9  25323775.968 6         0.000 6      1682.222 6        37.977 6
G10  23772406.009 9 124924782.663 9      3530.304 9        54.683 9  23772409.699 6         0.000 6      2750.889 6        37.977 6
G21  21184404.546 9 111324776.556 9     -1289.542 9        55.704 9  21184403.834 6         0.000 6     -1004.838 6        37.977 6
G29  24333357.989 9 127872602.342 9     -3167.408 9        54.463 9  24333359.599 6         0.000 6     -2468.112 6        37.977 6
G27  21977881.349 9 115494519.170 9      2513.392 9        55.385 9  21977883.273 6         0.000 6      1958.488 6        37.977 6
G16  20491301.104 9 107682493.789 9       536.578 9        55.979 9  20491300.277 6         0.000 6       418.113 6        37.977 6
G26  20670333.040 9 108623310.897 9     -1500.562 9        55.866 9  20670335.862 6         0.000 6     -1169.270 6        37.977 6
G20  21917248.764 9 115175886.780 9      2534.399 9        55.326 9  21917249.070 6         0.000 6      1974.858 6        37.977 6
> 2019 07 03 12 01 56.0000000  0  8       0.000000000000
G07  25323365.761 9 133075139.365 9      2148.850 9        54.140 9  25323366.419 6         0.000 6      1674.429 6        37.977 6
G10  23771733.230 9 124921247.196 9      3537.831 9        54.683 9  23771736.919 6         0.000 6      2756.754 6        37.977 6
G21  21184649.547 9 111326064.044 9     -1286.261 9        55.704 9  21184648.835 6         0.000 6     -1002.282 6        37.977 6
G29  24333959.225 9 127875761.848 9     -3154.926 9        54.463 9  24333960.835 6         0.000 6     -2458.387 6        37.977 6
G27  21977404.371 9 115492012.633 9      2502.635 9        55.385 9  21977406.294 6         0.000 6      1950.106 6        37.977 6
G16  20491199.634 9 107681960.559 9       531.184 9        55.979 9  20491198.807 6         0.000 6       413.910 6        37.977 6
G26  20670618.533 9 108624811.172 9     -1500.535 9        55.866 9  20670621.356 6         0.000 6     -1169.248 6        37.977 6
G20  21916765.427 9 115173346.830 9      2542.676 9        55.326 9  21916765.733 6         0.000 6      1981.307 6        37.977 6
> 2019 07 03 12 01 57.0000000  0  8       0.000000000000
G07  25322957.023 9 133072991.435 9      2147.357 9        54.140 9  25322957.680 6         0.000 6      1673.266 6        37.977 6
G10  23771059.923 9 124917708.956 9      3538.427 9        54.683 9  23771063.612 6         0.000 6      2757.218 6        37.977 6
G21  21184894.267 9 111327350.059 9     -1285.981 9        55.703 9  21184893.556 6         0.000 6     -1002.063 6        37.977 6
G29  24334559.348 9 127878915.502 9     -3153.047 9        54.462 9  24334560.959 6         0.000 6     -2456.922 6        37.977 6
G27  21976928.352 9 115489511.142 9      2500.856 9        55.385 9  21976930.276 6         0.000 6      1948.720 6        37.977 6
G16  20491098.702 9 107681430.158 9       529.854 9        55.979 9  20491097.875 6         0.000 6       412.873 6        37.977 6
G26  20670904.145 9 108626312.072 9     -1501.226 9        55.866 9  20670906.968 6         0.000 6     -1169.787 6        37.977 6
G20  21916281.481 9 115170803.683 9      2543.280 9        55.326 9  21916281.787 6         0.000 6      1981.778 6        37.977 6
> 2019 07 03 12 01 58.0000000  0  8       0.000000000000
G07  25322548.455 9 133070844.398 9      2146.759 9        54.140 9  25322549.112 6         0.000 6      1672.800 6        37.977 6
G10  23770386.584 9 124914170.545 9      3538.389 9        54.684 9  23770390.272 6         0.000 6      2757.189 6        37.977 6
G21  21185139.007 9 111328636.175 9     -1286.287 9        55.703 9  21185138.296 6         0.000 6     -1002.302 6        37.977 6
G29  24335159.333 9 127882068.436 9     -3152.921 9        54.462 9  24335160.945 6         0.000 6     -2456.824 6        37.977 6
G27  21976452.500 9 115487010.524 9      2500.439 9        55.385 9  21976454.423 6         0.000 6      1948.394 6        37.977 6
G16  20490997.942 9 107680900.661 9       529.160 9        55.979 9  20490997.115 6         0.000 6       412.332 6        37.977 6
G26  20671189.873 9 108627813.579 9     -1501.793 9        55.866 9  20671192.696 6         0.000 6     -1170.229 6        37.977 6
G20  21915797.538 9 115168260.547 9      2542.957 9        55.327 9  21915797.843 6         0.000 6      1981.526 6        37.977 6
> 2019 07 03 12 01 59.0000000  0  8       0.000000000000
G07  25322139.988 9 133068697.892 9      2146.263 9        54.140 9  25322140.645 6         0.000 6      1672.414 6        37.977 6
G10  23769713.261 9 124910632.221 9      3538.277 9        54.684 9  23769716.949 6         0.000 6      2757.101 6        37.977 6
G21  21185383.814 9 111329922.642 9     -1286.651 9        55.703 9  21185383.102 6         0.000 6     -1002.585 6        37.977 6
G29  24335759.319 9 127885221.373 9     -3152.978 9        54.462 9  24335760.931 6         0.000 6     -2456.869 6        37.977 6
G27  21975976.709 9 115484510.225 9      2500.168 9        55.386 9  21975978.631 6         0.000 6      1948.184 6        37.977 6
G16  20490897.306 9 107680371.814 9       528.536 9        55.979 9  20490896.479 6         0.000 6       411.847 6        37.977 6
G26  20671475.708 9 108629315.648 9     -1502.348 9        55.866 9  20671478.530 6         0.000 6     -1170.662 6        37.977 6
G20  21915313.669 9 115165717.806 9      2542.532 9        55.327 9  21915313.974 6         0.000 6      1981.195 6        37.977 6
> 2019 07 03 12 02  0.0000000  0  8       0.000000000000
G07  25321731.614 9 133066551.878 9      2145.784 9        54.140 9  25321732.271 6         0.000 6      1672.040 6        37.977 6
G10  23769039.960 9 124907094.011 9      3538.151 9        54.684 9  23769043.647 6         0.000 6      2757.003 6        37.977 6
G21  21185628.690 9 111331209.476 9     -1287.021 9        55.703 9  21185627.979 6         0.000 6     -1002.874 6        37.977 6
G29  24336359.318 9 127888374.378 9     -3153.056 9        54.462 9  24336360.931 6         0.000 6     -2456.929 6        37.977 6
G27  21975500.967 9 115482010.187 9      2499.914 9        55.386 9  21975502.889 6         0.000 6      1947.985 6        37.977 6
G16  20490796.787 9 107679843.584 9       527.919 9        55.979 9  20490795.960 6         0.000 6       411.366 6        37.977 6
G26  20671761.647 9 108630818.268 9     -1502.907 9        55.866 9  20671764.470 6         0.000 6     -1171.097 6        37.977 6
G20  21914829.883 9 115163175.493 9      2542.091 9        55.327 9  21914830.187 6         0.000 6      1980.851 6        37.977 6
