     3.00           Observation Data    M (Mixed)           RINEX VERSION / TYPE
SimGEN V6.06.00     Spirent             03-Jul-19 12:00     PGM / RUN BY / DATE 
                                                            MARKER NAME         
1                                                           MARKER NUMBER       
GROUND_CRAFT                                                MARKER TYPE         
jin4hi              Spirent                                 OBSERVER / AGENCY   
rec_num             rec_type            rec_vers            REC # / TYPE / VERS 
1                   ant_type                                ANT # / TYPE        
  1000.000                                                  INTERVAL            
  2019     7     3    12     0    0.0000000     GPS         TIME OF FIRST OBS   
  4162658.0300   664331.9060  4770554.9010                  APPROX POSITION XYZ 
        0.0000        0.0000        0.0000                  ANTENNA: DELTA H/E/N
G    8 C1C L1C D1C S1C C2C L2C D2C S2C                      SYS / # / OBS TYPES 
        0.0000        0.0000        0.0000                  ANTENNA: DELTA X/Y/Z
DBHZ                                                        SIGNAL STRENGTH UNIT
                                                            END OF HEADER       
> 2019 07 03 12 00  0.0000000  0  8       0.000000000000
G07  25371961.022 9 133330508.762 9      2206.655 9        54.123 9  25371961.705 6         0.000 6      1719.471 6        37.977 6
G10  23849421.753 9 125329501.904 9      3548.430 9        54.655 9  23849425.519 6         0.000 6      2765.010 6        37.977 6
G21  21156833.593 9 111179890.301 9     -1241.913 9        55.715 9  21156832.876 6         0.000 6      -967.725 6        37.977 6
G29  24264460.714 9 127510545.892 9     -3142.982 9        54.487 9  24264462.251 6         0.000 6     -2449.077 6        37.977 6
G27  22033071.030 9 115784542.581 9      2530.664 9        55.363 9  22033072.973 6         0.000 6      1971.946 6        37.977 6
G16  20503741.224 9 107747867.057 9       602.324 9        55.974 9  20503740.398 6         0.000 6       469.344 6        37.977 6
G26  20637944.277 9 108453106.999 9     -1437.069 9        55.880 9  20637947.087 6         0.000 6     -1119.794 6        37.977 6
G20  21973081.623 9 115469289.915 9      2591.297 9        55.304 9  21973081.961 6         0.000 6      2019.193 6        37.977 6
> 2019 07 03 12 00  1.0000000  0  8       0.000000000000
G07  25371541.286 9 133328303.042 9      2204.644 9        54.123 9  25371541.970 6         0.000 6      1717.905 6        37.977 6
G10  23848746.373 9 125325952.768 9      3549.937 9        54.655 9  23848750.138 6         0.000 6      2766.188 6        37.977 6
G21  21157069.978 9 111181132.513 9     -1242.521 9        55.715 9  21157069.261 6         0.000 6      -968.199 6        37.977 6
G29  24265058.815 9 127513688.926 9     -3143.071 9        54.487 9  24265060.353 6         0.000 6     -2449.149 6        37.977 6
G27  22032589.517 9 115782012.216 9      2530.037 9        55.363 9  22032591.460 6         0.000 6      1971.458 6        37.977 6
G16  20503626.675 9 107747265.096 9       601.584 9        55.974 9  20503625.849 6         0.000 6       468.767 6        37.977 6
G26  20638217.730 9 108454544.005 9     -1436.903 9        55.880 9  20638220.541 6         0.000 6     -1119.665 6        37.977 6
G20  21972588.458 9 115466698.317 9      2591.969 9        55.304 9  21972588.795 6         0.000 6      2019.717 6        37.977 6
> 2019 07 03 12 00  2.0000000  0  8       0.000000000000
G07  25371121.844 9 133326098.860 9      2203.911 9        54.123 9  25371122.527 6         0.000 6      1717.334 6        37.977 6
G10  23848070.810 9 125322402.673 9      3550.088 9        54.655 9  23848074.575 6         0.000 6      2766.305 6        37.977 6
G21  21157306.463 9 111182375.248 9     -1242.936 9        55.715 9  21157305.746 6         0.000 6      -968.522 6        37.977 6
G29  24265656.928 9 127516832.019 9     -3143.152 9        54.487 9  24265658.466 6         0.000 6     -2449.212 6        37.977 6
G27  22032108.101 9 115779482.361 9      2529.727 9        55.363 9  22032110.044 6         0.000 6      1971.216 6        37.977 6
G16  20503512.259 9 107746663.835 9       600.950 9        55.974 9  20503511.432 6         0.000 6       468.273 6        37.977 6
G26  20638491.198 9 108455981.083 9     -1437.346 9        55.880 9  20638494.008 6         0.000 6     -1120.010 6        37.977 6
G20  21972095.233 9 115464106.409 9      2591.721 9        55.305 9  21972095.571 6         0.000 6      2019.524 6        37.977 6
> 2019 07 03 12 00  3.0000000  0  8       0.000000000000
G07  25370702.495 9 133323895.171 9      2203.543 9        54.123 9  25370703.178 6         0.000 6      1717.047 6        37.977 6
G10  23847395.265 9 125318852.670 9      3549.871 9        54.656 9  23847399.029 6         0.000 6      2766.136 6        37.977 6
G21  21157543.021 9 111183618.368 9     -1243.299 9        55.715 9  21157542.304 6         0.000 6      -968.805 6        37.977 6
G29  24266255.058 9 127519975.202 9     -3143.238 9        54.487 9  24266256.597 6         0.000 6     -2449.279 6        37.977 6
G27  22031626.733 9 115776952.757 9      2529.503 9        55.364 9  22031628.675 6         0.000 6      1971.042 6        37.977 6
G16  20503397.960 9 107746063.190 9       600.344 9        55.974 9  20503397.133 6         0.000 6       467.800 6        37.977 6
G26  20638764.771 9 108457418.716 9     -1437.957 9        55.880 9  20638767.581 6         0.000 6     -1120.487 6        37.977 6
G20  21971602.088 9 115461514.919 9      2591.220 9        55.305 9  21971602.425 6         0.000 6      2019.134 6        37.977 6
> 2019 07 03 12 00  4.0000000  0  8       0.000000000000
G07  25370283.169 9 133321691.602 9      2203.633 9        54.124 9  25370283.852 6         0.000 6      1717.117 6        37.977 6
G10  23846719.808 9 125315303.131 9      3549.197 9        54.656 9  23846723.571 6         0.000 6      2765.611 6        37.977 6
G21  21157779.641 9 111184861.814 9     -1243.591 9        55.715 9  21157778.924 6         0.000 6      -969.032 6        37.977 6
G29  24266853.204 9 127523118.473 9     -3143.328 9        54.487 9  24266854.744 6         0.000 6     -2449.349 6        37.977 6
G27  22031145.396 9 115774423.316 9      2529.392 9        55.364 9  22031147.338 6         0.000 6      1970.955 6        37.977 6
G16  20503283.772 9 107745463.130 9       599.777 9        55.974 9  20503282.946 6         0.000 6       467.359 6        37.977 6
G26  20639038.481 9 108458857.073 9     -1438.775 9        55.880 9  20639041.292 6         0.000 6     -1121.124 6        37.977 6
G20  21971109.070 9 115458924.098 9      2590.409 9        55.305 9  21971109.407 6         0.000 6      2018.502 6        37.977 6
> 2019 07 03 12 00  5.0000000  0  8       0.000000000000
G07  25369863.823 9 133319487.928 9      2203.695 9        54.124 9  25369864.506 6         0.000 6      1717.166 6        37.977 6
G10  23846044.482 9 125311754.281 9      3548.552 9        54.656 9  23846048.245 6         0.000 6      2765.108 6        37.977 6
G21  21158016.316 9 111186105.550 9     -1243.887 9        55.715 9  21158015.600 6         0.000 6      -969.263 6        37.977 6
G29  24267451.369 9 127526261.839 9     -3143.421 9        54.486 9  24267452.909 6         0.000 6     -2449.422 6        37.977 6
G27  22030664.079 9 115771893.980 9      2529.277 9        55.364 9  22030666.021 6         0.000 6      1970.866 6        37.977 6
G16  20503169.692 9 107744863.633 9       599.211 9        55.974 9  20503168.865 6         0.000 6       466.918 6        37.977 6
G26  20639312.348 9 108460296.253 9     -1439.578 9        55.879 9  20639315.159 6         0.000 6     -1121.749 6        37.977 6
G20  21970616.209 9 115456334.098 9      2589.618 9        55.305 9  21970616.546 6         0.000 6      2017.885 6        37.977 6
> 2019 07 03 12 00  6.0000000  0  8       0.000000000000
G07  25369444.479 9 133317284.262 9      2203.518 9        54.124 9  25369445.161 6         0.000 6      1717.028 6        37.977 6
G10  23845369.263 9 125308205.992 9      3548.159 9        54.656 9  23845373.025 6         0.000 6      2764.802 6        37.977 6
G21  21158253.060 9 111187349.645 9     -1244.266 9        55.714 9  21158252.343 6         0.000 6      -969.558 6        37.977 6
G29  24268049.573 9 127529405.416 9     -3143.620 9        54.486 9  24268051.114 6         0.000 6     -2449.577 6        37.977 6
G27  22030182.772 9 115769364.700 9      2529.174 9        55.364 9  22030184.714 6         0.000 6      1970.786 6        37.977 6
G16  20503055.714 9 107744264.675 9       598.657 9        55.974 9  20503054.887 6         0.000 6       466.486 6        37.977 6
G26  20639586.356 9 108461736.174 9     -1440.243 9        55.879 9  20639589.167 6         0.000 6     -1122.268 6        37.977 6
G20  21970123.494 9 115453744.869 9      2588.966 9        55.305 9  21970123.831 6         0.000 6      2017.377 6        37.977 6
> 2019 07 03 12 00  7.0000000  0  8       0.000000000000
G07  25369025.479 9 133315082.408 9      2200.264 9        54.124 9  25369026.161 6         0.000 6      1714.493 6        37.977 6
G10  23844693.913 9 125304657.012 9      3549.645 9        54.657 9  23844697.674 6         0.000 6      2765.960 6        37.977 6
G21  21158489.631 9 111188592.835 9     -1241.803 9        55.714 9  21158488.915 6         0.000 6      -967.639 6        37.977 6
G29  24268647.091 9 127532545.383 9     -3135.585 9        54.486 9  24268648.633 6         0.000 6     -2443.315 6        37.977 6
G27  22029702.045 9 115766838.464 9      2522.815 9        55.364 9  22029703.987 6         0.000 6      1965.831 6        37.977 6
G16  20502942.108 9 107743667.672 9       595.105 9        55.974 9  20502941.281 6         0.000 6       463.718 6        37.977 6
G26  20639860.572 9 108463177.187 9     -1442.050 9        55.879 9  20639863.383 6         0.000 6     -1123.676 6        37.977 6
G20  21969630.557 9 115451154.471 9      2591.932 9        55.306 9  21969630.893 6         0.000 6      2019.689 6        37.977 6
> 2019 07 03 12 00  8.0000000  0  8       0.000000000000
G07  25368606.893 9 133312882.723 9      2199.819 9        54.124 9  25368607.574 6         0.000 6      1714.146 6        37.977 6
G10  23844018.513 9 125301107.772 9      3548.171 9        54.657 9  23844022.273 6         0.000 6      2764.811 6        37.977 6
G21  21158725.629 9 111189833.009 9     -1238.536 9        55.714 9  21158724.912 6         0.000 6      -965.093 6        37.977 6
G29  24269242.900 9 127535676.370 9     -3126.621 9        54.486 9  24269244.442 6         0.000 6     -2436.331 6        37.977 6
G27  22029222.599 9 115764318.963 9      2516.489 9        55.365 9  22029224.541 6         0.000 6      1960.901 6        37.977 6
G16  20502829.221 9 107743074.447 9       591.455 9        55.974 9  20502828.394 6         0.000 6       460.874 6        37.977 6
G26  20640135.282 9 108464620.794 9     -1445.445 9        55.879 9  20640138.093 6         0.000 6     -1126.321 6        37.977 6
G20  21969137.162 9 115448561.667 9      2593.154 9        55.306 9  21969137.498 6         0.000 6      2020.641 6        37.977 6
> 2019 07 03 12 00  9.0000000  0  8       0.000000000000
G07  25368187.796 9 133310680.357 9      2206.296 9        54.124 9  25368188.477 6         0.000 6      1719.193 6        37.977 6
G10  23843343.978 9 125297563.081 9      3539.961 9        54.657 9  23843347.738 6         0.000 6      2758.414 6        37.977 6
G21  21158960.951 9 111191069.638 9     -1234.809 9        55.714 9  21158960.235 6         0.000 6      -962.189 6        37.977 6
G29  24269837.096 9 127538798.879 9     -3119.158 9        54.486 9  24269838.639 6         0.000 6     -2430.515 6        37.977 6
G27  22028744.157 9 115761804.737 9      2512.787 9        55.365 9  22028746.099 6         0.000 6      1958.016 6        37.977 6
G16  20502716.954 9 107742484.481 9       588.829 9        55.974 9  20502716.128 6         0.000 6       458.828 6        37.977 6
G26  20640410.886 9 108466069.100 9     -1451.578 9        55.879 9  20640413.697 6         0.000 6     -1131.100 6        37.977 6
G20  21968643.958 9 115445969.868 9      2589.380 9        55.306 9  21968644.294 6         0.000 6      2017.700 6        37.977 6
> 2019 07 03 12 00 10.0000000  0  8       0.000000000000
G07  25367767.588 9 133308472.156 9      2209.218 9        54.124 9  25367768.269 6         0.000 6      1721.470 6        37.977 6
G10  23842670.794 9 125294025.482 9      3536.210 9        54.657 9  23842674.553 6         0.000 6      2755.491 6        37.977 6
G21  21159195.829 9 111192303.927 9     -1234.043 9        55.714 9  21159195.112 6         0.000 6      -961.592 6        37.977 6
G29  24270430.482 9 127541917.132 9     -3117.715 9        54.485 9  24270432.025 6         0.000 6     -2429.391 6        37.977 6
G27  22028266.038 9 115759292.206 9      2512.309 9        55.365 9  22028267.979 6         0.000 6      1957.644 6        37.977 6
G16  20502604.992 9 107741896.115 9       587.956 9        55.974 9  20502604.165 6         0.000 6       458.147 6        37.977 6
G26  20640687.411 9 108467522.248 9     -1454.195 9        55.879 9  20640690.222 6         0.000 6     -1133.139 6        37.977 6
G20  21968151.502 9 115443381.997 9      2586.920 9        55.306 9  21968151.837 6         0.000 6      2015.783 6        37.977 6
> 2019 07 03 12 00 11.0000000  0  8       0.000000000000
G07  25367347.175 9 133306262.875 9      2209.148 9        54.125 9  25367347.856 6         0.000 6      1721.415 6        37.977 6
G10  23841997.954 9 125290489.695 9      3535.592 9        54.657 9  23842001.712 6         0.000 6      2755.010 6        37.977 6
G21  21159430.657 9 111193537.956 9     -1234.077 9        55.714 9  21159429.941 6         0.000 6      -961.618 6        37.977 6
G29  24271023.702 9 127545034.518 9     -3117.129 9        54.485 9  24271025.246 6         0.000 6     -2428.934 6        37.977 6
G27  22027788.017 9 115756780.189 9      2511.711 9        55.365 9  22027789.958 6         0.000 6      1957.178 6        37.977 6
G16  20502493.184 9 107741308.561 9       587.145 9        55.974 9  20502492.357 6         0.000 6       457.516 6        37.977 6
G26  20640964.236 9 108468976.973 9     -1455.158 9        55.879 9  20640967.048 6         0.000 6     -1133.890 6        37.977 6
G20  21967659.294 9 115440795.431 9      2586.343 9        55.306 9  21967659.629 6         0.000 6      2015.334 6        37.977 6
> 2019 07 03 12 00 12.0000000  0  8       0.000000000000
G07  25366926.842 9 133304054.011 9      2208.581 9        54.125 9  25366927.522 6         0.000 6      1720.973 6        37.977 6
G10  23841325.162 9 125286954.163 9      3535.509 9        54.658 9  23841328.920 6         0.000 6      2754.945 6        37.977 6
G21  21159665.513 9 111194772.131 9     -1234.286 9        55.714 9  21159664.796 6         0.000 6      -961.782 6        37.977 6
G29  24271616.836 9 127548151.447 9     -3116.788 9        54.485 9  24271618.381 6         0.000 6     -2428.668 6        37.977 6
G27  22027310.109 9 115754268.770 9      2511.161 9        55.365 9  22027312.050 6         0.000 6      1956.750 6        37.977 6
G16  20502381.529 9 107740721.808 9       586.378 9        55.974 9  20502380.702 6         0.000 6       456.918 6        37.977 6
G26  20641241.208 9 108470432.470 9     -1455.818 9        55.879 9  20641244.020 6         0.000 6     -1134.404 6        37.977 6
G20  21967167.156 9 115438209.235 9      2586.059 9        55.306 9  21967167.491 6         0.000 6      2015.112 6        37.977 6
> 2019 07 03 12 00 13.0000000  0  8       0.000000000000
G07  25366506.618 9 133301845.724 9      2208.008 9        54.125 9  25366507.298 6         0.000 6      1720.527 6        37.977 6
G10  23840652.382 9 125283418.689 9      3535.453 9        54.658 9  23840656.139 6         0.000 6      2754.901 6        37.977 6
G21  21159900.414 9 111196006.545 9     -1234.556 9        55.714 9  21159899.698 6         0.000 6      -961.992 6        37.977 6
G29  24272209.921 9 127551268.117 9     -3116.594 9        54.485 9  24272211.466 6         0.000 6     -2428.517 6        37.977 6
G27  22026832.295 9 115751757.843 9      2510.710 9        55.365 9  22026834.236 6         0.000 6      1956.398 6        37.977 6
G16  20502270.013 9 107740135.790 9       585.660 9        55.974 9  20502269.187 6         0.000 6       456.358 6        37.977 6
G26  20641518.299 9 108471888.589 9     -1456.428 9        55.879 9  20641521.111 6         0.000 6     -1134.879 6        37.977 6
G20  21966675.073 9 115435623.327 9      2585.752 9        55.307 9  21966675.408 6         0.000 6      2014.873 6        37.977 6
> 2019 07 03 12 00 14.0000000  0  8       0.000000000000
G07  25366086.500 9 133299637.991 9      2207.476 9        54.125 9  25366087.180 6         0.000 6      1720.112 6        37.977 6
G10  23839979.615 9 125279883.284 9      3535.371 9        54.658 9  23839983.371 6         0.000 6      2754.838 6        37.977 6
G21  21160135.370 9 111197241.248 9     -1234.856 9        55.714 9  21160134.654 6         0.000 6      -962.225 6        37.977 6
G29  24272802.978 9 127554384.646 9     -3116.499 9        54.485 9  24272804.524 6         0.000 6     -2428.443 6        37.977 6
G27  22026354.560 9 115749247.330 9      2510.337 9        55.366 9  22026356.500 6         0.000 6      1956.107 6        37.977 6
G16  20502158.631 9 107739550.474 9       584.981 9        55.974 9  20502157.805 6         0.000 6       455.830 6        37.977 6
G26  20641795.505 9 108473345.314 9     -1457.023 9        55.878 9  20641798.316 6         0.000 6     -1135.343 6        37.977 6
G20  21966183.054 9 115433037.752 9      2585.400 9        55.307 9  21966183.388 6         0.000 6      2014.598 6        37.977 6
> 2019 07 03 12 00 15.0000000  0  8       0.000000000000
G07  25365666.480 9 133297430.776 9      2206.969 9        54.125 9  25365667.160 6         0.000 6      1719.717 6        37.977 6
G10  23839306.864 9 125276347.969 9      3535.273 9        54.658 9  23839310.620 6         0.000 6      2754.761 6        37.977 6
G21  21160370.386 9 111198476.262 9     -1235.180 9        55.714 9  21160369.670 6         0.000 6      -962.478 6        37.977 6
G29  24273396.024 9 127557501.111 9     -3116.467 9        54.484 9  24273397.570 6         0.000 6     -2428.418 6        37.977 6
G27  22025876.891 9 115746737.165 9      2510.008 9        55.366 9  22025878.831 6         0.000 6      1955.851 6        37.977 6
G16  20502047.376 9 107738965.824 9       584.322 9        55.975 9  20502046.549 6         0.000 6       455.316 6        37.977 6
G26  20642072.823 9 108474802.630 9     -1457.614 9        55.878 9  20642075.635 6         0.000 6     -1135.803 6        37.977 6
G20  21965691.104 9 115430452.543 9      2585.018 9        55.307 9  21965691.438 6         0.000 6      2014.301 6        37.977 6
> 2019 07 03 12 00 16.0000000  0  8       0.000000000000
G07  25365246.555 9 133295224.058 9      2206.477 9        54.125 9  25365247.235 6         0.000 6      1719.334 6        37.977 6
G10  23838634.134 9 125272812.759 9      3535.166 9        54.659 9  23838637.890 6         0.000 6      2754.677 6        37.977 6
G21  21160605.465 9 111199711.609 9     -1235.516 9        55.713 9  21160604.748 6         0.000 6      -962.740 6        37.977 6
G29  24273989.068 9 127560617.569 9     -3116.475 9        54.484 9  24273990.615 6         0.000 6     -2428.425 6        37.977 6
G27  22025399.280 9 115744227.309 9      2509.714 9        55.366 9  22025401.221 6         0.000 6      1955.622 6        37.977 6
G16  20501936.245 9 107738381.824 9       583.680 9        55.975 9  20501935.418 6         0.000 6       454.816 6        37.977 6
G26  20642350.253 9 108476260.533 9     -1458.196 9        55.878 9  20642353.065 6         0.000 6     -1136.257 6        37.977 6
G20  21965199.229 9 115427867.727 9      2584.618 9        55.307 9  21965199.563 6         0.000 6      2013.989 6        37.977 6
> 2019 07 03 12 00 17.0000000  0  8       0.000000000000
G07  25364826.719 9 133293017.807 9      2206.074 9        54.125 9  25364827.398 6         0.000 6      1719.019 6        37.977 6
G10  23837961.428 9 125269277.672 9      3534.999 9        54.659 9  23837965.182 6         0.000 6      2754.547 6        37.977 6
G21  21160840.611 9 111200947.310 9     -1235.919 9        55.713 9  21160839.895 6         0.000 6      -963.054 6        37.977 6
G29  24274582.125 9 127563734.093 9     -3116.681 9        54.484 9  24274583.673 6         0.000 6     -2428.585 6        37.977 6
G27  22024921.718 9 115741717.702 9      2509.571 9        55.366 9  22024923.658 6         0.000 6      1955.511 6        37.977 6
G16  20501825.231 9 107737798.443 9       583.111 9        55.975 9  20501824.404 6         0.000 6       454.372 6        37.977 6
G26  20642627.793 9 108477719.012 9     -1458.758 9        55.878 9  20642630.605 6         0.000 6     -1136.695 6        37.977 6
G20  21964707.435 9 115425283.339 9      2584.122 9        55.307 9  21964707.769 6         0.000 6      2013.603 6        37.977 6
> 2019 07 03 12 00 18.0000000  0  8       0.000000000000
G07  25364406.937 9 133290811.842 9      2205.876 9        54.126 9  25364407.616 6         0.000 6      1718.865 6        37.977 6
G10  23837288.769 9 125265742.837 9      3534.690 9        54.659 9  23837292.523 6         0.000 6      2754.307 6        37.977 6
G21  21161075.851 9 111202183.503 9     -1236.476 9        55.713 9  21161075.135 6         0.000 6      -963.488 6        37.977 6
G29  24275175.269 9 127566851.076 9     -3117.342 9        54.484 9  24275176.817 6         0.000 6     -2429.100 6        37.977 6
G27  22024444.145 9 115739208.045 9      2509.780 9        55.366 9  22024446.085 6         0.000 6      1955.673 6        37.977 6
G16  20501714.309 9 107737215.545 9       582.706 9        55.975 9  20501713.482 6         0.000 6       454.057 6        37.977 6
G26  20642905.436 9 108479178.035 9     -1459.278 9        55.878 9  20642908.248 6         0.000 6     -1137.100 6        37.977 6
G20  21964215.761 9 115422699.577 9      2583.400 9        55.308 9  21964216.094 6         0.000 6      2013.040 6        37.977 6
> 2019 07 03 12 00 19.0000000  0  8       0.000000000000
G07  25363987.187 9 133288606.047 9      2205.632 9        54.126 9  25363987.866 6         0.000 6      1718.676 6        37.977 6
G10  23836616.171 9 125262208.323 9      3534.445 9        54.659 9  23836619.924 6         0.000 6      2754.116 6        37.977 6
G21  21161311.202 9 111203420.279 9     -1237.082 9        55.713 9  21161310.485 6         0.000 6      -963.960 6        37.977 6
G29  24275768.555 9 127569968.804 9     -3118.111 9        54.483 9  24275770.104 6         0.000 6     -2429.700 6        37.977 6
G27  22023966.521 9 115736698.114 9      2510.053 9        55.367 9  22023968.460 6         0.000 6      1955.886 6        37.977 6
G16  20501603.458 9 107736633.017 9       582.337 9        55.975 9  20501602.631 6         0.000 6       453.769 6        37.977 6
G26  20643183.175 9 108480637.559 9     -1459.739 9        55.878 9  20643185.987 6         0.000 6     -1137.459 6        37.977 6
G20  21963724.230 9 115420116.570 9      2582.690 9        55.308 9  21963724.563 6         0.000 6      2012.487 6        37.977 6
> 2019 07 03 12 00 20.0000000  0  8       0.000000000000
G07  25363567.024 9 133286398.079 9      2213.414 9        54.126 9  25363567.703 6         0.000 6      1724.739 6        37.977 6
G10  23835944.077 9 125258676.457 9      3526.279 9        54.660 9  23835947.830 6         0.000 6      2747.753 6        37.977 6
G21  21161546.609 9 111204657.352 9     -1236.847 9        55.713 9  21161545.893 6         0.000 6      -963.777 6        37.977 6
G29  24276362.018 9 127573087.465 9     -3119.858 9        54.483 9  24276363.568 6         0.000 6     -2431.061 6        37.977 6
G27  22023488.716 9 115734187.236 9      2512.847 9        55.367 9  22023490.655 6         0.000 6      1958.063 6        37.977 6
G16  20501492.632 9 107736050.623 9       582.882 9        55.975 9  20501491.805 6         0.000 6       454.194 6        37.977 6
G26  20643461.205 9 108482098.615 9     -1463.631 9        55.878 9  20643464.017 6         0.000 6     -1140.492 6        37.977 6
G20  21963233.153 9 115417535.945 9      2576.334 9        55.308 9  21963233.485 6         0.000 6      2007.534 6        37.977 6
> 2019 07 03 12 00 21.0000000  0  8       0.000000000000
G07  25363144.552 9 133284177.974 9      2226.693 9        54.126 9  25363145.230 6         0.000 6      1735.086 6        37.977 6
G10  23835274.300 9 125255156.765 9      3513.378 9        54.660 9  23835278.052 6         0.000 6      2737.700 6        37.977 6
G21  21161782.038 9 111205894.539 9     -1237.917 9        55.713 9  21161781.322 6         0.000 6      -964.611 6        37.977 6
G29  24276956.293 9 127576210.389 9     -3126.945 9        54.483 9  24276957.843 6         0.000 6     -2436.583 6        37.977 6
G27  22023009.866 9 115731670.866 9      2520.504 9        55.367 9  22023011.805 6         0.000 6      1964.029 6        37.977 6
G16  20501381.482 9 107735466.528 9       585.618 9        55.975 9  20501380.655 6         0.000 6       456.326 6        37.977 6
G26  20643740.213 9 108483564.811 9     -1468.417 9        55.878 9  20643743.025 6         0.000 6     -1144.221 6        37.977 6
G20  21962743.938 9 115414965.110 9      2565.253 9        55.308 9  21962744.270 6         0.000 6      1998.899 6        37.977 6
> 2019 07 03 12 00 22.0000000  0  8       0.000000000000
G07  25362719.497 9 133281944.304 9      2239.372 9        54.126 9  25362720.176 6         0.000 6      1744.966 6        37.977 6
G10  23834606.920 9 125251649.668 9      3502.145 9        54.660 9  23834610.671 6         0.000 6      2728.947 6        37.977 6
G21  21162017.968 9 111207134.358 9     -1241.981 9        55.713 9  21162017.252 6         0.000 6      -967.777 6        37.977 6
G29  24277552.675 9 127579344.390 9     -3141.214 9        54.483 9  24277554.226 6         0.000 6     -2447.702 6        37.977 6
G27  22022529.037 9 115729144.093 9      2532.836 9        55.367 9  22022530.976 6         0.000 6      1973.639 6        37.977 6
G16  20501269.552 9 107734878.334 9       590.716 9        55.975 9  20501268.726 6         0.000 6       460.298 6        37.977 6
G26  20644019.919 9 108485034.676 9     -1470.685 9        55.877 9  20644022.732 6         0.000 6     -1145.989 6        37.977 6
G20  21962257.009 9 115412406.281 9      2553.258 9        55.308 9  21962257.340 6         0.000 6      1989.553 6        37.977 6
> 2019 07 03 12 00 23.0000000  0  8       0.000000000000
G07  25362293.112 9 133279703.636 9      2241.267 9        54.126 9  25362293.790 6         0.000 6      1746.443 6        37.977 6
G10  23833940.717 9 125248148.760 9      3500.232 9        54.660 9  23833944.468 6         0.000 6      2727.456 6        37.977 6
G21  21162254.492 9 111208377.300 9     -1243.563 9        55.713 9  21162253.776 6         0.000 6      -969.010 6        37.977 6
G29  24278150.917 9 127582488.160 9     -3145.222 9        54.483 9  24278152.468 6         0.000 6     -2450.825 6        37.977 6
G27  22022046.687 9 115726609.330 9      2535.773 9        55.367 9  22022048.626 6         0.000 6      1975.928 6        37.977 6
G16  20501157.020 9 107734286.970 9       591.578 9        55.975 9  20501156.193 6         0.000 6       460.970 6        37.977 6
G26  20644299.822 9 108486505.573 9     -1471.139 9        55.877 9  20644302.634 6         0.000 6     -1146.343 6        37.977 6
G20  21961771.467 9 115409854.749 9      2550.501 9        55.309 9  21961771.799 6         0.000 6      1987.405 6        37.977 6
> 2019 07 03 12 00 24.0000000  0  8       0.000000000000
G07  25361866.608 9 133277462.348 9      2241.216 9        54.126 9  25361867.286 6         0.000 6      1746.403 6        37.977 6
G10  23833274.696 9 125244648.805 9      3499.772 9        54.661 9  23833278.446 6         0.000 6      2727.098 6        37.977 6
G21  21162491.189 9 111209621.150 9     -1244.075 9        55.713 9  21162490.473 6         0.000 6      -969.409 6        37.977 6
G29  24278749.509 9 127585633.775 9     -3145.838 9        54.482 9  24278751.061 6         0.000 6     -2451.305 6        37.977 6
G27  22021564.111 9 115724073.382 9      2535.980 9        55.368 9  22021566.050 6         0.000 6      1976.089 6        37.977 6
G16  20501044.479 9 107733695.567 9       591.158 9        55.975 9  20501043.653 6         0.000 6       460.643 6        37.977 6
G26  20644579.828 9 108487977.011 9     -1471.750 9        55.877 9  20644582.640 6         0.000 6     -1146.818 6        37.977 6
G20  21961286.210 9 115407304.708 9      2549.695 9        55.309 9  21961286.541 6         0.000 6      1986.776 6        37.977 6
> 2019 07 03 12 00 25.0000000  0  8       0.000000000000
G07  25361440.148 9 133275221.290 9      2240.892 9        54.127 9  25361440.826 6         0.000 6      1746.150 6        37.977 6
G10  23832608.737 9 125241149.177 9      3499.518 9        54.661 9  23832612.486 6         0.000 6      2726.900 6        37.977 6
G21  21162727.963 9 111210865.408 9     -1244.439 9        55.713 9  21162727.247 6         0.000 6      -969.693 6        37.977 6
G29  24279348.158 9 127588779.685 9     -3145.986 9        54.482 9  24279349.711 6         0.000 6     -2451.420 6        37.977 6
G27  22021081.545 9 115721537.483 9      2535.810 9        55.368 9  22021083.484 6         0.000 6      1975.956 6        37.977 6
G16  20500932.042 9 107733104.705 9       590.562 9        55.975 9  20500931.215 6         0.000 6       460.178 6        37.977 6
G26  20644859.952 9 108489449.074 9     -1472.378 9        55.877 9  20644862.765 6         0.000 6     -1147.308 6        37.977 6
G20  21960801.071 9 115404755.291 9      2549.162 9        55.309 9  21960801.402 6         0.000 6      1986.361 6        37.977 6
> 2019 07 03 12 00 26.0000000  0  8       0.000000000000
G07  25361013.757 9 133272980.593 9      2240.508 9        54.127 9  25361014.435 6         0.000 6      1745.851 6        37.977 6
G10  23831942.820 9 125237649.773 9      3499.315 9        54.661 9  23831946.569 6         0.000 6      2726.742 6        37.977 6
G21  21162964.806 9 111212110.024 9     -1244.791 9        55.712 9  21162964.090 6         0.000 6      -969.967 6        37.977 6
G29  24279946.828 9 127591925.708 9     -3146.080 9        54.482 9  24279948.381 6         0.000 6     -2451.494 6        37.977 6
G27  22020599.018 9 115719001.787 9      2535.590 9        55.368 9  22020600.956 6         0.000 6      1975.785 6        37.977 6
G16  20500819.721 9 107732514.454 9       589.944 9        55.975 9  20500818.894 6         0.000 6       459.696 6        37.977 6
G26  20645140.196 9 108490921.762 9     -1472.995 9        55.877 9  20645143.008 6         0.000 6     -1147.789 6        37.977 6
G20  21960316.028 9 115402206.378 9      2548.679 9        55.309 9  21960316.359 6         0.000 6      1985.984 6        37.977 6
> 2019 07 03 12 00 27.0000000  0  8       0.000000000000
G07  25360587.441 9 133270740.292 9      2240.099 9        54.127 9  25360588.119 6         0.000 6      1745.533 6        37.977 6
G10  23831276.940 9 125234150.560 9      3499.137 9        54.661 9  23831280.688 6         0.000 6      2726.603 6        37.977 6
G21  21163201.716 9 111213354.995 9     -1245.149 9        55.712 9  21163201.000 6         0.000 6      -970.247 6        37.977 6
G29  24280545.516 9 127595071.827 9     -3146.178 9        54.482 9  24280547.070 6         0.000 6     -2451.570 6        37.977 6
G27  22020116.533 9 115716466.313 9      2535.365 9        55.368 9  22020118.471 6         0.000 6      1975.610 6        37.977 6
G16  20500707.518 9 107731924.822 9       589.322 9        55.975 9  20500706.691 6         0.000 6       459.212 6        37.977 6
G26  20645420.556 9 108492395.061 9     -1473.602 9        55.877 9  20645423.368 6         0.000 6     -1148.262 6        37.977 6
G20  21959831.075 9 115399657.940 9      2548.210 9        55.309 9  21959831.406 6         0.000 6      1985.620 6        37.977 6
> 2019 07 03 12 00 28.0000000  0  8       0.000000000000
G07  25360161.205 9 133268500.409 9      2239.675 9        54.127 9  25360161.882 6         0.000 6      1745.202 6        37.977 6
G10  23830611.092 9 125230651.514 9      3498.974 9        54.662 9  23830614.839 6         0.000 6      2726.476 6        37.977 6
G21  21163438.694 9 111214600.323 9     -1245.509 9        55.712 9  21163437.979 6         0.000 6      -970.527 6        37.977 6
G29  24281144.224 9 127598218.045 9     -3146.272 9        54.482 9  24281145.778 6         0.000 6     -2451.643 6        37.977 6
G27  22019634.090 9 115713931.063 9      2535.134 9        55.368 9  22019636.028 6         0.000 6      1975.430 6        37.977 6
G16  20500595.433 9 107731335.810 9       588.698 9        55.975 9  20500594.606 6         0.000 6       458.726 6        37.977 6
G26  20645701.029 9 108493868.959 9     -1474.203 9        55.877 9  20645703.842 6         0.000 6     -1148.730 6        37.977 6
G20  21959346.211 9 115397109.962 9      2547.753 9        55.310 9  21959346.541 6         0.000 6      1985.263 6        37.977 6
> 2019 07 03 12 00 29.0000000  0  8       0.000000000000
G07  25359735.051 9 133266260.958 9      2239.239 9        54.127 9  25359735.728 6         0.000 6      1744.862 6        37.977 6
G10  23829945.273 9 125227152.623 9      3498.823 9        54.662 9  23829949.019 6         0.000 6      2726.358 6        37.977 6
G21  21163675.740 9 111215846.005 9     -1245.867 9        55.712 9  21163675.024 6         0.000 6      -970.805 6        37.977 6
G29  24281742.947 9 127601364.346 9     -3146.362 9        54.481 9  24281744.502 6         0.000 6     -2451.713 6        37.977 6
G27  22019151.693 9 115711396.050 9      2534.900 9        55.369 9  22019153.631 6         0.000 6      1975.247 6        37.977 6
G16  20500483.466 9 107730747.422 9       588.075 9        55.975 9  20500482.639 6         0.000 6       458.240 6        37.977 6
G26  20645981.617 9 108495343.454 9     -1474.797 9        55.877 9  20645984.430 6         0.000 6     -1149.193 6        37.977 6
G20  21958861.431 9 115394562.432 9      2547.306 9        55.310 9  21958861.761 6         0.000 6      1984.915 6        37.977 6
> 2019 07 03 12 00 30.0000000  0  8       0.000000000000
G07  25359308.980 9 133264021.942 9      2238.796 9        54.127 9  25359309.656 6         0.000 6      1744.517 6        37.977 6
G10  23829279.483 9 125223653.885 9      3498.678 9        54.662 9  23829283.229 6         0.000 6      2726.246 6        37.977 6
G21  21163912.855 9 111217092.053 9     -1246.225 9        55.712 9  21163912.139 6         0.000 6      -971.085 6        37.977 6
G29  24282341.689 9 127604510.749 9     -3146.453 9        54.481 9  24282343.245 6         0.000 6     -2451.784 6        37.977 6
G27  22018669.339 9 115708861.268 9      2534.664 9        55.369 9  22018671.277 6         0.000 6      1975.063 6        37.977 6
G16  20500371.618 9 107730159.658 9       587.451 9        55.975 9  20500370.791 6         0.000 6       457.754 6        37.977 6
G26  20646262.317 9 108496818.545 9     -1475.388 9        55.877 9  20646265.131 6         0.000 6     -1149.653 6        37.977 6
G20  21958376.737 9 115392015.354 9      2546.864 9        55.310 9  21958377.067 6         0.000 6      1984.570 6        37.977 6
> 2019 07 03 12 00 31.0000000  0  8       0.000000000000
G07  25358882.994 9 133261783.377 9      2238.350 9        54.127 9  25358883.671 6         0.000 6      1744.170 6        37.977 6
G10  23828613.719 9 125220155.284 9      3498.537 9        54.662 9  23828617.465 6         0.000 6      2726.136 6        37.977 6
G21  21164150.038 9 111218338.458 9     -1246.588 9        55.712 9  21164149.323 6         0.000 6      -971.367 6        37.977 6
G29  24282940.448 9 127607657.237 9     -3146.549 9        54.481 9  24282942.005 6         0.000 6     -2451.859 6        37.977 6
G27  22018187.031 9 115706326.726 9      2534.430 9        55.369 9  22018188.969 6         0.000 6      1974.882 6        37.977 6
G16  20500259.890 9 107729572.520 9       586.827 9        55.975 9  20500259.063 6         0.000 6       457.268 6        37.977 6
G26  20646543.130 9 108498294.223 9     -1475.976 9        55.876 9  20646545.943 6         0.000 6     -1150.112 6        37.977 6
G20  21957892.127 9 115389468.713 9      2546.421 9        55.310 9  21957892.456 6         0.000 6      1984.226 6        37.977 6
> 2019 07 03 12 00 32.0000000  0  8       0.000000000000
G07  25358457.095 9 133259545.265 9      2237.836 9        54.128 9  25358457.771 6         0.000 6      1743.769 6        37.977 6
G10  23827947.981 9 125216656.817 9      3498.463 9        54.663 9  23827951.726 6         0.000 6      2726.078 6        37.977 6
G21  21164387.291 9 111219585.228 9     -1246.957 9        55.712 9  21164386.575 6         0.000 6      -971.655 6        37.977 6
G29  24283539.225 9 127610803.823 9     -3146.637 9        54.481 9  24283540.782 6         0.000 6     -2451.927 6        37.977 6
G27  22017704.768 9 115703792.419 9      2534.176 9        55.369 9  22017706.706 6         0.000 6      1974.683 6        37.977 6
G16  20500148.280 9 107728986.007 9       586.197 9        55.975 9  20500147.453 6         0.000 6       456.777 6        37.977 6
G26  20646824.054 9 108499770.488 9     -1476.535 9        55.876 9  20646826.868 6         0.000 6     -1150.547 6        37.977 6
G20  21957407.599 9 115386922.510 9      2546.027 9        55.310 9  21957407.928 6         0.000 6      1983.918 6        37.977 6
> 2019 07 03 12 00 33.0000000  0  8       0.000000000000
G07  25358031.329 9 133257307.852 9      2236.946 9        54.128 9  25358032.005 6         0.000 6      1743.075 6        37.977 6
G10  23827282.222 9 125213158.240 9      3498.767 9        54.663 9  23827285.966 6         0.000 6      2726.315 6        37.977 6
G21  21164624.619 9 111220832.395 9     -1247.383 9        55.712 9  21164623.903 6         0.000 6      -971.987 6        37.977 6
G29  24284138.018 9 127613950.492 9     -3146.720 9        54.480 9  24284139.576 6         0.000 6     -2451.993 6        37.977 6
G27  22017222.562 9 115701258.414 9      2533.831 9        55.369 9  22017224.500 6         0.000 6      1974.415 6        37.977 6
G16  20500036.793 9 107728400.139 9       585.539 9        55.975 9  20500035.966 6         0.000 6       456.264 6        37.977 6
G26  20647105.069 9 108501247.227 9     -1476.918 9        55.876 9  20647107.882 6         0.000 6     -1150.846 6        37.977 6
G20  21956923.123 9 115384376.576 9      2545.889 9        55.310 9  21956923.452 6         0.000 6      1983.811 6        37.977 6
> 2019 07 03 12 00 34.0000000  0  8       0.000000000000
G07  25357605.738 9 133255071.362 9      2236.973 9        54.128 9  25357606.414 6         0.000 6      1743.097 6        37.977 6
G10  23826616.397 9 125209659.315 9      3498.489 9        54.663 9  23826620.140 6         0.000 6      2726.098 6        37.977 6
G21  21164862.035 9 111222080.027 9     -1248.607 9        55.712 9  21164861.320 6         0.000 6      -972.941 6        37.977 6
G29  24284736.843 9 127617097.324 9     -3149.115 9        54.480 9  24284738.401 6         0.000 6     -2453.859 6        37.977 6
G27  22016740.414 9 115698724.709 9      2535.244 9        55.369 9  22016742.351 6         0.000 6      1975.516 6        37.977 6
G16  20499925.427 9 107727814.908 9       585.717 9        55.975 9  20499924.600 6         0.000 6       456.403 6        37.977 6
G26  20647386.149 9 108502724.311 9     -1477.011 9        55.876 9  20647388.962 6         0.000 6     -1150.918 6        37.977 6
G20  21956438.672 9 115381830.773 9      2544.697 9        55.311 9  21956439.001 6         0.000 6      1982.882 6        37.977 6
> 2019 07 03 12 00 35.0000000  0  8       0.000000000000
G07  25357179.828 9 133252833.194 9      2238.282 9        54.128 9  25357180.504 6         0.000 6      1744.117 6        37.977 6
G10  23825950.752 9 125206161.338 9      3498.533 9        54.663 9  23825954.495 6         0.000 6      2726.132 6        37.977 6
G21  21165100.147 9 111223331.313 9     -1254.020 9        55.712 9  21165099.432 6         0.000 6      -977.159 6        37.977 6
G29  24285337.384 9 127620253.178 9     -3162.318 9        54.480 9  24285338.943 6         0.000 6     -2464.146 6        37.977 6
G27  22016257.078 9 115696184.767 9      2544.189 9        55.370 9  22016259.015 6         0.000 6      1982.486 6        37.977 6
G16  20499813.580 9 107727227.149 9       589.619 9        55.975 9  20499812.753 6         0.000 6       459.444 6        37.977 6
G26  20647666.997 9 108504200.177 9     -1474.313 9        55.876 9  20647669.811 6         0.000 6     -1148.816 6        37.977 6
G20  21955954.894 9 115379288.504 9      2540.641 9        55.311 9  21955955.222 6         0.000 6      1979.721 6        37.977 6
> 2019 07 03 12 00 36.0000000  0  8       0.000000000000
G07  25356754.382 9 133250597.464 9      2231.001 9        54.128 9  25356755.058 6         0.000 6      1738.443 6        37.977 6
G10  23825284.423 9 125202659.767 9      3506.761 9        54.664 9  23825288.165 6         0.000 6      2732.544 6        37.977 6
G21  21165339.289 9 111224588.010 9     -1259.538 9        55.712 9  21165338.573 6         0.000 6      -981.458 6        37.977 6
G29  24285940.160 9 127623420.781 9     -3172.468 9        54.480 9  24285941.720 6         0.000 6     -2472.056 6        37.977 6
G27  22015772.392 9 115693637.727 9      2549.094 9        55.370 9  22015774.329 6         0.000 6      1986.307 6        37.977 6
G16  20499701.134 9 107726636.241 9       591.896 9        55.976 9  20499700.307 6         0.000 6       461.218 6        37.977 6
G26  20647947.085 9 108505672.045 9     -1468.539 9        55.876 9  20647949.898 6         0.000 6     -1144.317 6        37.977 6
G20  21955471.352 9 115376747.477 9      2542.987 9        55.311 9  21955471.679 6         0.000 6      1981.550 6        37.977 6
> 2019 07 03 12 00 37.0000000  0  8       0.000000000000
G07  25356330.764 9 133248371.337 9      2223.389 9        54.128 9  25356331.439 6         0.000 6      1732.512 6        37.977 6
G10  23824616.188 9 125199148.177 9      3514.134 9        54.664 9  23824619.929 6         0.000 6      2738.289 6        37.977 6
G21  21165579.268 9 111225849.108 9     -1261.872 9        55.711 9  21165578.553 6         0.000 6      -983.277 6        37.977 6
G29  24286544.174 9 127626594.884 9     -3174.635 9        54.480 9  24286545.734 6         0.000 6     -2473.744 6        37.977 6
G27  22015287.341 9 115691088.767 9      2548.574 9        55.370 9  22015289.278 6         0.000 6      1985.902 6        37.977 6
G16  20499588.519 9 107726044.445 9       591.469 9        55.976 9  20499587.692 6         0.000 6       460.885 6        37.977 6
G26  20648226.084 9 108507138.194 9     -1465.111 9        55.876 9  20648228.898 6         0.000 6     -1141.645 6        37.977 6
G20  21954986.935 9 115374201.853 9      2547.029 9        55.311 9  21954987.262 6         0.000 6      1984.699 6        37.977 6
> 2019 07 03 12 00 38.0000000  0  8       0.000000000000
G07  25355907.849 9 133246148.911 9      2221.853 9        54.128 9  25355908.524 6         0.000 6      1731.315 6        37.977 6
G10  23823947.341 9 125195633.375 9      3515.106 9        54.664 9  23823951.082 6         0.000 6      2739.046 6        37.977 6
G21  21165819.457 9 111227111.312 9     -1262.471 9        55.711 9  21165818.742 6         0.000 6      -983.744 6        37.977 6
G29  24287148.310 9 127629769.629 9     -3174.858 9        54.479 9  24287149.871 6         0.000 6     -2473.918 6        37.977 6
G27  22014802.410 9 115688540.441 9      2548.161 9        55.370 9  22014804.346 6         0.000 6      1985.581 6        37.977 6
G16  20499476.031 9 107725453.315 9       590.812 9        55.976 9  20499475.204 6         0.000 6       460.373 6        37.977 6
G26  20648504.871 9 108508603.227 9     -1465.144 9        55.876 9  20648507.685 6         0.000 6     -1141.671 6        37.977 6
G20  21954502.201 9 115371654.567 9      2547.297 9        55.311 9  21954502.529 6         0.000 6      1984.908 6        37.977 6
> 2019 07 03 12 00 39.0000000  0  8       0.000000000000
G07  25355485.100 9 133243927.349 9      2221.323 9        54.129 9  25355485.774 6         0.000 6      1730.902 6        37.977 6
G10  23823278.438 9 125192118.279 9      3515.062 9        54.664 9  23823282.179 6         0.000 6      2739.012 6        37.977 6
G21  21166059.737 9 111228373.990 9     -1262.884 9        55.711 9  21166059.022 6         0.000 6      -984.066 6        37.977 6
G29  24287752.480 9 127632944.556 9     -3175.021 9        54.479 9  24287754.042 6         0.000 6     -2474.045 6        37.977 6
G27  22014317.533 9 115685992.396 9      2547.948 9        55.370 9  22014319.469 6         0.000 6      1985.415 6        37.977 6
G16  20499363.660 9 107724862.805 9       590.211 9        55.976 9  20499362.834 6         0.000 6       459.905 6        37.977 6
G26  20648783.725 9 108510068.617 9     -1465.660 9        55.875 9  20648786.539 6         0.000 6     -1142.074 6        37.977 6
G20  21954017.502 9 115369107.458 9      2546.896 9        55.312 9  21954017.829 6         0.000 6      1984.596 6        37.977 6
> 2019 07 03 12 00 40.0000000  0  8       0.000000000000
G07  25355062.438 9 133241706.249 9      2220.884 9        54.129 9  25355063.112 6         0.000 6      1730.560 6        37.977 6
G10  23822609.558 9 125188603.297 9      3514.920 9        54.665 9  23822613.297 6         0.000 6      2738.902 6        37.977 6
G21  21166300.093 9 111229637.069 9     -1263.276 9        55.711 9  21166299.378 6         0.000 6      -984.371 6        37.977 6
G29  24288356.680 9 127636119.637 9     -3175.158 9        54.479 9  24288358.242 6         0.000 6     -2474.152 6        37.977 6
G27  22013832.694 9 115683444.555 9      2547.734 9        55.371 9  22013834.630 6         0.000 6      1985.248 6        37.977 6
G16  20499251.404 9 107724272.895 9       589.604 9        55.976 9  20499250.577 6         0.000 6       459.432 6        37.977 6
G26  20649062.685 9 108511534.559 9     -1466.232 9        55.875 9  20649065.499 6         0.000 6     -1142.519 6        37.977 6
G20  21953532.887 9 115366560.796 9      2546.436 9        55.312 9  21953533.214 6         0.000 6      1984.237 6        37.977 6
> 2019 07 03 12 00 41.0000000  0  8       0.000000000000
G07  25354639.859 9 133239485.585 9      2220.449 9        54.129 9  25354640.533 6         0.000 6      1730.221 6        37.977 6
G10  23821940.705 9 125185088.461 9      3514.773 9        54.665 9  23821944.443 6         0.000 6      2738.787 6        37.977 6
G21  21166540.523 9 111230900.536 9     -1263.657 9        55.711 9  21166539.808 6         0.000 6      -984.668 6        37.977 6
G29  24288960.905 9 127639294.850 9     -3175.278 9        54.479 9  24288962.468 6         0.000 6     -2474.245 6        37.977 6
G27  22013347.897 9 115680896.930 9      2547.512 9        55.371 9  22013349.832 6         0.000 6      1985.075 6        37.977 6
G16  20499139.264 9 107723683.593 9       588.994 9        55.976 9  20499138.437 6         0.000 6       458.956 6        37.977 6
G26  20649341.754 9 108513001.076 9     -1466.809 9        55.875 9  20649344.569 6         0.000 6     -1142.968 6        37.977 6
G20  21953048.360 9 115364014.595 9      2545.978 9        55.312 9  21953048.687 6         0.000 6      1983.880 6        37.977 6
> 2019 07 03 12 00 42.0000000  0  8       0.000000000000
G07  25354217.362 9 133237265.356 9      2220.010 9        54.129 9  25354218.036 6         0.000 6      1729.879 6        37.977 6
G10  23821271.880 9 125181573.774 9      3514.628 9        54.665 9  23821275.618 6         0.000 6      2738.674 6        37.977 6
G21  21166781.025 9 111232164.378 9     -1264.037 9        55.711 9  21166780.309 6         0.000 6      -984.964 6        37.977 6
G29  24289565.150 9 127642470.171 9     -3175.392 9        54.479 9  24289566.714 6         0.000 6     -2474.334 6        37.977 6
G27  22012863.143 9 115678349.533 9      2547.286 9        55.371 9  22012865.078 6         0.000 6      1984.899 6        37.977 6
G16  20499027.240 9 107723094.903 9       588.382 9        55.976 9  20499026.413 6         0.000 6       458.480 6        37.977 6
G26  20649620.934 9 108514468.172 9     -1467.385 9        55.875 9  20649623.748 6         0.000 6     -1143.417 6        37.977 6
G20  21952563.920 9 115361468.850 9      2545.522 9        55.312 9  21952564.246 6         0.000 6      1983.525 6        37.977 6
> 2019 07 03 12 00 43.0000000  0  8       0.000000000000
G07  25353794.951 9 133235045.574 9      2219.564 9        54.129 9  25353795.625 6         0.000 6      1729.531 6        37.977 6
G10  23820603.081 9 125178059.224 9      3514.490 9        54.665 9  23820606.819 6         0.000 6      2738.566 6        37.977 6
G21  21167021.598 9 111233428.600 9     -1264.410 9        55.711 9  21167020.883 6         0.000 6      -985.255 6        37.977 6
G29  24290169.417 9 127645645.602 9     -3175.491 9        54.478 9  24290170.981 6         0.000 6     -2474.411 6        37.977 6
G27  22012378.433 9 115675802.368 9      2547.049 9        55.371 9  22012380.368 6         0.000 6      1984.714 6        37.977 6
G16  20498915.333 9 107722506.827 9       587.767 9        55.976 9  20498914.506 6         0.000 6       458.000 6        37.977 6
G26  20649900.222 9 108515935.840 9     -1467.961 9        55.875 9  20649903.037 6         0.000 6     -1143.866 6        37.977 6
G20  21952079.565 9 115358923.553 9      2545.076 9        55.312 9  21952079.891 6         0.000 6      1983.178 6        37.977 6
> 2019 07 03 12 00 44.0000000  0  8       0.000000000000
G07  25353372.624 9 133232826.232 9      2219.120 9        54.129 9  25353373.297 6         0.000 6      1729.186 6        37.977 6
G10  23819934.310 9 125174544.818 9      3514.347 9        54.666 9  23819938.047 6         0.000 6      2738.455 6        37.977 6
G21  21167262.243 9 111234693.199 9     -1264.786 9        55.711 9  21167261.528 6         0.000 6      -985.547 6        37.977 6
G29  24290773.703 9 127648821.138 9     -3175.590 9        54.478 9  24290775.268 6         0.000 6     -2474.488 6        37.977 6
G27  22011893.767 9 115673255.437 9      2546.810 9        55.371 9  22011895.703 6         0.000 6      1984.528 6        37.977 6
G16  20498803.543 9 107721919.369 9       587.148 9        55.976 9  20498802.716 6         0.000 6       457.518 6        37.977 6
G26  20650179.621 9 108517404.090 9     -1468.541 9        55.875 9  20650182.436 6         0.000 6     -1144.318 6        37.977 6
G20  21951595.297 9 115356378.709 9      2544.626 9        55.313 9  21951595.623 6         0.000 6      1982.827 6        37.977 6
> 2019 07 03 12 00 45.0000000  0  8       0.000000000000
G07  25352950.383 9 133230607.346 9      2218.635 9        54.129 9  25352951.056 6         0.000 6      1728.807 6        37.977 6
G10  23819265.565 9 125171030.549 9      3514.234 9        54.666 9  23819269.301 6         0.000 6      2738.367 6        37.977 6
G21  21167502.959 9 111235958.165 9     -1265.130 9        55.711 9  21167502.244 6         0.000 6      -985.815 6        37.977 6
G29  24291378.003 9 127651996.746 9     -3175.601 9        54.478 9  24291379.568 6         0.000 6     -2474.497 6        37.977 6
G27  22011409.151 9 115670708.767 9      2546.504 9        55.372 9  22011411.087 6         0.000 6      1984.290 6        37.977 6
G16  20498691.873 9 107721332.539 9       586.499 9        55.976 9  20498691.046 6         0.000 6       457.012 6        37.977 6
G26  20650459.131 9 108518872.923 9     -1469.127 9        55.875 9  20650461.946 6         0.000 6     -1144.775 6        37.977 6
G20  21951111.112 9 115353834.304 9      2544.222 9        55.313 9  21951111.437 6         0.000 6      1982.512 6        37.977 6
> 2019 07 03 12 00 46.0000000  0  8       0.000000000000
G07  25352528.252 9 133228389.033 9      2217.992 9        54.130 9  25352528.924 6         0.000 6      1728.307 6        37.977 6
G10  23818596.829 9 125167516.331 9      3514.224 9        54.666 9  23818600.565 6         0.000 6      2738.359 6        37.977 6
G21  21167743.727 9 111237223.409 9     -1265.356 9        55.711 9  21167743.012 6         0.000 6      -985.992 6        37.977 6
G29  24291982.269 9 127655172.173 9     -3175.254 9        54.478 9  24291983.835 6         0.000 6     -2474.227 6        37.977 6
G27  22010924.622 9 115668162.548 9      2545.921 9        55.372 9  22010926.557 6         0.000 6      1983.835 6        37.977 6
G16  20498580.340 9 107720746.427 9       585.715 9        55.976 9  20498579.513 6         0.000 6       456.401 6        37.977 6
G26  20650738.755 9 108520342.358 9     -1469.755 9        55.875 9  20650741.570 6         0.000 6     -1145.264 6        37.977 6
G20  21950626.985 9 115351290.205 9      2543.989 9        55.313 9  21950627.310 6         0.000 6      1982.330 6        37.977 6
> 2019 07 03 12 00 47.0000000  0  8       0.000000000000
G07  25352106.683 9 133226173.682 9      2209.155 9        54.130 9  25352107.356 6         0.000 6      1721.421 6        37.977 6
G10  23817927.660 9 125163999.833 9      3522.266 9        54.666 9  23817931.395 6         0.000 6      2744.625 6        37.977 6
G21  21167984.587 9 111238489.136 9     -1266.364 9        55.710 9  21167983.872 6         0.000 6      -986.777 6        37.977 6
G29  24292586.418 9 127658346.987 9     -3173.660 9        54.477 9  24292587.984 6         0.000 6     -2472.985 6        37.977 6
G27  22010440.340 9 115665617.631 9      2542.601 9        55.372 9  22010442.274 6         0.000 6      1981.248 6        37.977 6
G16  20498469.003 9 107720161.347 9       583.954 9        55.976 9  20498468.176 6         0.000 6       455.029 6        37.977 6
G26  20651018.308 9 108521811.414 9     -1466.914 9        55.875 9  20651021.123 6         0.000 6     -1143.050 6        37.977 6
G20  21950142.594 9 115348744.718 9      2549.546 9        55.313 9  21950142.919 6         0.000 6      1986.660 6        37.977 6
> 2019 07 03 12 00 48.0000000  0  8       0.000000000000
G07  25351687.745 9 133223972.151 9      2194.135 9        54.130 9  25351688.418 6         0.000 6      1709.716 6        37.977 6
G10  23817256.092 9 125160470.730 9      3535.596 9        54.667 9  23817259.826 6         0.000 6      2755.013 6        37.977 6
G21  21168225.559 9 111239755.454 9     -1265.829 9        55.710 9  21168224.844 6         0.000 6      -986.360 6        37.977 6
G29  24293189.698 9 127661517.237 9     -3165.874 9        54.477 9  24293191.265 6         0.000 6     -2466.917 6        37.977 6
G27  22009957.288 9 115663079.180 9      2533.706 9        55.372 9  22009959.223 6         0.000 6      1974.317 6        37.977 6
G16  20498358.256 9 107719579.372 9       579.691 9        55.976 9  20498357.429 6         0.000 6       451.707 6        37.977 6
G26  20651297.052 9 108523276.221 9     -1463.108 9        55.874 9  20651299.867 6         0.000 6     -1140.085 6        37.977 6
G20  21949656.399 9 115346189.752 9      2560.435 9        55.313 9  21949656.724 6         0.000 6      1995.145 6        37.977 6
> 2019 07 03 12 00 49.0000000  0  8       0.000000000000
G07  25351271.666 9 133221785.640 9      2180.568 9        54.130 9  25351272.338 6         0.000 6      1699.145 6        37.977 6
G10  23816582.103 9 125156928.903 9      3546.447 9        54.667 9  23816585.836 6         0.000 6      2763.468 6        37.977 6
G21  21168466.112 9 111241019.570 9     -1262.283 9        55.710 9  21168465.398 6         0.000 6      -983.597 6        37.977 6
G29  24293790.722 9 127664675.627 9     -3151.277 9        54.477 9  24293792.290 6         0.000 6     -2455.543 6        37.977 6
G27  22009476.445 9 115660552.337 9      2520.607 9        55.372 9  22009478.380 6         0.000 6      1964.110 6        37.977 6
G16  20498248.580 9 107719003.018 9       573.247 9        55.976 9  20498247.753 6         0.000 6       446.686 6        37.977 6
G26  20651575.313 9 108524738.494 9     -1462.121 9        55.874 9  20651578.129 6         0.000 6     -1139.316 6        37.977 6
G20  21949167.989 9 115343623.140 9      2571.595 9        55.314 9  21949168.313 6         0.000 6      2003.841 6        37.977 6
> 2019 07 03 12 00 50.0000000  0  8       0.000000000000
G07  25350857.017 9 133219606.650 9      2178.071 9        54.130 9  25350857.689 6         0.000 6      1697.199 6        37.977 6
G10  23815907.059 9 125153381.538 9      3547.816 9        54.667 9  23815910.792 6         0.000 6      2764.535 6        37.977 6
G21  21168706.209 9 111242281.287 9     -1261.482 9        55.710 9  21168705.495 6         0.000 6      -982.973 6        37.977 6
G29  24294389.947 9 127667824.565 9     -3147.697 9        54.477 9  24294391.515 6         0.000 6     -2452.753 6        37.977 6
G27  22008997.174 9 115658033.753 9      2517.443 9        55.373 9  22008999.108 6         0.000 6      1961.645 6        37.977 6
G16  20498139.723 9 107718430.969 9       571.266 9        55.976 9  20498138.896 6         0.000 6       445.143 6        37.977 6
G26  20651853.622 9 108526201.014 9     -1462.879 9        55.874 9  20651856.437 6         0.000 6     -1139.906 6        37.977 6
G20  21948678.416 9 115341050.425 9      2573.210 9        55.314 9  21948678.740 6         0.000 6      2005.100 6        37.977 6
> 2019 07 03 12 00 51.0000000  0  8       0.000000000000
G07  25350442.621 9 133217428.990 9      2177.338 9        54.130 9  25350443.293 6         0.000 6      1696.628 6        37.977 6
G10  23815231.920 9 125149833.667 9      3547.890 9        54.667 9  23815235.652 6         0.000 6      2764.592 6        37.977 6
G21  21168946.278 9 111243542.856 9     -1261.712 9        55.710 9  21168945.563 6         0.000 6      -983.152 6        37.977 6
G29  24294988.882 9 127670971.981 9     -3147.322 9        54.477 9  24294990.451 6         0.000 6     -2452.461 6        37.977 6
G27  22008518.191 9 115655516.685 9      2516.828 9        55.373 9  22008520.126 6         0.000 6      1961.165 6        37.977 6
G16  20498031.095 9 107717860.126 9       570.481 9        55.976 9  20498030.268 6         0.000 6       444.531 6        37.977 6
G26  20652132.055 9 108527664.189 9     -1463.461 9        55.874 9  20652134.871 6         0.000 6     -1140.360 6        37.977 6
G20  21948188.759 9 115338477.264 9      2573.036 9        55.314 9  21948189.083 6         0.000 6      2004.964 6        37.977 6
> 2019 07 03 12 00 52.0000000  0  8       0.000000000000
G07  25350028.338 9 133215251.921 9      2176.817 9        54.130 9  25350029.010 6         0.000 6      1696.222 6        37.977 6
G10  23814556.786 9 125146285.824 9      3547.811 9        54.667 9  23814560.517 6         0.000 6      2764.530 6        37.977 6
G21  21169186.409 9 111244804.750 9     -1262.076 9        55.710 9  21169185.694 6         0.000 6      -983.436 6        37.977 6
G29  24295587.800 9 127674119.306 9     -3147.358 9        54.476 9  24295589.370 6         0.000 6     -2452.489 6        37.977 6
G27  22008039.284 9 115653000.011 9      2516.536 9        55.373 9  22008041.218 6         0.000 6      1960.938 6        37.977 6
G16  20497922.597 9 107717289.966 9       569.847 9        55.976 9  20497921.770 6         0.000 6       444.037 6        37.977 6
G26  20652410.595 9 108529127.926 9     -1464.015 9        55.874 9  20652413.411 6         0.000 6     -1140.791 6        37.977 6
G20  21947699.164 9 115335904.428 9      2572.640 9        55.314 9  21947699.487 6         0.000 6      2004.656 6        37.977 6
> 2019 07 03 12 00 53.0000000  0  8       0.000000000000
G07  25349614.151 9 133213075.355 9      2176.331 9        54.131 9  25349614.822 6         0.000 6      1695.843 6        37.977 6
G10  23813881.669 9 125142738.074 9      3547.703 9        54.668 9  23813885.400 6         0.000 6      2764.447 6        37.977 6
G21  21169426.610 9 111246067.014 9     -1262.454 9        55.710 9  21169425.895 6         0.000 6      -983.731 6        37.977 6
G29  24296186.730 9 127677266.692 9     -3147.439 9        54.476 9  24296188.300 6         0.000 6     -2452.553 6        37.977 6
G27  22007560.428 9 115650483.608 9      2516.281 9        55.373 9  22007562.361 6         0.000 6      1960.739 6        37.977 6
G16  20497814.217 9 107716720.427 9       569.231 9        55.976 9  20497813.390 6         0.000 6       443.557 6        37.977 6
G26  20652689.241 9 108530592.216 9     -1464.571 9        55.874 9  20652692.057 6         0.000 6     -1141.225 6        37.977 6
G20  21947209.647 9 115333332.002 9      2572.212 9        55.314 9  21947209.970 6         0.000 6      2004.323 6        37.977 6
> 2019 07 03 12 00 54.0000000  0  8       0.000000000000
G07  25349200.053 9 133210899.262 9      2175.861 9        54.131 9  25349200.724 6         0.000 6      1695.477 6        37.977 6
G10  23813206.575 9 125139190.442 9      3547.581 9        54.668 9  23813210.306 6         0.000 6      2764.352 6        37.977 6
G21  21169666.882 9 111247329.652 9     -1262.824 9        55.710 9  21169666.167 6         0.000 6      -984.019 6        37.977 6
G29  24296785.675 9 127680414.164 9     -3147.518 9        54.476 9  24296787.246 6         0.000 6     -2452.614 6        37.977 6
G27  22007081.618 9 115647967.451 9      2516.033 9        55.373 9  22007083.552 6         0.000 6      1960.546 6        37.977 6
G16  20497705.954 9 107716151.500 9       568.620 9        55.976 9  20497705.127 6         0.000 6       443.080 6        37.977 6
G26  20652967.992 9 108532057.062 9     -1465.130 9        55.874 9  20652970.808 6         0.000 6     -1141.660 6        37.977 6
G20  21946720.212 9 115330760.011 9      2571.778 9        55.314 9  21946720.535 6         0.000 6      2003.984 6        37.977 6
> 2019 07 03 12 00 55.0000000  0  8       0.000000000000
G07  25348786.045 9 133208723.636 9      2175.397 9        54.131 9  25348786.716 6         0.000 6      1695.115 6        37.977 6
G10  23812531.505 9 125135642.936 9      3547.452 9        54.668 9  23812535.235 6         0.000 6      2764.251 6        37.977 6
G21  21169907.225 9 111248592.662 9     -1263.198 9        55.710 9  21169906.510 6         0.000 6      -984.311 6        37.977 6
G29  24297384.636 9 127683561.713 9     -3147.602 9        54.476 9  24297386.208 6         0.000 6     -2452.680 6        37.977 6
G27  22006602.857 9 115645451.544 9      2515.786 9        55.373 9  22006604.790 6         0.000 6      1960.353 6        37.977 6
G16  20497597.808 9 107715583.186 9       568.007 9        55.976 9  20497596.981 6         0.000 6       442.603 6        37.977 6
G26  20653246.851 9 108533522.473 9     -1465.695 9        55.874 9  20653249.667 6         0.000 6     -1142.100 6        37.977 6
G20  21946230.861 9 115328188.459 9      2571.335 9        55.315 9  21946231.184 6         0.000 6      2003.639 6        37.977 6
> 2019 07 03 12 00 56.0000000  0  8       0.000000000000
G07  25348372.126 9 133206548.481 9      2174.930 9        54.131 9  25348372.796 6         0.000 6      1694.751 6        37.977 6
G10  23811856.459 9 125132095.552 9      3547.326 9        54.668 9  23811860.188 6         0.000 6      2764.153 6        37.977 6
G21  21170147.638 9 111249856.042 9     -1263.571 9        55.710 9  21170146.924 6         0.000 6      -984.601 6        37.977 6
G29  24297983.612 9 127686709.342 9     -3147.681 9        54.476 9  24297985.184 6         0.000 6     -2452.741 6        37.977 6
G27  22006124.142 9 115642935.886 9      2515.535 9        55.374 9  22006126.076 6         0.000 6      1960.158 6        37.977 6
G16  20497489.777 9 107715015.484 9       567.392 9        55.976 9  20497488.951 6         0.000 6       442.124 6        37.977 6
G26  20653525.816 9 108534988.443 9     -1466.259 9        55.873 9  20653528.632 6         0.000 6     -1142.540 6        37.977 6
G20  21945741.593 9 115325617.342 9      2570.896 9        55.315 9  21945741.916 6         0.000 6      2003.297 6        37.977 6
> 2019 07 03 12 00 57.0000000  0  8       0.000000000000
G07  25347958.293 9 133204373.778 9      2174.475 9        54.131 9  25347958.963 6         0.000 6      1694.397 6        37.977 6
G10  23811181.439 9 125128548.310 9      3547.189 9        54.669 9  23811185.167 6         0.000 6      2764.046 6        37.977 6
G21  21170388.123 9 111251119.800 9     -1263.939 9        55.709 9  21170387.409 6         0.000 6      -984.888 6        37.977 6
G29  24298582.605 9 127689857.059 9     -3147.763 9        54.475 9  24298584.177 6         0.000 6     -2452.805 6        37.977 6
G27  22005645.474 9 115640420.472 9      2515.293 9        55.374 9  22005647.408 6         0.000 6      1959.969 6        37.977 6
G16  20497381.864 9 107714448.396 9       566.784 9        55.977 9  20497381.037 6         0.000 6       441.650 6        37.977 6
G26  20653804.890 9 108536454.985 9     -1466.824 9        55.873 9  20653807.706 6         0.000 6     -1142.980 6        37.977 6
G20  21945252.411 9 115323046.679 9      2570.450 9        55.315 9  21945252.733 6         0.000 6      2002.949 6        37.977 6
> 2019 07 03 12 00 58.0000000  0  8       0.000000000000
G07  25347544.548 9 133202199.536 9      2174.019 9        54.131 9  25347545.218 6         0.000 6      1694.042 6        37.977 6
G10  23810506.444 9 125125001.200 9      3547.049 9        54.669 9  23810510.172 6         0.000 6      2763.937 6        37.977 6
G21  21170628.679 9 111252383.928 9     -1264.314 9        55.709 9  21170627.965 6         0.000 6      -985.180 6        37.977 6
G29  24299181.612 9 127693004.854 9     -3147.846 9        54.475 9  24299183.186 6         0.000 6     -2452.870 6        37.977 6
G27  22005166.854 9 115637905.307 9      2515.046 9        55.374 9  22005168.787 6         0.000 6      1959.777 6        37.977 6
G16  20497274.068 9 107713881.922 9       566.168 9        55.977 9  20497273.241 6         0.000 6       441.170 6        37.977 6
G26  20654084.072 9 108537922.094 9     -1467.395 9        55.873 9  20654086.888 6         0.000 6     -1143.425 6        37.977 6
G20  21944763.314 9 115320476.459 9      2570.000 9        55.315 9  21944763.636 6         0.000 6      2002.598 6        37.977 6
> 2019 07 03 12 00 59.0000000  0  8       0.000000000000
G07  25347130.889 9 133200025.746 9      2173.564 9        54.131 9  25347131.559 6         0.000 6      1693.687 6        37.977 6
G10  23809831.477 9 125121454.233 9      3546.912 9        54.669 9  23809835.204 6         0.000 6      2763.830 6        37.977 6
G21  21170869.305 9 111253648.426 9     -1264.682 9        55.709 9  21170868.591 6         0.000 6      -985.467 6        37.977 6
G29  24299780.635 9 127696152.731 9     -3147.929 9        54.475 9  24299782.209 6         0.000 6     -2452.934 6        37.977 6
G27  22004688.280 9 115635390.386 9      2514.803 9        55.374 9  22004690.213 6         0.000 6      1959.588 6        37.977 6
G16  20497166.388 9 107713316.060 9       565.560 9        55.977 9  20497165.561 6         0.000 6       440.696 6        37.977 6
G26  20654363.362 9 108539389.773 9     -1467.960 9        55.873 9  20654366.179 6         0.000 6     -1143.866 6        37.977 6
G20  21944274.302 9 115317906.689 9      2569.554 9        55.315 9  21944274.624 6         0.000 6      2002.251 6        37.977 6
> 2019 07 03 12 01  0.0000000  0  8       0.000000000000
G07  25346717.302 9 133197852.338 9      2173.325 9        54.132 9  25346717.972 6         0.000 6      1693.501 6        37.977 6
G10  23809156.550 9 125117907.477 9      3546.557 9        54.669 9  23809160.276 6         0.000 6      2763.553 6        37.977 6
G21  21171110.000 9 111254913.285 9     -1265.020 9        55.709 9  21171109.286 6         0.000 6      -985.730 6        37.977 6
G29  24300379.674 9 127699300.693 9     -3148.014 9        54.475 9  24300381.249 6         0.000 6     -2453.000 6        37.977 6
G27  22004209.749 9 115632875.691 9      2514.610 9        55.374 9  22004211.681 6         0.000 6      1959.437 6        37.977 6
G16  20497058.823 9 107712750.803 9       564.962 9        55.977 9  20497057.996 6         0.000 6       440.230 6        37.977 6
G26  20654642.767 9 108540858.053 9     -1468.630 9        55.873 9  20654645.583 6         0.000 6     -1144.388 6        37.977 6
G20  21943785.385 9 115315337.417 9      2568.958 9        55.316 9  21943785.706 6         0.000 6      2001.787 6        37.977 6
> 2019 07 03 12 01  1.0000000  0  8       0.000000000000
G07  25346303.776 9 133195679.247 9      2171.683 9        54.132 9  25346304.446 6         0.000 6      1692.222 6        37.977 6
G10  23808481.686 9 125114361.057 9      3547.046 9        54.670 9  23808485.412 6         0.000 6      2763.934 6        37.977 6
G21  21171350.731 9 111256178.332 9     -1264.047 9        55.709 9  21171350.016 6         0.000 6      -984.972 6        37.977 6
G29  24300978.655 9 127702448.346 9     -3144.344 9        54.474 9  24300980.230 6         0.000 6     -2450.141 6        37.977 6
G27  22003731.308 9 115630361.470 9      2511.586 9        55.375 9  22003733.240 6         0.000 6      1957.081 6        37.977 6
G16  20496951.398 9 107712186.282 9       563.006 9        55.977 9  20496950.571 6         0.000 6       438.706 6        37.977 6
G26  20654922.316 9 108542327.090 9     -1469.826 9        55.873 9  20654925.132 6         0.000 6     -1145.319 6        37.977 6
G20  21943296.557 9 115312768.615 9      2570.004 9        55.316 9  21943296.878 6         0.000 6      2002.601 6        37.977 6
> 2019 07 03 12 01  2.0000000  0  8       0.000000000000
G07  25345890.778 9 133193508.934 9      2170.250 9        54.132 9  25345891.448 6         0.000 6      1691.105 6        37.977 6
G10  23807806.700 9 125110813.991 9      3545.881 9        54.670 9  23807810.425 6         0.000 6      2763.027 6        37.977 6
G21  21171590.795 9 111257439.880 9     -1259.085 9        55.709 9  21171590.081 6         0.000 6      -981.106 6        37.977 6
G29  24301575.684 9 127705585.747 9     -3131.048 9        54.474 9  24301577.260 6         0.000 6     -2439.781 6        37.977 6
G27  22003254.326 9 115627854.914 9      2502.205 9        55.375 9  22003256.258 6         0.000 6      1949.771 6        37.977 6
G16  20496844.779 9 107711625.996 9       557.833 9        55.977 9  20496843.952 6         0.000 6       434.675 6        37.977 6
G26  20655202.384 9 108543798.854 9     -1474.154 9        55.873 9  20655205.200 6         0.000 6     -1148.692 6        37.977 6
G20  21942807.152 9 115310196.776 9      2572.690 9        55.316 9  21942807.473 6         0.000 6      2004.694 6        37.977 6
> 2019 07 03 12 01  3.0000000  0  8       0.000000000000
G07  25345477.229 9 133191335.719 9      2178.565 9        54.132 9  25345477.898 6         0.000 6      1697.584 6        37.977 6
G10  23807132.712 9 125107272.168 9      3535.492 9        54.670 9  23807136.436 6         0.000 6      2754.932 6        37.977 6
G21  21171829.930 9 111258696.542 9     -1254.135 9        55.709 9  21171829.216 6         0.000 6      -977.248 6        37.977 6
G29  24302170.540 9 127708711.726 9     -3121.598 9        54.474 9  24302172.117 6         0.000 6     -2432.417 6        37.977 6
G27  22002778.699 9 115625355.484 9      2497.656 9        55.375 9  22002780.632 6         0.000 6      1946.226 6        37.977 6
G16  20496738.971 9 107711069.971 9       554.594 9        55.977 9  20496738.144 6         0.000 6       432.151 6        37.977 6
G26  20655483.554 9 108545276.414 9     -1481.891 9        55.873 9  20655486.371 6         0.000 6     -1154.720 6        37.977 6
G20  21942317.860 9 115307625.534 9      2568.068 9        55.316 9  21942318.180 6         0.000 6      2001.093 6        37.977 6
> 2019 07 03 12 01  4.0000000  0  8       0.000000000000
G07  25345062.022 9 133189153.795 9      2183.698 9        54.132 9  25345062.691 6         0.000 6      1701.584 6        37.977 6
G10  23806460.653 9 125103740.487 9      3529.575 9        54.670 9  23806464.377 6         0.000 6      2750.321 6        37.977 6
G21  21172068.445 9 111259949.944 9     -1253.168 9        55.709 9  21172067.731 6         0.000 6      -976.494 6        37.977 6
G29  24302764.414 9 127711832.542 9     -3120.632 9        54.474 9  24302765.991 6         0.000 6     -2431.664 6        37.977 6
G27  22002303.378 9 115622857.653 9      2498.020 9        55.375 9  22002305.310 6         0.000 6      1946.510 6        37.977 6
G16  20496633.500 9 107710515.718 9       553.995 9        55.977 9  20496632.673 6         0.000 6       431.684 6        37.977 6
G26  20655765.975 9 108546760.545 9     -1485.445 9        55.873 9  20655768.792 6         0.000 6     -1157.490 6        37.977 6
G20  21941829.649 9 115305059.970 9      2564.035 9        55.316 9  21941829.969 6         0.000 6      1997.950 6        37.977 6
> 2019 07 03 12 01  5.0000000  0  8       0.000000000000
G07  25344646.415 9 133186969.774 9      2184.050 9        54.132 9  25344647.084 6         0.000 6      1701.858 6        37.977 6
G10  23805789.117 9 125100211.555 9      3528.616 9        54.671 9  23805792.841 6         0.000 6      2749.573 6        37.977 6
G21  21172306.930 9 111261203.190 9     -1253.374 9        55.709 9  21172306.216 6         0.000 6      -976.656 6        37.977 6
G29  24303358.253 9 127714953.180 9     -3120.667 9        54.474 9  24303359.831 6         0.000 6     -2431.691 6        37.977 6
G27  22001828.021 9 115620359.641 9      2497.941 9        55.375 9  22001829.953 6         0.000 6      1946.448 6        37.977 6
G16  20496528.132 9 107709962.002 9       553.418 9        55.977 9  20496527.305 6         0.000 6       431.235 6        37.977 6
G26  20656048.752 9 108548246.546 9     -1486.417 9        55.872 9  20656051.569 6         0.000 6     -1158.247 6        37.977 6
G20  21941341.842 9 115302496.533 9      2563.054 9        55.317 9  21941342.162 6         0.000 6      1997.186 6        37.977 6
> 2019 07 03 12 01  6.0000000  0  8       0.000000000000
G07  25344230.839 9 133184785.907 9      2183.663 9        54.132 9  25344231.507 6         0.000 6      1701.556 6        37.977 6
G10  23805117.667 9 125096683.070 9      3528.402 9        54.671 9  23805121.389 6         0.000 6      2749.407 6        37.977 6
G21  21172545.471 9 111262456.730 9     -1253.712 9        55.709 9  21172544.757 6         0.000 6      -976.919 6        37.977 6
G29  24303952.102 9 127718073.868 9     -3120.727 9        54.473 9  24303953.681 6         0.000 6     -2431.738 6        37.977 6
G27  22001352.700 9 115617861.817 9      2497.705 9        55.376 9  22001354.632 6         0.000 6      1946.264 6        37.977 6
G16  20496422.878 9 107709408.891 9       552.800 9        55.977 9  20496422.051 6         0.000 6       430.753 6        37.977 6
G26  20656331.668 9 108549733.274 9     -1487.032 9        55.872 9  20656334.485 6         0.000 6     -1158.727 6        37.977 6
G20  21940854.157 9 115299933.737 9      2562.566 9        55.317 9  21940854.477 6         0.000 6      1996.806 6        37.977 6
> 2019 07 03 12 01  7.0000000  0  8       0.000000000000
G07  25343815.346 9 133182602.480 9      2183.201 9        54.133 9  25343816.014 6         0.000 6      1701.197 6        37.977 6
G10  23804446.248 9 125093154.749 9      3528.263 9        54.671 9  23804449.970 6         0.000 6      2749.298 6        37.977 6
G21  21172784.078 9 111263710.620 9     -1254.065 9        55.708 9  21172783.364 6         0.000 6      -977.194 6        37.977 6
G29  24304545.962 9 127721194.612 9     -3120.791 9        54.473 9  24304547.542 6         0.000 6     -2431.788 6        37.977 6
G27  22000877.428 9 115615364.248 9      2497.452 9        55.376 9  22000879.360 6         0.000 6      1946.067 6        37.977 6
G16  20496317.745 9 107708856.411 9       552.175 9        55.977 9  20496316.918 6         0.000 6       430.266 6        37.977 6
G26  20656614.697 9 108551220.601 9     -1487.613 9        55.872 9  20656617.514 6         0.000 6     -1159.180 6        37.977 6
G20  21940366.559 9 115297371.396 9      2562.127 9        55.317 9  21940366.878 6         0.000 6      1996.464 6        37.977 6
> 2019 07 03 12 01  8.0000000  0  8       0.000000000000
G07  25343399.941 9 133180419.515 9      2182.736 9        54.133 9  25343400.609 6         0.000 6      1700.834 6        37.977 6
G10  23803774.855 9 125089626.564 9      3528.127 9        54.671 9  23803778.576 6         0.000 6      2749.193 6        37.977 6
G21  21173022.753 9 111264964.862 9     -1254.421 9        55.708 9  21173022.039 6         0.000 6      -977.471 6        37.977 6
G29  24305139.836 9 127724315.431 9     -3120.861 9        54.473 9  24305141.416 6         0.000 6     -2431.842 6        37.977 6
G27  22000402.202 9 115612866.921 9      2497.202 9        55.376 9  22000404.134 6         0.000 6      1945.873 6        37.977 6
G16  20496212.728 9 107708304.545 9       551.551 9        55.977 9  20496211.901 6         0.000 6       429.780 6        37.977 6
G26  20656897.835 9 108552708.499 9     -1488.192 9        55.872 9  20656900.652 6         0.000 6     -1159.631 6        37.977 6
G20  21939879.044 9 115294809.492 9      2561.689 9        55.317 9  21939879.363 6         0.000 6      1996.122 6        37.977 6
> 2019 07 03 12 01  9.0000000  0  8       0.000000000000
G07  25342984.624 9 133178237.016 9      2182.273 9        54.133 9  25342985.292 6         0.000 6      1700.473 6        37.977 6
G10  23803103.487 9 125086098.514 9      3527.991 9        54.672 9  23803107.207 6         0.000 6      2749.087 6        37.977 6
G21  21173261.495 9 111266219.461 9     -1254.779 9        55.708 9  21173260.781 6         0.000 6      -977.750 6        37.977 6
G29  24305733.723 9 127727436.319 9     -3120.941 9        54.473 9  24305735.304 6         0.000 6     -2431.905 6        37.977 6
G27  21999927.024 9 115610369.843 9      2496.961 9        55.376 9  21999928.955 6         0.000 6      1945.685 6        37.977 6
G16  20496107.830 9 107707753.303 9       550.934 9        55.977 9  20496107.003 6         0.000 6       429.299 6        37.977 6
G26  20657181.083 9 108554196.977 9     -1488.766 9        55.872 9  20657183.900 6         0.000 6     -1160.078 6        37.977 6
G20  21939391.612 9 115292248.027 9      2561.248 9        55.317 9  21939391.931 6         0.000 6      1995.779 6        37.977 6
> 2019 07 03 12 01 10.0000000  0  8       0.000000000000
G07  25342569.395 9 133176054.976 9      2181.810 9        54.133 9  25342570.063 6         0.000 6      1700.113 6        37.977 6
G10  23802432.146 9 125082570.602 9      3527.855 9        54.672 9  23802435.866 6         0.000 6      2748.981 6        37.977 6
G21  21173500.306 9 111267474.420 9     -1255.138 9        55.708 9  21173499.592 6         0.000 6      -978.030 6        37.977 6
G29  24306327.627 9 127730557.293 9     -3121.021 9        54.473 9  24306329.208 6         0.000 6     -2431.967 6        37.977 6
G27  21999451.890 9 115607873.003 9      2496.721 9        55.376 9  21999453.821 6         0.000 6      1945.497 6        37.977 6
G16  20496003.050 9 107707202.678 9       550.316 9        55.977 9  20496002.223 6         0.000 6       428.818 6        37.977 6
G26  20657464.440 9 108555686.028 9     -1489.340 9        55.872 9  20657467.258 6         0.000 6     -1160.525 6        37.977 6
G20  21938904.265 9 115289687.005 9      2560.807 9        55.318 9  21938904.584 6         0.000 6      1995.435 6        37.977 6
> 2019 07 03 12 01 11.0000000  0  8       0.000000000000
G07  25342154.255 9 133173873.406 9      2181.348 9        54.133 9  25342154.923 6         0.000 6      1699.752 6        37.977 6
G10  23801760.830 9 125079042.823 9      3527.719 9        54.672 9  23801764.549 6         0.000 6      2748.875 6        37.977 6
G21  21173739.185 9 111268729.739 9     -1255.496 9        55.708 9  21173738.471 6         0.000 6      -978.309 6        37.977 6
G29  24306921.545 9 127733678.342 9     -3121.101 9        54.472 9  24306923.127 6         0.000 6     -2432.030 6        37.977 6
G27  21998976.804 9 115605376.411 9      2496.480 9        55.376 9  21998978.735 6         0.000 6      1945.309 6        37.977 6
G16  20495898.388 9 107706652.675 9       549.698 9        55.977 9  20495897.561 6         0.000 6       428.336 6        37.977 6
G26  20657747.907 9 108557175.656 9     -1489.915 9        55.872 9  20657750.725 6         0.000 6     -1160.973 6        37.977 6
G20  21938417.002 9 115287126.422 9      2560.366 9        55.318 9  21938417.320 6         0.000 6      1995.091 6        37.977 6
> 2019 07 03 12 01 12.0000000  0  8       0.000000000000
G07  25341739.202 9 133171692.289 9      2180.901 9        54.133 9  25341739.869 6         0.000 6      1699.405 6        37.977 6
G10  23801089.540 9 125075515.185 9      3527.572 9        54.672 9  23801093.259 6         0.000 6      2748.760 6        37.977 6
G21  21173978.133 9 111269985.416 9     -1255.866 9        55.708 9  21173977.419 6         0.000 6      -978.597 6        37.977 6
G29  24307515.480 9 127736799.481 9     -3121.218 9        54.472 9  24307517.062 6         0.000 6     -2432.120 6        37.977 6
G27  21998501.762 9 115602880.049 9      2496.266 9        55.377 9  21998503.692 6         0.000 6      1945.143 6        37.977 6
G16  20495793.842 9 107706103.284 9       549.093 9        55.977 9  20495793.015 6         0.000 6       427.865 6        37.977 6
G26  20658031.483 9 108558665.856 9     -1490.486 9        55.872 9  20658034.301 6         0.000 6     -1161.418 6        37.977 6
G20  21937929.823 9 115284566.286 9      2559.907 9        55.318 9  21937930.141 6         0.000 6      1994.734 6        37.977 6
> 2019 07 03 12 01 13.0000000  0  8       0.000000000000
G07  25341324.234 9 133169511.622 9      2179.866 9        54.133 9  25341324.901 6         0.000 6      1698.598 6        37.977 6
G10  23800418.275 9 125071987.672 9      3528.052 9        54.673 9  23800421.993 6         0.000 6      2749.134 6        37.977 6
G21  21174217.161 9 111271241.519 9     -1256.430 9        55.708 9  21174216.448 6         0.000 6      -979.037 6        37.977 6
G29  24308109.462 9 127739920.867 9     -3121.571 9        54.472 9  24308111.045 6         0.000 6     -2432.395 6        37.977 6
G27  21998026.744 9 115600383.814 9      2496.073 9        55.377 9  21998028.674 6         0.000 6      1944.993 6        37.977 6
G16  20495689.403 9 107705554.455 9       548.529 9        55.977 9  20495688.576 6         0.000 6       427.425 6        37.977 6
G26  20658315.160 9 108560156.585 9     -1490.702 9        55.871 9  20658317.978 6         0.000 6     -1161.586 6        37.977 6
G20  21937442.736 9 115282006.632 9      2559.801 9        55.318 9  21937443.054 6         0.000 6      1994.651 6        37.977 6
> 2019 07 03 12 01 14.0000000  0  8       0.000000000000
G07  25340908.532 9 133167327.098 9      2191.273 9        54.134 9  25340909.199 6         0.000 6      1707.486 6        37.977 6
G10  23799747.836 9 125068464.504 9      3516.370 9        54.673 9  23799751.554 6         0.000 6      2740.031 6        37.977 6
G21  21174456.196 9 111272497.652 9     -1255.925 9        55.708 9  21174455.482 6         0.000 6      -978.643 6        37.977 6
G29  24308703.630 9 127743043.232 9     -3124.220 9        54.472 9  24308705.214 6         0.000 6     -2434.460 6        37.977 6
G27  21997551.467 9 115597886.220 9      2500.301 9        55.377 9  21997553.397 6         0.000 6      1948.287 6        37.977 6
G16  20495584.972 9 107705005.665 9       549.536 9        55.977 9  20495584.145 6         0.000 6       428.210 6        37.977 6
G26  20658599.283 9 108561649.661 9     -1496.112 9        55.871 9  20658602.101 6         0.000 6     -1165.802 6        37.977 6
G20  21936956.321 9 115279450.504 9      2550.866 9        55.318 9  21936956.638 6         0.000 6      1987.689 6        37.977 6
> 2019 07 03 12 01 15.0000000  0  8       0.000000000000
G07  25340490.159 9 133165128.537 9      2205.643 9        54.134 9  25340490.826 6         0.000 6      1718.684 6        37.977 6
G10  23799080.026 9 125064955.149 9      3502.744 9        54.673 9  23799083.743 6         0.000 6      2729.414 6        37.977 6
G21  21174695.320 9 111273754.256 9     -1257.774 9        55.708 9  21174694.606 6         0.000 6      -980.084 6        37.977 6
G29  24309298.950 9 127746171.650 9     -3133.746 9        54.471 9  24309300.534 6         0.000 6     -2441.882 6        37.977 6
G27  21997074.838 9 115595381.525 9      2509.783 9        55.377 9  21997076.769 6         0.000 6      1955.676 6        37.977 6
G16  20495480.100 9 107704454.561 9       553.034 9        55.977 9  20495479.273 6         0.000 6       430.936 6        37.977 6
G26  20658884.470 9 108563148.324 9     -1500.765 9        55.871 9  20658887.288 6         0.000 6     -1169.428 6        37.977 6
G20  21936472.063 9 115276905.717 9      2538.659 9        55.319 9  21936472.380 6         0.000 6      1978.177 6        37.977 6
> 2019 07 03 12 01 16.0000000  0  8       0.000000000000
G07  25340069.143 9 133162916.084 9      2216.337 9        54.134 9  25340069.809 6         0.000 6      1727.016 6        37.977 6
G10  23798414.604 9 125061458.340 9      3493.486 9        54.673 9  23798418.320 6         0.000 6      2722.200 6        37.977 6
G21  21174935.118 9 111275014.407 9     -1262.038 9        55.708 9  21174934.405 6         0.000 6      -983.406 6        37.977 6
G29  24309896.834 9 127749313.540 9     -3147.701 9        54.471 9  24309898.419 6         0.000 6     -2452.757 6        37.977 6
G27  21996595.928 9 115592864.835 9      2521.353 9        55.377 9  21996597.858 6         0.000 6      1964.691 6        37.977 6
G16  20495374.316 9 107703898.659 9       557.786 9        55.977 9  20495373.489 6         0.000 6       434.638 6        37.977 6
G26  20659170.260 9 108564650.160 9     -1502.264 9        55.871 9  20659173.078 6         0.000 6     -1170.596 6        37.977 6
G20  21935990.204 9 115274373.538 9      2528.123 9        55.319 9  21935990.521 6         0.000 6      1969.967 6        37.977 6
> 2019 07 03 12 01 17.0000000  0  8       0.000000000000
G07  25339647.266 9 133160699.108 9      2217.194 9        54.134 9  25339647.932 6         0.000 6      1727.685 6        37.977 6
G10  23797749.948 9 125057965.561 9      3492.406 9        54.674 9  23797753.663 6         0.000 6      2721.358 6        37.977 6
G21  21175175.415 9 111276277.172 9     -1263.229 9        55.707 9  21175174.701 6         0.000 6      -984.334 6        37.977 6
G29  24310496.147 9 127752462.942 9     -3150.322 9        54.471 9  24310497.733 6         0.000 6     -2454.799 6        37.977 6
G27  21996115.904 9 115590342.298 9      2523.098 9        55.378 9  21996117.834 6         0.000 6      1966.051 6        37.977 6
G16  20495268.116 9 107703340.574 9       558.091 9        55.977 9  20495267.289 6         0.000 6       434.876 6        37.977 6
G26  20659456.166 9 108566152.606 9     -1502.676 9        55.871 9  20659458.985 6         0.000 6     -1170.917 6        37.977 6
G20  21935509.331 9 115271846.538 9      2526.325 9        55.319 9  21935509.648 6         0.000 6      1968.566 6        37.977 6
> 2019 07 03 12 01 18.0000000  0  8       0.000000000000
G07  25339225.372 9 133158482.042 9      2216.888 9        54.134 9  25339226.037 6         0.000 6      1727.446 6        37.977 6
G10  23797085.392 9 125054473.308 9      3492.159 9        54.674 9  23797089.107 6         0.000 6      2721.165 6        37.977 6
G21  21175415.845 9 111277540.639 9     -1263.677 9        55.707 9  21175415.131 6         0.000 6      -984.684 6        37.977 6
G29  24311095.679 9 127755613.493 9     -3150.694 9        54.471 9  24311097.265 6         0.000 6     -2455.089 6        37.977 6
G27  21995635.768 9 115587819.166 9      2523.082 9        55.378 9  21995637.698 6         0.000 6      1966.039 6        37.977 6
G16  20495161.960 9 107702782.720 9       557.571 9        55.977 9  20495161.133 6         0.000 6       434.471 6        37.977 6
G26  20659742.168 9 108567655.556 9     -1503.241 9        55.871 9  20659744.987 6         0.000 6     -1171.357 6        37.977 6
G20  21935028.649 9 115269320.541 9      2525.732 9        55.319 9  21935028.966 6         0.000 6      1968.104 6        37.977 6
> 2019 07 03 12 01 19.0000000  0  8       0.000000000000
G07  25338803.553 9 133156265.372 9      2216.456 9        54.134 9  25338804.218 6         0.000 6      1727.109 6        37.977 6
G10  23796420.872 9 125050981.242 9      3491.998 9        54.674 9  23796424.586 6         0.000 6      2721.040 6        37.977 6
G21  21175656.350 9 111278804.500 9     -1264.044 9        55.707 9  21175655.636 6         0.000 6      -984.970 6        37.977 6
G29  24311695.248 9 127758764.238 9     -3150.810 9        54.471 9  24311696.834 6         0.000 6     -2455.179 6        37.977 6
G27  21995155.662 9 115585296.194 9      2522.863 9        55.378 9  21995157.591 6         0.000 6      1965.868 6        37.977 6
G16  20495055.916 9 107702225.458 9       556.952 9        55.977 9  20495055.089 6         0.000 6       433.989 6        37.977 6
G26  20660028.282 9 108569159.090 9     -1503.831 9        55.871 9  20660031.100 6         0.000 6     -1171.817 6        37.977 6
G20  21934548.063 9 115266795.047 9      2525.269 9        55.319 9  21934548.379 6         0.000 6      1967.743 6        37.977 6
> 2019 07 03 12 01 20.0000000  0  8       0.000000000000
G07  25338381.817 9 133154049.141 9      2216.012 9        54.134 9  25338382.482 6         0.000 6      1726.764 6        37.977 6
G10  23795756.382 9 125047489.332 9      3491.846 9        54.674 9  23795760.095 6         0.000 6      2720.921 6        37.977 6
G21  21175896.923 9 111280068.723 9     -1264.402 9        55.707 9  21175896.210 6         0.000 6      -985.249 6        37.977 6
G29  24312294.836 9 127761915.087 9     -3150.904 9        54.470 9  24312296.424 6         0.000 6     -2455.253 6        37.977 6
G27  21994675.599 9 115582773.449 9      2522.629 9        55.378 9  21994677.528 6         0.000 6      1965.686 6        37.977 6
G16  20494949.991 9 107701668.818 9       556.327 9        55.978 9  20494949.164 6         0.000 6       433.502 6        37.977 6
G26  20660314.507 9 108570663.214 9     -1504.420 9        55.871 9  20660317.326 6         0.000 6     -1172.276 6        37.977 6
G20  21934067.563 9 115264270.010 9      2524.818 9        55.319 9  21934067.879 6         0.000 6      1967.392 6        37.977 6
> 2019 07 03 12 01 21.0000000  0  8       0.000000000000
G07  25337960.167 9 133151833.359 9      2215.562 9        54.135 9  25337960.832 6         0.000 6      1726.413 6        37.977 6
G10  23795091.919 9 125043997.570 9      3491.700 9        54.675 9  23795095.632 6         0.000 6      2720.808 6        37.977 6
G21  21176137.566 9 111281333.307 9     -1264.762 9        55.707 9  21176136.852 6         0.000 6      -985.529 6        37.977 6
G29  24312894.442 9 127765066.027 9     -3150.999 9        54.470 9  24312896.030 6         0.000 6     -2455.327 6        37.977 6
G27  21994195.582 9 115580250.945 9      2522.394 9        55.378 9  21994197.511 6         0.000 6      1965.502 6        37.977 6
G16  20494844.186 9 107701112.807 9       555.702 9        55.978 9  20494843.359 6         0.000 6       433.015 6        37.977 6
G26  20660600.846 9 108572167.929 9     -1505.007 9        55.871 9  20660603.664 6         0.000 6     -1172.733 6        37.977 6
G20  21933587.149 9 115261745.421 9      2524.371 9        55.320 9  21933587.465 6         0.000 6      1967.044 6        37.977 6
> 2019 07 03 12 01 22.0000000  0  8       0.000000000000
G07  25337538.603 9 133149618.027 9      2215.109 9        54.135 9  25337539.268 6         0.000 6      1726.060 6        37.977 6
G10  23794427.485 9 125040505.954 9      3491.556 9        54.675 9  23794431.197 6         0.000 6      2720.695 6        37.977 6
G21  21176378.277 9 111282598.250 9     -1265.120 9        55.707 9  21176377.563 6         0.000 6      -985.808 6        37.977 6
G29  24313494.066 9 127768217.062 9     -3151.090 9        54.470 9  24313495.655 6         0.000 6     -2455.397 6        37.977 6
G27  21993715.609 9 115577728.676 9      2522.154 9        55.379 9  21993717.538 6         0.000 6      1965.316 6        37.977 6
G16  20494738.500 9 107700557.422 9       555.075 9        55.978 9  20494737.673 6         0.000 6       432.526 6        37.977 6
G26  20660887.295 9 108573673.231 9     -1505.594 9        55.870 9  20660890.114 6         0.000 6     -1173.190 6        37.977 6
G20  21933106.820 9 115259221.278 9      2523.927 9        55.320 9  21933107.135 6         0.000 6      1966.698 6        37.977 6
> 2019 07 03 12 01 23.0000000  0  8       0.000000000000
G07  25337117.125 9 133147403.151 9      2214.650 9        54.135 9  25337117.790 6         0.000 6      1725.702 6        37.977 6
G10  23793763.077 9 125037014.478 9      3491.418 9        54.675 9  23793766.789 6         0.000 6      2720.588 6        37.977 6
G21  21176619.055 9 111283863.549 9     -1265.479 9        55.707 9  21176618.342 6         0.000 6      -986.088 6        37.977 6
G29  24314093.707 9 127771368.186 9     -3151.180 9        54.470 9  24314095.296 6         0.000 6     -2455.468 6        37.977 6
G27  21993235.682 9 115575206.645 9      2521.914 9        55.379 9  21993237.611 6         0.000 6      1965.128 6        37.977 6
G16  20494632.932 9 107700002.661 9       554.448 9        55.978 9  20494632.105 6         0.000 6       432.037 6        37.977 6
G26  20661173.856 9 108575179.115 9     -1506.177 9        55.870 9  20661176.675 6         0.000 6     -1173.645 6        37.977 6
G20  21932626.575 9 115256697.576 9      2523.487 9        55.320 9  21932626.889 6         0.000 6      1966.355 6        37.977 6
> 2019 07 03 12 01 24.0000000  0  8       0.000000000000
G07  25336695.735 9 133145188.735 9      2214.193 9        54.135 9  25336696.400 6         0.000 6      1725.347 6        37.977 6
G10  23793098.696 9 125033523.140 9      3491.275 9        54.675 9  23793102.406 6         0.000 6      2720.477 6        37.977 6
G21  21176859.902 9 111285129.207 9     -1265.841 9        55.707 9  21176859.189 6         0.000 6      -986.369 6        37.977 6
G29  24314693.365 9 127774519.402 9     -3151.271 9        54.470 9  24314694.955 6         0.000 6     -2455.539 6        37.977 6
G27  21992755.801 9 115572684.854 9      2521.671 9        55.379 9  21992757.729 6         0.000 6      1964.940 6        37.977 6
G16  20494527.484 9 107699448.527 9       553.817 9        55.978 9  20494526.657 6         0.000 6       431.546 6        37.977 6
G26  20661460.527 9 108576685.582 9     -1506.766 9        55.870 9  20661463.346 6         0.000 6     -1174.104 6        37.977 6
G20  21932146.413 9 115254174.313 9      2523.043 9        55.320 9  21932146.727 6         0.000 6      1966.008 6        37.977 6
> 2019 07 03 12 01 25.0000000  0  8       0.000000000000
G07  25336274.431 9 133142974.771 9      2213.734 9        54.135 9  25336275.095 6         0.000 6      1724.989 6        37.977 6
G10  23792434.342 9 125030031.946 9      3491.137 9        54.676 9  23792438.052 6         0.000 6      2720.369 6        37.977 6
G21  21177100.817 9 111286395.222 9     -1266.200 9        55.707 9  21177100.104 6         0.000 6      -986.649 6        37.977 6
G29  24315293.041 9 127777670.707 9     -3151.362 9        54.469 9  24315294.631 6         0.000 6     -2455.609 6        37.977 6
G27  21992275.965 9 115570163.302 9      2521.431 9        55.379 9  21992277.893 6         0.000 6      1964.752 6        37.977 6
G16  20494422.155 9 107698895.020 9       553.189 9        55.978 9  20494421.328 6         0.000 6       431.057 6        37.977 6
G26  20661747.310 9 108578192.636 9     -1507.349 9        55.870 9  20661750.130 6         0.000 6     -1174.558 6        37.977 6
G20  21931666.336 9 115251651.495 9      2522.602 9        55.320 9  21931666.650 6         0.000 6      1965.665 6        37.977 6
> 2019 07 03 12 01 26.0000000  0  8       0.000000000000
G07  25335853.215 9 133140761.270 9      2213.278 9        54.135 9  25335853.879 6         0.000 6      1724.633 6        37.977 6
G10  23791770.013 9 125026540.888 9      3490.997 9        54.676 9  23791773.723 6         0.000 6      2720.260 6        37.977 6
G21  21177341.801 9 111287661.601 9     -1266.555 9        55.707 9  21177341.088 6         0.000 6      -986.926 6        37.977 6
G29  24315892.734 9 127780822.104 9     -3151.452 9        54.469 9  24315894.325 6         0.000 6     -2455.679 6        37.977 6
G27  21991796.175 9 115567641.995 9      2521.193 9        55.379 9  21991798.104 6         0.000 6      1964.567 6        37.977 6
G16  20494316.946 9 107698342.145 9       552.565 9        55.978 9  20494316.119 6         0.000 6       430.571 6        37.977 6
G26  20662034.205 9 108579700.275 9     -1507.931 9        55.870 9  20662037.024 6         0.000 6     -1175.011 6        37.977 6
G20  21931186.342 9 115249129.117 9      2522.162 9        55.321 9  21931186.656 6         0.000 6      1965.322 6        37.977 6
> 2019 07 03 12 01 27.0000000  0  8       0.000000000000
G07  25335432.098 9 133138548.290 9      2212.652 9        54.135 9  25335432.762 6         0.000 6      1724.145 6        37.977 6
G10  23791105.700 9 125023049.906 9      3491.025 9        54.676 9  23791109.408 6         0.000 6      2720.282 6        37.977 6
G21  21177582.854 9 111288928.344 9     -1266.943 9        55.706 9  21177582.141 6         0.000 6      -987.229 6        37.977 6
G29  24316492.443 9 127783973.588 9     -3151.540 9        54.469 9  24316494.035 6         0.000 6     -2455.748 6        37.977 6
G27  21991316.435 9 115565120.942 9      2520.910 9        55.380 9  21991318.363 6         0.000 6      1964.346 6        37.977 6
G16  20494211.857 9 107697789.899 9       551.923 9        55.978 9  20494211.030 6         0.000 6       430.070 6        37.977 6
G26  20662321.205 9 108581208.467 9     -1508.439 9        55.870 9  20662324.024 6         0.000 6     -1175.407 6        37.977 6
G20  21930706.424 9 115246607.136 9      2521.832 9        55.321 9  21930706.738 6         0.000 6      1965.065 6        37.977 6
> 2019 07 03 12 01 28.0000000  0  8       0.000000000000
G07  25335010.992 9 133136335.365 9      2214.434 9        54.136 9  25335011.656 6         0.000 6      1725.534 6        37.977 6
G10  23790441.443 9 125019559.223 9      3489.702 9        54.676 9  23790445.151 6         0.000 6      2719.251 6        37.977 6
G21  21177824.091 9 111290196.054 9     -1269.856 9        55.706 9  21177823.378 6         0.000 6      -989.499 6        37.977 6
G29  24317092.479 9 127787126.789 9     -3158.687 9        54.469 9  24317094.072 6         0.000 6     -2461.317 6        37.977 6
G27  21990836.516 9 115562598.958 9      2525.868 9        55.380 9  21990838.444 6         0.000 6      1968.210 6        37.977 6
G16  20494106.779 9 107697237.709 9       553.808 9        55.978 9  20494105.952 6         0.000 6       431.539 6        37.977 6
G26  20662608.254 9 108582716.919 9     -1507.853 9        55.870 9  20662611.073 6         0.000 6     -1174.950 6        37.977 6
G20  21930226.699 9 115244086.169 9      2518.575 9        55.321 9  21930227.013 6         0.000 6      1962.527 6        37.977 6
> 2019 07 03 12 01 29.0000000  0  8       0.000000000000
G07  25334589.597 9 133134120.921 9      2213.116 9        54.136 9  25334590.260 6         0.000 6      1724.507 6        37.977 6
G10  23789777.239 9 125016068.822 9      3492.353 9        54.677 9  23789780.947 6         0.000 6      2721.317 6        37.977 6
G21  21178066.297 9 111291468.852 9     -1275.629 9        55.706 9  21178065.584 6         0.000 6      -993.997 6        37.977 6
G29  24317694.852 9 127790292.271 9     -3171.498 9        54.468 9  24317696.445 6         0.000 6     -2471.300 6        37.977 6
G27  21990355.020 9 115560068.678 9      2533.855 9        55.380 9  21990356.947 6         0.000 6      1974.433 6        37.977 6
G16  20494001.017 9 107696681.928 9       557.404 9        55.978 9  20494000.190 6         0.000 6       434.341 6        37.977 6
G26  20662894.858 9 108584223.030 9     -1503.983 9        55.870 9  20662897.677 6         0.000 6     -1171.935 6        37.977 6
G20  21929747.742 9 115241569.234 9      2516.359 9        55.321 9  21929748.055 6         0.000 6      1960.800 6        37.977 6
> 2019 07 03 12 01 30.0000000  0  8       0.000000000000
G07  25334169.369 9 133131912.611 9      2202.428 9        54.136 9  25334170.032 6         0.000 6      1716.178 6        37.977 6
G10  23789111.673 9 125012571.258 9      3503.653 9        54.677 9  23789115.380 6         0.000 6      2730.122 6        37.977 6
G21  21178309.577 9 111292747.297 9     -1280.821 9        55.706 9  21178308.864 6         0.000 6      -998.042 6        37.977 6
G29  24318299.243 9 127793468.356 9     -3179.185 9        54.468 9  24318300.837 6         0.000 6     -2477.290 6        37.977 6
G27  21989872.495 9 115557532.995 9      2536.263 9        55.380 9  21989874.422 6         0.000 6      1976.310 6        37.977 6
G16  20493894.768 9 107696123.585 9       558.705 9        55.978 9  20493893.941 6         0.000 6       435.355 6        37.977 6
G26  20663180.419 9 108585723.661 9     -1497.246 9        55.869 9  20663183.238 6         0.000 6     -1166.686 6        37.977 6
G20  21929268.510 9 115239050.859 9      2521.406 9        55.321 9  21929268.823 6         0.000 6      1964.733 6        37.977 6
> 2019 07 03 12 01 31.0000000  0  8       0.000000000000
G07  25333750.750 9 133129712.761 9      2198.316 9        54.136 9  25333751.413 6         0.000 6      1712.974 6        37.977 6
G10  23788444.506 9 125009065.283 9      3507.244 9        54.677 9  23788448.212 6         0.000 6      2732.920 6        37.977 6
G21  21178553.439 9 111294028.799 9     -1281.943 9        55.706 9  21178552.726 6         0.000 6      -998.916 6        37.977 6
G29  24318904.284 9 127796647.857 9     -3179.639 9        54.468 9  24318905.878 6         0.000 6     -2477.644 6        37.977 6
G27  21989389.951 9 115554997.214 9      2535.406 9        55.380 9  21989391.879 6         0.000 6      1975.642 6        37.977 6
G16  20493788.518 9 107695565.236 9       557.979 9        55.978 9  20493787.691 6         0.000 6       434.789 6        37.977 6
G26  20663465.158 9 108587219.976 9     -1495.956 9        55.869 9  20663467.978 6         0.000 6     -1165.681 6        37.977 6
G20  21928788.453 9 115236528.148 9      2523.356 9        55.322 9  21928788.766 6         0.000 6      1966.252 6        37.977 6
> 2019 07 03 12 01 32.0000000  0  8       0.000000000000
G07  25333332.530 9 133127515.000 9      2197.387 9        54.136 9  25333333.192 6         0.000 6      1712.251 6        37.977 6
G10  23787777.051 9 125005557.792 9      3507.582 9        54.677 9  23787780.756 6         0.000 6      2733.184 6        37.977 6
G21  21178797.431 9 111295310.984 9     -1282.397 9        55.706 9  21178796.718 6         0.000 6      -999.271 6        37.977 6
G29  24319509.360 9 127799827.544 9     -3179.748 9        54.468 9  24319510.955 6         0.000 6     -2477.728 6        37.977 6
G27  21988907.515 9 115552461.999 9      2535.062 9        55.380 9  21988909.443 6         0.000 6      1975.374 6        37.977 6
G16  20493682.400 9 107695007.583 9       557.334 9        55.978 9  20493681.573 6         0.000 6       434.286 6        37.977 6
G26  20663749.853 9 108588716.058 9     -1496.298 9        55.869 9  20663752.673 6         0.000 6     -1165.947 6        37.977 6
G20  21928308.276 9 115234004.804 9      2523.225 9        55.322 9  21928308.588 6         0.000 6      1966.151 6        37.977 6
> 2019 07 03 12 01 33.0000000  0  8       0.000000000000
G07  25332914.429 9 133125317.871 9      2196.896 9        54.136 9  25332915.092 6         0.000 6      1711.868 6        37.977 6
G10  23787109.588 9 125002050.263 9      3507.480 9        54.678 9  23787113.293 6         0.000 6      2733.104 6        37.977 6
G21  21179041.499 9 111296593.569 9     -1282.776 9        55.706 9  21179040.786 6         0.000 6      -999.566 6        37.977 6
G29  24320114.455 9 127803007.329 9     -3179.850 9        54.468 9  24320116.051 6         0.000 6     -2477.808 6        37.977 6
G27  21988425.133 9 115549927.068 9      2534.817 9        55.381 9  21988427.060 6         0.000 6      1975.182 6        37.977 6
G16  20493576.402 9 107694450.560 9       556.716 9        55.978 9  20493575.575 6         0.000 6       433.804 6        37.977 6
G26  20664034.641 9 108590212.628 9     -1496.851 9        55.869 9  20664037.461 6         0.000 6     -1166.378 6        37.977 6
G20  21927828.161 9 115231481.788 9      2522.801 9        55.322 9  21927828.473 6         0.000 6      1965.820 6        37.977 6
> 2019 07 03 12 01 34.0000000  0  8       0.000000000000
G07  25332496.417 9 133123121.205 9      2196.443 9        54.136 9  25332497.079 6         0.000 6      1711.515 6        37.977 6
G10  23786442.151 9 124998542.866 9      3507.338 9        54.678 9  23786445.855 6         0.000 6      2732.994 6        37.977 6
G21  21179285.639 9 111297876.535 9     -1283.150 9        55.706 9  21179284.926 6         0.000 6      -999.858 6        37.977 6
G29  24320719.570 9 127806187.218 9     -3179.949 9        54.467 9  24320721.166 6         0.000 6     -2477.885 6        37.977 6
G27  21987942.797 9 115547392.378 9      2534.574 9        55.381 9  21987944.724 6         0.000 6      1974.994 6        37.977 6
G16  20493470.523 9 107693894.159 9       556.094 9        55.978 9  20493469.696 6         0.000 6       433.320 6        37.977 6
G26  20664319.538 9 108591709.769 9     -1497.427 9        55.869 9  20664322.358 6         0.000 6     -1166.827 6        37.977 6
G20  21927348.131 9 115228959.219 9      2522.350 9        55.322 9  21927348.443 6         0.000 6      1965.469 6        37.977 6
> 2019 07 03 12 01 35.0000000  0  8       0.000000000000
G07  25332078.491 9 133120924.993 9      2195.992 9        54.137 9  25332079.153 6         0.000 6      1711.164 6        37.977 6
G10  23785774.740 9 124995035.610 9      3507.192 9        54.678 9  23785778.444 6         0.000 6      2732.880 6        37.977 6
G21  21179529.850 9 111299159.869 9     -1283.521 9        55.706 9  21179529.137 6         0.000 6     -1000.146 6        37.977 6
G29  24321324.702 9 127809367.200 9     -3180.041 9        54.467 9  24321326.299 6         0.000 6     -2477.957 6        37.977 6
G27  21987460.508 9 115544857.931 9      2534.329 9        55.381 9  21987462.434 6         0.000 6      1974.803 6        37.977 6
G16  20493364.761 9 107693338.377 9       555.472 9        55.978 9  20493363.934 6         0.000 6       432.835 6        37.977 6
G26  20664604.544 9 108593207.483 9     -1498.005 9        55.869 9  20664607.364 6         0.000 6     -1167.277 6        37.977 6
G20  21926868.187 9 115226437.098 9      2521.898 9        55.322 9  21926868.498 6         0.000 6      1965.117 6        37.977 6
> 2019 07 03 12 01 36.0000000  0  8       0.000000000000
G07  25331660.649 9 133118729.224 9      2195.542 9        54.137 9  25331661.311 6         0.000 6      1710.813 6        37.977 6
G10  23785107.358 9 124991528.504 9      3507.046 9        54.678 9  23785111.061 6         0.000 6      2732.766 6        37.977 6
G21  21179774.130 9 111300443.571 9     -1283.892 9        55.706 9  21179773.417 6         0.000 6     -1000.435 6        37.977 6
G29  24321929.853 9 127812547.279 9     -3180.133 9        54.467 9  24321931.451 6         0.000 6     -2478.029 6        37.977 6
G27  21986978.263 9 115542323.722 9      2534.084 9        55.381 9  21986980.190 6         0.000 6      1974.612 6        37.977 6
G16  20493259.116 9 107692783.212 9       554.849 9        55.978 9  20493258.289 6         0.000 6       432.350 6        37.977 6
G26  20664889.660 9 108594705.773 9     -1498.583 9        55.869 9  20664892.480 6         0.000 6     -1167.728 6        37.977 6
G20  21926388.329 9 115223915.431 9      2521.447 9        55.322 9  21926388.640 6         0.000 6      1964.765 6        37.977 6
> 2019 07 03 12 01 37.0000000  0  8       0.000000000000
G07  25331242.895 9 133116533.915 9      2195.088 9        54.137 9  25331243.557 6         0.000 6      1710.459 6        37.977 6
G10  23784440.002 9 124988021.536 9      3506.903 9        54.678 9  23784443.704 6         0.000 6      2732.654 6        37.977 6
G21  21180018.481 9 111301727.644 9     -1284.260 9        55.705 9  21180017.768 6         0.000 6     -1000.722 6        37.977 6
G29  24322535.021 9 127815727.445 9     -3180.220 9        54.467 9  24322536.619 6         0.000 6     -2478.096 6        37.977 6
G27  21986496.066 9 115539789.762 9      2533.836 9        55.381 9  21986497.993 6         0.000 6      1974.418 6        37.977 6
G16  20493153.591 9 107692228.671 9       554.225 9        55.978 9  20493152.764 6         0.000 6       431.864 6        37.977 6
G26  20665174.885 9 108596204.639 9     -1499.161 9        55.869 9  20665177.705 6         0.000 6     -1168.178 6        37.977 6
G20  21925908.555 9 115221394.209 9      2520.998 9        55.323 9  21925908.866 6         0.000 6      1964.415 6        37.977 6
> 2019 07 03 12 01 38.0000000  0  8       0.000000000000
G07  25330825.227 9 133114339.057 9      2194.635 9        54.137 9  25330825.888 6         0.000 6      1710.106 6        37.977 6
G10  23783772.675 9 124984514.716 9      3506.759 9        54.679 9  23783776.376 6         0.000 6      2732.542 6        37.977 6
G21  21180262.903 9 111303012.087 9     -1284.628 9        55.705 9  21180262.190 6         0.000 6     -1001.009 6        37.977 6
G29  24323140.205 9 127818907.699 9     -3180.308 9        54.467 9  24323141.804 6         0.000 6     -2478.164 6        37.977 6
G27  21986013.917 9 115537256.054 9      2533.587 9        55.382 9  21986015.843 6         0.000 6      1974.225 6        37.977 6
G16  20493048.184 9 107691674.758 9       553.602 9        55.978 9  20493047.357 6         0.000 6       431.378 6        37.977 6
G26  20665460.220 9 108597704.087 9     -1499.739 9        55.868 9  20665463.041 6         0.000 6     -1168.628 6        37.977 6
G20  21925428.868 9 115218873.439 9      2520.549 9        55.323 9  21925429.179 6         0.000 6      1964.066 6        37.977 6
> 2019 07 03 12 01 39.0000000  0  8       0.000000000000
G07  25330407.646 9 133112144.655 9      2194.162 9        54.137 9  25330408.307 6         0.000 6      1709.738 6        37.977 6
G10  23783105.374 9 124981008.037 9      3506.628 9        54.679 9  23783109.075 6         0.000 6      2732.440 6        37.977 6
G21  21180507.394 9 111304296.897 9     -1284.982 9        55.705 9  21180506.681 6         0.000 6     -1001.285 6        37.977 6
G29  24323745.405 9 127822088.034 9     -3180.353 9        54.466 9  24323747.004 6         0.000 6     -2478.200 6        37.977 6
G27  21985531.816 9 115534722.597 9      2533.307 9        55.382 9  21985533.742 6         0.000 6      1974.006 6        37.977 6
G16  20492942.897 9 107691121.470 9       552.963 9        55.978 9  20492942.070 6         0.000 6       430.881 6        37.977 6
G26  20665745.666 9 108599204.113 9     -1500.320 9        55.868 9  20665748.487 6         0.000 6     -1169.081 6        37.977 6
G20  21924949.266 9 115216353.116 9      2520.122 9        55.323 9  21924949.576 6         0.000 6      1963.732 6        37.977 6
> 2019 07 03 12 01 40.0000000  0  8       0.000000000000
G07  25329990.138 9 133109950.642 9      2193.004 9        54.137 9  25329990.799 6         0.000 6      1708.835 6        37.977 6
G10  23782438.117 9 124977501.588 9      3507.158 9        54.679 9  23782441.817 6         0.000 6      2732.853 6        37.977 6
G21  21180751.943 9 111305582.007 9     -1285.373 9        55.705 9  21180751.230 6         0.000 6     -1001.590 6        37.977 6
G29  24324350.596 9 127825268.324 9     -3180.215 9        54.466 9  24324352.196 6         0.000 6     -2478.092 6        37.977 6
G27  21985049.775 9 115532189.461 9      2532.745 9        55.382 9  21985051.701 6         0.000 6      1973.568 6        37.977 6
G16  20492837.736 9 107690568.845 9       552.221 9        55.978 9  20492836.909 6         0.000 6       430.302 6        37.977 6
G26  20666031.236 9 108600704.789 9     -1500.632 9        55.868 9  20666034.056 6         0.000 6     -1169.324 6        37.977 6
G20  21924469.752 9 115213833.259 9      2520.188 9        55.323 9  21924470.062 6         0.000 6      1963.784 6        37.977 6
> 2019 07 03 12 01 41.0000000  0  8       0.000000000000
G07  25329574.184 9 133107764.790 9      2178.118 9        54.137 9  25329574.844 6         0.000 6      1697.236 6        37.977 6
G10  23781769.460 9 124973987.785 9      3520.873 9        54.679 9  23781773.160 6         0.000 6      2743.540 6        37.977 6
G21  21180996.674 9 111306868.077 9     -1286.351 9        55.705 9  21180995.961 6         0.000 6     -1002.352 6        37.977 6
G29  24324955.489 9 127828447.049 9     -3176.018 9        54.466 9  24324957.089 6         0.000 6     -2474.822 6        37.977 6
G27  21984568.332 9 115529659.461 9      2526.306 9        55.382 9  21984570.258 6         0.000 6      1968.551 6        37.977 6
G16  20492732.888 9 107690017.862 9       549.297 9        55.978 9  20492732.061 6         0.000 6       428.024 6        37.977 6
G26  20666316.310 9 108602202.863 9     -1495.628 9        55.868 9  20666319.131 6         0.000 6     -1165.425 6        37.977 6
G20  21923989.279 9 115211308.361 9      2530.242 9        55.323 9  21923989.589 6         0.000 6      1971.619 6        37.977 6
> 2019 07 03 12 01 42.0000000  0  8       0.000000000000
G07  25329161.165 9 133105594.365 9      2162.776 9        54.138 9  25329161.825 6         0.000 6      1685.281 6        37.977 6
G10  23781098.195 9 124970460.271 9      3533.925 9        54.680 9  23781101.894 6         0.000 6      2753.711 6        37.977 6
G21  21181241.323 9 111308153.718 9     -1284.345 9        55.705 9  21181240.611 6         0.000 6     -1000.789 6        37.977 6
G29  24325558.898 9 127831617.974 9     -3164.455 9        54.466 9  24325560.499 6         0.000 6     -2465.812 6        37.977 6
G27  21984088.591 9 115527138.407 9      2514.891 9        55.382 9  21984090.516 6         0.000 6      1959.656 6        37.977 6
G16  20492628.831 9 107689471.042 9       543.873 9        55.979 9  20492628.004 6         0.000 6       423.797 6        37.977 6
G26  20666600.601 9 108603696.818 9     -1492.749 9        55.868 9  20666603.421 6         0.000 6     -1163.181 6        37.977 6
G20  21923506.697 9 115208772.380 9      2541.961 9        55.324 9  21923507.007 6         0.000 6      1980.750 6        37.977 6
> 2019 07 03 12 01 43.0000000  0  8       0.000000000000
G07  25328750.720 9 133103437.470 9      2154.384 9        54.138 9  25328751.381 6         0.000 6      1678.742 6        37.977 6
G10  23780424.861 9 124966921.891 9      3540.055 9        54.680 9  23780428.559 6         0.000 6      2758.487 6        37.977 6
G21  21181485.342 9 111309436.047 9     -1281.362 9        55.705 9  21181484.630 6         0.000 6      -998.464 6        37.977 6
G29  24326159.649 9 127834774.936 9     -3153.326 9        54.465 9  24326161.251 6         0.000 6     -2457.140 6        37.977 6
G27  21983611.242 9 115524629.926 9      2505.388 9        55.383 9  21983613.167 6         0.000 6      1952.251 6        37.977 6
G16  20492525.939 9 107688930.337 9       539.018 9        55.979 9  20492525.111 6         0.000 6       420.014 6        37.977 6
G26  20666884.653 9 108605189.522 9     -1493.068 9        55.868 9  20666887.474 6         0.000 6     -1163.430 6        37.977 6
G20  21923022.032 9 115206225.452 9      2548.923 9        55.324 9  21923022.341 6         0.000 6      1986.175 6        37.977 6
> 2019 07 03 12 01 44.0000000  0  8       0.000000000000
G07  25328340.894 9 133101283.821 9      2153.183 9        54.138 9  25328341.554 6         0.000 6      1677.806 6        37.977 6
G10  23779751.158 9 124963381.568 9      3540.429 9        54.680 9  23779754.856 6         0.000 6      2758.778 6        37.977 6
G21  21181729.149 9 111310717.257 9     -1281.226 9        55.705 9  21181728.436 6         0.000 6      -998.358 6        37.977 6
G29  24326759.523 9 127837927.281 9     -3151.901 9        54.465 9  24326761.126 6         0.000 6     -2456.029 6        37.977 6
G27  21983134.656 9 115522125.451 9      2503.973 9        55.383 9  21983136.581 6         0.000 6      1951.149 6        37.977 6
G16  20492423.496 9 107688391.998 9       537.854 9        55.979 9  20492422.669 6         0.000 6       419.107 6        37.977 6
G26  20667168.844 9 108606682.955 9     -1493.757 9        55.868 9  20667171.665 6         0.000 6     -1163.967 6        37.977 6
G20  21922536.931 9 115203676.236 9      2549.249 9        55.324 9  21922537.240 6         0.000 6      1986.429 6        37.977 6
> 2019 07 03 12 01 45.0000000  0  8       0.000000000000
G07  25327931.211 9 133099130.928 9      2152.643 9        54.138 9  25327931.871 6         0.000 6      1677.385 6        37.977 6
G10  23779077.442 9 124959841.178 9      3540.345 9        54.680 9  23779081.139 6         0.000 6      2758.713 6        37.977 6
G21  21181972.986 9 111311998.628 9     -1281.543 9        55.705 9  21181972.273 6         0.000 6      -998.605 6        37.977 6
G29  24327359.297 9 127841079.104 9     -3151.828 9        54.465 9  24327360.900 6         0.000 6     -2455.972 6        37.977 6
G27  21982658.204 9 115519621.685 9      2503.607 9        55.383 9  21982660.130 6         0.000 6      1950.863 6        37.977 6
G16  20492321.211 9 107687854.487 9       537.185 9        55.979 9  20492320.384 6         0.000 6       418.586 6        37.977 6
G26  20667453.151 9 108608176.996 9     -1494.332 9        55.868 9  20667455.972 6         0.000 6     -1164.415 6        37.977 6
G20  21922051.857 9 115201127.156 9      2548.882 9        55.324 9  21922052.165 6         0.000 6      1986.143 6        37.977 6
> 2019 07 03 12 01 46.0000000  0  8       0.000000000000
G07  25327521.622 9 133096978.526 9      2152.173 9        54.138 9  25327522.282 6         0.000 6      1677.018 6        37.977 6
G10  23778403.750 9 124956300.911 9      3540.212 9        54.681 9  23778407.446 6         0.000 6      2758.609 6        37.977 6
G21  21182216.890 9 111313280.354 9     -1281.906 9        55.705 9  21182216.178 6         0.000 6      -998.888 6        37.977 6
G29  24327959.076 9 127844230.953 9     -3151.894 9        54.465 9  24327960.680 6         0.000 6     -2456.024 6        37.977 6
G27  21982181.809 9 115517118.215 9      2503.349 9        55.383 9  21982183.734 6         0.000 6      1950.662 6        37.977 6
G16  20492219.048 9 107687317.615 9       536.567 9        55.979 9  20492218.221 6         0.000 6       418.104 6        37.977 6
G26  20667737.567 9 108609671.612 9     -1494.896 9        55.868 9  20667740.389 6         0.000 6     -1164.855 6        37.977 6
G20  21921566.863 9 115198578.500 9      2548.440 9        55.324 9  21921567.171 6         0.000 6      1985.799 6        37.977 6
> 2019 07 03 12 01 47.0000000  0  8       0.000000000000
G07  25327112.121 9 133094826.588 9      2151.708 9        54.138 9  25327112.781 6         0.000 6      1676.656 6        37.977 6
G10  23777730.084 9 124952760.781 9      3540.073 9        54.681 9  23777733.779 6         0.000 6      2758.501 6        37.977 6
G21  21182460.865 9 111314562.447 9     -1282.274 9        55.704 9  21182460.152 6         0.000 6      -999.175 6        37.977 6
G29  24328558.869 9 127847382.878 9     -3151.971 9        54.465 9  24328560.474 6         0.000 6     -2456.084 6        37.977 6
G27  21981705.462 9 115514614.995 9      2503.098 9        55.383 9  21981707.387 6         0.000 6      1950.466 6        37.977 6
G16  20492117.002 9 107686781.359 9       535.951 9        55.979 9  20492116.175 6         0.000 6       417.624 6        37.977 6
G26  20668022.091 9 108611166.792 9     -1495.461 9        55.867 9  20668024.913 6         0.000 6     -1165.295 6        37.977 6
G20  21921081.954 9 115196030.292 9      2547.992 9        55.325 9  21921082.262 6         0.000 6      1985.450 6        37.977 6
> 2019 07 03 12 01 48.0000000  0  8       0.000000000000
G07  25326702.709 9 133092675.115 9      2151.248 9        54.138 9  25326703.368 6         0.000 6      1676.298 6        37.977 6
G10  23777056.444 9 124949220.790 9      3539.928 9        54.681 9  23777060.139 6         0.000 6      2758.388 6        37.977 6
G21  21182704.909 9 111315844.908 9     -1282.646 9        55.704 9  21182704.197 6         0.000 6      -999.465 6        37.977 6
G29  24329158.677 9 127850534.880 9     -3152.053 9        54.464 9  24329160.282 6         0.000 6     -2456.148 6        37.977 6
G27  21981229.162 9 115512112.026 9      2502.848 9        55.384 9  21981231.087 6         0.000 6      1950.272 6        37.977 6
G16  20492015.073 9 107686245.718 9       535.334 9        55.979 9  20492014.246 6         0.000 6       417.143 6        37.977 6
G26  20668306.722 9 108612662.538 9     -1496.031 9        55.867 9  20668309.544 6         0.000 6     -1165.739 6        37.977 6
G20  21920597.130 9 115193482.532 9      2547.537 9        55.325 9  21920597.438 6         0.000 6      1985.095 6        37.977 6
> 2019 07 03 12 01 49.0000000  0  8       0.000000000000
G07  25326293.384 9 133090524.099 9      2150.790 9        54.139 9  25326294.043 6         0.000 6      1675.941 6        37.977 6
G10  23776382.832 9 124945680.946 9      3539.786 9        54.681 9  23776386.526 6         0.000 6      2758.278 6        37.977 6
G21  21182949.023 9 111317127.738 9     -1283.011 9        55.704 9  21182948.311 6         0.000 6      -999.749 6        37.977 6
G29  24329758.501 9 127853686.963 9     -3152.134 9        54.464 9  24329760.106 6         0.000 6     -2456.211 6        37.977 6
G27  21980752.910 9 115509609.304 9      2502.604 9        55.384 9  21980754.834 6         0.000 6      1950.082 6        37.977 6
G16  20491913.260 9 107685710.691 9       534.723 9        55.979 9  20491912.433 6         0.000 6       416.668 6        37.977 6
G26  20668591.462 9 108614158.851 9     -1496.594 9        55.867 9  20668594.283 6         0.000 6     -1166.178 6        37.977 6
G20  21920112.394 9 115190935.227 9      2547.086 9        55.325 9  21920112.701 6         0.000 6      1984.744 6        37.977 6
> 2019 07 03 12 01 50.0000000  0  8       0.000000000000
G07  25325884.145 9 133088373.538 9      2150.333 9        54.139 9  25325884.804 6         0.000 6      1675.585 6        37.977 6
G10  23775709.247 9 124942141.246 9      3539.639 9        54.682 9  23775712.941 6         0.000 6      2758.163 6        37.977 6
G21  21183193.208 9 111318410.934 9     -1283.379 9        55.704 9  21183192.496 6         0.000 6     -1000.036 6        37.977 6
G29  24330358.340 9 127856839.132 9     -3152.215 9        54.464 9  24330359.947 6         0.000 6     -2456.274 6        37.977 6
G27  21980276.703 9 115507106.822 9      2502.358 9        55.384 9  21980278.627 6         0.000 6      1949.890 6        37.977 6
G16  20491811.564 9 107685176.273 9       534.110 9        55.979 9  20491810.737 6         0.000 6       416.189 6        37.977 6
G26  20668876.308 9 108615655.728 9     -1497.162 9        55.867 9  20668879.130 6         0.000 6     -1166.620 6        37.977 6
G20  21919627.743 9 115188388.375 9      2546.631 9        55.325 9  21919628.051 6         0.000 6      1984.389 6        37.977 6
> 2019 07 03 12 01 51.0000000  0  8       0.000000000000
G07  25325474.993 9 133086223.436 9      2149.874 9        54.139 9  25325475.652 6         0.000 6      1675.227 6        37.977 6
G10  23775035.690 9 124938601.691 9      3539.494 9        54.682 9  23775039.383 6         0.000 6      2758.050 6        37.977 6
G21  21183437.462 9 111319694.497 9     -1283.751 9        55.704 9  21183436.749 6         0.000 6     -1000.326 6        37.977 6
G29  24330958.195 9 127859991.377 9     -3152.297 9        54.464 9  24330959.802 6         0.000 6     -2456.338 6        37.977 6
G27  21979800.543 9 115504604.590 9      2502.108 9        55.384 9  21979802.467 6         0.000 6      1949.695 6        37.977 6
G16  20491709.985 9 107684642.470 9       533.492 9        55.979 9  20491709.158 6         0.000 6       415.708 6        37.977 6
G26  20669161.263 9 108617153.172 9     -1497.732 9        55.867 9  20669164.085 6         0.000 6     -1167.064 6        37.977 6
G20  21919143.179 9 115185841.976 9      2546.176 9        55.325 9  21919143.486 6         0.000 6      1984.034 6        37.977 6
> 2019 07 03 12 01 52.0000000  0  8       0.000000000000
G07  25325065.929 9 133084073.794 9      2149.418 9        54.139 9  25325066.588 6         0.000 6      1674.872 6        37.977 6
G10  23774362.161 9 124935062.281 9      3539.347 9        54.682 9  23774365.853 6         0.000 6      2757.935 6        37.977 6
G21  21183681.786 9 111320978.431 9     -1284.119 9        55.704 9  21183681.074 6         0.000 6     -1000.612 6        37.977 6
G29  24331558.065 9 127863143.704 9     -3152.378 9        54.464 9  24331559.672 6         0.000 6     -2456.401 6        37.977 6
G27  21979324.431 9 115502102.608 9      2501.862 9        55.384 9  21979326.355 6         0.000 6      1949.503 6        37.977 6
G16  20491608.523 9 107684109.285 9       532.878 9        55.979 9  20491607.696 6         0.000 6       415.230 6        37.977 6
G26  20669446.326 9 108618651.185 9     -1498.299 9        55.867 9  20669449.148 6         0.000 6     -1167.507 6        37.977 6
G20  21918658.701 9 115183296.033 9      2545.720 9        55.326 9  21918659.008 6         0.000 6      1983.679 6        37.977 6
> 2019 07 03 12 01 53.0000000  0  8       0.000000000000
G07  25324656.952 9 133081924.604 9      2148.965 9        54.139 9  25324657.610 6         0.000 6      1674.519 6        37.977 6
G10  23773688.660 9 124931523.019 9      3539.198 9        54.682 9  23773692.352 6         0.000 6      2757.819 6        37.977 6
G21  21183926.180 9 111322262.729 9     -1284.482 9        55.704 9  21183925.468 6         0.000 6     -1000.896 6        37.977 6
G29  24332157.950 9 127866296.111 9     -3152.458 9        54.463 9  24332159.558 6         0.000 6     -2456.463 6        37.977 6
G27  21978848.366 9 115499600.868 9      2501.619 9        55.384 9  21978850.289 6         0.000 6      1949.314 6        37.977 6
G16  20491507.177 9 107683576.710 9       532.268 9        55.979 9  20491506.350 6         0.000 6       414.755 6        37.977 6
G26  20669731.496 9 108620149.765 9     -1498.865 9        55.867 9  20669734.318 6         0.000 6     -1167.947 6        37.977 6
G20  21918174.310 9 115180750.544 9      2545.265 9        55.326 9  21918174.616 6         0.000 6      1983.325 6        37.977 6
> 2019 07 03 12 01 54.0000000  0  8       0.000000000000
G07  25324248.044 9 133079775.782 9      2148.985 9        54.139 9  25324248.702 6         0.000 6      1674.534 6        37.977 6
G10  23773015.203 9 124927983.989 9      3538.688 9        54.683 9  23773018.894 6         0.000 6      2757.422 6        37.977 6
G21  21184170.647 9 111323547.410 9     -1285.087 9        55.704 9  21184169.935 6         0.000 6     -1001.367 6        37.977 6
G29  24332757.862 9 127869448.661 9     -3153.297 9        54.463 9  24332759.471 6         0.000 6     -2457.117 6        37.977 6
G27  21978372.336 9 115497099.319 9      2501.984 9        55.385 9  21978374.260 6         0.000 6      1949.599 6        37.977 6
G16  20491405.945 9 107683044.729 9       531.937 9        55.979 9  20491405.118 6         0.000 6       414.497 6        37.977 6
G26  20670016.780 9 108621648.942 9     -1499.420 9        55.867 9  20670019.603 6         0.000 6     -1168.380 6        37.977 6
G20  21917690.019 9 115178205.586 9      2544.350 9        55.326 9  21917690.326 6         0.000 6      1982.612 6        37.977 6
> 2019 07 03 12 01 55.0000000  0  8       0.000000000000
G07  25323839.463 9 133077628.679 9      2145.284 9        54.139 9  25323840.121 6         0.000 6      1671.651 6        37.977 6
G10  23772341.652 9 124924444.469 9      3540.018 9        54.683 9  23772345.343 6         0.000 6      2758.458 6        37.977 6
G21  21184414.891 9 111324830.922 9     -1281.114 9        55.704 9  21184414.179 6         0.000 6      -998.271 6        37.977 6
G29  24333356.996 9 127872597.123 9     -3141.697 9        54.463 9  24333358.606 6         0.000 6     -2448.078 6        37.977 6
G27  21977896.931 9 115494601.053 9      2493.278 9        55.385 9  21977898.855 6         0.000 6      1942.815 6        37.977 6
G16  20491305.108 9 107682514.830 9       527.205 9        55.979 9  20491304.281 6         0.000 6       410.809 6        37.977 6
G26  20670302.309 9 108623149.401 9     -1502.155 9        55.866 9  20670305.131 6         0.000 6     -1170.511 6        37.977 6
G20  21917205.507 9 115175659.458 9      2548.236 9        55.326 9  21917205.813 6         0.000 6      1985.640 6        37.977 6
> 2019 07 03 12 01 56.0000000  0  8       0.000000000000
G07  25323431.107 9 133075482.757 9      2147.954 9        54.140 9  25323431.764 6         0.000 6      1673.732 6        37.977 6
G10  23771668.371 9 124920906.359 9      3534.953 9        54.683 9  23771672.060 6         0.000 6      2754.511 6        37.977 6
G21  21184658.193 9 111326109.480 9     -1276.114 9        55.704 9  21184657.481 6         0.000 6      -994.375 6        37.977 6
G29  24333953.670 9 127875732.652 9     -3130.203 9        54.463 9  24333955.280 6         0.000 6     -2439.122 6        37.977 6
G27  21977423.239 9 115492111.785 9      2486.127 9        55.385 9  21977425.162 6         0.000 6      1937.243 6        37.977 6
G16  20491205.231 9 107681989.970 9       522.870 9        55.979 9  20491204.404 6         0.000 6       407.431 6        37.977 6
G26  20670588.671 9 108624654.245 9     -1507.947 9        55.866 9  20670591.494 6         0.000 6     -1175.024 6        37.977 6
G20  21916720.530 9 115173110.892 9      2547.822 9        55.326 9  21916720.835 6         0.000 6      1985.317 6        37.977 6
> 2019 07 03 12 01 57.0000000  0  8       0.000000000000
G07  25323021.325 9 133073329.345 9      2157.701 9        54.140 9  25323021.983 6         0.000 6      1681.327 6        37.977 6
G10  23770996.898 9 124917377.758 9      3523.759 9        54.683 9  23771000.587 6         0.000 6      2745.789 6        37.977 6
G21  21184900.597 9 111327383.322 9     -1272.617 9        55.703 9  21184899.885 6         0.000 6      -991.650 6        37.977 6
G29  24334548.656 9 127878859.316 9     -3125.167 9        54.462 9  24334550.267 6         0.000 6     -2435.197 6        37.977 6
G27  21976950.363 9 115489626.810 9      2484.886 9        55.385 9  21976952.287 6         0.000 6      1936.276 6        37.977 6
G16  20491105.957 9 107681468.284 9       521.111 9        55.979 9  20491105.130 6         0.000 6       406.060 6        37.977 6
G26  20670876.420 9 108626166.372 9     -1515.101 9        55.866 9  20670879.242 6         0.000 6     -1180.599 6        37.977 6
G20  21916236.339 9 115170566.458 9      2541.466 9        55.326 9  21916236.645 6         0.000 6      1980.364 6        37.977 6
> 2019 07 03 12 01 58.0000000  0  8       0.000000000000
G07  25322610.492 9 133071170.406 9      2159.488 9        54.140 9  25322611.150 6         0.000 6      1682.719 6        37.977 6
G10  23770326.647 9 124913855.575 9      3521.339 9        54.684 9  23770330.336 6         0.000 6      2743.903 6        37.977 6
G21  21185142.748 9 111328655.833 9     -1272.547 9        55.703 9  21185142.036 6         0.000 6      -991.595 6        37.977 6
G29  24335143.347 9 127881984.426 9     -3125.141 9        54.462 9  24335144.958 6         0.000 6     -2435.177 6        37.977 6
G27  21976477.474 9 115487141.761 9      2485.102 9        55.385 9  21976479.397 6         0.000 6      1936.444 6        37.977 6
G16  20491006.841 9 107680947.428 9       520.589 9        55.979 9  20491006.014 6         0.000 6       405.654 6        37.977 6
G26  20671164.929 9 108627682.499 9     -1516.794 9        55.866 9  20671167.752 6         0.000 6     -1181.918 6        37.977 6
G20  21915752.942 9 115168026.193 9      2539.531 9        55.327 9  21915753.247 6         0.000 6      1978.856 6        37.977 6
> 2019 07 03 12 01 59.0000000  0  8       0.000000000000
G07  25322199.567 9 133069010.981 9      2159.274 9        54.140 9  25322200.224 6         0.000 6      1682.552 6        37.977 6
G10  23769656.605 9 124910334.492 9      3520.944 9        54.684 9  23769660.293 6         0.000 6      2743.595 6        37.977 6
G21  21185384.934 9 111329928.527 9     -1272.861 9        55.703 9  21185384.222 6         0.000 6      -991.840 6        37.977 6
G29  24335738.049 9 127885109.596 9     -3125.219 9        54.462 9  24335739.661 6         0.000 6     -2435.238 6        37.977 6
G27  21976004.590 9 115484656.742 9      2484.917 9        55.386 9  21976006.513 6         0.000 6      1936.299 6        37.977 6
G16  20490907.834 9 107680427.138 9       519.982 9        55.979 9  20490907.007 6         0.000 6       405.181 6        37.977 6
G26  20671453.636 9 108629199.660 9     -1517.489 9        55.866 9  20671456.459 6         0.000 6     -1182.460 6        37.977 6
G20  21915269.750 9 115165487.005 9      2538.915 9        55.327 9  21915270.055 6         0.000 6      1978.377 6        37.977 6
> 2019 07 03 12 02  0.0000000  0  8       0.000000000000
G07  25321788.713 9 133066851.932 9      2158.829 9        54.140 9  25321789.369 6         0.000 6      1682.205 6        37.977 6
G10  23768986.608 9 124906813.643 9      3520.779 9        54.684 9  23768990.295 6         0.000 6      2743.467 6        37.977 6
G21  21185627.185 9 111331201.561 9     -1273.213 9        55.703 9  21185626.473 6         0.000 6      -992.114 6        37.977 6
G29  24336332.765 9 127888234.840 9     -3125.296 9        54.462 9  24336334.378 6         0.000 6     -2435.298 6        37.977 6
G27  21975531.749 9 115482171.951 9      2484.676 9        55.386 9  21975533.672 6         0.000 6      1936.112 6        37.977 6
G16  20490808.944 9 107679907.467 9       519.361 9        55.979 9  20490808.117 6         0.000 6       404.697 6        37.977 6
G26  20671742.461 9 108630717.443 9     -1518.075 9        55.866 9  20671745.284 6         0.000 6     -1182.916 6        37.977 6
G20  21914786.654 9 115162948.326 9      2538.454 9        55.327 9  21914786.959 6         0.000 6      1978.017 6        37.977 6
