     3.00           Observation Data    M (Mixed)           RINEX VERSION / TYPE
SimGEN V6.06.00     Spirent             03-Jul-19 12:00     PGM / RUN BY / DATE 
                                                            MARKER NAME         
1                                                           MARKER NUMBER       
GROUND_CRAFT                                                MARKER TYPE         
jin4hi              Spirent                                 OBSERVER / AGENCY   
rec_num             rec_type            rec_vers            REC # / TYPE / VERS 
1                   ant_type                                ANT # / TYPE        
  1000.000                                                  INTERVAL            
  2019     7     3    12     0    0.0000000     GPS         TIME OF FIRST OBS   
  4162646.8980   664330.1290  4770564.7950                  APPROX POSITION XYZ 
        0.0000        0.0000        0.0000                  ANTENNA: DELTA H/E/N
G    8 C1C L1C D1C S1C C2C L2C D2C S2C                      SYS / # / OBS TYPES 
        0.0000        0.0000        0.0000                  ANTENNA: DELTA X/Y/Z
DBHZ                                                        SIGNAL STRENGTH UNIT
                                                            END OF HEADER       
> 2019 07 03 12 00  0.0000000  0  8       0.000000000000
G07  25371947.600 9 133330438.230 9      2202.736 9        54.123 9  25371948.283 6         0.000 6      1716.417 6        37.977 6
G10  23849435.209 9 125329572.615 9      3552.362 9        54.655 9  23849438.975 6         0.000 6      2768.074 6        37.977 6
G21  21156831.651 9 111179880.095 9     -1242.471 9        55.715 9  21156830.934 6         0.000 6      -968.159 6        37.977 6
G29  24264460.932 9 127510547.040 9     -3142.927 9        54.487 9  24264462.469 6         0.000 6     -2449.034 6        37.977 6
G27  22033067.762 9 115784525.406 9      2529.719 9        55.363 9  22033069.704 6         0.000 6      1971.210 6        37.977 6
G16  20503740.124 9 107747861.276 9       601.999 9        55.974 9  20503739.298 6         0.000 6       469.090 6        37.977 6
G26  20637950.403 9 108453139.188 9     -1435.287 9        55.880 9  20637953.213 6         0.000 6     -1118.406 6        37.977 6
G20  21973090.831 9 115469338.300 9      2593.994 9        55.304 9  21973091.169 6         0.000 6      2021.294 6        37.977 6
> 2019 07 03 12 00  1.0000000  0  8       0.000000000000
G07  25371528.360 9 133328235.110 9      2203.255 9        54.123 9  25371529.043 6         0.000 6      1716.823 6        37.977 6
G10  23848759.332 9 125326020.871 9      3551.331 9        54.655 9  23848763.098 6         0.000 6      2767.274 6        37.977 6
G21  21157068.106 9 111181122.672 9     -1242.713 9        55.715 9  21157067.389 6         0.000 6      -968.348 6        37.977 6
G29  24265059.026 9 127513690.035 9     -3143.053 9        54.487 9  24265060.564 6         0.000 6     -2449.135 6        37.977 6
G27  22032586.368 9 115781995.671 9      2529.704 9        55.363 9  22032588.311 6         0.000 6      1971.199 6        37.977 6
G16  20503625.617 9 107747259.538 9       601.464 9        55.974 9  20503624.791 6         0.000 6       468.673 6        37.977 6
G26  20638223.632 9 108454575.017 9     -1436.278 9        55.880 9  20638226.442 6         0.000 6     -1119.178 6        37.977 6
G20  21972597.324 9 115466744.910 9      2592.929 9        55.304 9  21972597.662 6         0.000 6      2020.465 6        37.977 6
> 2019 07 03 12 00  2.0000000  0  8       0.000000000000
G07  25371109.092 9 133326031.848 9      2203.227 9        54.123 9  25371109.775 6         0.000 6      1716.801 6        37.977 6
G10  23848083.594 9 125322469.856 9      3550.773 9        54.655 9  23848087.359 6         0.000 6      2766.839 6        37.977 6
G21  21157304.615 9 111182365.537 9     -1243.025 9        55.715 9  21157303.898 6         0.000 6      -968.591 6        37.977 6
G29  24265657.137 9 127516833.119 9     -3143.141 9        54.487 9  24265658.676 6         0.000 6     -2449.204 6        37.977 6
G27  22032104.995 9 115779466.038 9      2529.561 9        55.363 9  22032106.937 6         0.000 6      1971.087 6        37.977 6
G16  20503511.218 9 107746658.364 9       600.884 9        55.974 9  20503510.391 6         0.000 6       468.222 6        37.977 6
G26  20638497.022 9 108456011.691 9     -1437.045 9        55.880 9  20638499.832 6         0.000 6     -1119.776 6        37.977 6
G20  21972103.979 9 115464152.370 9      2592.196 9        55.305 9  21972104.317 6         0.000 6      2019.894 6        37.977 6
> 2019 07 03 12 00  3.0000000  0  8       0.000000000000
G07  25370689.846 9 133323828.697 9      2203.051 9        54.123 9  25370690.528 6         0.000 6      1716.664 6        37.977 6
G10  23847407.946 9 125318919.311 9      3550.365 9        54.656 9  23847411.710 6         0.000 6      2766.521 6        37.977 6
G21  21157541.187 9 111183608.728 9     -1243.360 9        55.715 9  21157540.470 6         0.000 6      -968.852 6        37.977 6
G29  24266255.267 9 127519976.301 9     -3143.231 9        54.487 9  24266256.806 6         0.000 6     -2449.274 6        37.977 6
G27  22031623.650 9 115776936.558 9      2529.386 9        55.364 9  22031625.593 6         0.000 6      1970.951 6        37.977 6
G16  20503396.928 9 107746057.769 9       600.295 9        55.974 9  20503396.102 6         0.000 6       467.763 6        37.977 6
G26  20638770.550 9 108457449.086 9     -1437.743 9        55.880 9  20638773.360 6         0.000 6     -1120.320 6        37.977 6
G20  21971610.763 9 115461560.504 9      2591.565 9        55.305 9  21971611.100 6         0.000 6      2019.402 6        37.977 6
> 2019 07 03 12 00  4.0000000  0  8       0.000000000000
G07  25370270.636 9 133321625.741 9      2202.894 9        54.124 9  25370271.319 6         0.000 6      1716.541 6        37.977 6
G10  23846732.372 9 125315369.158 9      3549.940 9        54.656 9  23846736.136 6         0.000 6      2766.190 6        37.977 6
G21  21157777.822 9 111184852.253 9     -1243.689 9        55.715 9  21157777.105 6         0.000 6      -969.109 6        37.977 6
G29  24266853.412 9 127523119.565 9     -3143.324 9        54.487 9  24266854.952 6         0.000 6     -2449.346 6        37.977 6
G27  22031142.341 9 115774407.264 9      2529.220 9        55.364 9  22031144.283 6         0.000 6      1970.821 6        37.977 6
G16  20503282.752 9 107745457.768 9       599.713 9        55.974 9  20503281.925 6         0.000 6       467.309 6        37.977 6
G26  20639044.209 9 108458887.174 9     -1438.444 9        55.880 9  20639047.020 6         0.000 6     -1120.866 6        37.977 6
G20  21971117.664 9 115458969.256 9      2590.923 9        55.305 9  21971118.001 6         0.000 6      2018.902 6        37.977 6
> 2019 07 03 12 00  5.0000000  0  8       0.000000000000
G07  25369851.445 9 133319422.880 9      2202.838 9        54.124 9  25369852.127 6         0.000 6      1716.498 6        37.977 6
G10  23846056.891 9 125311819.492 9      3549.409 9        54.656 9  23846060.654 6         0.000 6      2765.776 6        37.977 6
G21  21158014.518 9 111186096.102 9     -1244.006 9        55.715 9  21158013.802 6         0.000 6      -969.356 6        37.977 6
G29  24267451.575 9 127526262.925 9     -3143.410 9        54.486 9  24267453.116 6         0.000 6     -2449.413 6        37.977 6
G27  22030661.061 9 115771878.122 9      2529.068 9        55.364 9  22030663.003 6         0.000 6      1970.703 6        37.977 6
G16  20503168.686 9 107744858.347 9       599.129 9        55.974 9  20503167.859 6         0.000 6       466.854 6        37.977 6
G26  20639318.008 9 108460325.993 9     -1439.201 9        55.879 9  20639320.818 6         0.000 6     -1121.456 6        37.977 6
G20  21970624.695 9 115456378.694 9      2590.209 9        55.305 9  21970625.032 6         0.000 6      2018.346 6        37.977 6
> 2019 07 03 12 00  6.0000000  0  8       0.000000000000
G07  25369432.262 9 133317220.063 9      2202.803 9        54.124 9  25369432.944 6         0.000 6      1716.471 6        37.977 6
G10  23845381.514 9 125308270.369 9      3548.859 9        54.656 9  23845385.276 6         0.000 6      2765.348 6        37.977 6
G21  21158251.275 9 111187340.264 9     -1244.320 9        55.714 9  21158250.558 6         0.000 6      -969.600 6        37.977 6
G29  24268049.755 9 127529406.369 9     -3143.505 9        54.486 9  24268051.296 6         0.000 6     -2449.487 6        37.977 6
G27  22030179.809 9 115769349.128 9      2528.930 9        55.364 9  22030181.751 6         0.000 6      1970.595 6        37.977 6
G16  20503054.731 9 107744259.509 9       598.553 9        55.974 9  20503053.904 6         0.000 6       466.405 6        37.977 6
G26  20639591.951 9 108461765.575 9     -1439.962 9        55.879 9  20639594.762 6         0.000 6     -1122.049 6        37.977 6
G20  21970131.864 9 115453788.854 9      2589.481 9        55.305 9  21970132.201 6         0.000 6      2017.778 6        37.977 6
> 2019 07 03 12 00  7.0000000  0  8       0.000000000000
G07  25369013.083 9 133315017.262 9      2202.816 9        54.124 9  25369013.764 6         0.000 6      1716.481 6        37.977 6
G10  23844706.244 9 125304721.813 9      3548.262 9        54.656 9  23844710.005 6         0.000 6      2764.882 6        37.977 6
G21  21158488.090 9 111188584.734 9     -1244.623 9        55.714 9  21158487.373 6         0.000 6      -969.836 6        37.977 6
G29  24268647.953 9 127532549.911 9     -3143.594 9        54.486 9  24268649.495 6         0.000 6     -2449.556 6        37.977 6
G27  22029698.581 9 115766820.264 9      2528.799 9        55.364 9  22029700.523 6         0.000 6      1970.493 6        37.977 6
G16  20502940.884 9 107743661.239 9       597.978 9        55.974 9  20502940.057 6         0.000 6       465.957 6        37.977 6
G26  20639866.040 9 108463205.921 9     -1440.746 9        55.879 9  20639868.851 6         0.000 6     -1122.660 6        37.977 6
G20  21969639.174 9 115451199.753 9      2588.722 9        55.305 9  21969639.510 6         0.000 6      2017.187 6        37.977 6
> 2019 07 03 12 00  8.0000000  0  8       0.000000000000
G07  25368593.907 9 133312814.483 9      2202.710 9        54.124 9  25368594.588 6         0.000 6      1716.398 6        37.977 6
G10  23844031.081 9 125301173.821 9      3547.783 9        54.657 9  23844034.842 6         0.000 6      2764.509 6        37.977 6
G21  21158724.963 9 111189829.514 9     -1244.946 9        55.714 9  21158724.247 6         0.000 6      -970.088 6        37.977 6
G29  24269246.168 9 127535693.541 9     -3143.686 9        54.486 9  24269247.710 6         0.000 6     -2449.628 6        37.977 6
G27  22029217.381 9 115764291.541 9      2528.642 9        55.365 9  22029219.322 6         0.000 6      1970.371 6        37.977 6
G16  20502827.147 9 107743063.550 9       597.395 9        55.974 9  20502826.321 6         0.000 6       465.503 6        37.977 6
G26  20640140.276 9 108464647.038 9     -1441.475 9        55.879 9  20640143.087 6         0.000 6     -1123.228 6        37.977 6
G20  21969146.624 9 115448611.389 9      2588.042 9        55.306 9  21969146.959 6         0.000 6      2016.657 6        37.977 6
> 2019 07 03 12 00  9.0000000  0  8       0.000000000000
G07  25368174.774 9 133310611.930 9      2202.518 9        54.124 9  25368175.456 6         0.000 6      1716.249 6        37.977 6
G10  23843355.986 9 125297626.179 9      3547.459 9        54.657 9  23843359.745 6         0.000 6      2764.257 6        37.977 6
G21  21158961.907 9 111191074.661 9     -1245.473 9        55.714 9  21158961.191 6         0.000 6      -970.499 6        37.977 6
G29  24269844.411 9 127538837.321 9     -3144.252 9        54.486 9  24269845.954 6         0.000 6     -2450.069 6        37.977 6
G27  22028736.208 9 115761762.965 9      2528.783 9        55.365 9  22028738.150 6         0.000 6      1970.481 6        37.977 6
G16  20502713.520 9 107742466.435 9       596.964 9        55.974 9  20502712.694 6         0.000 6       465.167 6        37.977 6
G26  20640414.637 9 108466088.812 9     -1442.018 9        55.879 9  20640417.448 6         0.000 6     -1123.651 6        37.977 6
G20  21968654.189 9 115446023.633 9      2587.334 9        55.306 9  21968654.525 6         0.000 6      2016.105 6        37.977 6
> 2019 07 03 12 00 10.0000000  0  8       0.000000000000
G07  25367755.915 9 133308410.815 9      2199.377 9        54.124 9  25367756.597 6         0.000 6      1713.801 6        37.977 6
G10  23842680.790 9 125294078.013 9      3549.034 9        54.657 9  23842684.549 6         0.000 6      2765.484 6        37.977 6
G21  21159198.777 9 111192319.420 9     -1243.540 9        55.714 9  21159198.061 6         0.000 6      -968.993 6        37.977 6
G29  24270442.240 9 127541978.924 9     -3137.586 9        54.485 9  24270443.784 6         0.000 6     -2444.875 6        37.977 6
G27  22028255.415 9 115759236.382 9      2523.376 9        55.365 9  22028257.356 6         0.000 6      1966.268 6        37.977 6
G16  20502600.168 9 107741870.765 9       593.884 9        55.974 9  20502599.341 6         0.000 6       462.767 6        37.977 6
G26  20640689.154 9 108467531.406 9     -1443.447 9        55.879 9  20640691.965 6         0.000 6     -1124.765 6        37.977 6
G20  21968161.632 9 115443435.229 9      2589.971 9        55.306 9  21968161.967 6         0.000 6      2018.161 6        37.977 6
> 2019 07 03 12 00 11.0000000  0  8       0.000000000000
G07  25367337.575 9 133306212.427 9      2198.080 9        54.125 9  25367338.256 6         0.000 6      1712.790 6        37.977 6
G10  23842005.431 9 125290528.988 9      3548.386 9        54.657 9  23842009.189 6         0.000 6      2764.979 6        37.977 6
G21  21159435.112 9 111193561.369 9     -1240.322 9        55.714 9  21159434.396 6         0.000 6      -966.485 6        37.977 6
G29  24271038.416 9 127545111.837 9     -3128.431 9        54.485 9  24271039.960 6         0.000 6     -2437.741 6        37.977 6
G27  22027775.891 9 115756716.470 9      2516.726 9        55.365 9  22027777.832 6         0.000 6      1961.086 6        37.977 6
G16  20502487.526 9 107741278.825 9       590.106 9        55.974 9  20502486.699 6         0.000 6       459.823 6        37.977 6
G26  20640964.099 9 108468976.254 9     -1446.509 9        55.879 9  20640966.911 6         0.000 6     -1127.150 6        37.977 6
G20  21967668.555 9 115440844.099 9      2591.809 9        55.306 9  21967668.890 6         0.000 6      2019.593 6        37.977 6
> 2019 07 03 12 00 12.0000000  0  8       0.000000000000
G07  25366918.968 9 133304012.632 9      2203.437 9        54.125 9  25366919.648 6         0.000 6      1716.965 6        37.977 6
G10  23841330.701 9 125286983.269 9      3541.175 9        54.658 9  23841334.459 6         0.000 6      2759.360 6        37.977 6
G21  21159670.787 9 111194799.849 9     -1236.425 9        55.714 9  21159670.071 6         0.000 6      -963.448 6        37.977 6
G29  24271632.927 9 127548236.006 9     -3120.128 9        54.485 9  24271634.472 6         0.000 6     -2431.271 6        37.977 6
G27  22027297.460 9 115754202.301 9      2512.200 9        55.365 9  22027299.401 6         0.000 6      1957.559 6        37.977 6
G16  20502375.537 9 107740690.323 9       587.110 9        55.974 9  20502374.711 6         0.000 6       457.488 6        37.977 6
G26  20641239.842 9 108470425.289 9     -1452.393 9        55.879 9  20641242.653 6         0.000 6     -1131.735 6        37.977 6
G20  21967175.494 9 115438253.050 9      2588.953 9        55.306 9  21967175.829 6         0.000 6      2017.367 6        37.977 6
> 2019 07 03 12 00 13.0000000  0  8       0.000000000000
G07  25366499.157 9 133301806.516 9      2207.583 9        54.125 9  25366499.837 6         0.000 6      1720.195 6        37.977 6
G10  23840657.445 9 125283445.296 9      3536.108 9        54.658 9  23840661.202 6         0.000 6      2755.411 6        37.977 6
G21  21159905.916 9 111196035.458 9     -1235.235 9        55.714 9  21159905.200 6         0.000 6      -962.521 6        37.977 6
G29  24272226.416 9 127551354.798 9     -3118.103 9        54.485 9  24272227.961 6         0.000 6     -2429.693 6        37.977 6
G27  22026819.473 9 115751690.464 9      2511.615 9        55.365 9  22026821.414 6         0.000 6      1957.104 6        37.977 6
G16  20502263.918 9 107740103.761 9       586.130 9        55.974 9  20502263.092 6         0.000 6       456.725 6        37.977 6
G26  20641516.616 9 108471879.742 9     -1455.760 9        55.879 9  20641519.427 6         0.000 6     -1134.359 6        37.977 6
G20  21966683.203 9 115435666.051 9      2585.767 9        55.307 9  21966683.538 6         0.000 6      2014.885 6        37.977 6
> 2019 07 03 12 00 14.0000000  0  8       0.000000000000
G07  25366079.022 9 133299598.697 9      2207.778 9        54.125 9  25366079.703 6         0.000 6      1720.348 6        37.977 6
G10  23839984.659 9 125279909.792 9      3535.216 9        54.658 9  23839988.415 6         0.000 6      2754.717 6        37.977 6
G21  21160140.964 9 111197270.643 9     -1235.205 9        55.714 9  21160140.248 6         0.000 6      -962.498 6        37.977 6
G29  24272819.705 9 127554472.545 9     -3117.468 9        54.485 9  24272821.251 6         0.000 6     -2429.198 6        37.977 6
G27  22026341.580 9 115749179.120 9      2511.049 9        55.366 9  22026343.520 6         0.000 6      1956.662 6        37.977 6
G16  20502152.458 9 107739518.032 9       585.325 9        55.974 9  20502151.631 6         0.000 6       456.098 6        37.977 6
G26  20641793.756 9 108473336.124 9     -1456.859 9        55.878 9  20641796.568 6         0.000 6     -1135.216 6        37.977 6
G20  21966191.237 9 115433080.753 9      2585.020 9        55.307 9  21966191.571 6         0.000 6      2014.303 6        37.977 6
> 2019 07 03 12 00 15.0000000  0  8       0.000000000000
G07  25365658.946 9 133297391.183 9      2207.234 9        54.125 9  25365659.626 6         0.000 6      1719.923 6        37.977 6
G10  23839311.943 9 125276374.659 9      3535.104 9        54.658 9  23839315.699 6         0.000 6      2754.629 6        37.977 6
G21  21160376.034 9 111198505.942 9     -1235.400 9        55.714 9  21160375.317 6         0.000 6      -962.650 6        37.977 6
G29  24273412.901 9 127557589.801 9     -3117.097 9        54.484 9  24273414.448 6         0.000 6     -2428.909 6        37.977 6
G27  22025863.799 9 115746668.370 9      2510.483 9        55.366 9  22025865.740 6         0.000 6      1956.222 6        37.977 6
G16  20502041.150 9 107738933.106 9       584.548 9        55.975 9  20502040.323 6         0.000 6       455.492 6        37.977 6
G26  20642071.055 9 108474793.339 9     -1457.540 9        55.878 9  20642073.867 6         0.000 6     -1135.746 6        37.977 6
G20  21965699.353 9 115430495.894 9      2584.725 9        55.307 9  21965699.687 6         0.000 6      2014.072 6        37.977 6
> 2019 07 03 12 00 16.0000000  0  8       0.000000000000
G07  25365238.978 9 133295184.240 9      2206.662 9        54.125 9  25365239.657 6         0.000 6      1719.478 6        37.977 6
G10  23838639.241 9 125272839.593 9      3535.044 9        54.659 9  23838642.996 6         0.000 6      2754.583 6        37.977 6
G21  21160611.146 9 111199741.466 9     -1235.664 9        55.713 9  21160610.430 6         0.000 6      -962.855 6        37.977 6
G29  24274006.043 9 127560706.774 9     -3116.887 9        54.484 9  24274007.590 6         0.000 6     -2428.746 6        37.977 6
G27  22025386.115 9 115744158.123 9      2510.020 9        55.366 9  22025388.055 6         0.000 6      1955.861 6        37.977 6
G16  20501929.983 9 107738348.918 9       583.823 9        55.975 9  20501929.156 6         0.000 6       454.927 6        37.977 6
G26  20642348.474 9 108476251.184 9     -1458.157 9        55.878 9  20642351.286 6         0.000 6     -1136.227 6        37.977 6
G20  21965207.525 9 115427911.322 9      2584.418 9        55.307 9  21965207.858 6         0.000 6      2013.834 6        37.977 6
> 2019 07 03 12 00 17.0000000  0  8       0.000000000000
G07  25364819.116 9 133292977.856 9      2206.124 9        54.125 9  25364819.796 6         0.000 6      1719.059 6        37.977 6
G10  23837966.551 9 125269304.594 9      3534.967 9        54.659 9  23837970.305 6         0.000 6      2754.522 6        37.977 6
G21  21160846.313 9 111200977.276 9     -1235.959 9        55.713 9  21160845.597 6         0.000 6      -963.085 6        37.977 6
G29  24274599.156 9 127563823.591 9     -3116.781 9        54.484 9  24274600.703 6         0.000 6     -2428.663 6        37.977 6
G27  22024908.511 9 115741648.303 9      2509.640 9        55.366 9  22024910.451 6         0.000 6      1955.564 6        37.977 6
G16  20501818.951 9 107737765.440 9       583.142 9        55.975 9  20501818.124 6         0.000 6       454.396 6        37.977 6
G26  20642626.009 9 108477709.637 9     -1458.752 9        55.878 9  20642628.821 6         0.000 6     -1136.690 6        37.977 6
G20  21964715.758 9 115425327.077 9      2584.073 9        55.307 9  21964716.092 6         0.000 6      2013.564 6        37.977 6
> 2019 07 03 12 00 18.0000000  0  8       0.000000000000
G07  25364399.353 9 133290771.991 9      2205.613 9        54.126 9  25364400.033 6         0.000 6      1718.661 6        37.977 6
G10  23837293.878 9 125265769.688 9      3534.871 9        54.659 9  23837297.632 6         0.000 6      2754.447 6        37.977 6
G21  21161081.539 9 111202213.395 9     -1236.281 9        55.713 9  21161080.823 6         0.000 6      -963.336 6        37.977 6
G29  24275192.255 9 127566940.338 9     -3116.744 9        54.484 9  24275193.803 6         0.000 6     -2428.634 6        37.977 6
G27  22024430.975 9 115739138.838 9      2509.308 9        55.366 9  22024432.915 6         0.000 6      1955.305 6        37.977 6
G16  20501708.046 9 107737182.633 9       582.481 9        55.975 9  20501707.219 6         0.000 6       453.882 6        37.977 6
G26  20642903.657 9 108479168.687 9     -1459.342 9        55.878 9  20642906.469 6         0.000 6     -1137.150 6        37.977 6
G20  21964224.062 9 115422743.199 9      2583.693 9        55.308 9  21964224.395 6         0.000 6      2013.269 6        37.977 6
> 2019 07 03 12 00 19.0000000  0  8       0.000000000000
G07  25363979.687 9 133288566.631 9      2205.122 9        54.126 9  25363980.366 6         0.000 6      1718.278 6        37.977 6
G10  23836621.225 9 125262234.879 9      3534.761 9        54.659 9  23836624.978 6         0.000 6      2754.362 6        37.977 6
G21  21161316.827 9 111203449.841 9     -1236.618 9        55.713 9  21161316.111 6         0.000 6      -963.598 6        37.977 6
G29  24275785.351 9 127570057.069 9     -3116.748 9        54.483 9  24275786.900 6         0.000 6     -2428.637 6        37.977 6
G27  22023953.499 9 115736629.686 9      2509.007 9        55.367 9  22023955.439 6         0.000 6      1955.071 6        37.977 6
G16  20501597.265 9 107736600.474 9       581.835 9        55.975 9  20501596.438 6         0.000 6       453.378 6        37.977 6
G26  20643181.416 9 108480628.318 9     -1459.929 9        55.878 9  20643184.228 6         0.000 6     -1137.607 6        37.977 6
G20  21963732.439 9 115420159.705 9      2583.293 9        55.308 9  21963732.771 6         0.000 6      2012.956 6        37.977 6
> 2019 07 03 12 00 20.0000000  0  8       0.000000000000
G07  25363560.110 9 133286361.746 9      2204.688 9        54.126 9  25363560.789 6         0.000 6      1717.939 6        37.977 6
G10  23835948.594 9 125258700.191 9      3534.614 9        54.660 9  23835952.346 6         0.000 6      2754.248 6        37.977 6
G21  21161552.181 9 111204686.635 9     -1236.997 9        55.713 9  21161551.465 6         0.000 6      -963.894 6        37.977 6
G29  24276378.454 9 127573173.839 9     -3116.886 9        54.483 9  24276380.004 6         0.000 6     -2428.745 6        37.977 6
G27  22023476.075 9 115734120.806 9      2508.813 9        55.367 9  22023478.014 6         0.000 6      1954.920 6        37.977 6
G16  20501486.604 9 107736018.950 9       581.241 9        55.975 9  20501485.778 6         0.000 6       452.915 6        37.977 6
G26  20643459.286 9 108482088.533 9     -1460.498 9        55.878 9  20643462.098 6         0.000 6     -1138.051 6        37.977 6
G20  21963240.895 9 115417576.631 9      2582.830 9        55.308 9  21963241.227 6         0.000 6      2012.596 6        37.977 6
> 2019 07 03 12 00 21.0000000  0  8       0.000000000000
G07  25363140.595 9 133284157.183 9      2204.465 9        54.126 9  25363141.274 6         0.000 6      1717.766 6        37.977 6
G10  23835276.006 9 125255165.727 9      3534.323 9        54.660 9  23835279.758 6         0.000 6      2754.021 6        37.977 6
G21  21161787.624 9 111205923.894 9     -1237.536 9        55.713 9  21161786.908 6         0.000 6      -964.314 6        37.977 6
G29  24276971.632 9 127576290.996 9     -3117.495 9        54.483 9  24276973.182 6         0.000 6     -2429.219 6        37.977 6
G27  22022998.651 9 115731611.930 9      2508.982 9        55.367 9  22023000.590 6         0.000 6      1955.052 6        37.977 6
G16  20501376.040 9 107735437.929 9       580.819 9        55.975 9  20501375.213 6         0.000 6       452.586 6        37.977 6
G26  20643737.260 9 108483549.294 9     -1461.020 9        55.878 9  20643740.072 6         0.000 6     -1138.458 6        37.977 6
G20  21962749.463 9 115414994.143 9      2582.134 9        55.308 9  21962749.795 6         0.000 6      2012.054 6        37.977 6
> 2019 07 03 12 00 22.0000000  0  8       0.000000000000
G07  25362721.113 9 133281952.796 9      2204.323 9        54.126 9  25362721.792 6         0.000 6      1717.655 6        37.977 6
G10  23834603.478 9 125251631.584 9      3533.978 9        54.660 9  23834607.230 6         0.000 6      2753.752 6        37.977 6
G21  21162023.176 9 111207161.726 9     -1238.134 9        55.713 9  21162022.460 6         0.000 6      -964.780 6        37.977 6
G29  24277564.945 9 127579408.870 9     -3118.280 9        54.483 9  24277566.496 6         0.000 6     -2429.831 6        37.977 6
G27  22022521.179 9 115729102.799 9      2509.287 9        55.367 9  22022523.118 6         0.000 6      1955.289 6        37.977 6
G16  20501265.548 9 107734857.290 9       580.460 9        55.975 9  20501264.721 6         0.000 6       452.306 6        37.977 6
G26  20644015.331 9 108485010.563 9     -1461.526 9        55.877 9  20644018.143 6         0.000 6     -1138.852 6        37.977 6
G20  21962258.173 9 115412412.401 9      2581.351 9        55.308 9  21962258.505 6         0.000 6      2011.444 6        37.977 6
> 2019 07 03 12 00 23.0000000  0  8       0.000000000000
G07  25362301.445 9 133279747.426 9      2209.658 9        54.126 9  25362302.123 6         0.000 6      1721.812 6        37.977 6
G10  23833931.231 9 125248098.913 9      3528.191 9        54.660 9  23833934.982 6         0.000 6      2749.243 6        37.977 6
G21  21162258.811 9 111208399.997 9     -1238.063 9        55.713 9  21162258.095 6         0.000 6      -964.725 6        37.977 6
G29  24278158.414 9 127582527.560 9     -3119.502 9        54.483 9  24278159.966 6         0.000 6     -2430.783 6        37.977 6
G27  22022043.595 9 115726593.083 9      2511.159 9        55.367 9  22022045.534 6         0.000 6      1956.748 6        37.977 6
G16  20501155.107 9 107734276.919 9       580.645 9        55.975 9  20501154.280 6         0.000 6       452.451 6        37.977 6
G26  20644293.596 9 108486472.854 9     -1464.447 9        55.877 9  20644296.408 6         0.000 6     -1141.128 6        37.977 6
G20  21961767.179 9 115409832.215 9      2576.759 9        55.309 9  21961767.511 6         0.000 6      2007.865 6        37.977 6
> 2019 07 03 12 00 24.0000000  0  8       0.000000000000
G07  25361879.697 9 133277531.129 9      2222.894 9        54.126 9  25361880.375 6         0.000 6      1732.126 6        37.977 6
G10  23833261.095 9 125244577.331 9      3515.179 9        54.661 9  23833264.845 6         0.000 6      2739.103 6        37.977 6
G21  21162494.432 9 111209638.194 9     -1238.710 9        55.713 9  21162493.716 6         0.000 6      -965.229 6        37.977 6
G29  24278752.523 9 127585649.612 9     -3125.534 9        54.482 9  24278754.075 6         0.000 6     -2435.484 6        37.977 6
G27  22021565.134 9 115724078.757 9      2518.097 9        55.368 9  22021567.073 6         0.000 6      1962.154 6        37.977 6
G16  20501044.417 9 107733695.237 9       583.020 9        55.975 9  20501043.590 6         0.000 6       454.301 6        37.977 6
G26  20644572.785 9 108487940.001 9     -1469.546 9        55.877 9  20644575.598 6         0.000 6     -1145.102 6        37.977 6
G20  21961277.858 9 115407260.820 9      2565.905 9        55.309 9  21961278.189 6         0.000 6      1999.408 6        37.977 6
> 2019 07 03 12 00 25.0000000  0  8       0.000000000000
G07  25361455.372 9 133275301.290 9      2236.800 9        54.127 9  25361456.050 6         0.000 6      1742.962 6        37.977 6
G10  23832593.389 9 125241068.526 9      3502.696 9        54.661 9  23832597.139 6         0.000 6      2729.377 6        37.977 6
G21  21162730.448 9 111210878.468 9     -1242.537 9        55.713 9  21162729.733 6         0.000 6      -968.211 6        37.977 6
G29  24279348.475 9 127588781.352 9     -3139.687 9        54.482 9  24279350.028 6         0.000 6     -2446.512 6        37.977 6
G27  22021084.873 9 115721554.972 9      2530.633 9        55.368 9  22021086.812 6         0.000 6      1971.922 6        37.977 6
G16  20500933.037 9 107733109.933 9       588.162 9        55.975 9  20500932.210 6         0.000 6       458.308 6        37.977 6
G26  20644852.755 9 108489411.251 9     -1472.426 9        55.877 9  20644855.567 6         0.000 6     -1147.346 6        37.977 6
G20  21960790.770 9 115404701.159 9      2553.100 9        55.309 9  21960791.101 6         0.000 6      1989.430 6        37.977 6
> 2019 07 03 12 00 26.0000000  0  8       0.000000000000
G07  25361029.343 9 133273062.497 9      2239.728 9        54.127 9  25361030.020 6         0.000 6      1745.244 6        37.977 6
G10  23831927.188 9 125237567.624 9      3499.971 9        54.661 9  23831930.936 6         0.000 6      2727.253 6        37.977 6
G21  21162967.133 9 111212122.254 9     -1244.568 9        55.712 9  21162966.417 6         0.000 6      -969.794 6        37.977 6
G29  24279946.612 9 127591924.570 9     -3145.207 9        54.482 9  24279948.165 6         0.000 6     -2450.813 6        37.977 6
G27  22020602.788 9 115719021.599 9      2534.825 9        55.368 9  22020604.726 6         0.000 6      1975.189 6        37.977 6
G16  20500820.919 9 107732520.747 9       589.609 9        55.975 9  20500820.092 6         0.000 6       459.436 6        37.977 6
G26  20645132.993 9 108490883.911 9     -1472.887 9        55.877 9  20645135.806 6         0.000 6     -1147.705 6        37.977 6
G20  21960305.383 9 115402150.440 9      2549.363 9        55.309 9  21960305.714 6         0.000 6      1986.518 6        37.977 6
> 2019 07 03 12 00 27.0000000  0  8       0.000000000000
G07  25360603.115 9 133270822.655 9      2239.814 9        54.127 9  25360603.792 6         0.000 6      1745.311 6        37.977 6
G10  23831261.229 9 125234068.000 9      3499.410 9        54.661 9  23831264.977 6         0.000 6      2726.815 6        37.977 6
G21  21163204.032 9 111213367.166 9     -1245.164 9        55.712 9  21163203.316 6         0.000 6      -970.258 6        37.977 6
G29  24280545.233 9 127595070.340 9     -3146.080 9        54.482 9  24280546.787 6         0.000 6     -2451.493 6        37.977 6
G27  22020120.368 9 115716486.466 9      2535.234 9        55.368 9  22020122.306 6         0.000 6      1975.508 6        37.977 6
G16  20500708.742 9 107731931.253 9       589.283 9        55.975 9  20500707.915 6         0.000 6       459.182 6        37.977 6
G26  20645413.330 9 108492357.090 9     -1473.483 9        55.877 9  20645416.143 6         0.000 6     -1148.169 6        37.977 6
G20  21959820.361 9 115399601.634 9      2548.415 9        55.309 9  21959820.691 6         0.000 6      1985.779 6        37.977 6
> 2019 07 03 12 00 28.0000000  0  8       0.000000000000
G07  25360176.919 9 133268582.988 9      2239.509 9        54.127 9  25360177.596 6         0.000 6      1745.073 6        37.977 6
G10  23830595.341 9 125230568.744 9      3499.138 9        54.662 9  23830599.088 6         0.000 6      2726.604 6        37.977 6
G21  21163441.015 9 111214612.517 9     -1245.537 9        55.712 9  21163440.299 6         0.000 6      -970.549 6        37.977 6
G29  24281143.931 9 127598216.505 9     -3146.252 9        54.482 9  24281145.485 6         0.000 6     -2451.628 6        37.977 6
G27  22019637.941 9 115713951.300 9      2535.084 9        55.368 9  22019639.879 6         0.000 6      1975.390 6        37.977 6
G16  20500596.660 9 107731342.258 9       588.695 9        55.975 9  20500595.833 6         0.000 6       458.723 6        37.977 6
G26  20645693.784 9 108493830.885 9     -1474.115 9        55.877 9  20645696.597 6         0.000 6     -1148.661 6        37.977 6
G20  21959335.467 9 115397053.506 9      2547.862 9        55.310 9  21959335.798 6         0.000 6      1985.348 6        37.977 6
> 2019 07 03 12 00 29.0000000  0  8       0.000000000000
G07  25359750.790 9 133266343.666 9      2239.135 9        54.127 9  25359751.467 6         0.000 6      1744.781 6        37.977 6
G10  23829929.498 9 125227069.724 9      3498.927 9        54.662 9  23829933.244 6         0.000 6      2726.439 6        37.977 6
G21  21163678.066 9 111215858.228 9     -1245.889 9        55.712 9  21163677.350 6         0.000 6      -970.823 6        37.977 6
G29  24281742.652 9 127601362.799 9     -3146.351 9        54.481 9  24281744.208 6         0.000 6     -2451.705 6        37.977 6
G27  22019155.550 9 115711416.323 9      2534.869 9        55.369 9  22019157.488 6         0.000 6      1975.223 6        37.977 6
G16  20500484.693 9 107730753.869 9       588.078 9        55.975 9  20500483.866 6         0.000 6       458.243 6        37.977 6
G26  20645974.358 9 108495305.307 9     -1474.735 9        55.877 9  20645977.171 6         0.000 6     -1149.144 6        37.977 6
G20  21958850.672 9 115394505.896 9      2547.371 9        55.310 9  21958851.002 6         0.000 6      1984.966 6        37.977 6
> 2019 07 03 12 00 30.0000000  0  8       0.000000000000
G07  25359324.735 9 133264104.736 9      2238.729 9        54.127 9  25359325.412 6         0.000 6      1744.465 6        37.977 6
G10  23829263.692 9 125223570.904 9      3498.744 9        54.662 9  23829267.438 6         0.000 6      2726.297 6        37.977 6
G21  21163915.185 9 111217104.300 9     -1246.244 9        55.712 9  21163914.470 6         0.000 6      -971.099 6        37.977 6
G29  24282341.393 9 127604509.189 9     -3146.443 9        54.481 9  24282342.948 6         0.000 6     -2451.776 6        37.977 6
G27  22018673.203 9 115708881.572 9      2534.641 9        55.369 9  22018675.141 6         0.000 6      1975.046 6        37.977 6
G16  20500372.845 9 107730166.107 9       587.456 9        55.975 9  20500372.019 6         0.000 6       457.758 6        37.977 6
G26  20646255.049 9 108496780.351 9     -1475.344 9        55.877 9  20646257.863 6         0.000 6     -1149.619 6        37.977 6
G20  21958365.969 9 115391958.769 9      2546.902 9        55.310 9  21958366.299 6         0.000 6      1984.600 6        37.977 6
> 2019 07 03 12 00 31.0000000  0  8       0.000000000000
G07  25358898.759 9 133261866.219 9      2238.304 9        54.127 9  25358899.435 6         0.000 6      1744.134 6        37.977 6
G10  23828597.919 9 125220072.253 9      3498.580 9        54.662 9  23828601.665 6         0.000 6      2726.169 6        37.977 6
G21  21164152.371 9 111218350.719 9     -1246.604 9        55.712 9  21164151.656 6         0.000 6      -971.380 6        37.977 6
G29  24282940.150 9 127607655.671 9     -3146.537 9        54.481 9  24282941.707 6         0.000 6     -2451.850 6        37.977 6
G27  22018190.898 9 115706347.043 9      2534.410 9        55.369 9  22018192.835 6         0.000 6      1974.866 6        37.977 6
G16  20500261.115 9 107729578.957 9       586.831 9        55.975 9  20500260.288 6         0.000 6       457.271 6        37.977 6
G26  20646535.854 9 108498255.989 9     -1475.945 9        55.876 9  20646538.668 6         0.000 6     -1150.087 6        37.977 6
G20  21957881.353 9 115389412.100 9      2546.444 9        55.310 9  21957881.683 6         0.000 6      1984.244 6        37.977 6
> 2019 07 03 12 00 32.0000000  0  8       0.000000000000
G07  25358472.864 9 133259628.134 9      2237.871 9        54.128 9  25358473.541 6         0.000 6      1743.796 6        37.977 6
G10  23827932.176 9 125216573.762 9      3498.427 9        54.663 9  23827935.921 6         0.000 6      2726.050 6        37.977 6
G21  21164389.626 9 111219597.499 9     -1246.963 9        55.712 9  21164388.910 6         0.000 6      -971.659 6        37.977 6
G29  24283538.925 9 127610802.242 9     -3146.632 9        54.481 9  24283540.482 6         0.000 6     -2451.923 6        37.977 6
G27  22017708.638 9 115703812.753 9      2534.179 9        55.369 9  22017710.575 6         0.000 6      1974.686 6        37.977 6
G16  20500149.504 9 107728992.438 9       586.209 9        55.975 9  20500148.677 6         0.000 6       456.786 6        37.977 6
G26  20646816.774 9 108499732.231 9     -1476.539 9        55.876 9  20646819.588 6         0.000 6     -1150.550 6        37.977 6
G20  21957396.824 9 115386865.885 9      2545.994 9        55.310 9  21957397.153 6         0.000 6      1983.893 6        37.977 6
> 2019 07 03 12 00 33.0000000  0  8       0.000000000000
G07  25358047.054 9 133257390.488 9      2237.428 9        54.128 9  25358047.730 6         0.000 6      1743.451 6        37.977 6
G10  23827266.462 9 125213075.418 9      3498.282 9        54.663 9  23827270.206 6         0.000 6      2725.937 6        37.977 6
G21  21164626.949 9 111220844.641 9     -1247.321 9        55.712 9  21164626.234 6         0.000 6      -971.939 6        37.977 6
G29  24284137.717 9 127613948.909 9     -3146.722 9        54.480 9  24284139.275 6         0.000 6     -2451.994 6        37.977 6
G27  22017226.422 9 115701278.694 9      2533.943 9        55.369 9  22017228.359 6         0.000 6      1974.502 6        37.977 6
G16  20500038.011 9 107728406.541 9       585.585 9        55.975 9  20500037.184 6         0.000 6       456.300 6        37.977 6
G26  20647097.806 9 108501209.063 9     -1477.130 9        55.876 9  20647100.620 6         0.000 6     -1151.010 6        37.977 6
G20  21956912.380 9 115384320.117 9      2545.551 9        55.310 9  21956912.708 6         0.000 6      1983.548 6        37.977 6
> 2019 07 03 12 00 34.0000000  0  8       0.000000000000
G07  25357621.327 9 133255153.282 9      2236.984 9        54.128 9  25357622.003 6         0.000 6      1743.106 6        37.977 6
G10  23826600.775 9 125209577.222 9      3498.136 9        54.663 9  23826604.518 6         0.000 6      2725.823 6        37.977 6
G21  21164864.341 9 111222092.143 9     -1247.686 9        55.712 9  21164863.626 6         0.000 6      -972.223 6        37.977 6
G29  24284736.528 9 127617095.672 9     -3146.819 9        54.480 9  24284738.087 6         0.000 6     -2452.069 6        37.977 6
G27  22016744.250 9 115698744.868 9      2533.708 9        55.369 9  22016746.187 6         0.000 6      1974.318 6        37.977 6
G16  20499926.637 9 107727821.266 9       584.958 9        55.975 9  20499925.810 6         0.000 6       455.812 6        37.977 6
G26  20647378.951 9 108502686.487 9     -1477.723 9        55.876 9  20647381.765 6         0.000 6     -1151.473 6        37.977 6
G20  21956428.020 9 115381774.795 9      2545.105 9        55.311 9  21956428.348 6         0.000 6      1983.200 6        37.977 6
> 2019 07 03 12 00 35.0000000  0  8       0.000000000000
G07  25357195.689 9 133252916.541 9      2236.468 9        54.128 9  25357196.364 6         0.000 6      1742.703 6        37.977 6
G10  23825935.112 9 125206079.150 9      3498.066 9        54.663 9  23825938.855 6         0.000 6      2725.769 6        37.977 6
G21  21165101.802 9 111223340.007 9     -1248.053 9        55.712 9  21165101.086 6         0.000 6      -972.509 6        37.977 6
G29  24285335.356 9 127620242.522 9     -3146.907 9        54.480 9  24285336.915 6         0.000 6     -2452.138 6        37.977 6
G27  22016262.125 9 115696211.286 9      2533.455 9        55.370 9  22016264.062 6         0.000 6      1974.121 6        37.977 6
G16  20499815.382 9 107727236.620 9       584.331 9        55.975 9  20499814.556 6         0.000 6       455.323 6        37.977 6
G26  20647660.207 9 108504164.493 9     -1478.277 9        55.876 9  20647663.020 6         0.000 6     -1151.904 6        37.977 6
G20  21955943.742 9 115379229.901 9      2544.714 9        55.311 9  21955944.070 6         0.000 6      1982.895 6        37.977 6
> 2019 07 03 12 00 36.0000000  0  8       0.000000000000
G07  25356770.183 9 133250680.496 9      2235.577 9        54.128 9  25356770.858 6         0.000 6      1742.009 6        37.977 6
G10  23825269.428 9 125202580.970 9      3498.370 9        54.664 9  23825273.171 6         0.000 6      2726.005 6        37.977 6
G21  21165339.338 9 111224588.269 9     -1248.478 9        55.712 9  21165338.623 6         0.000 6      -972.841 6        37.977 6
G29  24285934.200 9 127623389.460 9     -3146.990 9        54.480 9  24285935.760 6         0.000 6     -2452.202 6        37.977 6
G27  22015780.056 9 115693678.001 9      2533.110 9        55.370 9  22015781.993 6         0.000 6      1973.853 6        37.977 6
G16  20499704.251 9 107726652.618 9       583.673 9        55.976 9  20499703.424 6         0.000 6       454.810 6        37.977 6
G26  20647941.552 9 108505642.973 9     -1478.660 9        55.876 9  20647944.366 6         0.000 6     -1152.203 6        37.977 6
G20  21955459.516 9 115376685.280 9      2544.576 9        55.311 9  21955459.844 6         0.000 6      1982.788 6        37.977 6
> 2019 07 03 12 00 37.0000000  0  8       0.000000000000
G07  25356344.877 9 133248445.504 9      2234.695 9        54.128 9  25356345.552 6         0.000 6      1741.322 6        37.977 6
G10  23824603.661 9 125199082.347 9      3498.700 9        54.664 9  23824607.402 6         0.000 6      2726.262 6        37.977 6
G21  21165576.949 9 111225836.919 9     -1249.000 9        55.711 9  21165576.233 6         0.000 6      -973.247 6        37.977 6
G29  24286533.031 9 127626536.326 9     -3147.312 9        54.480 9  24286534.591 6         0.000 6     -2452.453 6        37.977 6
G27  22015298.080 9 115691145.203 9      2532.927 9        55.370 9  22015300.017 6         0.000 6      1973.710 6        37.977 6
G16  20499593.256 9 107726069.337 9       583.095 9        55.976 9  20499592.429 6         0.000 6       454.360 6        37.977 6
G26  20648222.966 9 108507121.810 9     -1478.972 9        55.876 9  20648225.780 6         0.000 6     -1152.446 6        37.977 6
G20  21954975.289 9 115374140.657 9      2544.388 9        55.311 9  21954975.617 6         0.000 6      1982.641 6        37.977 6
> 2019 07 03 12 00 38.0000000  0  8       0.000000000000
G07  25355919.338 9 133246209.283 9      2236.957 9        54.128 9  25355920.013 6         0.000 6      1743.084 6        37.977 6
G10  23823938.052 9 125195584.563 9      3497.732 9        54.664 9  23823941.793 6         0.000 6      2725.508 6        37.977 6
G21  21165815.090 9 111227088.362 9     -1254.119 9        55.711 9  21165814.375 6         0.000 6      -977.236 6        37.977 6
G29  24287133.140 9 127629689.913 9     -3160.146 9        54.479 9  24287134.701 6         0.000 6     -2462.454 6        37.977 6
G27  22014815.231 9 115688607.816 9      2541.842 9        55.370 9  22014817.168 6         0.000 6      1980.657 6        37.977 6
G16  20499481.934 9 107725484.336 9       586.939 9        55.976 9  20499481.107 6         0.000 6       457.355 6        37.977 6
G26  20648504.245 9 108508599.940 9     -1476.835 9        55.876 9  20648507.059 6         0.000 6     -1150.781 6        37.977 6
G20  21954491.597 9 115371598.839 9      2539.751 9        55.311 9  21954491.924 6         0.000 6      1979.028 6        37.977 6
> 2019 07 03 12 00 39.0000000  0  8       0.000000000000
G07  25355493.968 9 133243973.955 9      2232.266 9        54.129 9  25355494.643 6         0.000 6      1739.429 6        37.977 6
G10  23823272.043 9 125192084.671 9      3503.420 9        54.664 9  23823275.783 6         0.000 6      2729.940 6        37.977 6
G21  21166054.250 9 111228345.154 9     -1259.415 9        55.711 9  21166053.535 6         0.000 6      -981.363 6        37.977 6
G29  24287735.568 9 127632855.681 9     -3170.731 9        54.479 9  24287737.129 6         0.000 6     -2470.702 6        37.977 6
G27  22014330.908 9 115686062.685 9      2547.635 9        55.370 9  22014332.844 6         0.000 6      1985.171 6        37.977 6
G16  20499369.964 9 107724895.930 9       589.545 9        55.976 9  20499369.137 6         0.000 6       459.385 6        37.977 6
G26  20648784.874 9 108510074.655 9     -1472.136 9        55.875 9  20648787.688 6         0.000 6     -1147.119 6        37.977 6
G20  21954008.355 9 115369059.393 9      2540.254 9        55.312 9  21954008.682 6         0.000 6      1979.420 6        37.977 6
> 2019 07 03 12 00 40.0000000  0  8       0.000000000000
G07  25355070.299 9 133241747.563 9      2222.632 9        54.129 9  25355070.974 6         0.000 6      1731.922 6        37.977 6
G10  23822604.215 9 125188575.221 9      3513.101 9        54.665 9  23822607.954 6         0.000 6      2737.484 6        37.977 6
G21  21166294.338 9 111229606.826 9     -1262.831 9        55.711 9  21166293.623 6         0.000 6      -984.025 6        37.977 6
G29  24288339.501 9 127636029.362 9     -3174.764 9        54.479 9  24288341.063 6         0.000 6     -2473.844 6        37.977 6
G27  22013846.012 9 115683514.539 9      2547.890 9        55.371 9  22013847.948 6         0.000 6      1985.369 6        37.977 6
G16  20499257.726 9 107724306.114 9       589.602 9        55.976 9  20499256.899 6         0.000 6       459.430 6        37.977 6
G26  20649064.390 9 108511543.518 9     -1467.173 9        55.875 9  20649067.204 6         0.000 6     -1143.252 6        37.977 6
G20  21953524.376 9 115366516.070 9      2545.319 9        55.312 9  21953524.703 6         0.000 6      1983.367 6        37.977 6
> 2019 07 03 12 00 41.0000000  0  8       0.000000000000
G07  25354647.595 9 133239526.242 9      2220.553 9        54.129 9  25354648.270 6         0.000 6      1730.302 6        37.977 6
G10  23821935.497 9 125185061.094 9      3514.632 9        54.665 9  23821939.236 6         0.000 6      2738.677 6        37.977 6
G21  21166534.725 9 111230870.067 9     -1263.541 9        55.711 9  21166534.010 6         0.000 6      -984.577 6        37.977 6
G29  24288943.672 9 127639204.288 9     -3175.055 9        54.479 9  24288945.234 6         0.000 6     -2474.072 6        37.977 6
G27  22013361.220 9 115680966.944 9      2547.400 9        55.371 9  22013363.156 6         0.000 6      1984.988 6        37.977 6
G16  20499145.594 9 107723716.859 9       588.935 9        55.976 9  20499144.767 6         0.000 6       458.911 6        37.977 6
G26  20649343.535 9 108513010.435 9     -1466.924 9        55.875 9  20649346.350 6         0.000 6     -1143.058 6        37.977 6
G20  21953039.925 9 115363970.267 9      2545.946 9        55.312 9  21953040.252 6         0.000 6      1983.855 6        37.977 6
> 2019 07 03 12 00 42.0000000  0  8       0.000000000000
G07  25354225.101 9 133237306.025 9      2219.959 9        54.129 9  25354225.775 6         0.000 6      1729.839 6        37.977 6
G10  23821266.675 9 125181546.424 9      3514.653 9        54.665 9  23821270.413 6         0.000 6      2738.694 6        37.977 6
G21  21166775.211 9 111232133.827 9     -1263.977 9        55.711 9  21166774.496 6         0.000 6      -984.917 6        37.977 6
G29  24289547.882 9 127642379.428 9     -3175.243 9        54.479 9  24289549.446 6         0.000 6     -2474.218 6        37.977 6
G27  22012876.487 9 115678419.658 9      2547.185 9        55.371 9  22012878.423 6         0.000 6      1984.820 6        37.977 6
G16  20499033.580 9 107723128.222 9       588.335 9        55.976 9  20499032.753 6         0.000 6       458.443 6        37.977 6
G26  20649622.724 9 108514477.577 9     -1467.407 9        55.875 9  20649625.538 6         0.000 6     -1143.435 6        37.977 6
G20  21952555.477 9 115361424.481 9      2545.581 9        55.312 9  21952555.803 6         0.000 6      1983.571 6        37.977 6
> 2019 07 03 12 00 43.0000000  0  8       0.000000000000
G07  25353802.699 9 133235086.291 9      2219.522 9        54.129 9  25353803.373 6         0.000 6      1729.499 6        37.977 6
G10  23820597.872 9 125178031.850 9      3514.514 9        54.665 9  23820601.609 6         0.000 6      2738.585 6        37.977 6
G21  21167015.776 9 111233398.004 9     -1264.370 9        55.711 9  21167015.061 6         0.000 6      -985.223 6        37.977 6
G29  24290152.127 9 127645554.742 9     -3175.395 9        54.478 9  24290153.691 6         0.000 6     -2474.336 6        37.977 6
G27  22012391.792 9 115675872.574 9      2546.986 9        55.371 9  22012393.728 6         0.000 6      1984.665 6        37.977 6
G16  20498921.681 9 107722540.186 9       587.738 9        55.976 9  20498920.854 6         0.000 6       457.978 6        37.977 6
G26  20649902.015 9 108515945.264 9     -1467.970 9        55.875 9  20649904.830 6         0.000 6     -1143.873 6        37.977 6
G20  21952071.113 9 115358879.137 9      2545.119 9        55.312 9  21952071.439 6         0.000 6      1983.211 6        37.977 6
> 2019 07 03 12 00 44.0000000  0  8       0.000000000000
G07  25353380.381 9 133232866.995 9      2219.086 9        54.129 9  25353381.054 6         0.000 6      1729.159 6        37.977 6
G10  23819929.095 9 125174517.415 9      3514.368 9        54.666 9  23819932.832 6         0.000 6      2738.471 6        37.977 6
G21  21167256.414 9 111234662.567 9     -1264.757 9        55.711 9  21167255.699 6         0.000 6      -985.525 6        37.977 6
G29  24290756.397 9 127648730.192 9     -3175.525 9        54.478 9  24290757.961 6         0.000 6     -2474.438 6        37.977 6
G27  22011907.138 9 115673325.699 9      2546.770 9        55.371 9  22011909.073 6         0.000 6      1984.497 6        37.977 6
G16  20498809.896 9 107721952.751 9       587.130 9        55.976 9  20498809.069 6         0.000 6       457.504 6        37.977 6
G26  20650181.415 9 108517413.516 9     -1468.544 9        55.875 9  20650184.229 6         0.000 6     -1144.321 6        37.977 6
G20  21951586.836 9 115356334.249 9      2544.658 9        55.313 9  21951587.162 6         0.000 6      1982.852 6        37.977 6
> 2019 07 03 12 00 45.0000000  0  8       0.000000000000
G07  25352958.144 9 133230648.129 9      2218.647 9        54.129 9  25352958.817 6         0.000 6      1728.817 6        37.977 6
G10  23819260.348 9 125171003.133 9      3514.222 9        54.666 9  23819264.084 6         0.000 6      2738.358 6        37.977 6
G21  21167497.126 9 111235927.515 9     -1265.137 9        55.711 9  21167496.411 6         0.000 6      -985.821 6        37.977 6
G29  24291360.690 9 127651905.767 9     -3175.640 9        54.478 9  24291362.256 6         0.000 6     -2474.527 6        37.977 6
G27  22011422.525 9 115670779.044 9      2546.544 9        55.372 9  22011424.460 6         0.000 6      1984.320 6        37.977 6
G16  20498698.227 9 107721365.928 9       586.518 9        55.976 9  20498697.400 6         0.000 6       457.027 6        37.977 6
G26  20650460.925 9 108518882.349 9     -1469.120 9        55.875 9  20650463.739 6         0.000 6     -1144.770 6        37.977 6
G20  21951102.648 9 115353789.827 9      2544.202 9        55.313 9  21951102.974 6         0.000 6      1982.497 6        37.977 6
> 2019 07 03 12 00 46.0000000  0  8       0.000000000000
G07  25352535.990 9 133228429.699 9      2218.209 9        54.130 9  25352536.663 6         0.000 6      1728.475 6        37.977 6
G10  23818591.628 9 125167489.000 9      3514.075 9        54.666 9  23818595.364 6         0.000 6      2738.243 6        37.977 6
G21  21167737.909 9 111237192.839 9     -1265.516 9        55.711 9  21167737.194 6         0.000 6      -986.117 6        37.977 6
G29  24291965.006 9 127655081.456 9     -3175.749 9        54.478 9  24291966.572 6         0.000 6     -2474.612 6        37.977 6
G27  22010937.954 9 115668232.612 9      2546.312 9        55.372 9  22010939.889 6         0.000 6      1984.140 6        37.977 6
G16  20498586.674 9 107720779.713 9       585.902 9        55.976 9  20498585.847 6         0.000 6       456.547 6        37.977 6
G26  20650740.544 9 108520351.756 9     -1469.701 9        55.875 9  20650743.359 6         0.000 6     -1145.222 6        37.977 6
G20  21950618.547 9 115351245.860 9      2543.746 9        55.313 9  21950618.872 6         0.000 6      1982.141 6        37.977 6
> 2019 07 03 12 00 47.0000000  0  8       0.000000000000
G07  25352113.922 9 133226211.718 9      2217.762 9        54.130 9  25352114.594 6         0.000 6      1728.127 6        37.977 6
G10  23817922.935 9 125163975.002 9      3513.936 9        54.666 9  23817926.670 6         0.000 6      2738.135 6        37.977 6
G21  21167978.764 9 111238458.540 9     -1265.889 9        55.710 9  21167978.049 6         0.000 6      -986.407 6        37.977 6
G29  24292569.340 9 127658257.244 9     -3175.848 9        54.477 9  24292570.907 6         0.000 6     -2474.689 6        37.977 6
G27  22010453.430 9 115665686.421 9      2546.075 9        55.372 9  22010455.365 6         0.000 6      1983.955 6        37.977 6
G16  20498475.239 9 107720194.118 9       585.286 9        55.976 9  20498474.412 6         0.000 6       456.067 6        37.977 6
G26  20651020.273 9 108521821.741 9     -1470.276 9        55.875 9  20651023.088 6         0.000 6     -1145.670 6        37.977 6
G20  21950134.530 9 115348702.340 9      2543.300 9        55.313 9  21950134.855 6         0.000 6      1981.793 6        37.977 6
> 2019 07 03 12 00 48.0000000  0  8       0.000000000000
G07  25351691.940 9 133223994.193 9      2217.268 9        54.130 9  25351692.612 6         0.000 6      1727.743 6        37.977 6
G10  23817254.267 9 125160461.142 9      3513.827 9        54.667 9  23817258.001 6         0.000 6      2738.050 6        37.977 6
G21  21168219.689 9 111239724.608 9     -1266.227 9        55.710 9  21168218.974 6         0.000 6      -986.671 6        37.977 6
G29  24293173.688 9 127661433.105 9     -3175.838 9        54.477 9  24293175.256 6         0.000 6     -2474.681 6        37.977 6
G27  22009968.954 9 115663140.489 9      2545.752 9        55.372 9  22009970.889 6         0.000 6      1983.704 6        37.977 6
G16  20498363.923 9 107719609.152 9       584.628 9        55.976 9  20498363.097 6         0.000 6       455.554 6        37.977 6
G26  20651300.113 9 108523292.309 9     -1470.866 9        55.874 9  20651302.928 6         0.000 6     -1146.130 6        37.977 6
G20  21949650.597 9 115346159.258 9      2542.904 9        55.313 9  21949650.921 6         0.000 6      1981.485 6        37.977 6
> 2019 07 03 12 00 49.0000000  0  8       0.000000000000
G07  25351270.070 9 133221777.255 9      2216.592 9        54.130 9  25351270.742 6         0.000 6      1727.216 6        37.977 6
G10  23816585.608 9 125156947.326 9      3513.840 9        54.667 9  23816589.342 6         0.000 6      2738.060 6        37.977 6
G21  21168460.665 9 111240990.943 9     -1266.428 9        55.710 9  21168459.950 6         0.000 6      -986.827 6        37.977 6
G29  24293777.995 9 127664608.749 9     -3175.419 9        54.477 9  24293779.563 6         0.000 6     -2474.355 6        37.977 6
G27  22009484.571 9 115660595.039 9      2545.113 9        55.372 9  22009486.505 6         0.000 6      1983.206 6        37.977 6
G16  20498252.748 9 107719024.919 9       583.819 9        55.976 9  20498251.921 6         0.000 6       454.924 6        37.977 6
G26  20651580.069 9 108524763.487 9     -1471.500 9        55.874 9  20651582.884 6         0.000 6     -1146.624 6        37.977 6
G20  21949166.719 9 115343616.469 9      2542.706 9        55.314 9  21949167.043 6         0.000 6      1981.331 6        37.977 6
> 2019 07 03 12 00 50.0000000  0  8       0.000000000000
G07  25350848.494 9 133219561.861 9      2210.934 9        54.130 9  25350849.166 6         0.000 6      1722.806 6        37.977 6
G10  23815916.784 9 125153432.640 9      3518.791 9        54.667 9  23815920.517 6         0.000 6      2741.918 6        37.977 6
G21  21168701.699 9 111242257.584 9     -1267.224 9        55.710 9  21168700.984 6         0.000 6      -987.447 6        37.977 6
G29  24294382.207 9 127667783.891 9     -3174.531 9        54.477 9  24294383.775 6         0.000 6     -2473.663 6        37.977 6
G27  22009000.358 9 115658050.487 9      2543.004 9        55.373 9  22009002.293 6         0.000 6      1981.562 6        37.977 6
G16  20498141.743 9 107718441.585 9       582.515 9        55.976 9  20498140.916 6         0.000 6       453.908 6        37.977 6
G26  20651860.074 9 108526234.918 9     -1469.931 9        55.874 9  20651862.889 6         0.000 6     -1145.401 6        37.977 6
G20  21948682.765 9 115341073.276 9      2545.975 9        55.314 9  21948683.089 6         0.000 6      1983.878 6        37.977 6
> 2019 07 03 12 00 51.0000000  0  8       0.000000000000
G07  25350429.193 9 133217358.422 9      2196.017 9        54.130 9  25350429.864 6         0.000 6      1711.183 6        37.977 6
G10  23815245.877 9 125149907.011 9      3532.264 9        54.667 9  23815249.609 6         0.000 6      2752.416 6        37.977 6
G21  21168942.896 9 111243525.083 9     -1267.351 9        55.710 9  21168942.181 6         0.000 6      -987.547 6        37.977 6
G29  24294985.814 9 127670955.860 9     -3168.402 9        54.477 9  24294987.383 6         0.000 6     -2468.887 6        37.977 6
G27  22008517.115 9 115655511.029 9      2535.242 9        55.373 9  22008519.049 6         0.000 6      1975.514 6        37.977 6
G16  20498031.212 9 107717860.744 9       578.821 9        55.976 9  20498030.385 6         0.000 6       451.030 6        37.977 6
G26  20652139.351 9 108527702.526 9     -1465.647 9        55.874 9  20652142.166 6         0.000 6     -1142.063 6        37.977 6
G20  21948197.295 9 115338522.122 9      2556.484 9        55.314 9  21948197.619 6         0.000 6      1992.066 6        37.977 6
> 2019 07 03 12 00 52.0000000  0  8       0.000000000000
G07  25350012.760 9 133215170.056 9      2180.718 9        54.130 9  25350013.431 6         0.000 6      1699.261 6        37.977 6
G10  23814572.486 9 125146368.331 9      3544.852 9        54.667 9  23814576.218 6         0.000 6      2762.225 6        37.977 6
G21  21169183.823 9 111244791.162 9     -1264.081 9        55.710 9  21169183.108 6         0.000 6      -984.998 6        37.977 6
G29  24295587.522 9 127674117.848 9     -3153.803 9        54.476 9  24295589.092 6         0.000 6     -2457.511 6        37.977 6
G27  22008035.845 9 115652981.940 9      2521.742 9        55.373 9  22008037.779 6         0.000 6      1964.994 6        37.977 6
G16  20497921.633 9 107717284.900 9       572.262 9        55.976 9  20497920.806 6         0.000 6       445.918 6        37.977 6
G26  20652418.029 9 108529166.987 9     -1463.843 9        55.874 9  20652420.844 6         0.000 6     -1140.658 6        37.977 6
G20  21947709.671 9 115335959.644 9      2568.812 9        55.314 9  21947709.995 6         0.000 6      2001.673 6        37.977 6
> 2019 07 03 12 00 53.0000000  0  8       0.000000000000
G07  25349598.251 9 133212991.800 9      2176.922 9        54.131 9  25349598.922 6         0.000 6      1696.303 6        37.977 6
G10  23813897.613 9 125142821.857 9      3547.239 9        54.668 9  23813901.344 6         0.000 6      2764.085 6        37.977 6
G21  21169424.192 9 111246054.308 9     -1262.700 9        55.710 9  21169423.477 6         0.000 6      -983.922 6        37.977 6
G29  24296186.992 9 127677268.073 9     -3148.303 9        54.476 9  24296188.563 6         0.000 6     -2453.226 6        37.977 6
G27  22007556.554 9 115650463.251 9      2516.996 9        55.373 9  22007558.488 6         0.000 6      1961.296 6        37.977 6
G16  20497813.053 9 107716714.309 9       569.549 9        55.976 9  20497812.226 6         0.000 6       443.804 6        37.977 6
G26  20652696.659 9 108530631.198 9     -1464.592 9        55.874 9  20652699.475 6         0.000 6     -1141.241 6        37.977 6
G20  21947220.471 9 115333388.882 9      2571.662 9        55.314 9  21947220.794 6         0.000 6      2003.894 6        37.977 6
> 2019 07 03 12 00 54.0000000  0  8       0.000000000000
G07  25349184.094 9 133210815.398 9      2176.023 9        54.131 9  25349184.766 6         0.000 6      1695.603 6        37.977 6
G10  23813222.568 9 125139274.484 9      3547.432 9        54.668 9  23813226.298 6         0.000 6      2764.235 6        37.977 6
G21  21169664.479 9 111247317.026 9     -1262.825 9        55.710 9  21169663.765 6         0.000 6      -984.019 6        37.977 6
G29  24296786.003 9 127680415.886 9     -3147.610 9        54.476 9  24296787.574 6         0.000 6     -2452.686 6        37.977 6
G27  22007077.688 9 115647946.795 9      2516.131 9        55.373 9  22007079.621 6         0.000 6      1960.622 6        37.977 6
G16  20497704.767 9 107716145.260 9       568.647 9        55.976 9  20497703.940 6         0.000 6       443.101 6        37.977 6
G26  20652975.421 9 108532096.100 9     -1465.195 9        55.874 9  20652978.237 6         0.000 6     -1141.711 6        37.977 6
G20  21946731.086 9 115330817.155 9      2571.659 9        55.314 9  21946731.409 6         0.000 6      2003.891 6        37.977 6
> 2019 07 03 12 00 55.0000000  0  8       0.000000000000
G07  25348770.064 9 133208639.658 9      2175.478 9        54.131 9  25348770.735 6         0.000 6      1695.179 6        37.977 6
G10  23812547.519 9 125135727.088 9      3547.371 9        54.668 9  23812551.249 6         0.000 6      2764.188 6        37.977 6
G21  21169904.819 9 111248580.021 9     -1263.184 9        55.710 9  21169904.105 6         0.000 6      -984.300 6        37.977 6
G29  24297384.971 9 127683563.473 9     -3147.622 9        54.476 9  24297386.543 6         0.000 6     -2452.695 6        37.977 6
G27  22006598.916 9 115645430.837 9      2515.815 9        55.373 9  22006600.850 6         0.000 6      1960.376 6        37.977 6
G16  20497596.619 9 107715576.941 9       568.002 9        55.976 9  20497595.792 6         0.000 6       442.599 6        37.977 6
G26  20653254.291 9 108533561.569 9     -1465.747 9        55.874 9  20653257.107 6         0.000 6     -1142.141 6        37.977 6
G20  21946241.750 9 115328245.679 9      2571.283 9        55.315 9  21946242.073 6         0.000 6      2003.598 6        37.977 6
> 2019 07 03 12 00 56.0000000  0  8       0.000000000000
G07  25348356.132 9 133206464.433 9      2174.984 9        54.131 9  25348356.803 6         0.000 6      1694.794 6        37.977 6
G10  23811872.485 9 125132179.773 9      3547.272 9        54.668 9  23811876.214 6         0.000 6      2764.111 6        37.977 6
G21  21170145.231 9 111249843.391 9     -1263.555 9        55.710 9  21170144.516 6         0.000 6      -984.589 6        37.977 6
G29  24297983.951 9 127686711.122 9     -3147.692 9        54.476 9  24297985.523 6         0.000 6     -2452.750 6        37.977 6
G27  22006120.197 9 115642915.152 9      2515.555 9        55.374 9  22006122.130 6         0.000 6      1960.174 6        37.977 6
G16  20497488.590 9 107715009.245 9       567.385 9        55.976 9  20497487.763 6         0.000 6       442.119 6        37.977 6
G26  20653533.265 9 108535027.586 9     -1466.298 9        55.873 9  20653536.081 6         0.000 6     -1142.570 6        37.977 6
G20  21945752.490 9 115325674.607 9      2570.865 9        55.315 9  21945752.813 6         0.000 6      2003.273 6        37.977 6
> 2019 07 03 12 00 57.0000000  0  8       0.000000000000
G07  25347942.292 9 133204289.691 9      2174.508 9        54.131 9  25347942.962 6         0.000 6      1694.423 6        37.977 6
G10  23811197.473 9 125128632.569 9      3547.156 9        54.669 9  23811201.201 6         0.000 6      2764.021 6        37.977 6
G21  21170385.712 9 111251107.128 9     -1263.927 9        55.709 9  21170384.998 6         0.000 6      -984.878 6        37.977 6
G29  24298582.944 9 127689858.841 9     -3147.772 9        54.475 9  24298584.517 6         0.000 6     -2452.812 6        37.977 6
G27  22005641.526 9 115640399.725 9      2515.305 9        55.374 9  22005643.459 6         0.000 6      1959.979 6        37.977 6
G16  20497380.678 9 107714442.165 9       566.774 9        55.977 9  20497379.851 6         0.000 6       441.642 6        37.977 6
G26  20653812.345 9 108536494.159 9     -1466.854 9        55.873 9  20653815.161 6         0.000 6     -1143.004 6        37.977 6
G20  21945263.312 9 115323103.960 9      2570.434 9        55.315 9  21945263.634 6         0.000 6      2002.937 6        37.977 6
> 2019 07 03 12 00 58.0000000  0  8       0.000000000000
G07  25347528.541 9 133202115.422 9      2174.037 9        54.131 9  25347529.212 6         0.000 6      1694.055 6        37.977 6
G10  23810522.483 9 125125085.486 9      3547.033 9        54.669 9  23810526.211 6         0.000 6      2763.925 6        37.977 6
G21  21170626.266 9 111252371.245 9     -1264.303 9        55.709 9  21170625.551 6         0.000 6      -985.171 6        37.977 6
G29  24299181.953 9 127693006.645 9     -3147.857 9        54.475 9  24299183.526 6         0.000 6     -2452.878 6        37.977 6
G27  22005162.904 9 115637884.549 9      2515.057 9        55.374 9  22005164.837 6         0.000 6      1959.785 6        37.977 6
G16  20497272.884 9 107713875.702 9       566.160 9        55.977 9  20497272.057 6         0.000 6       441.163 6        37.977 6
G26  20654091.532 9 108537961.296 9     -1467.416 9        55.873 9  20654094.348 6         0.000 6     -1143.441 6        37.977 6
G20  21944774.217 9 115320533.752 9      2569.995 9        55.315 9  21944774.538 6         0.000 6      2002.595 6        37.977 6
> 2019 07 03 12 00 59.0000000  0  8       0.000000000000
G07  25347114.879 9 133199941.618 9      2173.578 9        54.131 9  25347115.550 6         0.000 6      1693.698 6        37.977 6
G10  23809847.518 9 125121538.530 9      3546.898 9        54.669 9  23809851.245 6         0.000 6      2763.819 6        37.977 6
G21  21170866.889 9 111253635.730 9     -1264.675 9        55.709 9  21170866.175 6         0.000 6      -985.461 6        37.977 6
G29  24299780.978 9 127696154.533 9     -3147.940 9        54.475 9  24299782.552 6         0.000 6     -2452.943 6        37.977 6
G27  22004684.327 9 115635369.614 9      2514.812 9        55.374 9  22004686.260 6         0.000 6      1959.594 6        37.977 6
G16  20497165.205 9 107713309.845 9       565.547 9        55.977 9  20497164.378 6         0.000 6       440.686 6        37.977 6
G26  20654370.825 9 108539428.990 9     -1467.983 9        55.873 9  20654373.641 6         0.000 6     -1143.883 6        37.977 6
G20  21944285.205 9 115317963.983 9      2569.549 9        55.315 9  21944285.526 6         0.000 6      2002.247 6        37.977 6
> 2019 07 03 12 01  0.0000000  0  8       0.000000000000
G07  25346701.305 9 133197768.276 9      2173.117 9        54.132 9  25346701.975 6         0.000 6      1693.339 6        37.977 6
G10  23809172.578 9 125117991.707 9      3546.765 9        54.669 9  23809176.304 6         0.000 6      2763.716 6        37.977 6
G21  21171107.585 9 111254900.591 9     -1265.045 9        55.709 9  21171106.870 6         0.000 6      -985.750 6        37.977 6
G29  24300380.019 9 127699302.504 9     -3148.017 9        54.475 9  24300381.594 6         0.000 6     -2453.003 6        37.977 6
G27  22004205.798 9 115632854.929 9      2514.562 9        55.374 9  22004207.731 6         0.000 6      1959.400 6        37.977 6
G16  20497057.643 9 107712744.604 9       564.933 9        55.977 9  20497056.816 6         0.000 6       440.208 6        37.977 6
G26  20654650.227 9 108540897.253 9     -1468.549 9        55.873 9  20654653.043 6         0.000 6     -1144.325 6        37.977 6
G20  21943796.278 9 115315394.660 9      2569.105 9        55.316 9  21943796.599 6         0.000 6      2001.901 6        37.977 6
> 2019 07 03 12 01  1.0000000  0  8       0.000000000000
G07  25346287.818 9 133195595.388 9      2172.658 9        54.132 9  25346288.488 6         0.000 6      1692.982 6        37.977 6
G10  23808497.665 9 125114445.023 9      3546.629 9        54.670 9  23808501.390 6         0.000 6      2763.610 6        37.977 6
G21  21171348.350 9 111256165.821 9     -1265.418 9        55.709 9  21171347.636 6         0.000 6      -986.040 6        37.977 6
G29  24300979.074 9 127702450.552 9     -3148.101 9        54.474 9  24300980.650 6         0.000 6     -2453.068 6        37.977 6
G27  22003727.316 9 115630340.492 9      2514.317 9        55.375 9  22003729.248 6         0.000 6      1959.208 6        37.977 6
G16  20496950.198 9 107712179.977 9       564.321 9        55.977 9  20496949.371 6         0.000 6       439.730 6        37.977 6
G26  20654929.736 9 108542366.085 9     -1469.116 9        55.873 9  20654932.553 6         0.000 6     -1144.766 6        37.977 6
G20  21943307.436 9 115312825.784 9      2568.659 9        55.316 9  21943307.757 6         0.000 6      2001.553 6        37.977 6
> 2019 07 03 12 01  2.0000000  0  8       0.000000000000
G07  25345874.418 9 133193422.960 9      2172.206 9        54.132 9  25345875.087 6         0.000 6      1692.629 6        37.977 6
G10  23807822.777 9 125110898.476 9      3546.488 9        54.670 9  23807826.502 6         0.000 6      2763.500 6        37.977 6
G21  21171589.186 9 111257431.424 9     -1265.788 9        55.709 9  21171588.472 6         0.000 6      -986.329 6        37.977 6
G29  24301578.146 9 127705598.683 9     -3148.183 9        54.474 9  24301579.722 6         0.000 6     -2453.132 6        37.977 6
G27  22003248.881 9 115627826.300 9      2514.072 9        55.375 9  22003250.813 6         0.000 6      1959.018 6        37.977 6
G16  20496842.870 9 107711615.962 9       563.709 9        55.977 9  20496842.043 6         0.000 6       439.254 6        37.977 6
G26  20655209.354 9 108543835.484 9     -1469.686 9        55.873 9  20655212.171 6         0.000 6     -1145.210 6        37.977 6
G20  21942818.680 9 115310257.355 9      2568.208 9        55.316 9  21942819.000 6         0.000 6      2001.202 6        37.977 6
> 2019 07 03 12 01  3.0000000  0  8       0.000000000000
G07  25345461.091 9 133191250.915 9      2171.969 9        54.132 9  25345461.760 6         0.000 6      1692.444 6        37.977 6
G10  23807147.929 9 125107352.136 9      3546.130 9        54.670 9  23807151.653 6         0.000 6      2763.221 6        37.977 6
G21  21171830.090 9 111258697.383 9     -1266.128 9        55.709 9  21171829.376 6         0.000 6      -986.594 6        37.977 6
G29  24302177.233 9 127708746.899 9     -3148.273 9        54.474 9  24302178.810 6         0.000 6     -2453.202 6        37.977 6
G27  22002770.488 9 115625312.332 9      2513.882 9        55.375 9  22002772.420 6         0.000 6      1958.870 6        37.977 6
G16  20496735.656 9 107711052.549 9       563.113 9        55.977 9  20496734.829 6         0.000 6       438.789 6        37.977 6
G26  20655489.085 9 108545305.480 9     -1470.356 9        55.873 9  20655491.902 6         0.000 6     -1145.732 6        37.977 6
G20  21942330.017 9 115307689.421 9      2567.609 9        55.316 9  21942330.338 6         0.000 6      2000.736 6        37.977 6
> 2019 07 03 12 01  4.0000000  0  8       0.000000000000
G07  25345047.772 9 133189078.911 9      2171.580 9        54.132 9  25345048.441 6         0.000 6      1692.141 6        37.977 6
G10  23806473.183 9 125103806.334 9      3545.812 9        54.670 9  23806476.907 6         0.000 6      2762.973 6        37.977 6
G21  21172071.064 9 111259963.709 9     -1266.180 9        55.709 9  21172070.350 6         0.000 6      -986.634 6        37.977 6
G29  24302776.363 9 127711895.336 9     -3147.607 9        54.474 9  24302777.940 6         0.000 6     -2452.683 6        37.977 6
G27  22002292.107 9 115622798.425 9      2513.155 9        55.375 9  22002294.039 6         0.000 6      1958.304 6        37.977 6
G16  20496628.546 9 107710489.682 9       562.255 9        55.977 9  20496627.719 6         0.000 6       438.120 6        37.977 6
G26  20655768.955 9 108546776.204 9     -1471.190 9        55.873 9  20655771.772 6         0.000 6     -1146.382 6        37.977 6
G20  21941841.499 9 115305122.246 9      2567.255 9        55.316 9  21941841.819 6         0.000 6      2000.460 6        37.977 6
> 2019 07 03 12 01  5.0000000  0  8       0.000000000000
G07  25344634.916 9 133186909.343 9      2168.569 9        54.132 9  25344635.585 6         0.000 6      1689.795 6        37.977 6
G10  23805798.301 9 125100259.815 9      3546.234 9        54.671 9  23805802.024 6         0.000 6      2763.302 6        37.977 6
G21  21172311.579 9 111261227.621 9     -1261.468 9        55.709 9  21172310.865 6         0.000 6      -982.963 6        37.977 6
G29  24303374.071 9 127715036.303 9     -3134.319 9        54.474 9  24303375.649 6         0.000 6     -2442.329 6        37.977 6
G27  22001814.816 9 115620290.250 9      2503.418 9        55.375 9  22001816.748 6         0.000 6      1950.716 6        37.977 6
G16  20496522.060 9 107709930.093 9       556.983 9        55.977 9  20496521.233 6         0.000 6       434.013 6        37.977 6
G26  20656049.208 9 108548248.939 9     -1474.768 9        55.872 9  20656052.025 6         0.000 6     -1149.170 6        37.977 6
G20  21941352.546 9 115302552.782 9      2571.009 9        55.317 9  21941352.865 6         0.000 6      2003.384 6        37.977 6
> 2019 07 03 12 01  6.0000000  0  8       0.000000000000
G07  25344221.942 9 133184739.156 9      2173.380 9        54.132 9  25344222.611 6         0.000 6      1693.544 6        37.977 6
G10  23805124.000 9 125096716.352 9      3539.244 9        54.671 9  23805127.723 6         0.000 6      2757.855 6        37.977 6
G21  21172551.173 9 111262486.698 9     -1256.745 9        55.709 9  21172550.459 6         0.000 6      -979.282 6        37.977 6
G29  24303969.466 9 127718165.116 9     -3124.067 9        54.473 9  24303971.045 6         0.000 6     -2434.340 6        37.977 6
G27  22001339.074 9 115617790.208 9      2497.523 9        55.376 9  22001341.005 6         0.000 6      1946.122 6        37.977 6
G16  20496416.458 9 107709375.154 9       553.240 9        55.977 9  20496415.631 6         0.000 6       431.096 6        37.977 6
G26  20656330.400 9 108549726.615 9     -1481.104 9        55.872 9  20656333.217 6         0.000 6     -1154.107 6        37.977 6
G20  21940863.385 9 115299982.228 9      2568.907 9        55.317 9  21940863.704 6         0.000 6      2001.746 6        37.977 6
> 2019 07 03 12 01  7.0000000  0  8       0.000000000000
G07  25343807.326 9 133182560.334 9      2181.706 9        54.133 9  25343807.994 6         0.000 6      1700.032 6        37.977 6
G10  23804451.674 9 125093183.264 9      3529.800 9        54.671 9  23804455.396 6         0.000 6      2750.496 6        37.977 6
G21  21172789.994 9 111263741.707 9     -1254.401 9        55.708 9  21172789.280 6         0.000 6      -977.456 6        37.977 6
G29  24304563.498 9 127721286.760 9     -3121.000 9        54.473 9  24304565.077 6         0.000 6     -2431.950 6        37.977 6
G27  22000863.894 9 115615293.123 9      2497.230 9        55.376 9  22000865.825 6         0.000 6      1945.894 6        37.977 6
G16  20496311.326 9 107708822.679 9       552.138 9        55.977 9  20496310.499 6         0.000 6       430.238 6        37.977 6
G26  20656612.960 9 108551211.475 9     -1486.842 9        55.872 9  20656615.777 6         0.000 6     -1158.579 6        37.977 6
G20  21940375.225 9 115297416.936 9      2563.101 9        55.317 9  21940375.544 6         0.000 6      1997.223 6        37.977 6
> 2019 07 03 12 01  8.0000000  0  8       0.000000000000
G07  25343392.028 9 133180377.934 9      2182.632 9        54.133 9  25343392.696 6         0.000 6      1700.753 6        37.977 6
G10  23803780.167 9 125089654.483 9      3528.254 9        54.671 9  23803783.889 6         0.000 6      2749.292 6        37.977 6
G21  21173028.699 9 111264996.110 9     -1254.493 9        55.708 9  21173027.985 6         0.000 6      -977.527 6        37.977 6
G29  24305157.400 9 127724407.729 9     -3120.979 9        54.473 9  24305158.980 6         0.000 6     -2431.934 6        37.977 6
G27  22000388.676 9 115612795.840 9      2497.247 9        55.376 9  22000390.607 6         0.000 6      1945.907 6        37.977 6
G16  20496206.308 9 107708270.808 9       551.580 9        55.977 9  20496205.481 6         0.000 6       429.802 6        37.977 6
G26  20656896.039 9 108552699.060 9     -1488.105 9        55.872 9  20656898.856 6         0.000 6     -1159.563 6        37.977 6
G20  21939887.642 9 115294854.675 9      2561.741 9        55.317 9  21939887.961 6         0.000 6      1996.163 6        37.977 6
> 2019 07 03 12 01  9.0000000  0  8       0.000000000000
G07  25342976.714 9 133178195.448 9      2182.298 9        54.133 9  25342977.382 6         0.000 6      1700.493 6        37.977 6
G10  23803108.794 9 125086126.401 9      3527.983 9        54.672 9  23803112.514 6         0.000 6      2749.080 6        37.977 6
G21  21173267.451 9 111266250.759 9     -1254.813 9        55.708 9  21173266.737 6         0.000 6      -977.777 6        37.977 6
G29  24305751.306 9 127727528.714 9     -3121.017 9        54.473 9  24305752.886 6         0.000 6     -2431.964 6        37.977 6
G27  21999913.488 9 115610298.713 9      2497.008 9        55.376 9  21999915.419 6         0.000 6      1945.721 6        37.977 6
G16  20496101.405 9 107707719.541 9       550.956 9        55.977 9  20496100.579 6         0.000 6       429.316 6        37.977 6
G26  20657179.280 9 108554187.501 9     -1488.753 9        55.872 9  20657182.097 6         0.000 6     -1160.068 6        37.977 6
G20  21939400.212 9 115292293.215 9      2561.221 9        55.317 9  21939400.530 6         0.000 6      1995.758 6        37.977 6
> 2019 07 03 12 01 10.0000000  0  8       0.000000000000
G07  25342561.480 9 133176013.380 9      2181.837 9        54.133 9  25342562.147 6         0.000 6      1700.134 6        37.977 6
G10  23802437.455 9 125082598.504 9      3527.842 9        54.672 9  23802441.175 6         0.000 6      2748.970 6        37.977 6
G21  21173506.268 9 111267505.748 9     -1255.160 9        55.708 9  21173505.554 6         0.000 6      -978.047 6        37.977 6
G29  24306345.222 9 127730649.753 9     -3121.070 9        54.473 9  24306346.803 6         0.000 6     -2432.005 6        37.977 6
G27  21999438.347 9 115607801.834 9      2496.749 9        55.376 9  21999440.278 6         0.000 6      1945.520 6        37.977 6
G16  20495996.622 9 107707168.898 9       550.330 9        55.977 9  20495995.795 6         0.000 6       428.828 6        37.977 6
G26  20657462.636 9 108555676.547 9     -1489.337 9        55.872 9  20657465.454 6         0.000 6     -1160.522 6        37.977 6
G20  21938912.870 9 115289732.222 9      2560.785 9        55.318 9  21938913.188 6         0.000 6      1995.418 6        37.977 6
> 2019 07 03 12 01 11.0000000  0  8       0.000000000000
G07  25342146.334 9 133173831.779 9      2181.369 9        54.133 9  25342147.002 6         0.000 6      1699.769 6        37.977 6
G10  23801766.142 9 125079070.742 9      3527.708 9        54.672 9  23801769.862 6         0.000 6      2748.866 6        37.977 6
G21  21173745.150 9 111268761.086 9     -1255.514 9        55.708 9  21173744.437 6         0.000 6      -978.323 6        37.977 6
G29  24306939.148 9 127733770.845 9     -3121.135 9        54.472 9  24306940.729 6         0.000 6     -2432.055 6        37.977 6
G27  21998963.256 9 115605305.216 9      2496.495 9        55.377 9  21998965.187 6         0.000 6      1945.322 6        37.977 6
G16  20495891.957 9 107706618.883 9       549.704 9        55.977 9  20495891.130 6         0.000 6       428.341 6        37.977 6
G26  20657746.103 9 108557166.173 9     -1489.915 9        55.872 9  20657748.921 6         0.000 6     -1160.973 6        37.977 6
G20  21938425.611 9 115287171.661 9      2560.349 9        55.318 9  21938425.929 6         0.000 6      1995.078 6        37.977 6
> 2019 07 03 12 01 12.0000000  0  8       0.000000000000
G07  25341731.278 9 133171650.647 9      2180.906 9        54.133 9  25341731.945 6         0.000 6      1699.408 6        37.977 6
G10  23801094.855 9 125075543.112 9      3527.570 9        54.672 9  23801098.573 6         0.000 6      2748.758 6        37.977 6
G21  21173984.101 9 111270016.777 9     -1255.872 9        55.708 9  21173983.387 6         0.000 6      -978.602 6        37.977 6
G29  24307533.087 9 127736892.006 9     -3121.209 9        54.472 9  24307534.669 6         0.000 6     -2432.114 6        37.977 6
G27  21998488.212 9 115602808.845 9      2496.249 9        55.377 9  21998490.143 6         0.000 6      1945.130 6        37.977 6
G16  20495787.411 9 107706069.488 9       549.082 9        55.977 9  20495786.584 6         0.000 6       427.856 6        37.977 6
G26  20658029.679 9 108558656.373 9     -1490.494 9        55.872 9  20658032.497 6         0.000 6     -1161.424 6        37.977 6
G20  21937938.434 9 115284611.535 9      2559.907 9        55.318 9  21937938.752 6         0.000 6      1994.734 6        37.977 6
> 2019 07 03 12 01 13.0000000  0  8       0.000000000000
G07  25341316.310 9 133169469.978 9      2180.440 9        54.133 9  25341316.977 6         0.000 6      1699.045 6        37.977 6
G10  23800423.593 9 125072015.620 9      3527.436 9        54.673 9  23800427.311 6         0.000 6      2748.654 6        37.977 6
G21  21174223.119 9 111271272.826 9     -1256.228 9        55.708 9  21174222.405 6         0.000 6      -978.879 6        37.977 6
G29  24308127.040 9 127740013.243 9     -3121.284 9        54.472 9  24308128.623 6         0.000 6     -2432.172 6        37.977 6
G27  21998013.215 9 115600312.722 9      2496.004 9        55.377 9  21998015.146 6         0.000 6      1944.939 6        37.977 6
G16  20495682.983 9 107705520.716 9       548.463 9        55.977 9  20495682.156 6         0.000 6       427.373 6        37.977 6
G26  20658313.365 9 108560147.152 9     -1491.067 9        55.871 9  20658316.183 6         0.000 6     -1161.871 6        37.977 6
G20  21937451.341 9 115282051.852 9      2559.469 9        55.318 9  21937451.659 6         0.000 6      1994.393 6        37.977 6
> 2019 07 03 12 01 14.0000000  0  8       0.000000000000
G07  25340901.431 9 133167289.778 9      2179.977 9        54.134 9  25340902.097 6         0.000 6      1698.684 6        37.977 6
G10  23799752.357 9 125068488.260 9      3527.299 9        54.673 9  23799756.074 6         0.000 6      2748.548 6        37.977 6
G21  21174462.206 9 111272529.236 9     -1256.586 9        55.708 9  21174461.492 6         0.000 6      -979.158 6        37.977 6
G29  24308721.008 9 127743134.555 9     -3121.364 9        54.472 9  24308722.592 6         0.000 6     -2432.235 6        37.977 6
G27  21997538.265 9 115597816.846 9      2495.763 9        55.377 9  21997540.196 6         0.000 6      1944.751 6        37.977 6
G16  20495578.674 9 107704972.567 9       547.845 9        55.977 9  20495577.847 6         0.000 6       426.892 6        37.977 6
G26  20658597.161 9 108561638.507 9     -1491.642 9        55.871 9  20658599.979 6         0.000 6     -1162.319 6        37.977 6
G20  21936964.332 9 115279492.606 9      2559.028 9        55.318 9  21936964.650 6         0.000 6      1994.049 6        37.977 6
> 2019 07 03 12 01 15.0000000  0  8       0.000000000000
G07  25340486.639 9 133165110.035 9      2179.525 9        54.134 9  25340487.305 6         0.000 6      1698.332 6        37.977 6
G10  23799081.147 9 125064961.040 9      3527.154 9        54.673 9  23799084.864 6         0.000 6      2748.434 6        37.977 6
G21  21174701.361 9 111273786.001 9     -1256.952 9        55.708 9  21174700.647 6         0.000 6      -979.444 6        37.977 6
G29  24309314.992 9 127746255.952 9     -3121.465 9        54.471 9  24309316.576 6         0.000 6     -2432.313 6        37.977 6
G27  21997063.360 9 115595321.204 9      2495.537 9        55.377 9  21997065.290 6         0.000 6      1944.575 6        37.977 6
G16  20495474.481 9 107704425.031 9       547.232 9        55.977 9  20495473.654 6         0.000 6       426.415 6        37.977 6
G26  20658881.065 9 108563130.434 9     -1492.217 9        55.871 9  20658883.883 6         0.000 6     -1162.767 6        37.977 6
G20  21936477.408 9 115276933.805 9      2558.574 9        55.319 9  21936477.725 6         0.000 6      1993.695 6        37.977 6
> 2019 07 03 12 01 16.0000000  0  8       0.000000000000
G07  25340071.920 9 133162930.677 9      2179.215 9        54.134 9  25340072.586 6         0.000 6      1698.090 6        37.977 6
G10  23798409.974 9 125061434.010 9      3526.916 9        54.673 9  23798413.690 6         0.000 6      2748.249 6        37.977 6
G21  21174940.594 9 111275043.183 9     -1257.425 9        55.708 9  21174939.881 6         0.000 6      -979.812 6        37.977 6
G29  24309909.024 9 127749377.600 9     -3121.887 9        54.471 9  24309910.609 6         0.000 6     -2432.642 6        37.977 6
G27  21996588.475 9 115592825.673 9      2495.559 9        55.377 9  21996590.406 6         0.000 6      1944.592 6        37.977 6
G16  20495370.394 9 107703878.051 9       546.740 9        55.977 9  20495369.567 6         0.000 6       426.031 6        37.977 6
G26  20659165.076 9 108564622.919 9     -1492.753 9        55.871 9  20659167.894 6         0.000 6     -1163.185 6        37.977 6
G20  21935990.584 9 115274375.531 9      2557.967 9        55.319 9  21935990.900 6         0.000 6      1993.222 6        37.977 6
> 2019 07 03 12 01 17.0000000  0  8       0.000000000000
G07  25339656.942 9 133160749.955 9      2185.897 9        54.134 9  25339657.608 6         0.000 6      1703.298 6        37.977 6
G10  23797739.160 9 125057908.872 9      3519.792 9        54.674 9  23797742.875 6         0.000 6      2742.698 6        37.977 6
G21  21175179.883 9 111276300.651 9     -1257.170 9        55.707 9  21175179.169 6         0.000 6      -979.613 6        37.977 6
G29  24310503.174 9 127752499.870 9     -3123.283 9        54.471 9  24310504.760 6         0.000 6     -2433.730 6        37.977 6
G27  21996113.488 9 115590329.598 9      2497.852 9        55.378 9  21996115.418 6         0.000 6      1946.379 6        37.977 6
G16  20495266.369 9 107703331.392 9       547.015 9        55.977 9  20495265.542 6         0.000 6       426.245 6        37.977 6
G26  20659449.329 9 108566116.677 9     -1496.320 9        55.871 9  20659452.148 6         0.000 6     -1165.964 6        37.977 6
G20  21935504.097 9 115271819.032 9      2552.453 9        55.319 9  21935504.414 6         0.000 6      1988.926 6        37.977 6
> 2019 07 03 12 01 18.0000000  0  8       0.000000000000
G07  25339239.592 9 133158556.773 9      2200.285 9        54.134 9  25339240.258 6         0.000 6      1714.509 6        37.977 6
G10  23797070.726 9 125054396.235 9      3505.853 9        54.674 9  23797074.440 6         0.000 6      2731.836 6        37.977 6
G21  21175419.166 9 111277558.091 9     -1258.187 9        55.707 9  21175418.452 6         0.000 6      -980.405 6        37.977 6
G29  24311098.131 9 127755626.377 9     -3130.820 9        54.471 9  24311099.717 6         0.000 6     -2439.603 6        37.977 6
G27  21995637.448 9 115587827.996 9      2506.020 9        55.378 9  21995639.378 6         0.000 6      1952.744 6        37.977 6
G16  20495162.038 9 107702783.132 9       549.848 9        55.977 9  20495161.211 6         0.000 6       428.453 6        37.977 6
G26  20659734.613 9 108567615.852 9     -1501.609 9        55.871 9  20659737.431 6         0.000 6     -1170.085 6        37.977 6
G20  21935019.501 9 115269272.469 9      2540.611 9        55.319 9  21935019.818 6         0.000 6      1979.698 6        37.977 6
> 2019 07 03 12 01 19.0000000  0  8       0.000000000000
G07  25338819.498 9 133156349.168 9      2213.762 9        54.134 9  25338820.164 6         0.000 6      1725.011 6        37.977 6
G10  23796404.831 9 125050896.945 9      3493.983 9        54.674 9  23796408.545 6         0.000 6      2722.587 6        37.977 6
G21  21175658.969 9 111278818.267 9     -1262.515 9        55.707 9  21175658.256 6         0.000 6      -983.778 6        37.977 6
G29  24311695.315 9 127758764.593 9     -3146.017 9        54.471 9  24311696.902 6         0.000 6     -2451.444 6        37.977 6
G27  21995159.327 9 115585315.453 9      2519.055 9        55.378 9  21995161.256 6         0.000 6      1962.901 6        37.977 6
G16  20495056.903 9 107702230.643 9       555.185 9        55.977 9  20495056.076 6         0.000 6       432.612 6        37.977 6
G26  20660020.656 9 108569119.018 9     -1504.048 9        55.871 9  20660023.475 6         0.000 6     -1171.986 6        37.977 6
G20  21934537.311 9 115266738.545 9      2527.966 9        55.319 9  21934537.627 6         0.000 6      1969.844 6        37.977 6
> 2019 07 03 12 01 20.0000000  0  8       0.000000000000
G07  25338397.982 9 133154134.090 9      2215.639 9        54.134 9  25338398.648 6         0.000 6      1726.473 6        37.977 6
G10  23795740.180 9 125047404.189 9      3492.130 9        54.674 9  23795743.893 6         0.000 6      2721.143 6        37.977 6
G21  21175899.418 9 111280081.832 9     -1264.229 9        55.707 9  21175898.705 6         0.000 6      -985.114 6        37.977 6
G29  24312294.508 9 127761913.361 9     -3150.303 9        54.470 9  24312296.095 6         0.000 6     -2454.784 6        37.977 6
G27  21994679.578 9 115582794.359 9      2522.141 9        55.378 9  21994681.507 6         0.000 6      1965.305 6        37.977 6
G16  20494951.122 9 107701674.762 9       556.113 9        55.978 9  20494950.295 6         0.000 6       433.335 6        37.977 6
G26  20660306.900 9 108570623.236 9     -1504.419 9        55.871 9  20660309.718 6         0.000 6     -1172.275 6        37.977 6
G20  21934056.592 9 115264212.353 9      2525.171 9        55.319 9  21934056.907 6         0.000 6      1967.667 6        37.977 6
> 2019 07 03 12 01 21.0000000  0  8       0.000000000000
G07  25337976.367 9 133151918.490 9      2215.470 9        54.135 9  25337977.032 6         0.000 6      1726.342 6        37.977 6
G10  23795075.689 9 125043912.278 9      3491.781 9        54.675 9  23795079.402 6         0.000 6      2720.871 6        37.977 6
G21  21176140.050 9 111281346.361 9     -1264.762 9        55.707 9  21176139.337 6         0.000 6      -985.529 6        37.977 6
G29  24312894.070 9 127765064.069 9     -3150.932 9        54.470 9  24312895.658 6         0.000 6     -2455.275 6        37.977 6
G27  21994199.598 9 115580272.049 9      2522.327 9        55.378 9  21994201.527 6         0.000 6      1965.450 6        37.977 6
G16  20494845.331 9 107701118.826 9       555.686 9        55.978 9  20494844.504 6         0.000 6       433.002 6        37.977 6
G26  20660593.232 9 108572127.920 9     -1504.970 9        55.871 9  20660596.051 6         0.000 6     -1172.704 6        37.977 6
G20  21933576.147 9 115261687.606 9      2524.436 9        55.320 9  21933576.463 6         0.000 6      1967.094 6        37.977 6
> 2019 07 03 12 01 22.0000000  0  8       0.000000000000
G07  25337554.815 9 133149703.224 9      2215.061 9        54.135 9  25337555.480 6         0.000 6      1726.023 6        37.977 6
G10  23794411.243 9 125040420.601 9      3491.600 9        54.675 9  23794414.955 6         0.000 6      2720.730 6        37.977 6
G21  21176380.762 9 111282611.311 9     -1265.134 9        55.707 9  21176380.049 6         0.000 6      -985.819 6        37.977 6
G29  24313493.687 9 127768215.071 9     -3151.072 9        54.470 9  24313495.276 6         0.000 6     -2455.383 6        37.977 6
G27  21993719.632 9 115577749.815 9      2522.130 9        55.379 9  21993721.561 6         0.000 6      1965.297 6        37.977 6
G16  20494739.644 9 107700563.439 9       555.079 9        55.978 9  20494738.818 6         0.000 6       432.529 6        37.977 6
G26  20660879.674 9 108573633.182 9     -1505.562 9        55.870 9  20660882.493 6         0.000 6     -1173.165 6        37.977 6
G20  21933095.810 9 115259163.420 9      2523.953 9        55.320 9  21933096.125 6         0.000 6      1966.718 6        37.977 6
> 2019 07 03 12 01 23.0000000  0  8       0.000000000000
G07  25337133.344 9 133147488.380 9      2214.626 9        54.135 9  25337134.009 6         0.000 6      1725.684 6        37.977 6
G10  23793746.829 9 125036929.094 9      3491.440 9        54.675 9  23793750.541 6         0.000 6      2720.605 6        37.977 6
G21  21176621.543 9 111283876.623 9     -1265.492 9        55.707 9  21176620.830 6         0.000 6      -986.098 6        37.977 6
G29  24314093.326 9 127771366.182 9     -3151.171 9        54.470 9  24314094.915 6         0.000 6     -2455.460 6        37.977 6
G27  21993239.708 9 115575227.802 9      2521.901 9        55.379 9  21993241.637 6         0.000 6      1965.118 6        37.977 6
G16  20494634.076 9 107700008.671 9       554.456 9        55.978 9  20494633.249 6         0.000 6       432.043 6        37.977 6
G26  20661166.230 9 108575139.040 9     -1506.154 9        55.870 9  20661169.049 6         0.000 6     -1173.627 6        37.977 6
G20  21932615.562 9 115256639.703 9      2523.495 9        55.320 9  21932615.877 6         0.000 6      1966.361 6        37.977 6
> 2019 07 03 12 01 24.0000000  0  8       0.000000000000
G07  25336711.957 9 133145273.981 9      2214.180 9        54.135 9  25336712.621 6         0.000 6      1725.336 6        37.977 6
G10  23793082.445 9 125033437.740 9      3491.289 9        54.675 9  23793086.155 6         0.000 6      2720.488 6        37.977 6
G21  21176862.392 9 111285142.292 9     -1265.848 9        55.707 9  21176861.679 6         0.000 6      -986.375 6        37.977 6
G29  24314692.982 9 127774517.387 9     -3151.260 9        54.470 9  24314694.572 6         0.000 6     -2455.530 6        37.977 6
G27  21992759.829 9 115572706.022 9      2521.663 9        55.379 9  21992761.758 6         0.000 6      1964.933 6        37.977 6
G16  20494528.626 9 107699454.529 9       553.830 9        55.978 9  20494527.799 6         0.000 6       431.555 6        37.977 6
G26  20661452.897 9 108576645.486 9     -1506.743 9        55.870 9  20661455.716 6         0.000 6     -1174.086 6        37.977 6
G20  21932135.399 9 115254116.436 9      2523.047 9        55.320 9  21932135.714 6         0.000 6      1966.012 6        37.977 6
> 2019 07 03 12 01 25.0000000  0  8       0.000000000000
G07  25336290.656 9 133143060.034 9      2213.729 9        54.135 9  25336291.321 6         0.000 6      1724.985 6        37.977 6
G10  23792418.088 9 125029946.530 9      3491.143 9        54.676 9  23792421.798 6         0.000 6      2720.374 6        37.977 6
G21  21177103.309 9 111286408.319 9     -1266.207 9        55.707 9  21177102.596 6         0.000 6      -986.655 6        37.977 6
G29  24315292.656 9 127777668.683 9     -3151.355 9        54.469 9  24315294.246 6         0.000 6     -2455.604 6        37.977 6
G27  21992279.995 9 115570184.482 9      2521.428 9        55.379 9  21992281.924 6         0.000 6      1964.750 6        37.977 6
G16  20494423.295 9 107698901.013 9       553.204 9        55.978 9  20494422.468 6         0.000 6       431.068 6        37.977 6
G26  20661739.676 9 108578152.519 9     -1507.330 9        55.870 9  20661742.496 6         0.000 6     -1174.543 6        37.977 6
G20  21931655.321 9 115251593.613 9      2522.600 9        55.320 9  21931655.635 6         0.000 6      1965.664 6        37.977 6
> 2019 07 03 12 01 26.0000000  0  8       0.000000000000
G07  25335869.441 9 133140846.538 9      2213.273 9        54.135 9  25335870.105 6         0.000 6      1724.629 6        37.977 6
G10  23791753.758 9 125026455.467 9      3491.000 9        54.676 9  23791757.468 6         0.000 6      2720.263 6        37.977 6
G21  21177344.294 9 111287674.705 9     -1266.569 9        55.707 9  21177343.581 6         0.000 6      -986.937 6        37.977 6
G29  24315892.347 9 127780820.073 9     -3151.446 9        54.469 9  24315893.938 6         0.000 6     -2455.675 6        37.977 6
G27  21991800.207 9 115567663.178 9      2521.185 9        55.379 9  21991802.135 6         0.000 6      1964.561 6        37.977 6
G16  20494318.084 9 107698348.123 9       552.573 9        55.978 9  20494317.257 6         0.000 6       430.576 6        37.977 6
G26  20662026.567 9 108579660.139 9     -1507.918 9        55.870 9  20662029.386 6         0.000 6     -1175.001 6        37.977 6
G20  21931175.328 9 115249071.238 9      2522.155 9        55.321 9  21931175.642 6         0.000 6      1965.317 6        37.977 6
> 2019 07 03 12 01 27.0000000  0  8       0.000000000000
G07  25335448.312 9 133138633.495 9      2212.817 9        54.135 9  25335448.976 6         0.000 6      1724.274 6        37.977 6
G10  23791089.457 9 125022964.549 9      3490.860 9        54.676 9  23791093.165 6         0.000 6      2720.153 6        37.977 6
G21  21177585.348 9 111288941.449 9     -1266.924 9        55.706 9  21177584.635 6         0.000 6      -987.214 6        37.977 6
G29  24316492.056 9 127783971.553 9     -3151.536 9        54.469 9  24316493.648 6         0.000 6     -2455.745 6        37.977 6
G27  21991320.463 9 115565142.113 9      2520.948 9        55.380 9  21991322.391 6         0.000 6      1964.375 6        37.977 6
G16  20494212.992 9 107697795.860 9       551.949 9        55.978 9  20494212.165 6         0.000 6       430.090 6        37.977 6
G26  20662313.570 9 108581168.345 9     -1508.499 9        55.870 9  20662316.389 6         0.000 6     -1175.455 6        37.977 6
G20  21930695.420 9 115246549.307 9      2521.715 9        55.321 9  21930695.734 6         0.000 6      1964.974 6        37.977 6
> 2019 07 03 12 01 28.0000000  0  8       0.000000000000
G07  25335027.271 9 133136420.912 9      2212.360 9        54.136 9  25335027.935 6         0.000 6      1723.918 6        37.977 6
G10  23790425.181 9 125019473.770 9      3490.717 9        54.676 9  23790428.890 6         0.000 6      2720.042 6        37.977 6
G21  21177826.470 9 111290208.552 9     -1267.285 9        55.706 9  21177825.757 6         0.000 6      -987.495 6        37.977 6
G29  24317091.781 9 127787123.119 9     -3151.627 9        54.469 9  24317093.373 6         0.000 6     -2455.816 6        37.977 6
G27  21990840.767 9 115562621.294 9      2520.705 9        55.380 9  21990842.695 6         0.000 6      1964.186 6        37.977 6
G16  20494108.020 9 107697244.229 9       551.318 9        55.978 9  20494107.193 6         0.000 6       429.599 6        37.977 6
G26  20662600.684 9 108582677.139 9     -1509.088 9        55.870 9  20662603.503 6         0.000 6     -1175.913 6        37.977 6
G20  21930215.595 9 115244027.817 9      2521.270 9        55.321 9  21930215.909 6         0.000 6      1964.627 6        37.977 6
> 2019 07 03 12 01 29.0000000  0  8       0.000000000000
G07  25334606.317 9 133134208.788 9      2211.900 9        54.136 9  25334606.981 6         0.000 6      1723.560 6        37.977 6
G10  23789760.932 9 125015983.128 9      3490.579 9        54.677 9  23789764.640 6         0.000 6      2719.934 6        37.977 6
G21  21178067.660 9 111291476.014 9     -1267.644 9        55.706 9  21178066.947 6         0.000 6      -987.775 6        37.977 6
G29  24317691.524 9 127790274.781 9     -3151.717 9        54.469 9  24317693.117 6         0.000 6     -2455.886 6        37.977 6
G27  21990361.115 9 115560100.710 9      2520.464 9        55.380 9  21990363.043 6         0.000 6      1963.999 6        37.977 6
G16  20494003.167 9 107696693.222 9       550.691 9        55.978 9  20494002.340 6         0.000 6       429.110 6        37.977 6
G26  20662887.908 9 108584186.512 9     -1509.671 9        55.870 9  20662890.728 6         0.000 6     -1176.368 6        37.977 6
G20  21929735.855 9 115241506.768 9      2520.830 9        55.321 9  21929736.168 6         0.000 6      1964.284 6        37.977 6
> 2019 07 03 12 01 30.0000000  0  8       0.000000000000
G07  25334185.459 9 133131997.167 9      2211.275 9        54.136 9  25334186.122 6         0.000 6      1723.072 6        37.977 6
G10  23789096.701 9 125012492.581 9      3490.608 9        54.677 9  23789100.408 6         0.000 6      2719.957 6        37.977 6
G21  21178308.919 9 111292743.841 9     -1268.026 9        55.706 9  21178308.206 6         0.000 6      -988.072 6        37.977 6
G29  24318291.284 9 127793426.533 9     -3151.805 9        54.468 9  24318292.878 6         0.000 6     -2455.954 6        37.977 6
G27  21989881.511 9 115557580.377 9      2520.185 9        55.380 9  21989883.439 6         0.000 6      1963.782 6        37.977 6
G16  20493898.433 9 107696142.844 9       550.055 9        55.978 9  20493897.606 6         0.000 6       428.615 6        37.977 6
G26  20663175.240 9 108585696.447 9     -1510.172 9        55.869 9  20663178.059 6         0.000 6     -1176.758 6        37.977 6
G20  21929256.192 9 115238986.129 9      2520.504 9        55.321 9  21929256.505 6         0.000 6      1964.030 6        37.977 6
> 2019 07 03 12 01 31.0000000  0  8       0.000000000000
G07  25333764.723 9 133129786.189 9      2211.755 9        54.136 9  25333765.386 6         0.000 6      1723.446 6        37.977 6
G10  23788432.457 9 125009001.961 9      3489.976 9        54.677 9  23788436.163 6         0.000 6      2719.465 6        37.977 6
G21  21178550.269 9 111294012.141 9     -1269.468 9        55.706 9  21178549.556 6         0.000 6      -989.196 6        37.977 6
G29  24318891.099 9 127796578.570 9     -3154.878 9        54.468 9  24318892.694 6         0.000 6     -2458.349 6        37.977 6
G27  21989401.937 9 115555060.200 9      2522.138 9        55.380 9  21989403.865 6         0.000 6      1965.303 6        37.977 6
G16  20493793.809 9 107695593.043 9       550.487 9        55.978 9  20493792.982 6         0.000 6       428.951 6        37.977 6
G26  20663462.655 9 108587206.820 9     -1510.259 9        55.869 9  20663465.474 6         0.000 6     -1176.826 6        37.977 6
G20  21928776.598 9 115236465.847 9      2518.877 9        55.322 9  21928776.910 6         0.000 6      1962.762 6        37.977 6
> 2019 07 03 12 01 32.0000000  0  8       0.000000000000
G07  25333343.626 9 133127573.313 9      2212.719 9        54.136 9  25333344.289 6         0.000 6      1724.197 6        37.977 6
G10  23787768.406 9 125005512.363 9      3490.460 9        54.677 9  23787772.111 6         0.000 6      2719.841 6        37.977 6
G21  21178792.386 9 111295284.473 9     -1275.210 9        55.706 9  21178791.673 6         0.000 6      -993.670 6        37.977 6
G29  24319492.796 9 127799740.498 9     -3168.508 9        54.468 9  24319494.391 6         0.000 6     -2468.970 6        37.977 6
G27  21988921.069 9 115552533.223 9      2531.195 9        55.380 9  21988922.996 6         0.000 6      1972.360 6        37.977 6
G16  20493688.650 9 107695040.427 9       554.500 9        55.978 9  20493687.823 6         0.000 6       432.078 6        37.977 6
G26  20663749.802 9 108588715.786 9     -1507.219 9        55.869 9  20663752.621 6         0.000 6     -1174.456 6        37.977 6
G20  21928297.734 9 115233949.406 9      2514.971 9        55.322 9  21928298.046 6         0.000 6      1959.719 6        37.977 6
> 2019 07 03 12 01 33.0000000  0  8       0.000000000000
G07  25332923.152 9 133125363.708 9      2204.084 9        54.136 9  25332923.814 6         0.000 6      1717.469 6        37.977 6
G10  23787103.506 9 125002018.299 9      3500.035 9        54.678 9  23787107.210 6         0.000 6      2727.303 6        37.977 6
G21  21179035.585 9 111296562.494 9     -1281.006 9        55.706 9  21179034.873 6         0.000 6      -998.186 6        37.977 6
G29  24320096.741 9 127802914.239 9     -3178.449 9        54.468 9  24320098.336 6         0.000 6     -2476.716 6        37.977 6
G27  21988438.894 9 115549999.382 9      2535.571 9        55.381 9  21988440.821 6         0.000 6      1975.770 6        37.977 6
G16  20493582.893 9 107694484.669 9       556.688 9        55.978 9  20493582.066 6         0.000 6       433.783 6        37.977 6
G26  20664036.094 9 108590220.259 9     -1500.745 9        55.869 9  20664038.914 6         0.000 6     -1169.412 6        37.977 6
G20  21927819.007 9 115231433.682 9      2518.213 9        55.322 9  21927819.319 6         0.000 6      1962.245 6        37.977 6
> 2019 07 03 12 01 34.0000000  0  8       0.000000000000
G07  25332504.533 9 133123163.855 9      2197.427 9        54.136 9  25332505.195 6         0.000 6      1712.282 6        37.977 6
G10  23786436.690 9 124998514.168 9      3506.329 9        54.678 9  23786440.394 6         0.000 6      2732.207 6        37.977 6
G21  21179279.594 9 111297844.766 9     -1282.936 9        55.706 9  21179278.881 6         0.000 6      -999.691 6        37.977 6
G29  24320701.782 9 127806093.742 9     -3179.845 9        54.467 9  24320703.378 6         0.000 6     -2477.804 6        37.977 6
G27  21987956.463 9 115547464.194 9      2534.747 9        55.381 9  21987958.390 6         0.000 6      1975.128 6        37.977 6
G16  20493476.999 9 107693928.195 9       556.127 9        55.978 9  20493476.172 6         0.000 6       433.346 6        37.977 6
G26  20664321.304 9 108591719.049 9     -1497.930 9        55.869 9  20664324.124 6         0.000 6     -1167.218 6        37.977 6
G20  21927339.373 9 115228913.191 9      2521.704 9        55.322 9  21927339.684 6         0.000 6      1964.965 6        37.977 6
> 2019 07 03 12 01 35.0000000  0  8       0.000000000000
G07  25332086.538 9 133120967.282 9      2196.060 9        54.137 9  25332087.200 6         0.000 6      1711.216 6        37.977 6
G10  23785769.351 9 124995007.290 9      3507.112 9        54.678 9  23785773.055 6         0.000 6      2732.817 6        37.977 6
G21  21179523.784 9 111299127.996 9     -1283.472 9        55.706 9  21179523.072 6         0.000 6     -1000.108 6        37.977 6
G29  24321306.899 9 127809273.641 9     -3179.976 9        54.467 9  24321308.496 6         0.000 6     -2477.906 6        37.977 6
G27  21987474.165 9 115544929.703 9      2534.316 9        55.381 9  21987476.092 6         0.000 6      1974.792 6        37.977 6
G16  20493371.237 9 107693372.409 9       555.463 9        55.978 9  20493370.410 6         0.000 6       432.829 6        37.977 6
G26  20664606.347 9 108593216.958 9     -1498.054 9        55.869 9  20664609.167 6         0.000 6     -1167.315 6        37.977 6
G20  21926859.472 9 115226391.299 9      2521.864 9        55.322 9  21926859.783 6         0.000 6      1965.090 6        37.977 6
> 2019 07 03 12 01 36.0000000  0  8       0.000000000000
G07  25331668.697 9 133118771.513 9      2195.528 9        54.137 9  25331669.358 6         0.000 6      1710.802 6        37.977 6
G10  23785101.972 9 124991500.201 9      3507.050 9        54.678 9  23785105.675 6         0.000 6      2732.769 6        37.977 6
G21  21179768.060 9 111300411.671 9     -1283.865 9        55.706 9  21179767.347 6         0.000 6     -1000.415 6        37.977 6
G29  24321912.039 9 127812453.663 9     -3180.088 9        54.467 9  24321913.636 6         0.000 6     -2477.993 6        37.977 6
G27  21986991.927 9 115542395.524 9      2534.064 9        55.381 9  21986993.853 6         0.000 6      1974.596 6        37.977 6
G16  20493265.596 9 107692817.263 9       554.842 9        55.978 9  20493264.769 6         0.000 6       432.344 6        37.977 6
G26  20664891.467 9 108594715.272 9     -1498.588 9        55.869 9  20664894.288 6         0.000 6     -1167.731 6        37.977 6
G20  21926379.613 9 115223869.629 9      2521.462 9        55.322 9  21926379.924 6         0.000 6      1964.777 6        37.977 6
> 2019 07 03 12 01 37.0000000  0  8       0.000000000000
G07  25331250.945 9 133116576.219 9      2195.070 9        54.137 9  25331251.607 6         0.000 6      1710.445 6        37.977 6
G10  23784434.616 9 124987993.230 9      3506.912 9        54.678 9  23784438.318 6         0.000 6      2732.661 6        37.977 6
G21  21180012.407 9 111301695.724 9     -1284.244 9        55.705 9  21180011.694 6         0.000 6     -1000.710 6        37.977 6
G29  24322517.199 9 127815633.790 9     -3180.193 9        54.467 9  24322518.797 6         0.000 6     -2478.075 6        37.977 6
G27  21986509.733 9 115539861.585 9      2533.824 9        55.381 9  21986511.660 6         0.000 6      1974.409 6        37.977 6
G16  20493160.072 9 107692262.733 9       554.221 9        55.978 9  20493159.245 6         0.000 6       431.860 6        37.977 6
G26  20665176.694 9 108596214.145 9     -1499.161 9        55.869 9  20665179.514 6         0.000 6     -1168.178 6        37.977 6
G20  21925899.837 9 115221348.395 9      2521.012 9        55.323 9  21925900.148 6         0.000 6      1964.426 6        37.977 6
> 2019 07 03 12 01 38.0000000  0  8       0.000000000000
G07  25330833.281 9 133114381.379 9      2194.620 9        54.137 9  25330833.942 6         0.000 6      1710.094 6        37.977 6
G10  23783767.286 9 124984486.398 9      3506.768 9        54.679 9  23783770.987 6         0.000 6      2732.549 6        37.977 6
G21  21180256.825 9 111302980.151 9     -1284.614 9        55.705 9  21180256.113 6         0.000 6     -1000.998 6        37.977 6
G29  24323122.379 9 127818814.021 9     -3180.290 9        54.467 9  24323123.977 6         0.000 6     -2478.151 6        37.977 6
G27  21986027.585 9 115537327.882 9      2533.585 9        55.382 9  21986029.512 6         0.000 6      1974.223 6        37.977 6
G16  20493054.666 9 107691708.819 9       553.603 9        55.978 9  20493053.839 6         0.000 6       431.379 6        37.977 6
G26  20665462.029 9 108597713.589 9     -1499.735 9        55.868 9  20665464.849 6         0.000 6     -1168.625 6        37.977 6
G20  21925420.147 9 115218827.612 9      2520.561 9        55.323 9  21925420.458 6         0.000 6      1964.074 6        37.977 6
> 2019 07 03 12 01 39.0000000  0  8       0.000000000000
G07  25330415.700 9 133112186.983 9      2194.169 9        54.137 9  25330416.361 6         0.000 6      1709.743 6        37.977 6
G10  23783099.985 9 124980979.717 9      3506.622 9        54.679 9  23783103.685 6         0.000 6      2732.435 6        37.977 6
G21  21180501.314 9 111304264.946 9     -1284.984 9        55.705 9  21180500.601 6         0.000 6     -1001.287 6        37.977 6
G29  24323727.577 9 127821994.349 9     -3180.382 9        54.466 9  24323729.176 6         0.000 6     -2478.223 6        37.977 6
G27  21985545.483 9 115534794.418 9      2533.340 9        55.382 9  21985547.409 6         0.000 6      1974.032 6        37.977 6
G16  20492949.377 9 107691155.523 9       552.980 9        55.978 9  20492948.550 6         0.000 6       430.894 6        37.977 6
G26  20665747.473 9 108599213.609 9     -1500.313 9        55.868 9  20665750.294 6         0.000 6     -1169.075 6        37.977 6
G20  21924940.544 9 115216307.283 9      2520.109 9        55.323 9  21924940.854 6         0.000 6      1963.722 6        37.977 6
> 2019 07 03 12 01 40.0000000  0  8       0.000000000000
G07  25329998.206 9 133109993.042 9      2193.718 9        54.137 9  25329998.867 6         0.000 6      1709.392 6        37.977 6
G10  23782432.711 9 124977473.180 9      3506.475 9        54.679 9  23782436.411 6         0.000 6      2732.321 6        37.977 6
G21  21180745.874 9 111305550.116 9     -1285.355 9        55.705 9  21180745.161 6         0.000 6     -1001.575 6        37.977 6
G29  24324332.793 9 127825174.770 9     -3180.475 9        54.466 9  24324334.393 6         0.000 6     -2478.294 6        37.977 6
G27  21985063.427 9 115532261.201 9      2533.095 9        55.382 9  21985065.353 6         0.000 6      1973.841 6        37.977 6
G16  20492844.208 9 107690602.854 9       552.358 9        55.978 9  20492843.381 6         0.000 6       430.409 6        37.977 6
G26  20666033.028 9 108600714.209 9     -1500.891 9        55.868 9  20666035.849 6         0.000 6     -1169.526 6        37.977 6
G20  21924461.026 9 115213787.406 9      2519.656 9        55.323 9  21924461.337 6         0.000 6      1963.370 6        37.977 6
> 2019 07 03 12 01 41.0000000  0  8       0.000000000000
G07  25329580.798 9 133107799.551 9      2193.267 9        54.137 9  25329581.459 6         0.000 6      1709.040 6        37.977 6
G10  23781765.465 9 124973966.790 9      3506.329 9        54.679 9  23781769.165 6         0.000 6      2732.207 6        37.977 6
G21  21180990.504 9 111306835.656 9     -1285.725 9        55.705 9  21180989.792 6         0.000 6     -1001.864 6        37.977 6
G29  24324938.026 9 127828355.283 9     -3180.567 9        54.466 9  24324939.627 6         0.000 6     -2478.366 6        37.977 6
G27  21984581.418 9 115529728.230 9      2532.850 9        55.382 9  21984583.344 6         0.000 6      1973.650 6        37.977 6
G16  20492739.157 9 107690050.807 9       551.735 9        55.978 9  20492738.330 6         0.000 6       429.923 6        37.977 6
G26  20666318.693 9 108602215.388 9     -1501.469 9        55.868 9  20666321.514 6         0.000 6     -1169.976 6        37.977 6
G20  21923981.595 9 115211267.982 9      2519.204 9        55.323 9  21923981.905 6         0.000 6      1963.017 6        37.977 6
> 2019 07 03 12 01 42.0000000  0  8       0.000000000000
G07  25329163.477 9 133105606.515 9      2192.805 9        54.138 9  25329164.137 6         0.000 6      1708.680 6        37.977 6
G10  23781098.247 9 124970460.544 9      3506.191 9        54.680 9  23781101.945 6         0.000 6      2732.100 6        37.977 6
G21  21181235.204 9 111308121.564 9     -1286.086 9        55.705 9  21181234.492 6         0.000 6     -1002.145 6        37.977 6
G29  24325543.276 9 127831535.883 9     -3180.638 9        54.466 9  24325544.878 6         0.000 6     -2478.422 6        37.977 6
G27  21984099.456 9 115527195.507 9      2532.590 9        55.382 9  21984101.382 6         0.000 6      1973.447 6        37.977 6
G16  20492634.225 9 107689499.384 9       551.107 9        55.979 9  20492633.398 6         0.000 6       429.434 6        37.977 6
G26  20666604.468 9 108603717.144 9     -1502.046 9        55.868 9  20666607.289 6         0.000 6     -1170.426 6        37.977 6
G20  21923502.249 9 115208749.007 9      2518.765 9        55.324 9  21923502.559 6         0.000 6      1962.675 6        37.977 6
> 2019 07 03 12 01 43.0000000  0  8       0.000000000000
G07  25328746.248 9 133103413.968 9      2192.822 9        54.138 9  25328746.909 6         0.000 6      1708.693 6        37.977 6
G10  23780431.053 9 124966954.428 9      3505.537 9        54.680 9  23780434.751 6         0.000 6      2731.590 6        37.977 6
G21  21181479.965 9 111309407.787 9     -1286.274 9        55.705 9  21181479.252 6         0.000 6     -1002.291 6        37.977 6
G29  24326148.516 9 127834716.427 9     -3180.482 9        54.465 9  24326150.118 6         0.000 6     -2478.300 6        37.977 6
G27  21983617.562 9 115524663.136 9      2532.290 9        55.383 9  21983619.487 6         0.000 6      1973.214 6        37.977 6
G16  20492529.421 9 107688948.635 9       550.430 9        55.979 9  20492528.594 6         0.000 6       428.906 6        37.977 6
G26  20666890.359 9 108605219.506 9     -1502.927 9        55.868 9  20666893.180 6         0.000 6     -1171.112 6        37.977 6
G20  21923022.979 9 115206230.430 9      2518.045 9        55.324 9  21923023.288 6         0.000 6      1962.114 6        37.977 6
> 2019 07 03 12 01 44.0000000  0  8       0.000000000000
G07  25328329.811 9 133101225.581 9      2181.377 9        54.138 9  25328330.472 6         0.000 6      1699.775 6        37.977 6
G10  23779763.199 9 124963444.845 9      3516.092 9        54.680 9  23779766.897 6         0.000 6      2739.814 6        37.977 6
G21  21181724.850 9 111310694.666 9     -1287.507 9        55.705 9  21181724.137 6         0.000 6     -1003.252 6        37.977 6
G29  24326753.624 9 127837896.281 9     -3178.259 9        54.465 9  24326755.226 6         0.000 6     -2476.568 6        37.977 6
G27  21983135.975 9 115522132.386 9      2527.957 9        55.383 9  21983137.901 6         0.000 6      1969.837 6        37.977 6
G16  20492424.826 9 107688398.986 9       548.379 9        55.979 9  20492423.999 6         0.000 6       427.308 6        37.977 6
G26  20667176.065 9 108606720.902 9     -1498.946 9        55.868 9  20667178.887 6         0.000 6     -1168.010 6        37.977 6
G20  21922543.292 9 115203709.663 9      2525.414 9        55.324 9  21922543.601 6         0.000 6      1967.856 6        37.977 6
> 2019 07 03 12 01 45.0000000  0  8       0.000000000000
G07  25327916.189 9 133099051.987 9      2166.034 9        54.138 9  25327916.849 6         0.000 6      1687.820 6        37.977 6
G10  23779092.795 9 124959921.856 9      3529.525 9        54.680 9  23779096.492 6         0.000 6      2750.282 6        37.977 6
G21  21181969.809 9 111311981.937 9     -1286.548 9        55.705 9  21181969.097 6         0.000 6     -1002.505 6        37.977 6
G29  24327357.669 9 127841070.551 9     -3169.210 9        54.465 9  24327359.272 6         0.000 6     -2469.517 6        37.977 6
G27  21982655.785 9 115519608.971 9      2518.208 9        55.383 9  21982657.710 6         0.000 6      1962.240 6        37.977 6
G16  20492320.874 9 107687852.716 9       543.807 9        55.979 9  20492320.047 6         0.000 6       423.746 6        37.977 6
G26  20667460.911 9 108608217.777 9     -1495.259 9        55.868 9  20667463.733 6         0.000 6     -1165.137 6        37.977 6
G20  21922061.657 9 115201178.656 9      2536.665 9        55.324 9  21922061.966 6         0.000 6      1976.623 6        37.977 6
> 2019 07 03 12 01 46.0000000  0  8       0.000000000000
G07  25327505.424 9 133096893.404 9      2153.838 9        54.138 9  25327506.084 6         0.000 6      1678.316 6        37.977 6
G10  23778420.015 9 124956386.387 9      3539.014 9        54.681 9  23778423.712 6         0.000 6      2757.676 6        37.977 6
G21  21182214.253 9 111313266.497 9     -1282.926 9        55.705 9  21182213.541 6         0.000 6      -999.683 6        37.977 6
G29  24327959.217 9 127844231.697 9     -3155.032 9        54.465 9  24327960.821 6         0.000 6     -2458.469 6        37.977 6
G27  21982177.947 9 115517097.919 9      2505.807 9        55.383 9  21982179.872 6         0.000 6      1952.578 6        37.977 6
G16  20492218.049 9 107687312.366 9       537.704 9        55.979 9  20492217.222 6         0.000 6       418.990 6        37.977 6
G26  20667745.333 9 108609712.422 9     -1494.717 9        55.868 9  20667748.155 6         0.000 6     -1164.715 6        37.977 6
G20  21921577.780 9 115198635.869 9      2546.747 9        55.324 9  21921578.088 6         0.000 6      1984.479 6        37.977 6
> 2019 07 03 12 01 47.0000000  0  8       0.000000000000
G07  25327095.791 9 133094740.769 9      2151.923 9        54.138 9  25327096.450 6         0.000 6      1676.824 6        37.977 6
G10  23777746.445 9 124952846.760 9      3539.908 9        54.681 9  23777750.141 6         0.000 6      2758.372 6        37.977 6
G21  21182458.307 9 111314549.009 9     -1282.381 9        55.704 9  21182457.595 6         0.000 6      -999.258 6        37.977 6
G29  24328559.260 9 127847384.934 9     -3152.330 9        54.465 9  24328560.865 6         0.000 6     -2456.364 6        37.977 6
G27  21981701.404 9 115514593.670 9      2503.380 9        55.383 9  21981703.329 6         0.000 6      1950.687 6        37.977 6
G16  20492115.914 9 107686775.642 9       536.064 9        55.979 9  20492115.087 6         0.000 6       417.712 6        37.977 6
G26  20668029.845 9 108611207.537 9     -1495.474 9        55.867 9  20668032.666 6         0.000 6     -1165.305 6        37.977 6
G20  21921093.005 9 115196088.365 9      2547.785 9        55.325 9  21921093.313 6         0.000 6      1985.289 6        37.977 6
> 2019 07 03 12 01 48.0000000  0  8       0.000000000000
G07  25326686.357 9 133092589.186 9      2151.301 9        54.138 9  25326687.017 6         0.000 6      1676.339 6        37.977 6
G10  23777072.822 9 124949306.857 9      3539.883 9        54.681 9  23777076.517 6         0.000 6      2758.353 6        37.977 6
G21  21182702.357 9 111315831.497 9     -1282.642 9        55.704 9  21182701.644 6         0.000 6      -999.461 6        37.977 6
G29  24329159.095 9 127850537.077 9     -3152.097 9        54.464 9  24329160.700 6         0.000 6     -2456.182 6        37.977 6
G27  21981225.081 9 115512090.580 9      2502.891 9        55.384 9  21981227.006 6         0.000 6      1950.306 6        37.977 6
G16  20492013.977 9 107686239.959 9       535.340 9        55.979 9  20492013.150 6         0.000 6       417.148 6        37.977 6
G26  20668314.480 9 108612703.304 9     -1496.057 9        55.867 9  20668317.302 6         0.000 6     -1165.759 6        37.977 6
G20  21920608.198 9 115193540.694 9      2547.504 9        55.325 9  21920608.506 6         0.000 6      1985.069 6        37.977 6
> 2019 07 03 12 01 49.0000000  0  8       0.000000000000
G07  25326277.026 9 133090438.140 9      2150.812 9        54.139 9  25326277.685 6         0.000 6      1675.959 6        37.977 6
G10  23776399.215 9 124945767.038 9      3539.764 9        54.681 9  23776402.909 6         0.000 6      2758.260 6        37.977 6
G21  21182946.469 9 111317114.317 9     -1283.004 9        55.704 9  21182945.757 6         0.000 6      -999.744 6        37.977 6
G29  24329758.923 9 127853689.181 9     -3152.150 9        54.464 9  24329760.528 6         0.000 6     -2456.223 6        37.977 6
G27  21980748.825 9 115509587.837 9      2502.617 9        55.384 9  21980750.749 6         0.000 6      1950.092 6        37.977 6
G16  20491912.165 9 107685704.937 9       534.713 9        55.979 9  20491911.338 6         0.000 6       416.659 6        37.977 6
G26  20668599.224 9 108614199.641 9     -1496.620 9        55.867 9  20668602.045 6         0.000 6     -1166.198 6        37.977 6
G20  21920123.464 9 115190993.403 9      2547.075 9        55.325 9  21920123.772 6         0.000 6      1984.735 6        37.977 6
> 2019 07 03 12 01 50.0000000  0  8       0.000000000000
G07  25325867.784 9 133088287.560 9      2150.347 9        54.139 9  25325868.443 6         0.000 6      1675.596 6        37.977 6
G10  23775725.634 9 124942227.358 9      3539.625 9        54.682 9  23775729.328 6         0.000 6      2758.152 6        37.977 6
G21  21183190.652 9 111318397.504 9     -1283.372 9        55.704 9  21183189.940 6         0.000 6     -1000.030 6        37.977 6
G29  24330358.764 9 127856841.360 9     -3152.226 9        54.464 9  24330360.371 6         0.000 6     -2456.283 6        37.977 6
G27  21980272.616 9 115507085.346 9      2502.366 9        55.384 9  21980274.540 6         0.000 6      1949.896 6        37.977 6
G16  20491810.471 9 107685170.532 9       534.097 9        55.979 9  20491809.644 6         0.000 6       416.179 6        37.977 6
G26  20668884.075 9 108615696.543 9     -1497.185 9        55.867 9  20668886.897 6         0.000 6     -1166.638 6        37.977 6
G20  21919638.815 9 115188446.560 9      2546.627 9        55.325 9  21919639.123 6         0.000 6      1984.386 6        37.977 6
> 2019 07 03 12 01 51.0000000  0  8       0.000000000000
G07  25325458.631 9 133086137.453 9      2149.882 9        54.139 9  25325459.290 6         0.000 6      1675.234 6        37.977 6
G10  23775052.078 9 124938687.809 9      3539.487 9        54.682 9  23775055.771 6         0.000 6      2758.044 6        37.977 6
G21  21183434.904 9 111319681.059 9     -1283.739 9        55.704 9  21183434.192 6         0.000 6     -1000.317 6        37.977 6
G29  24330958.620 9 127859993.612 9     -3152.303 9        54.464 9  24330960.227 6         0.000 6     -2456.343 6        37.977 6
G27  21979796.456 9 115504583.111 9      2502.115 9        55.384 9  21979798.380 6         0.000 6      1949.700 6        37.977 6
G16  20491708.895 9 107684636.744 9       533.481 9        55.979 9  20491708.068 6         0.000 6       415.699 6        37.977 6
G26  20669169.033 9 108617194.007 9     -1497.750 9        55.867 9  20669171.855 6         0.000 6     -1167.078 6        37.977 6
G20  21919154.250 9 115185900.158 9      2546.178 9        55.325 9  21919154.557 6         0.000 6      1984.036 6        37.977 6
> 2019 07 03 12 01 52.0000000  0  8       0.000000000000
G07  25325049.566 9 133083987.803 9      2149.420 9        54.139 9  25325050.224 6         0.000 6      1674.873 6        37.977 6
G10  23774378.550 9 124935148.406 9      3539.346 9        54.682 9  23774382.242 6         0.000 6      2757.935 6        37.977 6
G21  21183679.227 9 111320964.981 9     -1284.109 9        55.704 9  21183678.515 6         0.000 6     -1000.604 6        37.977 6
G29  24331558.491 9 127863145.945 9     -3152.385 9        54.464 9  24331560.099 6         0.000 6     -2456.406 6        37.977 6
G27  21979320.343 9 115502081.122 9      2501.867 9        55.384 9  21979322.267 6         0.000 6      1949.508 6        37.977 6
G16  20491607.435 9 107684103.570 9       532.867 9        55.979 9  20491606.608 6         0.000 6       415.221 6        37.977 6
G26  20669454.100 9 108618692.039 9     -1498.315 9        55.867 9  20669456.922 6         0.000 6     -1167.518 6        37.977 6
G20  21918669.772 9 115183354.212 9      2545.727 9        55.326 9  21918670.079 6         0.000 6      1983.684 6        37.977 6
> 2019 07 03 12 01 53.0000000  0  8       0.000000000000
G07  25324640.588 9 133081838.614 9      2148.963 9        54.139 9  25324641.246 6         0.000 6      1674.518 6        37.977 6
G10  23773705.048 9 124931609.142 9      3539.199 9        54.682 9  23773708.740 6         0.000 6      2757.820 6        37.977 6
G21  21183923.620 9 111322249.273 9     -1284.476 9        55.704 9  21183922.908 6         0.000 6     -1000.891 6        37.977 6
G29  24332158.378 9 127866298.365 9     -3152.466 9        54.463 9  24332159.987 6         0.000 6     -2456.469 6        37.977 6
G27  21978844.276 9 115499579.375 9      2501.621 9        55.384 9  21978846.199 6         0.000 6      1949.316 6        37.977 6
G16  20491506.092 9 107683571.005 9       532.253 9        55.979 9  20491505.265 6         0.000 6       414.742 6        37.977 6
G26  20669739.273 9 108620190.631 9     -1498.882 9        55.867 9  20669742.095 6         0.000 6     -1167.961 6        37.977 6
G20  21918185.379 9 115180808.716 9      2545.272 9        55.326 9  21918185.686 6         0.000 6      1983.330 6        37.977 6
> 2019 07 03 12 01 54.0000000  0  8       0.000000000000
G07  25324231.698 9 133079689.883 9      2148.504 9        54.139 9  25324232.355 6         0.000 6      1674.160 6        37.977 6
G10  23773031.575 9 124928070.027 9      3539.056 9        54.683 9  23773035.266 6         0.000 6      2757.709 6        37.977 6
G21  21184168.082 9 111323533.932 9     -1284.842 9        55.704 9  21184167.370 6         0.000 6     -1001.176 6        37.977 6
G29  24332758.280 9 127869450.860 9     -3152.546 9        54.463 9  24332759.889 6         0.000 6     -2456.532 6        37.977 6
G27  21978368.256 9 115497077.880 9      2501.376 9        55.385 9  21978370.180 6         0.000 6      1949.125 6        37.977 6
G16  20491404.866 9 107683039.060 9       531.642 9        55.979 9  20491404.039 6         0.000 6       414.267 6        37.977 6
G26  20670024.554 9 108621689.795 9     -1499.445 9        55.867 9  20670027.377 6         0.000 6     -1168.399 6        37.977 6
G20  21917701.074 9 115178263.677 9      2544.820 9        55.326 9  21917701.380 6         0.000 6      1982.978 6        37.977 6
> 2019 07 03 12 01 55.0000000  0  8       0.000000000000
G07  25323822.894 9 133077541.610 9      2148.048 9        54.139 9  25323823.552 6         0.000 6      1673.804 6        37.977 6
G10  23772358.129 9 124924531.056 9      3538.909 9        54.683 9  23772361.820 6         0.000 6      2757.594 6        37.977 6
G21  21184412.615 9 111324818.957 9     -1285.209 9        55.704 9  21184411.903 6         0.000 6     -1001.462 6        37.977 6
G29  24333358.198 9 127872603.437 9     -3152.627 9        54.463 9  24333359.807 6         0.000 6     -2456.595 6        37.977 6
G27  21977892.284 9 115494576.630 9      2501.130 9        55.385 9  21977894.207 6         0.000 6      1948.933 6        37.977 6
G16  20491303.756 9 107682507.724 9       531.028 9        55.979 9  20491302.929 6         0.000 6       413.788 6        37.977 6
G26  20670309.943 9 108623189.522 9     -1500.013 9        55.866 9  20670312.766 6         0.000 6     -1168.841 6        37.977 6
G20  21917216.854 9 115175719.089 9      2544.365 9        55.326 9  21917217.160 6         0.000 6      1982.623 6        37.977 6
> 2019 07 03 12 01 56.0000000  0  8       0.000000000000
G07  25323414.178 9 133075393.798 9      2147.588 9        54.140 9  25323414.836 6         0.000 6      1673.446 6        37.977 6
G10  23771684.711 9 124920992.230 9      3538.763 9        54.683 9  23771688.401 6         0.000 6      2757.480 6        37.977 6
G21  21184657.217 9 111326104.353 9     -1285.581 9        55.704 9  21184656.506 6         0.000 6     -1001.752 6        37.977 6
G29  24333958.131 9 127875756.095 9     -3152.709 9        54.463 9  24333959.741 6         0.000 6     -2456.659 6        37.977 6
G27  21977416.359 9 115492075.629 9      2500.880 9        55.385 9  21977418.282 6         0.000 6      1948.739 6        37.977 6
G16  20491202.764 9 107681977.007 9       530.410 9        55.979 9  20491201.937 6         0.000 6       413.307 6        37.977 6
G26  20670595.441 9 108624689.819 9     -1500.582 9        55.866 9  20670598.263 6         0.000 6     -1169.285 6        37.977 6
G20  21916732.721 9 115173174.957 9      2543.909 9        55.326 9  21916733.027 6         0.000 6      1982.268 6        37.977 6
> 2019 07 03 12 01 57.0000000  0  8       0.000000000000
G07  25323005.539 9 133073246.386 9      2147.285 9        54.140 9  25323006.196 6         0.000 6      1673.210 6        37.977 6
G10  23771011.332 9 124917453.607 9      3538.462 9        54.683 9  23771015.021 6         0.000 6      2757.246 6        37.977 6
G21  21184901.888 9 111327390.107 9     -1285.922 9        55.703 9  21184901.177 6         0.000 6     -1002.017 6        37.977 6
G29  24334558.079 9 127878908.833 9     -3152.794 9        54.462 9  24334559.690 6         0.000 6     -2456.726 6        37.977 6
G27  21976940.478 9 115489574.862 9      2500.674 9        55.385 9  21976942.401 6         0.000 6      1948.578 6        37.977 6
G16  20491101.888 9 107681446.900 9       529.809 9        55.979 9  20491101.061 6         0.000 6       412.838 6        37.977 6
G26  20670881.051 9 108626190.710 9     -1501.220 9        55.866 9  20670883.874 6         0.000 6     -1169.783 6        37.977 6
G20  21916248.681 9 115170631.317 9      2543.350 9        55.326 9  21916248.987 6         0.000 6      1981.833 6        37.977 6
> 2019 07 03 12 01 58.0000000  0  8       0.000000000000
G07  25322597.043 9 133071099.728 9      2144.741 9        54.140 9  25322597.700 6         0.000 6      1671.228 6        37.977 6
G10  23770337.961 9 124913915.031 9      3539.439 9        54.684 9  23770341.650 6         0.000 6      2758.007 6        37.977 6
G21  21185146.535 9 111328675.732 9     -1283.974 9        55.703 9  21185145.823 6         0.000 6     -1000.499 6        37.977 6
G29  24335157.795 9 127882060.351 9     -3146.506 9        54.462 9  24335159.406 6         0.000 6     -2451.826 6        37.977 6
G27  21976464.820 9 115487075.267 9      2495.744 9        55.385 9  21976466.743 6         0.000 6      1944.736 6        37.977 6
G16  20491001.215 9 107680917.861 9       526.933 9        55.979 9  20491000.388 6         0.000 6       410.597 6        37.977 6
G26  20671166.821 9 108627692.439 9     -1502.816 9        55.866 9  20671169.644 6         0.000 6     -1171.026 6        37.977 6
G20  21915764.645 9 115168087.692 9      2545.475 9        55.327 9  21915764.950 6         0.000 6      1983.488 6        37.977 6
> 2019 07 03 12 01 59.0000000  0  8       0.000000000000
G07  25322189.043 9 133068955.678 9      2144.717 9        54.140 9  25322189.700 6         0.000 6      1671.209 6        37.977 6
G10  23769664.554 9 124910376.262 9      3536.880 9        54.684 9  23769668.242 6         0.000 6      2756.013 6        37.977 6
G21  21185390.372 9 111329957.102 9     -1278.863 9        55.703 9  21185389.660 6         0.000 6      -996.517 6        37.977 6
G29  24335755.261 9 127885200.048 9     -3133.684 9        54.462 9  24335756.873 6         0.000 6     -2441.834 6        37.977 6
G27  21975990.798 9 115484584.263 9      2487.096 9        55.386 9  21975992.720 6         0.000 6      1937.997 6        37.977 6
G16  20490901.445 9 107680393.564 9       521.999 9        55.979 9  20490900.618 6         0.000 6       406.752 6        37.977 6
G26  20671453.226 9 108629197.505 9     -1507.727 9        55.866 9  20671456.049 6         0.000 6     -1174.853 6        37.977 6
G20  21915280.000 9 115165540.873 9      2547.118 9        55.327 9  21915280.305 6         0.000 6      1984.769 6        37.977 6
> 2019 07 03 12 02  0.0000000  0  8       0.000000000000
G07  25321780.143 9 133066806.897 9      2154.295 9        54.140 9  25321780.799 6         0.000 6      1678.672 6        37.977 6
G10  23768992.480 9 124906844.501 9      3525.418 9        54.684 9  23768996.167 6         0.000 6      2747.081 6        37.977 6
G21  21185633.256 9 111331233.465 9     -1274.187 9        55.703 9  21185632.544 6         0.000 6      -992.873 6        37.977 6
G29  24336350.701 9 127888329.095 9     -3125.779 9        54.462 9  24336352.314 6         0.000 6     -2435.674 6        37.977 6
G27  21975517.937 9 115482099.365 9      2483.928 9        55.386 9  21975519.859 6         0.000 6      1935.529 6        37.977 6
G16  20490802.423 9 107679873.200 9       519.262 9        55.979 9  20490801.596 6         0.000 6       404.619 6        37.977 6
G26  20671740.872 9 108630709.092 9     -1515.722 9        55.866 9  20671743.695 6         0.000 6     -1181.083 6        37.977 6
G20  21914795.727 9 115162996.004 9      2541.411 9        55.327 9  21914796.032 6         0.000 6      1980.321 6        37.977 6
