     3.00           Observation Data    M (Mixed)           RINEX VERSION / TYPE
SimGEN V6.06.00     Spirent             03-Jul-19 12:00     PGM / RUN BY / DATE 
                                                            MARKER NAME         
1                                                           MARKER NUMBER       
GROUND_CRAFT                                                MARKER TYPE         
jin4hi              Spirent                                 OBSERVER / AGENCY   
rec_num             rec_type            rec_vers            REC # / TYPE / VERS 
1                   ant_type                                ANT # / TYPE        
  1000.000                                                  INTERVAL            
  2019     7     3    12     0    0.0000000     GPS         TIME OF FIRST OBS   
  4162618.0920   664362.5430  4770585.2790                  APPROX POSITION XYZ 
        0.0000        0.0000        0.0000                  ANTENNA: DELTA H/E/N
G    8 C1C L1C D1C S1C C2C L2C D2C S2C                      SYS / # / OBS TYPES 
        0.0000        0.0000        0.0000                  ANTENNA: DELTA X/Y/Z
DBHZ                                                        SIGNAL STRENGTH UNIT
                                                            END OF HEADER       
> 2019 07 03 12 00  0.0000000  0  8       0.000000000000
G07  25371935.628 9 133330375.317 9      2235.699 9        54.123 9  25371936.311 6         0.000 6      1742.103 6        37.977 6
G10  23849452.394 9 125329662.924 9      3522.411 9        54.655 9  23849456.160 6         0.000 6      2744.736 6        37.977 6
G21  21156815.783 9 111179796.708 9     -1246.136 9        55.715 9  21156815.066 6         0.000 6      -971.015 6        37.977 6
G29  24264425.865 9 127510362.761 9     -3164.597 9        54.488 9  24264427.402 6         0.000 6     -2465.920 6        37.977 6
G27  22033088.603 9 115784634.928 9      2552.007 9        55.363 9  22033090.546 6         0.000 6      1988.577 6        37.977 6
G16  20503750.985 9 107747918.350 9       611.787 9        55.974 9  20503750.158 6         0.000 6       476.717 6        37.977 6
G26  20637966.830 9 108453225.518 9     -1443.785 9        55.880 9  20637969.640 6         0.000 6     -1125.028 6        37.977 6
G20  21973092.539 9 115469347.278 9      2567.490 9        55.304 9  21973092.877 6         0.000 6      2000.641 6        37.977 6
> 2019 07 03 12 00  1.0000000  0  8       0.000000000000
G07  25371510.216 9 133328139.764 9      2235.363 9        54.123 9  25371510.899 6         0.000 6      1741.842 6        37.977 6
G10  23848782.114 9 125326140.590 9      3522.260 9        54.655 9  23848785.879 6         0.000 6      2744.621 6        37.977 6
G21  21157052.954 9 111181043.049 9     -1246.550 9        55.715 9  21157052.237 6         0.000 6      -971.338 6        37.977 6
G29  24265028.091 9 127513527.471 9     -3164.837 9        54.487 9  24265029.629 6         0.000 6     -2466.110 6        37.977 6
G27  22032602.987 9 115782083.002 9      2551.865 9        55.363 9  22032604.930 6         0.000 6      1988.467 6        37.977 6
G16  20503634.622 9 107747306.855 9       611.214 9        55.974 9  20503633.795 6         0.000 6       476.271 6        37.977 6
G26  20638241.629 9 108454669.591 9     -1444.354 9        55.880 9  20638244.439 6         0.000 6     -1125.471 6        37.977 6
G20  21972604.008 9 115466780.035 9      2566.995 9        55.304 9  21972604.346 6         0.000 6      2000.257 6        37.977 6
> 2019 07 03 12 00  2.0000000  0  8       0.000000000000
G07  25371084.887 9 133325904.648 9      2234.891 9        54.123 9  25371085.570 6         0.000 6      1741.474 6        37.977 6
G10  23848111.861 9 125322618.396 9      3522.142 9        54.655 9  23848115.625 6         0.000 6      2744.529 6        37.977 6
G21  21157290.197 9 111182289.770 9     -1246.904 9        55.715 9  21157289.480 6         0.000 6      -971.614 6        37.977 6
G29  24265630.339 9 127516692.296 9     -3164.870 9        54.487 9  24265631.878 6         0.000 6     -2466.135 6        37.977 6
G27  22032117.413 9 115779531.298 9      2551.577 9        55.363 9  22032119.356 6         0.000 6      1988.243 6        37.977 6
G16  20503518.374 9 107746695.969 9       610.573 9        55.974 9  20503517.547 6         0.000 6       475.771 6        37.977 6
G26  20638516.537 9 108456114.241 9     -1444.942 9        55.880 9  20638519.347 6         0.000 6     -1125.929 6        37.977 6
G20  21972115.563 9 115464213.244 9      2566.583 9        55.305 9  21972115.901 6         0.000 6      1999.936 6        37.977 6
> 2019 07 03 12 00  3.0000000  0  8       0.000000000000
G07  25370659.637 9 133323669.952 9      2234.534 9        54.123 9  25370660.320 6         0.000 6      1741.196 6        37.977 6
G10  23847441.636 9 125319096.354 9      3521.947 9        54.656 9  23847445.400 6         0.000 6      2744.377 6        37.977 6
G21  21157527.515 9 111183536.885 9     -1247.344 9        55.715 9  21157526.798 6         0.000 6      -971.957 6        37.977 6
G29  24266232.616 9 127519857.273 9     -3165.161 9        54.487 9  24266234.155 6         0.000 6     -2466.362 6        37.977 6
G27  22031631.877 9 115776979.790 9      2551.490 9        55.364 9  22031633.819 6         0.000 6      1988.175 6        37.977 6
G16  20503402.240 9 107746085.680 9       610.028 9        55.974 9  20503401.413 6         0.000 6       475.346 6        37.977 6
G26  20638791.554 9 108457559.465 9     -1445.502 9        55.880 9  20638794.365 6         0.000 6     -1126.366 6        37.977 6
G20  21971627.207 9 115461646.922 9      2566.044 9        55.305 9  21971627.545 6         0.000 6      1999.516 6        37.977 6
> 2019 07 03 12 00  4.0000000  0  8       0.000000000000
G07  25370234.446 9 133321435.557 9      2234.260 9        54.124 9  25370235.128 6         0.000 6      1740.982 6        37.977 6
G10  23846771.456 9 125315574.542 9      3521.697 9        54.656 9  23846775.219 6         0.000 6      2744.182 6        37.977 6
G21  21157764.925 9 111184784.480 9     -1247.846 9        55.715 9  21157764.208 6         0.000 6      -972.348 6        37.977 6
G29  24266834.973 9 127523022.670 9     -3165.638 9        54.487 9  24266836.513 6         0.000 6     -2466.733 6        37.977 6
G27  22031146.338 9 115774428.267 9      2551.547 9        55.364 9  22031148.280 6         0.000 6      1988.220 6        37.977 6
G16  20503286.200 9 107745475.885 9       609.552 9        55.974 9  20503285.373 6         0.000 6       474.975 6        37.977 6
G26  20639066.675 9 108459005.232 9     -1446.042 9        55.880 9  20639069.485 6         0.000 6     -1126.786 6        37.977 6
G20  21971138.965 9 115459081.198 9      2565.415 9        55.305 9  21971139.302 6         0.000 6      1999.026 6        37.977 6
> 2019 07 03 12 00  5.0000000  0  8       0.000000000000
G07  25369809.308 9 133319201.448 9      2233.963 9        54.124 9  25369809.990 6         0.000 6      1740.751 6        37.977 6
G10  23846101.322 9 125312052.975 9      3521.460 9        54.656 9  23846105.084 6         0.000 6      2743.998 6        37.977 6
G21  21158002.428 9 111186032.569 9     -1248.331 9        55.715 9  21158001.712 6         0.000 6      -972.726 6        37.977 6
G29  24267437.415 9 127526188.513 9     -3166.063 9        54.486 9  24267438.955 6         0.000 6     -2467.065 6        37.977 6
G27  22030660.792 9 115771876.712 9      2551.564 9        55.364 9  22030662.734 6         0.000 6      1988.232 6        37.977 6
G16  20503170.253 9 107744866.581 9       609.055 9        55.974 9  20503169.426 6         0.000 6       474.588 6        37.977 6
G26  20639341.899 9 108460451.546 9     -1446.589 9        55.879 9  20639344.710 6         0.000 6     -1127.213 6        37.977 6
G20  21970650.841 9 115456516.092 9      2564.809 9        55.305 9  21970651.178 6         0.000 6      1998.554 6        37.977 6
> 2019 07 03 12 00  6.0000000  0  8       0.000000000000
G07  25369384.209 9 133316967.544 9      2233.913 9        54.124 9  25369384.891 6         0.000 6      1740.712 6        37.977 6
G10  23845431.251 9 125308531.740 9      3520.966 9        54.656 9  23845435.013 6         0.000 6      2743.612 6        37.977 6
G21  21158240.019 9 111187281.116 9     -1248.746 9        55.714 9  21158239.303 6         0.000 6      -973.049 6        37.977 6
G29  24268039.933 9 127529354.754 9     -3166.410 9        54.486 9  24268041.474 6         0.000 6     -2467.335 6        37.977 6
G27  22030175.243 9 115769325.136 9      2551.586 9        55.364 9  22030177.185 6         0.000 6      1988.250 6        37.977 6
G16  20503054.400 9 107744257.773 9       608.553 9        55.974 9  20503053.574 6         0.000 6       474.197 6        37.977 6
G26  20639617.237 9 108461898.455 9     -1447.273 9        55.879 9  20639620.048 6         0.000 6     -1127.745 6        37.977 6
G20  21970162.843 9 115453951.647 9      2564.051 9        55.305 9  21970163.179 6         0.000 6      1997.963 6        37.977 6
> 2019 07 03 12 00  7.0000000  0  8       0.000000000000
G07  25368959.821 9 133314737.369 9      2225.349 9        54.124 9  25368960.502 6         0.000 6      1734.039 6        37.977 6
G10  23844760.581 9 125305007.357 9      3528.849 9        54.656 9  23844764.342 6         0.000 6      2749.755 6        37.977 6
G21  21158477.769 9 111188530.498 9     -1249.974 9        55.714 9  21158477.052 6         0.000 6      -974.006 6        37.977 6
G29  24268642.448 9 127532520.984 9     -3165.553 9        54.486 9  24268643.990 6         0.000 6     -2466.667 6        37.977 6
G27  22029689.899 9 115766774.636 9      2548.818 9        55.364 9  22029691.840 6         0.000 6      1986.093 6        37.977 6
G16  20502938.720 9 107743649.869 9       607.004 9        55.974 9  20502937.893 6         0.000 6       472.990 6        37.977 6
G26  20639892.404 9 108463344.461 9     -1444.391 9        55.879 9  20639895.214 6         0.000 6     -1125.500 6        37.977 6
G20  21969674.499 9 115451385.387 9      2569.324 9        55.305 9  21969674.835 6         0.000 6      2002.072 6        37.977 6
> 2019 07 03 12 00  8.0000000  0  8       0.000000000000
G07  25368537.425 9 133312517.670 9      2213.953 9        54.124 9  25368538.107 6         0.000 6      1725.159 6        37.977 6
G10  23844088.098 9 125301473.446 9      3538.988 9        54.657 9  23844091.859 6         0.000 6      2757.656 6        37.977 6
G21  21158715.662 9 111189780.637 9     -1250.025 9        55.714 9  21158714.946 6         0.000 6      -974.046 6        37.977 6
G29  24269244.440 9 127535684.465 9     -3160.690 9        54.486 9  24269245.983 6         0.000 6     -2462.878 6        37.977 6
G27  22029205.407 9 115764228.620 9      2542.699 9        55.365 9  22029207.349 6         0.000 6      1981.324 6        37.977 6
G16  20502823.482 9 107743044.287 9       603.904 9        55.974 9  20502822.655 6         0.000 6       470.574 6        37.977 6
G26  20640166.964 9 108464787.284 9     -1441.440 9        55.879 9  20640169.775 6         0.000 6     -1123.201 6        37.977 6
G20  21969184.837 9 115448812.200 9      2577.265 9        55.306 9  21969185.173 6         0.000 6      2008.260 6        37.977 6
> 2019 07 03 12 00  9.0000000  0  8       0.000000000000
G07  25368117.378 9 133310310.311 9      2201.168 9        54.124 9  25368118.059 6         0.000 6      1715.197 6        37.977 6
G10  23843413.601 9 125297928.948 9      3549.490 9        54.657 9  23843417.361 6         0.000 6      2765.839 6        37.977 6
G21  21158953.333 9 111191029.603 9     -1247.472 9        55.714 9  21158952.616 6         0.000 6      -972.057 6        37.977 6
G29  24269844.860 9 127538839.681 9     -3148.820 9        54.486 9  24269846.403 6         0.000 6     -2453.629 6        37.977 6
G27  22028722.558 9 115761691.230 9      2531.544 9        55.365 9  22028724.499 6         0.000 6      1972.632 6        37.977 6
G16  20502709.064 9 107742443.016 9       598.350 9        55.974 9  20502708.237 6         0.000 6       466.246 6        37.977 6
G26  20640441.081 9 108466227.774 9     -1440.025 9        55.879 9  20640443.891 6         0.000 6     -1122.098 6        37.977 6
G20  21968693.422 9 115446229.800 9      2587.444 9        55.306 9  21968693.757 6         0.000 6      2016.191 6        37.977 6
> 2019 07 03 12 00 10.0000000  0  8       0.000000000000
G07  25367698.933 9 133308111.370 9      2197.521 9        54.124 9  25367699.614 6         0.000 6      1712.355 6        37.977 6
G10  23842737.863 9 125294377.933 9      3551.929 9        54.657 9  23842741.622 6         0.000 6      2767.740 6        37.977 6
G21  21159190.604 9 111192276.472 9     -1246.597 9        55.714 9  21159189.888 6         0.000 6      -971.374 6        37.977 6
G29  24270443.549 9 127541985.804 9     -3144.580 9        54.485 9  24270445.093 6         0.000 6     -2450.325 6        37.977 6
G27  22028241.282 9 115759162.114 9      2527.647 9        55.365 9  22028243.223 6         0.000 6      1969.596 6        37.977 6
G16  20502595.463 9 107741846.042 9       596.044 9        55.974 9  20502594.637 6         0.000 6       464.450 6        37.977 6
G26  20640715.149 9 108467668.012 9     -1440.466 9        55.879 9  20640717.960 6         0.000 6     -1122.441 6        37.977 6
G20  21968200.735 9 115443640.719 9      2589.976 9        55.306 9  21968201.070 6         0.000 6      2018.164 6        37.977 6
> 2019 07 03 12 00 11.0000000  0  8       0.000000000000
G07  25367280.896 9 133305914.574 9      2196.233 9        54.125 9  25367281.577 6         0.000 6      1711.351 6        37.977 6
G10  23842061.884 9 125290825.652 9      3552.534 9        54.657 9  23842065.643 6         0.000 6      2768.211 6        37.977 6
G21  21159427.838 9 111193523.144 9     -1246.819 9        55.714 9  21159427.122 6         0.000 6      -971.548 6        37.977 6
G29  24271041.863 9 127545129.952 9     -3143.969 9        54.485 9  24271043.407 6         0.000 6     -2449.849 6        37.977 6
G27  22027760.391 9 115756635.018 9      2526.742 9        55.365 9  22027762.332 6         0.000 6      1968.890 6        37.977 6
G16  20502482.135 9 107741250.496 9       595.137 9        55.974 9  20502481.308 6         0.000 6       463.743 6        37.977 6
G26  20640989.299 9 108469108.676 9     -1440.866 9        55.879 9  20640992.110 6         0.000 6     -1122.753 6        37.977 6
G20  21967707.841 9 115441050.546 9      2590.231 9        55.306 9  21967708.175 6         0.000 6      2018.363 6        37.977 6
> 2019 07 03 12 00 12.0000000  0  8       0.000000000000
G07  25366863.048 9 133303718.773 9      2195.412 9        54.125 9  25366863.729 6         0.000 6      1710.712 6        37.977 6
G10  23841385.835 9 125287272.999 9      3552.760 9        54.658 9  23841389.593 6         0.000 6      2768.387 6        37.977 6
G21  21159665.137 9 111194770.156 9     -1247.213 9        55.714 9  21159664.420 6         0.000 6      -971.855 6        37.977 6
G29  24271640.137 9 127548273.896 9     -3143.967 9        54.485 9  24271641.682 6         0.000 6     -2449.847 6        37.977 6
G27  22027279.608 9 115754108.485 9      2526.356 9        55.365 9  22027281.548 6         0.000 6      1968.590 6        37.977 6
G16  20502368.948 9 107740655.697 9       594.472 9        55.974 9  20502368.121 6         0.000 6       463.225 6        37.977 6
G26  20641263.526 9 108470549.747 9     -1441.289 9        55.879 9  20641266.337 6         0.000 6     -1123.083 6        37.977 6
G20  21967214.950 9 115438460.392 9      2590.056 9        55.306 9  21967215.284 6         0.000 6      2018.227 6        37.977 6
> 2019 07 03 12 00 13.0000000  0  8       0.000000000000
G07  25366445.340 9 133301523.707 9      2194.753 9        54.125 9  25366446.020 6         0.000 6      1710.198 6        37.977 6
G10  23840709.758 9 125283720.202 9      3552.832 9        54.658 9  23840713.515 6         0.000 6      2768.443 6        37.977 6
G21  21159902.513 9 111196017.575 9     -1247.614 9        55.714 9  21159901.797 6         0.000 6      -972.167 6        37.977 6
G29  24272238.422 9 127551417.893 9     -3144.037 9        54.485 9  24272239.967 6         0.000 6     -2449.902 6        37.977 6
G27  22026798.887 9 115751582.284 9      2526.055 9        55.365 9  22026800.828 6         0.000 6      1968.355 6        37.977 6
G16  20502255.885 9 107740061.544 9       593.841 9        55.974 9  20502255.058 6         0.000 6       462.733 6        37.977 6
G26  20641537.839 9 108471991.270 9     -1441.768 9        55.878 9  20641540.650 6         0.000 6     -1123.456 6        37.977 6
G20  21966722.106 9 115435870.485 9      2589.755 9        55.307 9  21966722.440 6         0.000 6      2017.992 6        37.977 6
> 2019 07 03 12 00 14.0000000  0  8       0.000000000000
G07  25366027.726 9 133299329.135 9      2194.472 9        54.125 9  25366028.406 6         0.000 6      1709.979 6        37.977 6
G10  23840033.698 9 125280167.495 9      3552.529 9        54.658 9  23840037.455 6         0.000 6      2768.207 6        37.977 6
G21  21160139.960 9 111197265.365 9     -1247.959 9        55.714 9  21160139.243 6         0.000 6      -972.436 6        37.977 6
G29  24272836.720 9 127554561.961 9     -3144.122 9        54.485 9  24272838.266 6         0.000 6     -2449.968 6        37.977 6
G27  22026318.215 9 115749056.340 9      2525.855 9        55.366 9  22026320.156 6         0.000 6      1968.200 6        37.977 6
G16  20502142.937 9 107739468.002 9       593.247 9        55.974 9  20502142.111 6         0.000 6       462.270 6        37.977 6
G26  20641812.256 9 108473433.341 9     -1442.413 9        55.878 9  20641815.067 6         0.000 6     -1123.959 6        37.977 6
G20  21966229.340 9 115433280.987 9      2589.198 9        55.307 9  21966229.674 6         0.000 6      2017.558 6        37.977 6
> 2019 07 03 12 00 15.0000000  0  8       0.000000000000
G07  25365610.128 9 133297134.644 9      2194.567 9        54.125 9  25365610.808 6         0.000 6      1710.053 6        37.977 6
G10  23839357.735 9 125276615.296 9      3551.846 9        54.658 9  23839361.491 6         0.000 6      2767.675 6        37.977 6
G21  21160377.468 9 111198513.479 9     -1248.255 9        55.714 9  21160376.752 6         0.000 6      -972.666 6        37.977 6
G29  24273435.035 9 127557706.119 9     -3144.217 9        54.484 9  24273436.582 6         0.000 6     -2450.042 6        37.977 6
G27  22025837.574 9 115746530.553 9      2525.745 9        55.366 9  22025839.514 6         0.000 6      1968.114 6        37.977 6
G16  20502030.102 9 107738875.046 9       592.679 9        55.975 9  20502029.275 6         0.000 6       461.828 6        37.977 6
G26  20642086.815 9 108474876.157 9     -1443.235 9        55.878 9  20642089.627 6         0.000 6     -1124.599 6        37.977 6
G20  21965736.707 9 115430692.190 9      2588.378 9        55.307 9  21965737.041 6         0.000 6      2016.919 6        37.977 6
> 2019 07 03 12 00 16.0000000  0  8       0.000000000000
G07  25365192.488 9 133294939.937 9      2194.868 9        54.125 9  25365193.168 6         0.000 6      1710.288 6        37.977 6
G10  23838681.924 9 125273063.897 9      3550.956 9        54.659 9  23838685.680 6         0.000 6      2766.981 6        37.977 6
G21  21160615.028 9 111199761.864 9     -1248.521 9        55.713 9  21160614.312 6         0.000 6      -972.874 6        37.977 6
G29  24274033.369 9 127560850.372 9     -3144.315 9        54.484 9  24274034.916 6         0.000 6     -2450.118 6        37.977 6
G27  22025356.946 9 115744004.842 9      2525.685 9        55.366 9  22025358.886 6         0.000 6      1968.067 6        37.977 6
G16  20501917.371 9 107738282.642 9       592.125 9        55.975 9  20501916.544 6         0.000 6       461.396 6        37.977 6
G26  20642361.540 9 108476319.844 9     -1444.154 9        55.878 9  20642364.352 6         0.000 6     -1125.315 6        37.977 6
G20  21965244.245 9 115428104.290 9      2587.416 9        55.307 9  21965244.579 6         0.000 6      2016.169 6        37.977 6
> 2019 07 03 12 00 17.0000000  0  8       0.000000000000
G07  25364774.782 9 133292744.880 9      2195.257 9        54.125 9  25364775.462 6         0.000 6      1710.591 6        37.977 6
G10  23838006.293 9 125269513.439 9      3549.980 9        54.659 9  23838010.047 6         0.000 6      2766.221 6        37.977 6
G21  21160852.637 9 111201010.506 9     -1248.768 9        55.713 9  21160851.921 6         0.000 6      -973.066 6        37.977 6
G29  24274631.721 9 127563994.723 9     -3144.412 9        54.484 9  24274633.269 6         0.000 6     -2450.194 6        37.977 6
G27  22024876.328 9 115741479.180 9      2525.648 9        55.366 9  22024878.268 6         0.000 6      1968.038 6        37.977 6
G16  20501804.745 9 107737690.788 9       591.584 9        55.975 9  20501803.918 6         0.000 6       460.974 6        37.977 6
G26  20642636.444 9 108477764.473 9     -1445.108 9        55.878 9  20642639.256 6         0.000 6     -1126.059 6        37.977 6
G20  21964751.973 9 115425517.385 9      2586.399 9        55.307 9  21964752.306 6         0.000 6      2015.377 6        37.977 6
> 2019 07 03 12 00 18.0000000  0  8       0.000000000000
G07  25364357.001 9 133290549.428 9      2195.633 9        54.126 9  25364357.680 6         0.000 6      1710.884 6        37.977 6
G10  23837330.848 9 125265963.962 9      3549.015 9        54.659 9  23837334.602 6         0.000 6      2765.469 6        37.977 6
G21  21161090.294 9 111202259.401 9     -1249.019 9        55.713 9  21161089.577 6         0.000 6      -973.262 6        37.977 6
G29  24275230.092 9 127567139.176 9     -3144.507 9        54.484 9  24275231.641 6         0.000 6     -2450.267 6        37.977 6
G27  22024395.717 9 115738953.552 9      2525.604 9        55.366 9  22024397.657 6         0.000 6      1968.004 6        37.977 6
G16  20501692.222 9 107737099.478 9       591.036 9        55.975 9  20501691.395 6         0.000 6       460.547 6        37.977 6
G26  20642911.531 9 108479210.062 9     -1446.062 9        55.878 9  20642914.343 6         0.000 6     -1126.802 6        37.977 6
G20  21964259.896 9 115422931.506 9      2585.388 9        55.308 9  21964260.229 6         0.000 6      2014.589 6        37.977 6
> 2019 07 03 12 00 19.0000000  0  8       0.000000000000
G07  25363939.160 9 133288353.662 9      2195.882 9        54.126 9  25363939.839 6         0.000 6      1711.078 6        37.977 6
G10  23836655.574 9 125262415.389 9      3548.179 9        54.659 9  23836659.328 6         0.000 6      2764.817 6        37.977 6
G21  21161327.999 9 111203508.551 9     -1249.289 9        55.713 9  21161327.283 6         0.000 6      -973.472 6        37.977 6
G29  24275828.481 9 127570283.720 9     -3144.605 9        54.483 9  24275830.030 6         0.000 6     -2450.344 6        37.977 6
G27  22023915.116 9 115736427.983 9      2525.534 9        55.367 9  22023917.056 6         0.000 6      1967.949 6        37.977 6
G16  20501579.804 9 107736508.718 9       590.481 9        55.975 9  20501578.978 6         0.000 6       460.115 6        37.977 6
G26  20643186.793 9 108480656.572 9     -1446.953 9        55.878 9  20643189.605 6         0.000 6     -1127.496 6        37.977 6
G20  21963768.002 9 115420346.591 9      2584.465 9        55.308 9  21963768.335 6         0.000 6      2013.870 6        37.977 6
> 2019 07 03 12 00 20.0000000  0  8       0.000000000000
G07  25363521.275 9 133286157.665 9      2196.109 9        54.126 9  25363521.954 6         0.000 6      1711.255 6        37.977 6
G10  23835980.457 9 125258867.633 9      3547.363 9        54.660 9  23835984.210 6         0.000 6      2764.182 6        37.977 6
G21  21161565.757 9 111204757.976 9     -1249.562 9        55.713 9  21161565.041 6         0.000 6      -973.685 6        37.977 6
G29  24276426.889 9 127573428.365 9     -3144.701 9        54.483 9  24276428.439 6         0.000 6     -2450.419 6        37.977 6
G27  22023434.530 9 115733902.488 9      2525.457 9        55.367 9  22023436.470 6         0.000 6      1967.889 6        37.977 6
G16  20501467.492 9 107735918.516 9       589.923 9        55.975 9  20501466.666 6         0.000 6       459.680 6        37.977 6
G26  20643462.223 9 108482103.967 9     -1447.837 9        55.878 9  20643465.035 6         0.000 6     -1128.185 6        37.977 6
G20  21963276.282 9 115417762.589 9      2583.556 9        55.308 9  21963276.614 6         0.000 6      2013.162 6        37.977 6
> 2019 07 03 12 00 21.0000000  0  8       0.000000000000
G07  25363103.364 9 133283961.531 9      2196.114 9        54.126 9  25363104.042 6         0.000 6      1711.258 6        37.977 6
G10  23835305.477 9 125255320.602 9      3546.771 9        54.660 9  23835309.229 6         0.000 6      2763.720 6        37.977 6
G21  21161803.568 9 111206007.683 9     -1249.866 9        55.713 9  21161802.852 6         0.000 6      -973.922 6        37.977 6
G29  24277025.314 9 127576573.101 9     -3144.791 9        54.483 9  24277026.865 6         0.000 6     -2450.489 6        37.977 6
G27  22022953.963 9 115731377.093 9      2525.324 9        55.367 9  22022955.902 6         0.000 6      1967.786 6        37.977 6
G16  20501355.288 9 107735328.878 9       589.346 9        55.975 9  20501354.461 6         0.000 6       459.231 6        37.977 6
G26  20643737.814 9 108483552.204 9     -1448.619 9        55.878 9  20643740.626 6         0.000 6     -1128.794 6        37.977 6
G20  21962784.723 9 115415179.432 9      2582.800 9        55.308 9  21962785.055 6         0.000 6      2012.573 6        37.977 6
> 2019 07 03 12 00 22.0000000  0  8       0.000000000000
G07  25362685.472 9 133281765.499 9      2195.743 9        54.126 9  25362686.150 6         0.000 6      1710.969 6        37.977 6
G10  23834630.587 9 125251774.041 9      3546.534 9        54.660 9  23834634.339 6         0.000 6      2763.535 6        37.977 6
G21  21162041.452 9 111207257.768 9     -1250.169 9        55.713 9  21162040.736 6         0.000 6      -974.158 6        37.977 6
G29  24277623.781 9 127579718.053 9     -3144.735 9        54.483 9  24277625.332 6         0.000 6     -2450.445 6        37.977 6
G27  22022473.410 9 115728851.775 9      2525.006 9        55.367 9  22022475.349 6         0.000 6      1967.538 6        37.977 6
G16  20501243.188 9 107734739.788 9       588.693 9        55.975 9  20501242.361 6         0.000 6       458.722 6        37.977 6
G26  20644013.537 9 108485001.140 9     -1449.272 9        55.877 9  20644016.350 6         0.000 6     -1129.303 6        37.977 6
G20  21962293.299 9 115412596.987 9      2582.327 9        55.308 9  21962293.630 6         0.000 6      2012.204 6        37.977 6
> 2019 07 03 12 00 23.0000000  0  8       0.000000000000
G07  25362267.970 9 133279571.514 9      2192.435 9        54.126 9  25362268.648 6         0.000 6      1708.392 6        37.977 6
G10  23833955.540 9 125248226.656 9      3547.967 9        54.660 9  23833959.291 6         0.000 6      2764.653 6        37.977 6
G21  21162279.116 9 111208506.700 9     -1247.424 9        55.713 9  21162278.400 6         0.000 6      -972.019 6        37.977 6
G29  24278221.433 9 127582858.724 9     -3136.025 9        54.483 9  24278222.984 6         0.000 6     -2443.659 6        37.977 6
G27  22021993.531 9 115726329.994 9      2518.202 9        55.367 9  22021995.470 6         0.000 6      1962.236 6        37.977 6
G16  20501131.504 9 107734152.885 9       584.922 9        55.975 9  20501130.677 6         0.000 6       455.783 6        37.977 6
G26  20644289.487 9 108486451.262 9     -1451.260 9        55.877 9  20644292.299 6         0.000 6     -1130.852 6        37.977 6
G20  21961801.598 9 115410013.088 9      2585.452 9        55.309 9  21961801.930 6         0.000 6      2014.639 6        37.977 6
> 2019 07 03 12 00 24.0000000  0  8       0.000000000000
G07  25361850.831 9 133277379.440 9      2192.503 9        54.126 9  25361851.509 6         0.000 6      1708.445 6        37.977 6
G10  23833280.506 9 125244679.338 9      3545.942 9        54.661 9  23833284.256 6         0.000 6      2763.074 6        37.977 6
G21  21162516.169 9 111209752.420 9     -1243.991 9        55.713 9  21162515.453 6         0.000 6      -969.344 6        37.977 6
G29  24278817.307 9 127585990.056 9     -3126.898 9        54.482 9  24278818.859 6         0.000 6     -2436.546 6        37.977 6
G27  22021514.965 9 115723815.118 9      2511.901 9        55.368 9  22021516.904 6         0.000 6      1957.326 6        37.977 6
G16  20501020.560 9 107733569.869 9       581.250 9        55.975 9  20501019.733 6         0.000 6       452.922 6        37.977 6
G26  20644565.977 9 108487904.226 9     -1454.959 9        55.877 9  20644568.790 6         0.000 6     -1133.735 6        37.977 6
G20  21961309.463 9 115407426.905 9      2586.351 9        55.309 9  21961309.794 6         0.000 6      2015.340 6        37.977 6
> 2019 07 03 12 00 25.0000000  0  8       0.000000000000
G07  25361433.016 9 133275183.807 9      2199.590 9        54.127 9  25361433.693 6         0.000 6      1713.968 6        37.977 6
G10  23832606.505 9 125241137.448 9      3537.195 9        54.661 9  23832610.254 6         0.000 6      2756.259 6        37.977 6
G21  21162752.516 9 111210994.436 9     -1240.371 9        55.713 9  21162751.801 6         0.000 6      -966.523 6        37.977 6
G29  24279411.575 9 127589112.944 9     -3120.019 9        54.482 9  24279413.128 6         0.000 6     -2431.186 6        37.977 6
G27  22021037.356 9 115721305.265 9      2508.748 9        55.368 9  22021039.294 6         0.000 6      1954.870 6        37.977 6
G16  20500910.221 9 107732990.036 9       578.846 9        55.975 9  20500909.394 6         0.000 6       451.049 6        37.977 6
G26  20644843.439 9 108489362.296 9     -1461.225 9        55.877 9  20644846.252 6         0.000 6     -1138.617 6        37.977 6
G20  21960817.632 9 115404842.318 9      2582.063 9        55.309 9  21960817.963 6         0.000 6      2011.998 6        37.977 6
> 2019 07 03 12 00 26.0000000  0  8       0.000000000000
G07  25361014.141 9 133272982.608 9      2202.017 9        54.127 9  25361014.818 6         0.000 6      1715.858 6        37.977 6
G10  23831933.785 9 125237602.291 9      3533.982 9        54.661 9  23831937.533 6         0.000 6      2753.755 6        37.977 6
G21  21162988.475 9 111212234.407 9     -1239.791 9        55.712 9  21162987.759 6         0.000 6      -966.071 6        37.977 6
G29  24280005.163 9 127592232.260 9     -3118.874 9        54.482 9  24280006.716 6         0.000 6     -2430.294 6        37.977 6
G27  22020559.992 9 115718796.705 9      2508.356 9        55.368 9  22020561.931 6         0.000 6      1954.564 6        37.977 6
G16  20500800.151 9 107732411.613 9       578.026 9        55.975 9  20500799.324 6         0.000 6       450.410 6        37.977 6
G26  20645121.763 9 108490824.898 9     -1463.531 9        55.877 9  20645124.576 6         0.000 6     -1140.414 6        37.977 6
G20  21960326.536 9 115402261.598 9      2579.888 9        55.309 9  21960326.867 6         0.000 6      2010.303 6        37.977 6
> 2019 07 03 12 00 27.0000000  0  8       0.000000000000
G07  25360595.113 9 133270780.605 9      2201.843 9        54.127 9  25360595.790 6         0.000 6      1715.723 6        37.977 6
G10  23831261.354 9 125234068.655 9      3533.477 9        54.661 9  23831265.102 6         0.000 6      2753.362 6        37.977 6
G21  21163224.403 9 111213474.217 9     -1239.874 9        55.712 9  21163223.688 6         0.000 6      -966.135 6        37.977 6
G29  24280598.612 9 127595350.846 9     -3118.376 9        54.482 9  24280600.166 6         0.000 6     -2429.906 6        37.977 6
G27  22020082.722 9 115716288.634 9      2507.795 9        55.368 9  22020084.660 6         0.000 6      1954.126 6        37.977 6
G16  20500690.233 9 107731833.988 9       577.235 9        55.975 9  20500689.406 6         0.000 6       449.794 6        37.977 6
G26  20645400.357 9 108492288.919 9     -1464.421 9        55.877 9  20645403.170 6         0.000 6     -1141.108 6        37.977 6
G20  21959835.659 9 115399682.026 9      2579.363 9        55.309 9  21959835.989 6         0.000 6      2009.894 6        37.977 6
> 2019 07 03 12 00 28.0000000  0  8       0.000000000000
G07  25360176.169 9 133268579.044 9      2201.274 9        54.127 9  25360176.846 6         0.000 6      1715.280 6        37.977 6
G10  23830588.964 9 125230535.233 9      3533.399 9        54.662 9  23830592.711 6         0.000 6      2753.301 6        37.977 6
G21  21163460.363 9 111214714.195 9     -1240.101 9        55.712 9  21163459.648 6         0.000 6      -966.313 6        37.977 6
G29  24281191.989 9 127598469.054 9     -3118.083 9        54.482 9  24281193.544 6         0.000 6     -2429.678 6        37.977 6
G27  22019605.554 9 115713781.105 9      2507.278 9        55.368 9  22019607.492 6         0.000 6      1953.724 6        37.977 6
G16  20500580.460 9 107731257.129 9       576.484 9        55.975 9  20500579.633 6         0.000 6       449.208 6        37.977 6
G26  20645679.089 9 108493753.663 9     -1465.065 9        55.877 9  20645681.902 6         0.000 6     -1141.609 6        37.977 6
G20  21959344.850 9 115397102.814 9      2579.068 9        55.310 9  21959345.181 6         0.000 6      2009.665 6        37.977 6
> 2019 07 03 12 00 29.0000000  0  8       0.000000000000
G07  25359757.334 9 133266378.056 9      2200.717 9        54.127 9  25359758.011 6         0.000 6      1714.845 6        37.977 6
G10  23829916.587 9 125227001.876 9      3533.330 9        54.662 9  23829920.333 6         0.000 6      2753.247 6        37.977 6
G21  21163696.372 9 111215954.429 9     -1240.382 9        55.712 9  21163695.657 6         0.000 6      -966.531 6        37.977 6
G29  24281785.323 9 127601587.035 9     -3117.926 9        54.481 9  24281786.879 6         0.000 6     -2429.555 6        37.977 6
G27  22019128.477 9 115711274.050 9      2506.854 9        55.369 9  22019130.415 6         0.000 6      1953.394 6        37.977 6
G16  20500470.826 9 107730681.001 9       575.779 9        55.975 9  20500470.000 6         0.000 6       448.659 6        37.977 6
G26  20645957.940 9 108495219.030 9     -1465.671 9        55.877 9  20645960.753 6         0.000 6     -1142.082 6        37.977 6
G20  21958854.100 9 115394523.908 9      2578.741 9        55.310 9  21958854.430 6         0.000 6      2009.410 6        37.977 6
> 2019 07 03 12 00 30.0000000  0  8       0.000000000000
G07  25359338.602 9 133264177.610 9      2200.192 9        54.127 9  25359339.279 6         0.000 6      1714.436 6        37.977 6
G10  23829244.224 9 125223468.598 9      3533.243 9        54.662 9  23829247.970 6         0.000 6      2753.179 6        37.977 6
G21  21163932.438 9 111217194.962 9     -1240.686 9        55.712 9  21163931.722 6         0.000 6      -966.769 6        37.977 6
G29  24282378.636 9 127604704.906 9     -3117.851 9        54.481 9  24282380.192 6         0.000 6     -2429.497 6        37.977 6
G27  22018651.474 9 115708767.385 9      2506.498 9        55.369 9  22018653.412 6         0.000 6      1953.116 6        37.977 6
G16  20500361.324 9 107730105.563 9       575.108 9        55.975 9  20500360.497 6         0.000 6       448.136 6        37.977 6
G26  20646236.904 9 108496684.998 9     -1466.262 9        55.877 9  20646239.718 6         0.000 6     -1142.542 6        37.977 6
G20  21958363.416 9 115391945.350 9      2578.379 9        55.310 9  21958363.746 6         0.000 6      2009.128 6        37.977 6
> 2019 07 03 12 00 31.0000000  0  8       0.000000000000
G07  25358919.968 9 133261977.675 9      2199.688 9        54.127 9  25358920.644 6         0.000 6      1714.044 6        37.977 6
G10  23828571.880 9 125219935.417 9      3533.141 9        54.662 9  23828575.625 6         0.000 6      2753.099 6        37.977 6
G21  21164168.564 9 111218435.811 9     -1241.014 9        55.712 9  21164167.848 6         0.000 6      -967.024 6        37.977 6
G29  24282971.941 9 127607822.733 9     -3117.833 9        54.481 9  24282973.498 6         0.000 6     -2429.483 6        37.977 6
G27  22018174.534 9 115706261.052 9      2506.182 9        55.369 9  22018176.472 6         0.000 6      1952.870 6        37.977 6
G16  20500251.947 9 107729530.783 9       574.456 9        55.975 9  20500251.121 6         0.000 6       447.628 6        37.977 6
G26  20646515.981 9 108498151.553 9     -1466.847 9        55.876 9  20646518.794 6         0.000 6     -1142.998 6        37.977 6
G20  21957872.803 9 115389367.169 9      2577.990 9        55.310 9  21957873.133 6         0.000 6      2008.825 6        37.977 6
> 2019 07 03 12 00 32.0000000  0  8       0.000000000000
G07  25358501.428 9 133259778.236 9      2199.203 9        54.128 9  25358502.104 6         0.000 6      1713.666 6        37.977 6
G10  23827899.556 9 125216402.343 9      3533.023 9        54.663 9  23827903.301 6         0.000 6      2753.007 6        37.977 6
G21  21164404.753 9 111219676.993 9     -1241.356 9        55.712 9  21164404.037 6         0.000 6      -967.290 6        37.977 6
G29  24283565.246 9 127610940.563 9     -3117.852 9        54.481 9  24283566.803 6         0.000 6     -2429.498 6        37.977 6
G27  22017697.651 9 115703755.019 9      2505.892 9        55.369 9  22017699.589 6         0.000 6      1952.644 6        37.977 6
G16  20500142.693 9 107728956.648 9       573.813 9        55.975 9  20500141.866 6         0.000 6       447.127 6        37.977 6
G26  20646795.168 9 108499618.689 9     -1467.435 9        55.876 9  20646797.981 6         0.000 6     -1143.456 6        37.977 6
G20  21957382.267 9 115386789.386 9      2577.579 9        55.310 9  21957382.596 6         0.000 6      2008.504 6        37.977 6
> 2019 07 03 12 00 33.0000000  0  8       0.000000000000
G07  25358082.972 9 133257579.237 9      2198.846 9        54.128 9  25358083.648 6         0.000 6      1713.387 6        37.977 6
G10  23827227.261 9 125212869.417 9      3532.824 9        54.663 9  23827231.005 6         0.000 6      2752.853 6        37.977 6
G21  21164641.013 9 111220918.550 9     -1241.792 9        55.712 9  21164640.298 6         0.000 6      -967.631 6        37.977 6
G29  24284158.574 9 127614058.511 9     -3118.166 9        54.480 9  24284160.132 6         0.000 6     -2429.743 6        37.977 6
G27  22017220.809 9 115701249.199 9      2505.835 9        55.369 9  22017222.746 6         0.000 6      1952.599 6        37.977 6
G16  20500033.554 9 107728383.119 9       573.285 9        55.975 9  20500032.727 6         0.000 6       446.716 6        37.977 6
G26  20647074.465 9 108501086.403 9     -1467.982 9        55.876 9  20647077.279 6         0.000 6     -1143.883 6        37.977 6
G20  21956891.817 9 115384212.062 9      2577.031 9        55.311 9  21956892.146 6         0.000 6      2008.077 6        37.977 6
> 2019 07 03 12 00 34.0000000  0  8       0.000000000000
G07  25357664.563 9 133255380.485 9      2198.678 9        54.128 9  25357665.238 6         0.000 6      1713.256 6        37.977 6
G10  23826555.017 9 125209336.764 9      3532.493 9        54.663 9  23826558.761 6         0.000 6      2752.595 6        37.977 6
G21  21164877.373 9 111222160.626 9     -1242.372 9        55.712 9  21164876.658 6         0.000 6      -968.083 6        37.977 6
G29  24284752.008 9 127617177.015 9     -3118.894 9        54.480 9  24284753.566 6         0.000 6     -2430.310 6        37.977 6
G27  22016743.942 9 115698743.249 9      2506.094 9        55.369 9  22016745.879 6         0.000 6      1952.801 6        37.977 6
G16  20499924.499 9 107727810.030 9       572.904 9        55.975 9  20499923.672 6         0.000 6       446.418 6        37.977 6
G26  20647353.862 9 108502554.642 9     -1468.495 9        55.876 9  20647356.675 6         0.000 6     -1144.282 6        37.977 6
G20  21956401.495 9 115381635.407 9      2576.273 9        55.311 9  21956401.824 6         0.000 6      2007.487 6        37.977 6
> 2019 07 03 12 00 35.0000000  0  8       0.000000000000
G07  25357246.192 9 133253181.936 9      2197.897 9        54.128 9  25357246.867 6         0.000 6      1712.648 6        37.977 6
G10  23825882.829 9 125205804.401 9      3532.786 9        54.663 9  23825886.572 6         0.000 6      2752.823 6        37.977 6
G21  21165113.848 9 111223403.308 9     -1243.061 9        55.712 9  21165113.132 6         0.000 6      -968.619 6        37.977 6
G29  24285345.590 9 127620296.301 9     -3119.662 9        54.480 9  24285347.149 6         0.000 6     -2430.908 6        37.977 6
G27  22016267.021 9 115696237.013 9      2506.239 9        55.370 9  22016268.958 6         0.000 6      1952.914 6        37.977 6
G16  20499815.513 9 107727237.307 9       572.496 9        55.975 9  20499814.686 6         0.000 6       446.101 6        37.977 6
G26  20647633.350 9 108504023.359 9     -1468.703 9        55.876 9  20647636.164 6         0.000 6     -1144.445 6        37.977 6
G20  21955911.315 9 115379059.496 9      2575.928 9        55.311 9  21955911.643 6         0.000 6      2007.218 6        37.977 6
> 2019 07 03 12 00 36.0000000  0  8       0.000000000000
G07  25356827.194 9 133250980.093 9      2207.752 9        54.128 9  25356827.870 6         0.000 6      1720.327 6        37.977 6
G10  23825211.355 9 125202275.790 9      3522.604 9        54.664 9  23825215.097 6         0.000 6      2744.889 6        37.977 6
G21  21165350.358 9 111224646.180 9     -1242.681 9        55.712 9  21165349.643 6         0.000 6      -968.323 6        37.977 6
G29  24285939.382 9 127623416.690 9     -3121.887 9        54.480 9  24285940.942 6         0.000 6     -2432.642 6        37.977 6
G27  22015789.848 9 115693729.459 9      2509.832 9        55.370 9  22015791.785 6         0.000 6      1955.714 6        37.977 6
G16  20499706.529 9 107726664.592 9       573.325 9        55.976 9  20499705.702 6         0.000 6       446.747 6        37.977 6
G26  20647913.221 9 108505494.090 9     -1473.441 9        55.876 9  20647916.035 6         0.000 6     -1148.136 6        37.977 6
G20  21955421.739 9 115376486.762 9      2568.085 9        55.311 9  21955422.067 6         0.000 6      2001.106 6        37.977 6
> 2019 07 03 12 00 37.0000000  0  8       0.000000000000
G07  25356405.812 9 133248765.717 9      2220.922 9        54.128 9  25356406.487 6         0.000 6      1730.589 6        37.977 6
G10  23824542.255 9 125198759.659 9      3509.909 9        54.664 9  23824545.997 6         0.000 6      2734.997 6        37.977 6
G21  21165586.921 9 111225889.326 9     -1244.014 9        55.711 9  21165586.206 6         0.000 6      -969.362 6        37.977 6
G29  24286534.101 9 127626541.949 9     -3129.615 9        54.480 9  24286535.661 6         0.000 6     -2438.664 6        37.977 6
G27  22015311.537 9 115691215.920 9      2517.877 9        55.370 9  22015313.474 6         0.000 6      1961.983 6        37.977 6
G16  20499597.183 9 107726089.974 9       576.230 9        55.976 9  20499596.356 6         0.000 6       449.011 6        37.977 6
G26  20648194.075 9 108506969.986 9     -1478.011 9        55.876 9  20648196.889 6         0.000 6     -1151.697 6        37.977 6
G20  21954934.095 9 115373924.177 9      2556.977 9        55.311 9  21954934.422 6         0.000 6      1992.451 6        37.977 6
> 2019 07 03 12 00 38.0000000  0  8       0.000000000000
G07  25355981.884 9 133246537.967 9      2232.575 9        54.128 9  25355982.559 6         0.000 6      1739.669 6        37.977 6
G10  23823875.496 9 125195255.825 9      3499.656 9        54.664 9  23823879.236 6         0.000 6      2727.007 6        37.977 6
G21  21165824.042 9 111227135.403 9     -1248.074 9        55.711 9  21165823.327 6         0.000 6      -972.525 6        37.977 6
G29  24287131.057 9 127629678.962 9     -3143.475 9        54.479 9  24287132.618 6         0.000 6     -2449.464 6        37.977 6
G27  22014831.173 9 115688691.592 9      2529.671 9        55.370 9  22014833.110 6         0.000 6      1971.173 6        37.977 6
G16  20499487.024 9 107725511.082 9       581.086 9        55.976 9  20499486.197 6         0.000 6       452.794 6        37.977 6
G26  20648475.576 9 108508449.282 9     -1479.948 9        55.876 9  20648478.390 6         0.000 6     -1153.206 6        37.977 6
G20  21954448.730 9 115371373.575 9      2545.774 9        55.311 9  21954449.058 6         0.000 6      1983.721 6        37.977 6
> 2019 07 03 12 00 39.0000000  0  8       0.000000000000
G07  25355556.845 9 133244304.374 9      2234.046 9        54.129 9  25355557.520 6         0.000 6      1740.816 6        37.977 6
G10  23823209.726 9 125191757.195 9      3498.063 9        54.664 9  23823213.466 6         0.000 6      2725.766 6        37.977 6
G21  21166061.701 9 111228384.308 9     -1249.442 9        55.711 9  21166060.986 6         0.000 6      -973.591 6        37.977 6
G29  24287729.645 9 127632824.554 9     -3146.784 9        54.479 9  24287731.206 6         0.000 6     -2452.042 6        37.977 6
G27  22014349.495 9 115686160.361 9      2532.033 9        55.370 9  22014351.432 6         0.000 6      1973.013 6        37.977 6
G16  20499376.357 9 107724929.523 9       581.676 9        55.976 9  20499375.530 6         0.000 6       453.254 6        37.977 6
G26  20648757.244 9 108509929.455 9     -1480.428 9        55.875 9  20648760.058 6         0.000 6     -1153.581 6        37.977 6
G20  21953964.562 9 115368829.258 9      2543.434 9        55.312 9  21953964.889 6         0.000 6      1981.897 6        37.977 6
> 2019 07 03 12 00 40.0000000  0  8       0.000000000000
G07  25355131.722 9 133242070.342 9      2233.949 9        54.129 9  25355132.397 6         0.000 6      1740.740 6        37.977 6
G10  23822544.113 9 125188259.385 9      3497.632 9        54.665 9  23822547.853 6         0.000 6      2725.430 6        37.977 6
G21  21166299.511 9 111229634.010 9     -1249.912 9        55.711 9  21166298.796 6         0.000 6      -973.958 6        37.977 6
G29  24288328.520 9 127635971.654 9     -3147.286 9        54.479 9  24288330.082 6         0.000 6     -2452.433 6        37.977 6
G27  22013867.643 9 115683628.212 9      2532.153 9        55.371 9  22013869.579 6         0.000 6      1973.107 6        37.977 6
G16  20499265.706 9 107724348.051 9       581.215 9        55.976 9  20499264.879 6         0.000 6       452.895 6        37.977 6
G26  20649039.018 9 108511410.187 9     -1481.050 9        55.875 9  20649041.832 6         0.000 6     -1154.066 6        37.977 6
G20  21953480.642 9 115366286.246 9      2542.680 9        55.312 9  21953480.969 6         0.000 6      1981.310 6        37.977 6
> 2019 07 03 12 00 41.0000000  0  8       0.000000000000
G07  25354706.646 9 133239836.553 9      2233.620 9        54.129 9  25354707.320 6         0.000 6      1740.484 6        37.977 6
G10  23821878.562 9 125184761.900 9      3497.376 9        54.665 9  23821882.301 6         0.000 6      2725.231 6        37.977 6
G21  21166537.397 9 111230884.106 9     -1250.274 9        55.711 9  21166536.682 6         0.000 6      -974.239 6        37.977 6
G29  24288927.443 9 127639119.005 9     -3147.423 9        54.479 9  24288929.006 6         0.000 6     -2452.540 6        37.977 6
G27  22013385.807 9 115681096.147 9      2531.973 9        55.371 9  22013387.743 6         0.000 6      1972.966 6        37.977 6
G16  20499155.162 9 107723767.137 9       580.612 9        55.976 9  20499154.335 6         0.000 6       452.425 6        37.977 6
G26  20649320.913 9 108512891.556 9     -1481.683 9        55.875 9  20649323.728 6         0.000 6     -1154.558 6        37.977 6
G20  21952996.839 9 115363743.846 9      2542.148 9        55.312 9  21952997.165 6         0.000 6      1980.895 6        37.977 6
> 2019 07 03 12 00 42.0000000  0  8       0.000000000000
G07  25354281.638 9 133237603.124 9      2233.235 9        54.129 9  25354282.311 6         0.000 6      1740.184 6        37.977 6
G10  23821213.054 9 125181264.641 9      3497.172 9        54.665 9  23821216.792 6         0.000 6      2725.072 6        37.977 6
G21  21166775.349 9 111232134.551 9     -1250.625 9        55.711 9  21166774.634 6         0.000 6      -974.513 6        37.977 6
G29  24289526.386 9 127642266.464 9     -3147.517 9        54.479 9  24289527.950 6         0.000 6     -2452.613 6        37.977 6
G27  22012904.009 9 115678564.285 9      2531.752 9        55.371 9  22012905.945 6         0.000 6      1972.795 6        37.977 6
G16  20499044.734 9 107723186.833 9       579.992 9        55.976 9  20499043.907 6         0.000 6       451.942 6        37.977 6
G26  20649602.927 9 108514373.545 9     -1482.299 9        55.875 9  20649605.741 6         0.000 6     -1155.039 6        37.977 6
G20  21952513.130 9 115361201.947 9      2541.663 9        55.312 9  21952513.457 6         0.000 6      1980.518 6        37.977 6
> 2019 07 03 12 00 43.0000000  0  8       0.000000000000
G07  25353856.705 9 133235370.090 9      2232.831 9        54.129 9  25353857.378 6         0.000 6      1739.869 6        37.977 6
G10  23820547.582 9 125177767.575 9      3496.986 9        54.665 9  23820551.320 6         0.000 6      2724.927 6        37.977 6
G21  21167013.369 9 111233385.353 9     -1250.981 9        55.711 9  21167012.654 6         0.000 6      -974.790 6        37.977 6
G29  24290125.349 9 127645414.024 9     -3147.613 9        54.478 9  24290126.913 6         0.000 6     -2452.688 6        37.977 6
G27  22012422.253 9 115676032.642 9      2531.528 9        55.371 9  22012424.188 6         0.000 6      1972.620 6        37.977 6
G16  20498934.423 9 107722607.148 9       579.371 9        55.976 9  20498933.596 6         0.000 6       451.458 6        37.977 6
G26  20649885.057 9 108515856.147 9     -1482.908 9        55.875 9  20649887.872 6         0.000 6     -1155.513 6        37.977 6
G20  21952029.514 9 115358660.528 9      2541.190 9        55.312 9  21952029.840 6         0.000 6      1980.149 6        37.977 6
> 2019 07 03 12 00 44.0000000  0  8       0.000000000000
G07  25353431.851 9 133233137.475 9      2232.400 9        54.129 9  25353432.525 6         0.000 6      1739.534 6        37.977 6
G10  23819882.144 9 125174270.683 9      3496.828 9        54.666 9  23819885.881 6         0.000 6      2724.803 6        37.977 6
G21  21167251.456 9 111234636.513 9     -1251.335 9        55.711 9  21167250.741 6         0.000 6      -975.066 6        37.977 6
G29  24290724.328 9 127648561.671 9     -3147.702 9        54.478 9  24290725.893 6         0.000 6     -2452.757 6        37.977 6
G27  22011940.541 9 115673501.236 9      2531.295 9        55.371 9  22011942.477 6         0.000 6      1972.438 6        37.977 6
G16  20498824.233 9 107722028.093 9       578.748 9        55.976 9  20498823.406 6         0.000 6       450.972 6        37.977 6
G26  20650167.303 9 108517339.356 9     -1483.504 9        55.875 9  20650170.117 6         0.000 6     -1155.978 6        37.977 6
G20  21951545.985 9 115356119.573 9      2540.738 9        55.313 9  21951546.311 6         0.000 6      1979.797 6        37.977 6
> 2019 07 03 12 00 45.0000000  0  8       0.000000000000
G07  25353007.082 9 133230905.298 9      2231.968 9        54.129 9  25353007.755 6         0.000 6      1739.197 6        37.977 6
G10  23819216.734 9 125170773.944 9      3496.669 9        54.666 9  23819220.471 6         0.000 6      2724.679 6        37.977 6
G21  21167489.612 9 111235888.029 9     -1251.696 9        55.711 9  21167488.897 6         0.000 6      -975.348 6        37.977 6
G29  24291323.325 9 127651709.408 9     -3147.797 9        54.478 9  24291324.890 6         0.000 6     -2452.831 6        37.977 6
G27  22011458.875 9 115670970.064 9      2531.061 9        55.372 9  22011460.810 6         0.000 6      1972.256 6        37.977 6
G16  20498714.161 9 107721449.661 9       578.122 9        55.976 9  20498713.334 6         0.000 6       450.484 6        37.977 6
G26  20650449.661 9 108518823.158 9     -1484.102 9        55.875 9  20650452.476 6         0.000 6     -1156.444 6        37.977 6
G20  21951062.542 9 115353579.065 9      2540.283 9        55.313 9  21951062.867 6         0.000 6      1979.442 6        37.977 6
> 2019 07 03 12 00 46.0000000  0  8       0.000000000000
G07  25352582.394 9 133228673.555 9      2231.521 9        54.130 9  25352583.067 6         0.000 6      1738.848 6        37.977 6
G10  23818551.354 9 125167277.357 9      3496.524 9        54.666 9  23818555.089 6         0.000 6      2724.567 6        37.977 6
G21  21167727.836 9 111237139.902 9     -1252.058 9        55.711 9  21167727.121 6         0.000 6      -975.630 6        37.977 6
G29  24291922.340 9 127654857.245 9     -3147.888 9        54.478 9  24291923.906 6         0.000 6     -2452.902 6        37.977 6
G27  22010977.251 9 115668439.118 9      2530.822 9        55.372 9  22010979.186 6         0.000 6      1972.070 6        37.977 6
G16  20498604.206 9 107720871.847 9       577.493 9        55.976 9  20498603.379 6         0.000 6       449.995 6        37.977 6
G26  20650732.132 9 108520307.550 9     -1484.695 9        55.875 9  20650734.947 6         0.000 6     -1156.905 6        37.977 6
G20  21950579.184 9 115351039.008 9      2539.838 9        55.313 9  21950579.509 6         0.000 6      1979.096 6        37.977 6
> 2019 07 03 12 00 47.0000000  0  8       0.000000000000
G07  25352157.792 9 133226442.260 9      2231.068 9        54.130 9  25352158.465 6         0.000 6      1738.496 6        37.977 6
G10  23817886.001 9 125163780.917 9      3496.388 9        54.666 9  23817889.736 6         0.000 6      2724.461 6        37.977 6
G21  21167966.129 9 111238392.138 9     -1252.415 9        55.710 9  21167965.414 6         0.000 6      -975.908 6        37.977 6
G29  24292521.372 9 127658005.167 9     -3147.978 9        54.477 9  24292522.938 6         0.000 6     -2452.973 6        37.977 6
G27  22010495.674 9 115665908.418 9      2530.586 9        55.372 9  22010497.609 6         0.000 6      1971.886 6        37.977 6
G16  20498494.372 9 107720294.666 9       576.871 9        55.976 9  20498493.546 6         0.000 6       449.510 6        37.977 6
G26  20651014.716 9 108521792.538 9     -1485.277 9        55.875 9  20651017.531 6         0.000 6     -1157.359 6        37.977 6
G20  21950095.911 9 115348499.397 9      2539.402 9        55.313 9  21950096.236 6         0.000 6      1978.756 6        37.977 6
> 2019 07 03 12 00 48.0000000  0  8       0.000000000000
G07  25351733.302 9 133224211.553 9      2230.285 9        54.130 9  25351733.975 6         0.000 6      1737.885 6        37.977 6
G10  23817220.649 9 125160284.476 9      3496.582 9        54.667 9  23817224.383 6         0.000 6      2724.612 6        37.977 6
G21  21168204.493 9 111239644.751 9     -1252.825 9        55.710 9  21168203.778 6         0.000 6      -976.228 6        37.977 6
G29  24293120.420 9 127661153.180 9     -3148.065 9        54.477 9  24293121.988 6         0.000 6     -2453.040 6        37.977 6
G27  22010014.148 9 115663377.984 9      2530.267 9        55.372 9  22010016.083 6         0.000 6      1971.638 6        37.977 6
G16  20498384.658 9 107719718.115 9       576.221 9        55.976 9  20498383.832 6         0.000 6       449.004 6        37.977 6
G26  20651297.398 9 108523278.043 9     -1485.709 9        55.874 9  20651300.214 6         0.000 6     -1157.696 6        37.977 6
G20  21949612.704 9 115345960.128 9      2539.188 9        55.313 9  21949613.028 6         0.000 6      1978.589 6        37.977 6
> 2019 07 03 12 00 49.0000000  0  8       0.000000000000
G07  25351308.991 9 133221981.788 9      2229.226 9        54.130 9  25351309.664 6         0.000 6      1737.060 6        37.977 6
G10  23816555.230 9 125156787.685 9      3497.050 9        54.667 9  23816558.963 6         0.000 6      2724.977 6        37.977 6
G21  21168442.941 9 111240897.804 9     -1253.279 9        55.710 9  21168442.226 6         0.000 6      -976.581 6        37.977 6
G29  24293719.485 9 127664301.276 9     -3148.145 9        54.477 9  24293721.053 6         0.000 6     -2453.103 6        37.977 6
G27  22009532.691 9 115660847.911 9      2529.879 9        55.372 9  22009534.626 6         0.000 6      1971.335 6        37.977 6
G16  20498275.071 9 107719142.232 9       575.548 9        55.976 9  20498274.245 6         0.000 6       448.479 6        37.977 6
G26  20651580.150 9 108524763.913 9     -1486.016 9        55.874 9  20651582.966 6         0.000 6     -1157.935 6        37.977 6
G20  21949129.517 9 115343420.970 9      2539.160 9        55.314 9  21949129.841 6         0.000 6      1978.567 6        37.977 6
> 2019 07 03 12 00 50.0000000  0  8       0.000000000000
G07  25350884.859 9 133219752.960 9      2229.527 9        54.130 9  25350885.531 6         0.000 6      1737.294 6        37.977 6
G10  23815889.736 9 125153290.505 9      3496.625 9        54.667 9  23815893.469 6         0.000 6      2724.645 6        37.977 6
G21  21168681.493 9 111242151.401 9     -1254.806 9        55.710 9  21168680.778 6         0.000 6      -977.771 6        37.977 6
G29  24294318.618 9 127667449.732 9     -3151.385 9        54.477 9  24294320.187 6         0.000 6     -2455.627 6        37.977 6
G27  22009051.266 9 115658318.009 9      2531.917 9        55.373 9  22009053.200 6         0.000 6      1972.923 6        37.977 6
G16  20498165.592 9 107718566.915 9       576.032 9        55.976 9  20498164.765 6         0.000 6       448.856 6        37.977 6
G26  20651862.954 9 108526250.054 9     -1485.967 9        55.874 9  20651865.769 6         0.000 6     -1157.897 6        37.977 6
G20  21948646.361 9 115340881.972 9      2537.627 9        55.314 9  21948646.685 6         0.000 6      1977.373 6        37.977 6
> 2019 07 03 12 00 51.0000000  0  8       0.000000000000
G07  25350460.405 9 133217522.447 9      2230.470 9        54.130 9  25350461.077 6         0.000 6      1738.029 6        37.977 6
G10  23815224.412 9 125149794.211 9      3496.969 9        54.667 9  23815228.144 6         0.000 6      2724.914 6        37.977 6
G21  21168920.776 9 111243408.843 9     -1260.095 9        55.710 9  21168920.061 6         0.000 6      -981.892 6        37.977 6
G29  24294919.550 9 127670607.641 9     -3164.080 9        54.477 9  24294921.119 6         0.000 6     -2465.519 6        37.977 6
G27  22008568.603 9 115655781.598 9      2540.415 9        55.373 9  22008570.537 6         0.000 6      1979.545 6        37.977 6
G16  20498055.605 9 107717988.930 9       579.737 9        55.976 9  20498054.779 6         0.000 6       451.743 6        37.977 6
G26  20652145.500 9 108527734.840 9     -1483.242 9        55.874 9  20652148.315 6         0.000 6     -1155.774 6        37.977 6
G20  21948163.893 9 115338346.591 9      2533.913 9        55.314 9  21948164.217 6         0.000 6      1974.479 6        37.977 6
> 2019 07 03 12 00 52.0000000  0  8       0.000000000000
G07  25350036.461 9 133215294.606 9      2222.939 9        54.130 9  25350037.132 6         0.000 6      1732.161 6        37.977 6
G10  23814558.370 9 125146294.149 9      3505.408 9        54.667 9  23814562.102 6         0.000 6      2731.490 6        37.977 6
G21  21169161.066 9 111244671.575 9     -1265.576 9        55.710 9  21169160.352 6         0.000 6      -986.163 6        37.977 6
G29  24295522.630 9 127673776.837 9     -3173.939 9        54.476 9  24295524.200 6         0.000 6     -2473.202 6        37.977 6
G27  22008084.662 9 115653238.474 9      2545.044 9        55.373 9  22008086.596 6         0.000 6      1983.152 6        37.977 6
G16  20497945.051 9 107717407.960 9       581.914 9        55.976 9  20497944.224 6         0.000 6       453.439 6        37.977 6
G26  20652427.287 9 108529215.641 9     -1477.413 9        55.874 9  20652430.103 6         0.000 6     -1151.231 6        37.977 6
G20  21947681.616 9 115335812.214 9      2536.465 9        55.314 9  21947681.940 6         0.000 6      1976.467 6        37.977 6
> 2019 07 03 12 00 53.0000000  0  8       0.000000000000
G07  25349614.290 9 133213076.089 9      2215.992 9        54.131 9  25349614.962 6         0.000 6      1726.748 6        37.977 6
G10  23813890.485 9 125142784.399 9      3512.073 9        54.668 9  23813894.216 6         0.000 6      2736.683 6        37.977 6
G21  21169402.166 9 111245938.564 9     -1267.726 9        55.710 9  21169401.452 6         0.000 6      -987.839 6        37.977 6
G29  24296126.882 9 127676952.189 9     -3175.860 9        54.476 9  24296128.452 6         0.000 6     -2474.699 6        37.977 6
G27  22007600.390 9 115650693.612 9      2544.508 9        55.373 9  22007602.324 6         0.000 6      1982.734 6        37.977 6
G16  20497834.341 9 107716826.179 9       581.466 9        55.976 9  20497833.514 6         0.000 6       453.090 6        37.977 6
G26  20652708.026 9 108530690.931 9     -1474.353 9        55.874 9  20652710.841 6         0.000 6     -1148.847 6        37.977 6
G20  21947198.493 9 115333273.388 9      2540.085 9        55.314 9  21947198.816 6         0.000 6      1979.288 6        37.977 6
> 2019 07 03 12 00 54.0000000  0  8       0.000000000000
G07  25349192.771 9 133210860.992 9      2214.565 9        54.131 9  25349193.442 6         0.000 6      1725.636 6        37.977 6
G10  23813222.042 9 125139271.720 9      3512.946 9        54.668 9  23813225.772 6         0.000 6      2737.363 6        37.977 6
G21  21169643.470 9 111247206.621 9     -1268.330 9        55.710 9  21169642.755 6         0.000 6      -988.310 6        37.977 6
G29  24296731.256 9 127680128.188 9     -3176.144 9        54.476 9  24296732.827 6         0.000 6     -2474.920 6        37.977 6
G27  22007116.226 9 115648149.313 9      2544.166 9        55.373 9  22007118.159 6         0.000 6      1982.468 6        37.977 6
G16  20497723.753 9 107716245.033 9       580.844 9        55.976 9  20497722.926 6         0.000 6       452.606 6        37.977 6
G26  20652988.574 9 108532165.222 9     -1474.409 9        55.874 9  20652991.390 6         0.000 6     -1148.890 6        37.977 6
G20  21946715.091 9 115330733.096 9      2540.267 9        55.314 9  21946715.413 6         0.000 6      1979.430 6        37.977 6
> 2019 07 03 12 00 55.0000000  0  8       0.000000000000
G07  25348771.403 9 133208646.696 9      2214.060 9        54.131 9  25348772.074 6         0.000 6      1725.242 6        37.977 6
G10  23812553.555 9 125135758.805 9      3512.880 9        54.668 9  23812557.284 6         0.000 6      2737.312 6        37.977 6
G21  21169884.867 9 111248475.170 9     -1268.756 9        55.710 9  21169884.152 6         0.000 6      -988.641 6        37.977 6
G29  24297335.677 9 127683304.431 9     -3176.348 9        54.476 9  24297337.248 6         0.000 6     -2475.079 6        37.977 6
G27  22006632.104 9 115645605.241 9      2543.984 9        55.373 9  22006634.038 6         0.000 6      1982.326 6        37.977 6
G16  20497613.277 9 107715664.481 9       580.259 9        55.976 9  20497612.451 6         0.000 6       452.150 6        37.977 6
G26  20653269.193 9 108533639.881 9     -1474.924 9        55.874 9  20653272.009 6         0.000 6     -1149.292 6        37.977 6
G20  21946231.733 9 115328193.041 9      2539.840 9        55.315 9  21946232.056 6         0.000 6      1979.097 6        37.977 6
> 2019 07 03 12 00 56.0000000  0  8       0.000000000000
G07  25348350.123 9 133206432.855 9      2213.633 9        54.131 9  25348350.794 6         0.000 6      1724.910 6        37.977 6
G10  23811885.090 9 125132246.010 9      3512.728 9        54.668 9  23811888.819 6         0.000 6      2737.193 6        37.977 6
G21  21170126.341 9 111249744.124 9     -1269.157 9        55.710 9  21170125.626 6         0.000 6      -988.954 6        37.977 6
G29  24297940.131 9 127686480.850 9     -3176.515 9        54.476 9  24297941.703 6         0.000 6     -2475.209 6        37.977 6
G27  22006148.018 9 115643061.356 9      2543.794 9        55.374 9  22006149.952 6         0.000 6      1982.178 6        37.977 6
G16  20497502.915 9 107715084.521 9       579.662 9        55.976 9  20497502.088 6         0.000 6       451.685 6        37.977 6
G26  20653549.916 9 108535115.087 9     -1475.492 9        55.873 9  20653552.732 6         0.000 6     -1149.734 6        37.977 6
G20  21945748.463 9 115325653.442 9      2539.363 9        55.315 9  21945748.785 6         0.000 6      1978.726 6        37.977 6
> 2019 07 03 12 00 57.0000000  0  8       0.000000000000
G07  25347928.923 9 133204219.439 9      2213.205 9        54.131 9  25347929.594 6         0.000 6      1724.576 6        37.977 6
G10  23811216.655 9 125128733.370 9      3512.572 9        54.669 9  23811220.383 6         0.000 6      2737.072 6        37.977 6
G21  21170367.890 9 111251013.474 9     -1269.544 9        55.709 9  21170367.176 6         0.000 6      -989.255 6        37.977 6
G29  24298544.615 9 127689657.425 9     -3176.650 9        54.475 9  24298546.188 6         0.000 6     -2475.314 6        37.977 6
G27  22005663.970 9 115640517.668 9      2543.582 9        55.374 9  22005665.903 6         0.000 6      1982.013 6        37.977 6
G16  20497392.666 9 107714505.160 9       579.056 9        55.977 9  20497391.839 6         0.000 6       451.212 6        37.977 6
G26  20653830.747 9 108536590.863 9     -1476.068 9        55.873 9  20653833.563 6         0.000 6     -1150.184 6        37.977 6
G20  21945265.283 9 115323114.318 9      2538.894 9        55.315 9  21945265.605 6         0.000 6      1978.360 6        37.977 6
> 2019 07 03 12 00 58.0000000  0  8       0.000000000000
G07  25347507.806 9 133202006.455 9      2212.768 9        54.131 9  25347508.476 6         0.000 6      1724.236 6        37.977 6
G10  23810548.249 9 125125220.883 9      3512.425 9        54.669 9  23810551.976 6         0.000 6      2736.958 6        37.977 6
G21  21170609.513 9 111252283.209 9     -1269.925 9        55.709 9  21170608.798 6         0.000 6      -989.552 6        37.977 6
G29  24299149.124 9 127692834.129 9     -3176.774 9        54.475 9  24299150.697 6         0.000 6     -2475.411 6        37.977 6
G27  22005179.963 9 115637974.196 9      2543.365 9        55.374 9  22005181.896 6         0.000 6      1981.843 6        37.977 6
G16  20497282.533 9 107713926.407 9       578.450 9        55.977 9  20497281.706 6         0.000 6       450.740 6        37.977 6
G26  20654111.688 9 108538067.215 9     -1476.640 9        55.873 9  20654114.504 6         0.000 6     -1150.629 6        37.977 6
G20  21944782.191 9 115320575.660 9      2538.435 9        55.315 9  21944782.513 6         0.000 6      1978.002 6        37.977 6
> 2019 07 03 12 00 59.0000000  0  8       0.000000000000
G07  25347086.771 9 133199793.909 9      2212.329 9        54.131 9  25347087.441 6         0.000 6      1723.894 6        37.977 6
G10  23809879.870 9 125121708.542 9      3512.276 9        54.669 9  23809883.597 6         0.000 6      2736.842 6        37.977 6
G21  21170851.206 9 111253553.316 9     -1270.304 9        55.709 9  21170850.492 6         0.000 6      -989.847 6        37.977 6
G29  24299753.653 9 127696010.942 9     -3176.883 9        54.475 9  24299755.227 6         0.000 6     -2475.496 6        37.977 6
G27  22004695.999 9 115635430.950 9      2543.132 9        55.374 9  22004697.932 6         0.000 6      1981.662 6        37.977 6
G16  20497172.516 9 107713348.263 9       577.833 9        55.977 9  20497171.689 6         0.000 6       450.259 6        37.977 6
G26  20654392.738 9 108539544.141 9     -1477.220 9        55.873 9  20654395.554 6         0.000 6     -1151.081 6        37.977 6
G20  21944299.186 9 115318037.455 9      2537.977 9        55.315 9  21944299.507 6         0.000 6      1977.645 6        37.977 6
> 2019 07 03 12 01  0.0000000  0  8       0.000000000000
G07  25346665.822 9 133197581.807 9      2211.873 9        54.132 9  25346666.491 6         0.000 6      1723.538 6        37.977 6
G10  23809211.520 9 125118196.348 9      3512.141 9        54.669 9  23809215.246 6         0.000 6      2736.736 6        37.977 6
G21  21171092.973 9 111254823.806 9     -1270.670 9        55.709 9  21171092.258 6         0.000 6      -990.132 6        37.977 6
G29  24300358.203 9 127699187.864 9     -3176.961 9        54.475 9  24300359.778 6         0.000 6     -2475.557 6        37.977 6
G27  22004212.080 9 115632887.941 9      2542.878 9        55.374 9  22004214.012 6         0.000 6      1981.464 6        37.977 6
G16  20497062.617 9 107712770.740 9       577.208 9        55.977 9  20497061.790 6         0.000 6       449.772 6        37.977 6
G26  20654673.898 9 108541021.649 9     -1477.799 9        55.873 9  20654676.715 6         0.000 6     -1151.532 6        37.977 6
G20  21943816.268 9 115315499.708 9      2537.538 9        55.316 9  21943816.589 6         0.000 6      1977.304 6        37.977 6
> 2019 07 03 12 01  1.0000000  0  8       0.000000000000
G07  25346244.973 9 133195370.235 9      2211.251 9        54.132 9  25346245.642 6         0.000 6      1723.053 6        37.977 6
G10  23808543.186 9 125114684.240 9      3512.116 9        54.670 9  23808546.912 6         0.000 6      2736.716 6        37.977 6
G21  21171334.798 9 111256094.606 9     -1270.911 9        55.709 9  21171334.084 6         0.000 6      -990.320 6        37.977 6
G29  24300962.737 9 127702364.698 9     -3176.666 9        54.474 9  24300964.312 6         0.000 6     -2475.327 6        37.977 6
G27  22003728.233 9 115630345.313 9      2542.335 9        55.375 9  22003730.166 6         0.000 6      1981.041 6        37.977 6
G16  20496952.848 9 107712193.903 9       576.444 9        55.977 9  20496952.021 6         0.000 6       449.177 6        37.977 6
G26  20654955.173 9 108542499.753 9     -1478.418 9        55.873 9  20654957.989 6         0.000 6     -1152.015 6        37.977 6
G20  21943333.418 9 115312962.319 9      2537.279 9        55.316 9  21943333.739 6         0.000 6      1977.102 6        37.977 6
> 2019 07 03 12 01  2.0000000  0  8       0.000000000000
G07  25345824.256 9 133193159.360 9      2210.515 9        54.132 9  25345824.926 6         0.000 6      1722.480 6        37.977 6
G10  23807874.847 9 125111172.104 9      3512.168 9        54.670 9  23807878.572 6         0.000 6      2736.757 6        37.977 6
G21  21171576.659 9 111257365.591 9     -1271.066 9        55.709 9  21171575.944 6         0.000 6      -990.441 6        37.977 6
G29  24301567.184 9 127705541.077 9     -3176.122 9        54.474 9  24301568.760 6         0.000 6     -2474.903 6        37.977 6
G27  22003244.513 9 115627803.350 9      2541.602 9        55.375 9  22003246.446 6         0.000 6      1980.470 6        37.977 6
G16  20496843.236 9 107711617.885 9       575.592 9        55.977 9  20496842.409 6         0.000 6       448.513 6        37.977 6
G26  20655236.567 9 108543978.488 9     -1479.060 9        55.873 9  20655239.383 6         0.000 6     -1152.515 6        37.977 6
G20  21942850.602 9 115310425.106 9      2537.145 9        55.316 9  21942850.922 6         0.000 6      1976.997 6        37.977 6
> 2019 07 03 12 01  3.0000000  0  8       0.000000000000
G07  25345404.075 9 133190951.297 9      2202.213 9        54.132 9  25345404.745 6         0.000 6      1716.011 6        37.977 6
G10  23807206.106 9 125107657.857 9      3519.677 9        54.670 9  23807209.830 6         0.000 6      2742.608 6        37.977 6
G21  21171818.600 9 111258637.000 9     -1272.035 9        55.709 9  21171817.886 6         0.000 6      -991.197 6        37.977 6
G29  24302171.495 9 127708716.744 9     -3174.597 9        54.474 9  24302173.071 6         0.000 6     -2473.715 6        37.977 6
G27  22002761.047 9 115625262.719 9      2538.453 9        55.375 9  22002762.979 6         0.000 6      1978.016 6        37.977 6
G16  20496733.823 9 107711042.918 9       573.907 9        55.977 9  20496732.996 6         0.000 6       447.200 6        37.977 6
G26  20655517.907 9 108545456.941 9     -1476.432 9        55.873 9  20655520.724 6         0.000 6     -1150.467 6        37.977 6
G20  21942367.538 9 115307886.596 9      2542.308 9        55.316 9  21942367.859 6         0.000 6      1981.020 6        37.977 6
> 2019 07 03 12 01  4.0000000  0  8       0.000000000000
G07  25344986.407 9 133188756.438 9      2187.646 9        54.132 9  25344987.076 6         0.000 6      1704.660 6        37.977 6
G10  23806535.073 9 125104131.564 9      3532.648 9        54.670 9  23806538.796 6         0.000 6      2752.715 6        37.977 6
G21  21172060.670 9 111259909.086 9     -1271.720 9        55.709 9  21172059.956 6         0.000 6      -990.950 6        37.977 6
G29  24302775.018 9 127711888.270 9     -3167.496 9        54.474 9  24302776.595 6         0.000 6     -2468.182 6        37.977 6
G27  22002278.727 9 115622728.115 9      2530.137 9        55.375 9  22002280.659 6         0.000 6      1971.536 6        37.977 6
G16  20496624.958 9 107710470.830 9       569.944 9        55.977 9  20496624.131 6         0.000 6       444.113 6        37.977 6
G26  20655798.461 9 108546931.260 9     -1472.586 9        55.873 9  20655801.278 6         0.000 6     -1147.470 6        37.977 6
G20  21941882.769 9 115305339.119 9      2552.741 9        55.316 9  21941883.089 6         0.000 6      1989.150 6        37.977 6
> 2019 07 03 12 01  5.0000000  0  8       0.000000000000
G07  25344571.551 9 133186576.361 9      2173.778 9        54.132 9  25344572.220 6         0.000 6      1693.854 6        37.977 6
G10  23805861.647 9 125100592.697 9      3543.809 9        54.671 9  23805865.370 6         0.000 6      2761.412 6        37.977 6
G21  21172302.369 9 111261179.225 9     -1268.282 9        55.709 9  21172301.655 6         0.000 6      -988.272 6        37.977 6
G29  24303376.416 9 127715048.627 9     -3153.054 9        54.474 9  24303377.994 6         0.000 6     -2456.928 6        37.977 6
G27  22001798.515 9 115620204.585 9      2517.098 9        55.375 9  22001800.447 6         0.000 6      1961.376 6        37.977 6
G16  20496517.111 9 107709904.087 9       563.563 9        55.977 9  20496516.284 6         0.000 6       439.140 6        37.977 6
G26  20656078.508 9 108548402.916 9     -1471.388 9        55.872 9  20656081.325 6         0.000 6     -1146.537 6        37.977 6
G20  21941395.844 9 115302780.317 9      2564.052 9        55.317 9  21941396.164 6         0.000 6      1997.964 6        37.977 6
> 2019 07 03 12 01  6.0000000  0  8       0.000000000000
G07  25344158.228 9 133184404.337 9      2170.988 9        54.132 9  25344158.897 6         0.000 6      1691.680 6        37.977 6
G10  23805187.078 9 125097047.825 9      3545.416 9        54.671 9  23805190.800 6         0.000 6      2762.664 6        37.977 6
G21  21172543.596 9 111262446.878 9     -1267.381 9        55.709 9  21172542.882 6         0.000 6      -987.570 6        37.977 6
G29  24303975.939 9 127718199.132 9     -3149.129 9        54.473 9  24303977.518 6         0.000 6     -2453.870 6        37.977 6
G27  22001319.945 9 115617689.685 9      2513.643 9        55.376 9  22001321.876 6         0.000 6      1958.684 6        37.977 6
G16  20496410.111 9 107709341.798 9       561.452 9        55.977 9  20496409.284 6         0.000 6       437.495 6        37.977 6
G26  20656358.576 9 108549874.680 9     -1472.113 9        55.872 9  20656361.393 6         0.000 6     -1147.102 6        37.977 6
G20  21940907.677 9 115300214.986 9      2565.924 9        55.317 9  21940907.997 6         0.000 6      1999.423 6        37.977 6
> 2019 07 03 12 01  7.0000000  0  8       0.000000000000
G07  25343745.191 9 133182233.814 9      2170.173 9        54.133 9  25343745.859 6         0.000 6      1691.045 6        37.977 6
G10  23804512.386 9 125093502.308 9      3545.558 9        54.671 9  23804516.108 6         0.000 6      2762.775 6        37.977 6
G21  21172784.784 9 111263714.331 9     -1267.594 9        55.708 9  21172784.070 6         0.000 6      -987.736 6        37.977 6
G29  24304575.138 9 127721347.932 9     -3148.687 9        54.473 9  24304576.717 6         0.000 6     -2453.525 6        37.977 6
G27  22000841.693 9 115615176.459 9      2512.965 9        55.376 9  22000843.625 6         0.000 6      1958.155 6        37.977 6
G16  20496303.354 9 107708780.786 9       560.639 9        55.977 9  20496302.527 6         0.000 6       436.862 6        37.977 6
G26  20656638.764 9 108551347.076 9     -1472.677 9        55.872 9  20656641.581 6         0.000 6     -1147.541 6        37.977 6
G20  21940419.398 9 115297649.065 9      2565.815 9        55.317 9  21940419.717 6         0.000 6      1999.337 6        37.977 6
> 2019 07 03 12 01  8.0000000  0  8       0.000000000000
G07  25343332.275 9 133180063.930 9      2169.618 9        54.133 9  25343332.943 6         0.000 6      1690.612 6        37.977 6
G10  23803837.692 9 125089956.776 9      3545.511 9        54.671 9  23803841.413 6         0.000 6      2762.739 6        37.977 6
G21  21173026.033 9 111264982.103 9     -1267.958 9        55.708 9  21173025.319 6         0.000 6      -988.020 6        37.977 6
G29  24305174.314 9 127724496.612 9     -3148.715 9        54.473 9  24305175.894 6         0.000 6     -2453.547 6        37.977 6
G27  22000363.522 9 115612663.656 9      2512.661 9        55.376 9  22000365.454 6         0.000 6      1957.919 6        37.977 6
G16  20496196.729 9 107708220.468 9       560.003 9        55.977 9  20496195.902 6         0.000 6       436.366 6        37.977 6
G26  20656919.056 9 108552820.018 9     -1473.214 9        55.872 9  20656921.873 6         0.000 6     -1147.959 6        37.977 6
G20  21939931.173 9 115295083.432 9      2565.443 9        55.317 9  21939931.492 6         0.000 6      1999.048 6        37.977 6
> 2019 07 03 12 01  9.0000000  0  8       0.000000000000
G07  25342919.459 9 133177894.570 9      2169.113 9        54.133 9  25342920.127 6         0.000 6      1690.219 6        37.977 6
G10  23803163.012 9 125086411.320 9      3545.420 9        54.672 9  23803166.733 6         0.000 6      2762.668 6        37.977 6
G21  21173267.354 9 111266250.250 9     -1268.334 9        55.708 9  21173266.640 6         0.000 6      -988.312 6        37.977 6
G29  24305773.502 9 127727645.356 9     -3148.792 9        54.473 9  24305775.082 6         0.000 6     -2453.607 6        37.977 6
G27  21999885.404 9 115610151.129 9      2512.402 9        55.376 9  21999887.335 6         0.000 6      1957.717 6        37.977 6
G16  20496090.223 9 107707660.775 9       559.387 9        55.977 9  20496089.396 6         0.000 6       435.886 6        37.977 6
G26  20657199.451 9 108554293.504 9     -1473.759 9        55.872 9  20657202.269 6         0.000 6     -1148.384 6        37.977 6
G20  21939443.025 9 115292518.200 9      2565.029 9        55.317 9  21939443.344 6         0.000 6      1998.725 6        37.977 6
> 2019 07 03 12 01 10.0000000  0  8       0.000000000000
G07  25342506.738 9 133175725.712 9      2168.623 9        54.133 9  25342507.406 6         0.000 6      1689.837 6        37.977 6
G10  23802488.350 9 125082865.957 9      3545.315 9        54.672 9  23802492.070 6         0.000 6      2762.586 6        37.977 6
G21  21173508.745 9 111267518.769 9     -1268.708 9        55.708 9  21173508.031 6         0.000 6      -988.604 6        37.977 6
G29  24306372.704 9 127730794.176 9     -3148.873 9        54.473 9  24306374.285 6         0.000 6     -2453.670 6        37.977 6
G27  21999407.334 9 115607638.858 9      2512.149 9        55.376 9  21999409.265 6         0.000 6      1957.519 6        37.977 6
G16  20495983.833 9 107707101.695 9       558.773 9        55.977 9  20495983.006 6         0.000 6       435.407 6        37.977 6
G26  20657479.950 9 108555767.533 9     -1474.310 9        55.872 9  20657482.768 6         0.000 6     -1148.814 6        37.977 6
G20  21938954.955 9 115289953.383 9      2564.604 9        55.318 9  21938955.274 6         0.000 6      1998.394 6        37.977 6
> 2019 07 03 12 01 11.0000000  0  8       0.000000000000
G07  25342094.108 9 133173557.328 9      2168.149 9        54.133 9  25342094.775 6         0.000 6      1689.467 6        37.977 6
G10  23801813.711 9 125079320.715 9      3545.193 9        54.672 9  23801817.430 6         0.000 6      2762.491 6        37.977 6
G21  21173750.209 9 111268787.668 9     -1269.082 9        55.708 9  21173749.495 6         0.000 6      -988.895 6        37.977 6
G29  24306971.923 9 127733943.081 9     -3148.952 9        54.472 9  24306973.505 6         0.000 6     -2453.732 6        37.977 6
G27  21998929.312 9 115605126.839 9      2511.896 9        55.377 9  21998931.243 6         0.000 6      1957.323 6        37.977 6
G16  20495877.561 9 107706543.233 9       558.157 9        55.977 9  20495876.734 6         0.000 6       434.928 6        37.977 6
G26  20657760.556 9 108557242.125 9     -1474.871 9        55.872 9  20657763.374 6         0.000 6     -1149.251 6        37.977 6
G20  21938466.970 9 115287389.006 9      2564.167 9        55.318 9  21938467.288 6         0.000 6      1998.053 6        37.977 6
> 2019 07 03 12 01 12.0000000  0  8       0.000000000000
G07  25341681.567 9 133171389.416 9      2167.683 9        54.133 9  25341682.234 6         0.000 6      1689.104 6        37.977 6
G10  23801139.095 9 125075775.598 9      3545.063 9        54.672 9  23801142.814 6         0.000 6      2762.389 6        37.977 6
G21  21173991.743 9 111270056.936 9     -1269.455 9        55.708 9  21173991.029 6         0.000 6      -989.186 6        37.977 6
G29  24307571.157 9 127737092.065 9     -3149.036 9        54.472 9  24307572.739 6         0.000 6     -2453.797 6        37.977 6
G27  21998451.337 9 115602615.069 9      2511.649 9        55.377 9  21998453.268 6         0.000 6      1957.130 6        37.977 6
G16  20495771.406 9 107705985.382 9       557.544 9        55.977 9  20495770.579 6         0.000 6       434.449 6        37.977 6
G26  20658041.268 9 108558717.277 9     -1475.435 9        55.872 9  20658044.086 6         0.000 6     -1149.690 6        37.977 6
G20  21937979.067 9 115284825.066 9      2563.723 9        55.318 9  21937979.385 6         0.000 6      1997.707 6        37.977 6
> 2019 07 03 12 01 13.0000000  0  8       0.000000000000
G07  25341269.116 9 133169221.973 9      2167.218 9        54.133 9  25341269.783 6         0.000 6      1688.742 6        37.977 6
G10  23800464.504 9 125072230.609 9      3544.933 9        54.673 9  23800468.222 6         0.000 6      2762.288 6        37.977 6
G21  21174233.347 9 111271326.575 9     -1269.822 9        55.708 9  21174232.633 6         0.000 6      -989.472 6        37.977 6
G29  24308170.405 9 127740241.127 9     -3149.113 9        54.472 9  24308171.988 6         0.000 6     -2453.857 6        37.977 6
G27  21997973.411 9 115600103.550 9      2511.401 9        55.377 9  21997975.341 6         0.000 6      1956.937 6        37.977 6
G16  20495665.368 9 107705428.147 9       556.932 9        55.977 9  20495664.541 6         0.000 6       433.973 6        37.977 6
G26  20658322.088 9 108560192.991 9     -1475.996 9        55.871 9  20658324.906 6         0.000 6     -1150.127 6        37.977 6
G20  21937491.249 9 115282261.566 9      2563.282 9        55.318 9  21937491.566 6         0.000 6      1997.364 6        37.977 6
> 2019 07 03 12 01 14.0000000  0  8       0.000000000000
G07  25340856.751 9 133167054.986 9      2166.761 9        54.134 9  25340857.418 6         0.000 6      1688.386 6        37.977 6
G10  23799789.940 9 125068685.759 9      3544.791 9        54.673 9  23799793.657 6         0.000 6      2762.178 6        37.977 6
G21  21174475.022 9 111272596.588 9     -1270.196 9        55.708 9  21174474.309 6         0.000 6      -989.764 6        37.977 6
G29  24308769.670 9 127743390.277 9     -3149.196 9        54.472 9  24308771.254 6         0.000 6     -2453.922 6        37.977 6
G27  21997495.530 9 115597592.273 9      2511.153 9        55.377 9  21997497.461 6         0.000 6      1956.743 6        37.977 6
G16  20495559.446 9 107704871.524 9       556.316 9        55.977 9  20495558.619 6         0.000 6       433.493 6        37.977 6
G26  20658603.015 9 108561669.272 9     -1476.567 9        55.871 9  20658605.833 6         0.000 6     -1150.572 6        37.977 6
G20  21937003.516 9 115279698.517 9      2562.830 9        55.318 9  21937003.833 6         0.000 6      1997.012 6        37.977 6
> 2019 07 03 12 01 15.0000000  0  8       0.000000000000
G07  25340444.470 9 133164888.436 9      2166.403 9        54.134 9  25340445.136 6         0.000 6      1688.107 6        37.977 6
G10  23799115.406 9 125065141.068 9      3544.553 9        54.673 9  23799119.122 6         0.000 6      2761.992 6        37.977 6
G21  21174716.767 9 111273866.963 9     -1270.554 9        55.708 9  21174716.053 6         0.000 6      -990.043 6        37.977 6
G29  24309368.950 9 127746539.501 9     -3149.283 9        54.471 9  24309370.534 6         0.000 6     -2453.990 6        37.977 6
G27  21997017.696 9 115595081.241 9      2510.933 9        55.377 9  21997019.626 6         0.000 6      1956.572 6        37.977 6
G16  20495453.640 9 107704315.512 9       555.710 9        55.977 9  20495452.813 6         0.000 6       433.021 6        37.977 6
G26  20658884.052 9 108563146.131 9     -1477.182 9        55.871 9  20658886.870 6         0.000 6     -1151.051 6        37.977 6
G20  21936515.871 9 115277135.929 9      2562.312 9        55.319 9  21936516.188 6         0.000 6      1996.608 6        37.977 6
> 2019 07 03 12 01 16.0000000  0  8       0.000000000000
G07  25340032.220 9 133162722.054 9      2166.421 9        54.134 9  25340032.887 6         0.000 6      1688.121 6        37.977 6
G10  23798440.953 9 125061596.807 9      3543.939 9        54.673 9  23798444.669 6         0.000 6      2761.513 6        37.977 6
G21  21174958.574 9 111275137.666 9     -1270.848 9        55.708 9  21174957.860 6         0.000 6      -990.271 6        37.977 6
G29  24309968.247 9 127749688.818 9     -3149.376 9        54.471 9  24309969.832 6         0.000 6     -2454.062 6        37.977 6
G27  21996539.895 9 115592570.381 9      2510.808 9        55.377 9  21996541.825 6         0.000 6      1956.475 6        37.977 6
G16  20495347.947 9 107703760.091 9       555.136 9        55.977 9  20495347.120 6         0.000 6       432.573 6        37.977 6
G26  20659165.223 9 108564623.691 9     -1477.967 9        55.871 9  20659168.041 6         0.000 6     -1151.663 6        37.977 6
G20  21936028.349 9 115274573.987 9      2561.543 9        55.319 9  21936028.665 6         0.000 6      1996.009 6        37.977 6
> 2019 07 03 12 01 17.0000000  0  8       0.000000000000
G07  25339619.965 9 133160555.640 9      2165.465 9        54.134 9  25339620.631 6         0.000 6      1687.376 6        37.977 6
G10  23797766.623 9 125058053.188 9      3543.945 9        54.674 9  23797770.338 6         0.000 6      2761.519 6        37.977 6
G21  21175200.430 9 111276408.628 9     -1270.331 9        55.707 9  21175199.717 6         0.000 6      -989.868 6        37.977 6
G29  24310567.545 9 127752838.139 9     -3147.108 9        54.471 9  24310569.130 6         0.000 6     -2452.294 6        37.977 6
G27  21996062.128 9 115590059.704 9      2508.885 9        55.378 9  21996064.058 6         0.000 6      1954.976 6        37.977 6
G16  20495242.370 9 107703205.278 9       553.700 9        55.977 9  20495241.543 6         0.000 6       431.454 6        37.977 6
G26  20659446.551 9 108566102.076 9     -1479.043 9        55.871 9  20659449.369 6         0.000 6     -1152.501 6        37.977 6
G20  21935540.972 9 115272012.811 9      2561.864 9        55.319 9  21935541.289 6         0.000 6      1996.259 6        37.977 6
> 2019 07 03 12 01 18.0000000  0  8       0.000000000000
G07  25339208.207 9 133158391.840 9      2163.213 9        54.134 9  25339208.872 6         0.000 6      1685.621 6        37.977 6
G10  23797092.163 9 125054508.891 9      3543.643 9        54.674 9  23797095.878 6         0.000 6      2761.283 6        37.977 6
G21  21175441.722 9 111277676.626 9     -1265.617 9        55.707 9  21175441.009 6         0.000 6      -986.195 6        37.977 6
G29  24311165.158 9 127755978.610 9     -3134.162 9        54.471 9  24311166.745 6         0.000 6     -2442.207 6        37.977 6
G27  21995585.633 9 115587555.707 9      2499.570 9        55.378 9  21995587.563 6         0.000 6      1947.718 6        37.977 6
G16  20495137.507 9 107702654.219 9       548.591 9        55.977 9  20495136.680 6         0.000 6       427.474 6        37.977 6
G26  20659728.330 9 108567582.833 9     -1482.885 9        55.871 9  20659731.148 6         0.000 6     -1155.495 6        37.977 6
G20  21935053.090 9 115269448.977 9      2565.036 9        55.319 9  21935053.406 6         0.000 6      1998.730 6        37.977 6
> 2019 07 03 12 01 19.0000000  0  8       0.000000000000
G07  25338796.173 9 133156226.593 9      2169.467 9        54.134 9  25338796.839 6         0.000 6      1690.495 6        37.977 6
G10  23796418.428 9 125050968.396 9      3535.242 9        54.674 9  23796422.142 6         0.000 6      2754.737 6        37.977 6
G21  21175682.116 9 111278939.904 9     -1260.766 9        55.707 9  21175681.403 6         0.000 6      -982.415 6        37.977 6
G29  24311760.584 9 127759107.580 9     -3124.241 9        54.471 9  24311762.170 6         0.000 6     -2434.476 6        37.977 6
G27  21995110.564 9 115585059.203 9      2494.245 9        55.378 9  21995112.493 6         0.000 6      1943.569 6        37.977 6
G16  20495033.479 9 107702107.549 9       545.036 9        55.978 9  20495032.652 6         0.000 6       424.703 6        37.977 6
G26  20660011.089 9 108569068.739 9     -1489.830 9        55.871 9  20660013.907 6         0.000 6     -1160.907 6        37.977 6
G20  21934565.130 9 115266884.735 9      2561.903 9        55.319 9  21934565.446 6         0.000 6      1996.289 6        37.977 6
> 2019 07 03 12 01 20.0000000  0  8       0.000000000000
G07  25338382.502 9 133154052.739 9      2176.138 9        54.134 9  25338383.167 6         0.000 6      1695.692 6        37.977 6
G10  23795746.636 9 125047438.119 9      3527.623 9        54.674 9  23795750.349 6         0.000 6      2748.800 6        37.977 6
G21  21175921.798 9 111280199.438 9     -1259.109 9        55.707 9  21175921.084 6         0.000 6      -981.124 6        37.977 6
G29  24312354.812 9 127762230.260 9     -3122.255 9        54.470 9  24312356.399 6         0.000 6     -2432.928 6        37.977 6
G27  21994635.943 9 115582565.059 9      2494.295 9        55.378 9  21994637.873 6         0.000 6      1943.607 6        37.977 6
G16  20494929.866 9 107701563.060 9       544.179 9        55.978 9  20494929.039 6         0.000 6       424.036 6        37.977 6
G26  20660295.163 9 108570561.559 9     -1494.456 9        55.871 9  20660297.982 6         0.000 6     -1164.512 6        37.977 6
G20  21934078.196 9 115264325.882 9      2557.029 9        55.319 9  21934078.511 6         0.000 6      1992.491 6        37.977 6
> 2019 07 03 12 01 21.0000000  0  8       0.000000000000
G07  25337968.302 9 133151876.106 9      2176.751 9        54.135 9  25337968.967 6         0.000 6      1696.171 6        37.977 6
G10  23795075.507 9 125043911.322 9      3526.381 9        54.675 9  23795079.220 6         0.000 6      2747.832 6        37.977 6
G21  21176161.403 9 111281458.574 9     -1259.236 9        55.707 9  21176160.690 6         0.000 6      -981.223 6        37.977 6
G29  24312948.949 9 127765352.464 9     -3122.195 9        54.470 9  24312950.537 6         0.000 6     -2432.882 6        37.977 6
G27  21994161.296 9 115580070.773 9      2494.210 9        55.378 9  21994163.225 6         0.000 6      1943.541 6        37.977 6
G16  20494826.368 9 107701019.173 9       543.580 9        55.978 9  20494825.541 6         0.000 6       423.569 6        37.977 6
G26  20660579.675 9 108572056.676 9     -1495.590 9        55.871 9  20660582.493 6         0.000 6     -1165.396 6        37.977 6
G20  21933591.742 9 115261769.558 9      2555.884 9        55.320 9  21933592.058 6         0.000 6      1991.599 6        37.977 6
> 2019 07 03 12 01 22.0000000  0  8       0.000000000000
G07  25337554.112 9 133149699.528 9      2176.372 9        54.135 9  25337554.777 6         0.000 6      1695.875 6        37.977 6
G10  23794404.485 9 125040385.088 9      3526.149 9        54.675 9  23794408.197 6         0.000 6      2747.651 6        37.977 6
G21  21176401.056 9 111282717.957 9     -1259.547 9        55.707 9  21176400.343 6         0.000 6      -981.465 6        37.977 6
G29  24313543.083 9 127768474.646 9     -3122.200 9        54.470 9  24313544.672 6         0.000 6     -2432.886 6        37.977 6
G27  21993686.689 9 115577576.698 9      2493.939 9        55.379 9  21993688.618 6         0.000 6      1943.330 6        37.977 6
G16  20494722.988 9 107700475.910 9       542.943 9        55.978 9  20494722.161 6         0.000 6       423.073 6        37.977 6
G26  20660864.338 9 108573552.592 9     -1496.226 9        55.870 9  20660867.157 6         0.000 6     -1165.891 6        37.977 6
G20  21933105.422 9 115259213.931 9      2555.401 9        55.320 9  21933105.737 6         0.000 6      1991.222 6        37.977 6
> 2019 07 03 12 01 23.0000000  0  8       0.000000000000
G07  25337140.006 9 133147523.392 9      2175.898 9        54.135 9  25337140.671 6         0.000 6      1695.506 6        37.977 6
G10  23793733.495 9 125036859.023 9      3526.013 9        54.675 9  23793737.206 6         0.000 6      2747.545 6        37.977 6
G21  21176640.773 9 111283977.675 9     -1259.884 9        55.707 9  21176640.059 6         0.000 6      -981.728 6        37.977 6
G29  24314137.221 9 127771596.851 9     -3122.226 9        54.470 9  24314138.810 6         0.000 6     -2432.906 6        37.977 6
G27  21993212.135 9 115575082.901 9      2493.660 9        55.379 9  21993214.063 6         0.000 6      1943.112 6        37.977 6
G16  20494619.731 9 107699933.287 9       542.306 9        55.978 9  20494618.904 6         0.000 6       422.576 6        37.977 6
G26  20661149.118 9 108575049.114 9     -1496.813 9        55.870 9  20661151.936 6         0.000 6     -1166.348 6        37.977 6
G20  21932619.187 9 115256658.754 9      2554.975 9        55.320 9  21932619.502 6         0.000 6      1990.891 6        37.977 6
> 2019 07 03 12 01 24.0000000  0  8       0.000000000000
G07  25336725.993 9 133145347.739 9      2175.423 9        54.135 9  25336726.657 6         0.000 6      1695.136 6        37.977 6
G10  23793062.529 9 125033333.081 9      3525.883 9        54.675 9  23793066.239 6         0.000 6      2747.444 6        37.977 6
G21  21176880.553 9 111285237.730 9     -1260.233 9        55.707 9  21176879.840 6         0.000 6      -982.000 6        37.977 6
G29  24314731.365 9 127774719.089 9     -3122.280 9        54.470 9  24314732.955 6         0.000 6     -2432.948 6        37.977 6
G27  21992737.632 9 115572589.377 9      2493.398 9        55.379 9  21992739.561 6         0.000 6      1942.909 6        37.977 6
G16  20494516.593 9 107699391.295 9       541.678 9        55.978 9  20494515.766 6         0.000 6       422.087 6        37.977 6
G26  20661434.006 9 108576546.211 9     -1497.390 9        55.870 9  20661436.825 6         0.000 6     -1166.798 6        37.977 6
G20  21932133.031 9 115254103.993 9      2554.544 9        55.320 9  21932133.346 6         0.000 6      1990.555 6        37.977 6
> 2019 07 03 12 01 25.0000000  0  8       0.000000000000
G07  25336312.068 9 133143172.553 9      2174.951 9        54.135 9  25336312.732 6         0.000 6      1694.768 6        37.977 6
G10  23792391.589 9 125029807.279 9      3525.750 9        54.676 9  23792395.299 6         0.000 6      2747.340 6        37.977 6
G21  21177120.402 9 111286498.141 9     -1260.584 9        55.707 9  21177119.688 6         0.000 6      -982.274 6        37.977 6
G29  24315325.521 9 127777841.391 9     -3122.339 9        54.469 9  24315327.112 6         0.000 6     -2432.994 6        37.977 6
G27  21992263.179 9 115570096.109 9      2493.140 9        55.379 9  21992265.107 6         0.000 6      1942.707 6        37.977 6
G16  20494413.575 9 107698849.932 9       541.051 9        55.978 9  20494412.748 6         0.000 6       421.598 6        37.977 6
G26  20661719.005 9 108578043.891 9     -1497.968 9        55.870 9  20661721.824 6         0.000 6     -1167.248 6        37.977 6
G20  21931646.960 9 115251549.674 9      2554.111 9        55.320 9  21931647.274 6         0.000 6      1990.217 6        37.977 6
> 2019 07 03 12 01 26.0000000  0  8       0.000000000000
G07  25335898.233 9 133140997.838 9      2174.484 9        54.135 9  25335898.897 6         0.000 6      1694.404 6        37.977 6
G10  23791720.674 9 125026281.610 9      3525.612 9        54.676 9  23791724.384 6         0.000 6      2747.233 6        37.977 6
G21  21177360.317 9 111287758.902 9     -1260.940 9        55.707 9  21177359.603 6         0.000 6      -982.551 6        37.977 6
G29  24315919.689 9 127780963.753 9     -3122.409 9        54.469 9  24315921.280 6         0.000 6     -2433.048 6        37.977 6
G27  21991788.774 9 115567603.100 9      2492.890 9        55.379 9  21991790.703 6         0.000 6      1942.512 6        37.977 6
G16  20494310.676 9 107698309.196 9       540.426 9        55.978 9  20494309.849 6         0.000 6       421.111 6        37.977 6
G26  20662004.114 9 108579542.148 9     -1498.546 9        55.870 9  20662006.934 6         0.000 6     -1167.698 6        37.977 6
G20  21931160.971 9 115248995.788 9      2553.670 9        55.321 9  21931161.285 6         0.000 6      1989.874 6        37.977 6
> 2019 07 03 12 01 27.0000000  0  8       0.000000000000
G07  25335484.487 9 133138823.594 9      2174.018 9        54.135 9  25335485.151 6         0.000 6      1694.041 6        37.977 6
G10  23791049.785 9 125022756.071 9      3525.477 9        54.676 9  23791053.493 6         0.000 6      2747.128 6        37.977 6
G21  21177600.299 9 111289020.016 9     -1261.295 9        55.706 9  21177599.586 6         0.000 6      -982.827 6        37.977 6
G29  24316513.870 9 127784086.188 9     -3122.483 9        54.469 9  24316515.462 6         0.000 6     -2433.106 6        37.977 6
G27  21991314.416 9 115565110.334 9      2492.644 9        55.380 9  21991316.344 6         0.000 6      1942.321 6        37.977 6
G16  20494207.895 9 107697769.077 9       539.806 9        55.978 9  20494207.068 6         0.000 6       420.628 6        37.977 6
G26  20662289.332 9 108581040.974 9     -1499.119 9        55.870 9  20662292.151 6         0.000 6     -1168.145 6        37.977 6
G20  21930675.064 9 115246442.338 9      2553.231 9        55.321 9  21930675.378 6         0.000 6      1989.532 6        37.977 6
> 2019 07 03 12 01 28.0000000  0  8       0.000000000000
G07  25335070.824 9 133136649.786 9      2173.643 9        54.136 9  25335071.488 6         0.000 6      1693.748 6        37.977 6
G10  23790378.926 9 125019230.694 9      3525.279 9        54.676 9  23790382.634 6         0.000 6      2746.974 6        37.977 6
G21  21177840.354 9 111290281.516 9     -1261.719 9        55.706 9  21177839.641 6         0.000 6      -983.158 6        37.977 6
G29  24317108.078 9 127787208.762 9     -3122.760 9        54.469 9  24317109.671 6         0.000 6     -2433.322 6        37.977 6
G27  21990840.097 9 115562617.772 9      2492.554 9        55.380 9  21990842.025 6         0.000 6      1942.250 6        37.977 6
G16  20494105.229 9 107697229.564 9       539.259 9        55.978 9  20494104.402 6         0.000 6       420.202 6        37.977 6
G26  20662574.659 9 108582540.378 9     -1499.673 9        55.870 9  20662577.479 6         0.000 6     -1168.577 6        37.977 6
G20  21930189.249 9 115243889.366 9      2552.692 9        55.321 9  21930189.563 6         0.000 6      1989.112 6        37.977 6
> 2019 07 03 12 01 29.0000000  0  8       0.000000000000
G07  25334657.215 9 133134476.258 9      2173.423 9        54.136 9  25334657.879 6         0.000 6      1693.577 6        37.977 6
G10  23789708.116 9 125015705.576 9      3524.976 9        54.677 9  23789711.823 6         0.000 6      2746.737 6        37.977 6
G21  21178080.503 9 111291543.504 9     -1262.261 9        55.706 9  21178079.790 6         0.000 6      -983.580 6        37.977 6
G29  24317702.378 9 127790331.818 9     -3123.379 9        54.468 9  24317703.971 6         0.000 6     -2433.804 6        37.977 6
G27  21990365.764 9 115560125.137 9      2492.725 9        55.380 9  21990367.692 6         0.000 6      1942.384 6        37.977 6
G16  20494002.652 9 107696690.518 9       538.835 9        55.978 9  20494001.825 6         0.000 6       419.871 6        37.977 6
G26  20662860.087 9 108584040.310 9     -1500.195 9        55.870 9  20662862.907 6         0.000 6     -1168.983 6        37.977 6
G20  21929703.555 9 115241337.031 9      2551.983 9        55.321 9  21929703.868 6         0.000 6      1988.559 6        37.977 6
> 2019 07 03 12 01 30.0000000  0  8       0.000000000000
G07  25334243.242 9 133132300.820 9      2180.972 9        54.136 9  25334243.906 6         0.000 6      1699.460 6        37.977 6
G10  23789037.765 9 125012182.867 9      3517.032 9        54.677 9  23789041.471 6         0.000 6      2740.547 6        37.977 6
G21  21178320.704 9 111292805.771 9     -1261.983 9        55.706 9  21178319.991 6         0.000 6      -983.364 6        37.977 6
G29  24318296.837 9 127793455.708 9     -3125.102 9        54.468 9  24318298.430 6         0.000 6     -2435.147 6        37.977 6
G27  21989891.276 9 115557631.691 9      2495.438 9        55.380 9  21989893.204 6         0.000 6      1944.498 6        37.977 6
G16  20493900.116 9 107696151.688 9       539.263 9        55.978 9  20493899.289 6         0.000 6       420.205 6        37.977 6
G26  20663145.795 9 108585541.711 9     -1504.083 9        55.869 9  20663148.614 6         0.000 6     -1172.013 6        37.977 6
G20  21929218.276 9 115238786.878 9      2545.837 9        55.321 9  21929218.589 6         0.000 6      1983.770 6        37.977 6
> 2019 07 03 12 01 31.0000000  0  8       0.000000000000
G07  25333826.872 9 133130112.780 9      2194.944 9        54.136 9  25333827.535 6         0.000 6      1710.347 6        37.977 6
G10  23788369.812 9 125008672.764 9      3503.522 9        54.677 9  23788373.518 6         0.000 6      2730.020 6        37.977 6
G21  21178560.914 9 111294068.082 9     -1263.093 9        55.706 9  21178560.201 6         0.000 6      -984.229 6        37.977 6
G29  24318892.152 9 127796584.100 9     -3132.724 9        54.468 9  24318893.746 6         0.000 6     -2441.086 6        37.977 6
G27  21989415.699 9 115555132.518 9      2503.550 9        55.380 9  21989417.626 6         0.000 6      1950.819 6        37.977 6
G16  20493797.263 9 107695611.192 9       542.061 9        55.978 9  20493796.436 6         0.000 6       422.385 6        37.977 6
G26  20663432.536 9 108587048.544 9     -1509.182 9        55.869 9  20663435.355 6         0.000 6     -1175.986 6        37.977 6
G20  21928734.913 9 115236246.791 9      2534.272 9        55.322 9  21928735.226 6         0.000 6      1974.758 6        37.977 6
> 2019 07 03 12 01 32.0000000  0  8       0.000000000000
G07  25333407.820 9 133127910.652 9      2207.860 9        54.136 9  25333408.483 6         0.000 6      1720.412 6        37.977 6
G10  23787704.333 9 125005175.658 9      3492.168 9        54.677 9  23787708.039 6         0.000 6      2721.173 6        37.977 6
G21  21178801.659 9 111295333.203 9     -1267.365 9        55.706 9  21178800.946 6         0.000 6      -987.558 6        37.977 6
G29  24319489.706 9 127799724.258 9     -3147.556 9        54.468 9  24319491.301 6         0.000 6     -2452.644 6        37.977 6
G27  21988938.051 9 115552622.463 9      2516.189 9        55.380 9  21988939.978 6         0.000 6      1960.668 6        37.977 6
G16  20493693.612 9 107695066.501 9       547.213 9        55.978 9  20493692.785 6         0.000 6       426.400 6        37.977 6
G26  20663720.008 9 108588559.217 9     -1511.487 9        55.869 9  20663722.827 6         0.000 6     -1177.783 6        37.977 6
G20  21928253.911 9 115233719.113 9      2522.088 9        55.322 9  21928254.223 6         0.000 6      1965.264 6        37.977 6
> 2019 07 03 12 01 33.0000000  0  8       0.000000000000
G07  25332987.448 9 133125701.587 9      2209.590 9        54.136 9  25332988.111 6         0.000 6      1721.759 6        37.977 6
G10  23787040.012 9 125001684.639 9      3490.412 9        54.678 9  23787043.717 6         0.000 6      2719.804 6        37.977 6
G21  21179043.016 9 111296601.543 9     -1268.963 9        55.706 9  21179042.303 6         0.000 6      -988.803 6        37.977 6
G29  24320089.148 9 127802874.339 9     -3151.501 9        54.468 9  24320090.744 6         0.000 6     -2455.717 6        37.977 6
G27  21988458.881 9 115550104.412 9      2519.010 9        55.381 9  21988460.808 6         0.000 6      1962.865 6        37.977 6
G16  20493589.364 9 107694518.676 9       548.014 9        55.978 9  20493588.537 6         0.000 6       427.024 6        37.977 6
G26  20664007.670 9 108590070.891 9     -1511.895 9        55.869 9  20664010.490 6         0.000 6     -1178.101 6        37.977 6
G20  21927774.288 9 115231198.680 9      2519.457 9        55.322 9  21927774.600 6         0.000 6      1963.215 6        37.977 6
> 2019 07 03 12 01 34.0000000  0  8       0.000000000000
G07  25332566.983 9 133123492.031 9      2209.442 9        54.136 9  25332567.645 6         0.000 6      1721.644 6        37.977 6
G10  23786375.850 9 124998194.455 9      3490.035 9        54.678 9  23786379.555 6         0.000 6      2719.510 6        37.977 6
G21  21179284.546 9 111297870.790 9     -1269.473 9        55.706 9  21179283.833 6         0.000 6      -989.200 6        37.977 6
G29  24320688.932 9 127806026.212 9     -3152.084 9        54.467 9  24320690.528 6         0.000 6     -2456.172 6        37.977 6
G27  21987979.501 9 115547585.255 9      2519.169 9        55.381 9  21987981.428 6         0.000 6      1962.990 6        37.977 6
G16  20493485.116 9 107693970.848 9       547.573 9        55.978 9  20493484.289 6         0.000 6       426.680 6        37.977 6
G26  20664295.427 9 108591583.063 9     -1512.470 9        55.869 9  20664298.247 6         0.000 6     -1178.548 6        37.977 6
G20  21927294.930 9 115228679.643 9      2518.716 9        55.322 9  21927295.242 6         0.000 6      1962.637 6        37.977 6
> 2019 07 03 12 01 35.0000000  0  8       0.000000000000
G07  25332146.576 9 133121282.782 9      2209.053 9        54.137 9  25332147.238 6         0.000 6      1721.341 6        37.977 6
G10  23785711.740 9 124994704.540 9      3489.830 9        54.678 9  23785715.443 6         0.000 6      2719.351 6        37.977 6
G21  21179526.155 9 111299140.454 9     -1269.841 9        55.706 9  21179525.442 6         0.000 6      -989.487 6        37.977 6
G29  24321288.768 9 127809178.365 9     -3152.221 9        54.467 9  24321290.365 6         0.000 6     -2456.279 6        37.977 6
G27  21987500.136 9 115545066.181 9      2518.974 9        55.381 9  21987502.063 6         0.000 6      1962.838 6        37.977 6
G16  20493380.975 9 107693423.581 9       546.963 9        55.978 9  20493380.148 6         0.000 6       426.205 6        37.977 6
G26  20664583.299 9 108593095.837 9     -1513.074 9        55.869 9  20664586.119 6         0.000 6     -1179.019 6        37.977 6
G20  21926815.683 9 115226161.190 9      2518.216 9        55.322 9  21926815.995 6         0.000 6      1962.248 6        37.977 6
> 2019 07 03 12 01 36.0000000  0  8       0.000000000000
G07  25331726.246 9 133119073.937 9      2208.633 9        54.137 9  25331726.908 6         0.000 6      1721.014 6        37.977 6
G10  23785047.665 9 124991214.812 9      3489.651 9        54.678 9  23785051.367 6         0.000 6      2719.211 6        37.977 6
G21  21179767.831 9 111300410.466 9     -1270.198 9        55.706 9  21179767.118 6         0.000 6      -989.765 6        37.977 6
G29  24321888.625 9 127812330.623 9     -3152.318 9        54.467 9  24321890.223 6         0.000 6     -2456.354 6        37.977 6
G27  21987020.812 9 115542547.320 9      2518.745 9        55.381 9  21987022.739 6         0.000 6      1962.659 6        37.977 6
G16  20493276.949 9 107692876.924 9       546.338 9        55.978 9  20493276.122 6         0.000 6       425.718 6        37.977 6
G26  20664871.284 9 108594609.207 9     -1513.676 9        55.869 9  20664874.104 6         0.000 6     -1179.489 6        37.977 6
G20  21926336.527 9 115223643.213 9      2517.746 9        55.323 9  21926336.839 6         0.000 6      1961.881 6        37.977 6
> 2019 07 03 12 01 37.0000000  0  8       0.000000000000
G07  25331305.999 9 133116865.525 9      2208.198 9        54.137 9  25331306.660 6         0.000 6      1720.674 6        37.977 6
G10  23784383.622 9 124987725.254 9      3489.489 9        54.678 9  23784387.324 6         0.000 6      2719.085 6        37.977 6
G21  21180009.575 9 111301680.839 9     -1270.549 9        55.705 9  21180008.862 6         0.000 6      -990.038 6        37.977 6
G29  24322488.500 9 127815482.975 9     -3152.411 9        54.467 9  24322490.098 6         0.000 6     -2456.426 6        37.977 6
G27  21986541.534 9 115540028.695 9      2518.515 9        55.381 9  21986543.460 6         0.000 6      1962.480 6        37.977 6
G16  20493173.044 9 107692330.899 9       545.717 9        55.978 9  20493172.217 6         0.000 6       425.234 6        37.977 6
G26  20665159.383 9 108596123.179 9     -1514.266 9        55.869 9  20665162.204 6         0.000 6     -1179.948 6        37.977 6
G20  21925857.460 9 115221125.700 9      2517.291 9        55.323 9  21925857.771 6         0.000 6      1961.526 6        37.977 6
> 2019 07 03 12 01 38.0000000  0  8       0.000000000000
G07  25330885.835 9 133114657.552 9      2207.753 9        54.137 9  25330886.496 6         0.000 6      1720.328 6        37.977 6
G10  23783719.609 9 124984235.856 9      3489.333 9        54.679 9  23783723.311 6         0.000 6      2718.963 6        37.977 6
G21  21180251.386 9 111302951.567 9     -1270.906 9        55.705 9  21180250.674 6         0.000 6      -990.317 6        37.977 6
G29  24323088.392 9 127818635.420 9     -3152.500 9        54.467 9  24323089.991 6         0.000 6     -2456.496 6        37.977 6
G27  21986062.299 9 115537510.304 9      2518.275 9        55.382 9  21986064.225 6         0.000 6      1962.293 6        37.977 6
G16  20493069.258 9 107691785.499 9       545.087 9        55.978 9  20493068.431 6         0.000 6       424.743 6        37.977 6
G26  20665447.595 9 108597637.742 9     -1514.859 9        55.868 9  20665450.416 6         0.000 6     -1180.410 6        37.977 6
G20  21925378.479 9 115218608.642 9      2516.837 9        55.323 9  21925378.790 6         0.000 6      1961.173 6        37.977 6
> 2019 07 03 12 01 39.0000000  0  8       0.000000000000
G07  25330465.756 9 133112450.028 9      2207.298 9        54.137 9  25330466.417 6         0.000 6      1719.974 6        37.977 6
G10  23783055.626 9 124980746.610 9      3489.187 9        54.679 9  23783059.327 6         0.000 6      2718.850 6        37.977 6
G21  21180493.267 9 111304222.656 9     -1271.263 9        55.705 9  21180492.554 6         0.000 6      -990.595 6        37.977 6
G29  24323688.302 9 127821787.960 9     -3152.589 9        54.466 9  24323689.902 6         0.000 6     -2456.566 6        37.977 6
G27  21985583.110 9 115534992.151 9      2518.035 9        55.382 9  21985585.036 6         0.000 6      1962.106 6        37.977 6
G16  20492965.591 9 107691240.728 9       544.460 9        55.978 9  20492964.764 6         0.000 6       424.254 6        37.977 6
G26  20665735.920 9 108599152.896 9     -1515.445 9        55.868 9  20665738.741 6         0.000 6     -1180.867 6        37.977 6
G20  21924899.584 9 115216092.037 9      2516.392 9        55.323 9  21924899.894 6         0.000 6      1960.826 6        37.977 6
> 2019 07 03 12 01 40.0000000  0  8       0.000000000000
G07  25330045.764 9 133110242.960 9      2206.847 9        54.137 9  25330046.425 6         0.000 6      1719.622 6        37.977 6
G10  23782391.669 9 124977257.504 9      3489.039 9        54.679 9  23782395.369 6         0.000 6      2718.735 6        37.977 6
G21  21180735.213 9 111305494.094 9     -1271.622 9        55.705 9  21180734.501 6         0.000 6      -990.874 6        37.977 6
G29  24324288.229 9 127824940.583 9     -3152.684 9        54.466 9  24324289.829 6         0.000 6     -2456.640 6        37.977 6
G27  21985103.966 9 115532474.236 9      2517.799 9        55.382 9  21985105.892 6         0.000 6      1961.922 6        37.977 6
G16  20492862.043 9 107690696.578 9       543.833 9        55.978 9  20492861.216 6         0.000 6       423.766 6        37.977 6
G26  20666024.355 9 108600668.629 9     -1516.031 9        55.868 9  20666027.175 6         0.000 6     -1181.323 6        37.977 6
G20  21924420.772 9 115213575.870 9      2515.943 9        55.323 9  21924421.083 6         0.000 6      1960.476 6        37.977 6
> 2019 07 03 12 01 41.0000000  0  8       0.000000000000
G07  25329625.859 9 133108036.344 9      2206.393 9        54.137 9  25329626.519 6         0.000 6      1719.268 6        37.977 6
G10  23781727.741 9 124973768.550 9      3488.893 9        54.679 9  23781731.441 6         0.000 6      2718.621 6        37.977 6
G21  21180977.229 9 111306765.896 9     -1271.978 9        55.705 9  21180976.517 6         0.000 6      -991.152 6        37.977 6
G29  24324888.173 9 127828093.302 9     -3152.774 9        54.466 9  24324889.774 6         0.000 6     -2456.709 6        37.977 6
G27  21984624.868 9 115529956.562 9      2517.559 9        55.382 9  21984626.794 6         0.000 6      1961.735 6        37.977 6
G16  20492758.615 9 107690153.062 9       543.206 9        55.978 9  20492757.788 6         0.000 6       423.277 6        37.977 6
G26  20666312.902 9 108602184.955 9     -1516.617 9        55.868 9  20666315.723 6         0.000 6     -1181.780 6        37.977 6
G20  21923942.047 9 115211060.157 9      2515.498 9        55.323 9  21923942.357 6         0.000 6      1960.129 6        37.977 6
> 2019 07 03 12 01 42.0000000  0  8       0.000000000000
G07  25329206.040 9 133105830.186 9      2205.904 9        54.138 9  25329206.701 6         0.000 6      1718.887 6        37.977 6
G10  23781063.840 9 124970279.737 9      3488.780 9        54.680 9  23781067.539 6         0.000 6      2718.533 6        37.977 6
G21  21181219.313 9 111308038.053 9     -1272.342 9        55.705 9  21181218.600 6         0.000 6      -991.435 6        37.977 6
G29  24325488.134 9 127831246.111 9     -3152.862 9        54.466 9  24325489.736 6         0.000 6     -2456.778 6        37.977 6
G27  21984145.816 9 115527439.127 9      2517.308 9        55.382 9  21984147.741 6         0.000 6      1961.540 6        37.977 6
G16  20492655.307 9 107689610.171 9       542.574 9        55.979 9  20492654.480 6         0.000 6       422.785 6        37.977 6
G26  20666601.560 9 108603701.861 9     -1517.189 9        55.868 9  20666604.381 6         0.000 6     -1182.225 6        37.977 6
G20  21923463.406 9 115208544.885 9      2515.074 9        55.324 9  21923463.716 6         0.000 6      1959.799 6        37.977 6
> 2019 07 03 12 01 43.0000000  0  8       0.000000000000
G07  25328786.345 9 133103624.679 9      2205.064 9        54.138 9  25328787.006 6         0.000 6      1718.233 6        37.977 6
G10  23780399.929 9 124966790.873 9      3489.019 9        54.680 9  23780403.628 6         0.000 6      2718.719 6        37.977 6
G21  21181461.470 9 111309310.598 9     -1272.763 9        55.705 9  21181460.758 6         0.000 6      -991.763 6        37.977 6
G29  24326088.112 9 127834399.004 9     -3152.946 9        54.466 9  24326089.714 6         0.000 6     -2456.844 6        37.977 6
G27  21983666.819 9 115524921.982 9      2516.973 9        55.383 9  21983668.744 6         0.000 6      1961.278 6        37.977 6
G16  20492552.120 9 107689067.922 9       541.918 9        55.979 9  20492551.293 6         0.000 6       422.274 6        37.977 6
G26  20666890.312 9 108605219.262 9     -1517.594 9        55.868 9  20666893.133 6         0.000 6     -1182.541 6        37.977 6
G20  21922984.824 9 115206029.926 9      2514.886 9        55.324 9  21922985.134 6         0.000 6      1959.652 6        37.977 6
> 2019 07 03 12 01 44.0000000  0  8       0.000000000000
G07  25328366.803 9 133101419.973 9      2205.448 9        54.138 9  25328367.463 6         0.000 6      1718.532 6        37.977 6
G10  23779735.974 9 124963301.774 9      3488.498 9        54.680 9  23779739.671 6         0.000 6      2718.313 6        37.977 6
G21  21181703.724 9 111310583.652 9     -1274.255 9        55.705 9  21181703.012 6         0.000 6      -992.926 6        37.977 6
G29  24326688.149 9 127837552.212 9     -3156.101 9        54.465 9  24326689.752 6         0.000 6     -2459.302 6        37.977 6
G27  21983187.854 9 115522405.010 9      2518.954 9        55.383 9  21983189.779 6         0.000 6      1962.822 6        37.977 6
G16  20492449.043 9 107688526.246 9       542.373 9        55.979 9  20492448.216 6         0.000 6       422.628 6        37.977 6
G26  20667179.131 9 108606737.011 9     -1517.604 9        55.868 9  20667181.952 6         0.000 6     -1182.549 6        37.977 6
G20  21922506.291 9 115203515.222 9      2513.310 9        55.324 9  21922506.600 6         0.000 6      1958.424 6        37.977 6
> 2019 07 03 12 01 45.0000000  0  8       0.000000000000
G07  25327946.912 9 133099213.436 9      2206.444 9        54.138 9  25327947.572 6         0.000 6      1719.308 6        37.977 6
G10  23779072.204 9 124959813.648 9      3488.904 9        54.680 9  23779075.901 6         0.000 6      2718.629 6        37.977 6
G21  21181946.740 9 111311860.706 9     -1279.868 9        55.705 9  21181946.028 6         0.000 6      -997.300 6        37.977 6
G29  24327290.042 9 127840715.166 9     -3169.384 9        54.465 9  24327291.645 6         0.000 6     -2469.652 6        37.977 6
G27  21982707.620 9 115519881.365 9      2527.770 9        55.383 9  21982709.545 6         0.000 6      1969.692 6        37.977 6
G16  20492345.441 9 107687981.814 9       546.272 9        55.979 9  20492344.614 6         0.000 6       425.667 6        37.977 6
G26  20667467.684 9 108608253.365 9     -1514.676 9        55.868 9  20667470.505 6         0.000 6     -1180.267 6        37.977 6
G20  21922028.476 9 115201004.289 9      2509.447 9        55.324 9  21922028.785 6         0.000 6      1955.414 6        37.977 6
> 2019 07 03 12 01 46.0000000  0  8       0.000000000000
G07  25327527.597 9 133097009.923 9      2198.214 9        54.138 9  25327528.257 6         0.000 6      1712.895 6        37.977 6
G10  23778407.635 9 124956321.329 9      3498.071 9        54.681 9  23778411.332 6         0.000 6      2725.772 6        37.977 6
G21  21182190.819 9 111313143.348 9     -1285.614 9        55.705 9  21182190.106 6         0.000 6     -1001.777 6        37.977 6
G29  24327894.143 9 127843889.730 9     -3179.281 9        54.465 9  24327895.747 6         0.000 6     -2477.364 6        37.977 6
G27  21982226.097 9 115517350.949 9      2532.193 9        55.383 9  21982228.022 6         0.000 6      1973.138 6        37.977 6
G16  20492241.249 9 107687434.284 9       548.486 9        55.979 9  20492240.422 6         0.000 6       427.391 6        37.977 6
G26  20667755.412 9 108609765.387 9     -1508.381 9        55.868 9  20667758.234 6         0.000 6     -1175.362 6        37.977 6
G20  21921550.822 9 115198494.208 9      2512.411 9        55.324 9  21921551.131 6         0.000 6      1957.724 6        37.977 6
> 2019 07 03 12 01 47.0000000  0  8       0.000000000000
G07  25327110.105 9 133094815.991 9      2191.480 9        54.138 9  25327110.764 6         0.000 6      1707.647 6        37.977 6
G10  23777741.180 9 124952819.095 9      3504.462 9        54.681 9  23777744.876 6         0.000 6      2730.752 6        37.977 6
G21  21182435.715 9 111314430.284 9     -1287.634 9        55.704 9  21182435.002 6         0.000 6     -1003.352 6        37.977 6
G29  24328499.361 9 127847070.164 9     -3180.825 9        54.465 9  24328500.966 6         0.000 6     -2478.568 6        37.977 6
G27  21981744.299 9 115514819.084 9      2531.446 9        55.383 9  21981746.224 6         0.000 6      1972.556 6        37.977 6
G16  20492136.908 9 107686885.970 9       547.982 9        55.979 9  20492136.081 6         0.000 6       426.999 6        37.977 6
G26  20668042.063 9 108611271.743 9     -1505.467 9        55.867 9  20668044.884 6         0.000 6     -1173.092 6        37.977 6
G20  21921072.290 9 115195979.508 9      2515.914 9        55.325 9  21921072.598 6         0.000 6      1960.453 6        37.977 6
> 2019 07 03 12 01 48.0000000  0  8       0.000000000000
G07  25326693.244 9 133092625.377 9      2190.094 9        54.138 9  25326693.903 6         0.000 6      1706.567 6        37.977 6
G10  23777074.194 9 124949314.070 9      3505.268 9        54.681 9  23777077.889 6         0.000 6      2731.380 6        37.977 6
G21  21182680.803 9 111315718.230 9     -1288.196 9        55.704 9  21182680.090 6         0.000 6     -1003.790 6        37.977 6
G29  24329104.671 9 127850251.077 9     -3181.006 9        54.464 9  24329106.276 6         0.000 6     -2478.709 6        37.977 6
G27  21981262.626 9 115512287.877 9      2531.042 9        55.384 9  21981264.550 6         0.000 6      1972.241 6        37.977 6
G16  20492032.694 9 107686338.319 9       547.334 9        55.979 9  20492031.867 6         0.000 6       426.494 6        37.977 6
G26  20668328.537 9 108612777.173 9     -1505.565 9        55.867 9  20668331.358 6         0.000 6     -1173.168 6        37.977 6
G20  21920593.491 9 115193463.407 9      2516.073 9        55.325 9  21920593.799 6         0.000 6      1960.577 6        37.977 6
> 2019 07 03 12 01 49.0000000  0  8       0.000000000000
G07  25326276.536 9 133090435.561 9      2189.572 9        54.139 9  25326277.195 6         0.000 6      1706.161 6        37.977 6
G10  23776407.168 9 124945808.832 9      3505.200 9        54.681 9  23776410.862 6         0.000 6      2731.327 6        37.977 6
G21  21182925.978 9 111317006.631 9     -1288.597 9        55.704 9  21182925.265 6         0.000 6     -1004.102 6        37.977 6
G29  24329710.011 9 127853432.149 9     -3181.149 9        54.464 9  24329711.617 6         0.000 6     -2478.820 6        37.977 6
G27  21980781.006 9 115509756.952 9      2530.816 9        55.384 9  21980782.931 6         0.000 6      1972.065 6        37.977 6
G16  20491928.598 9 107685791.290 9       546.727 9        55.979 9  20491927.771 6         0.000 6       426.021 6        37.977 6
G26  20668615.085 9 108614282.993 9     -1506.090 9        55.867 9  20668617.907 6         0.000 6     -1173.577 6        37.977 6
G20  21920114.736 9 115190947.538 9      2515.659 9        55.325 9  21920115.044 6         0.000 6      1960.255 6        37.977 6
> 2019 07 03 12 01 50.0000000  0  8       0.000000000000
G07  25325859.917 9 133088246.218 9      2189.122 9        54.139 9  25325860.575 6         0.000 6      1705.810 6        37.977 6
G10  23775740.164 9 124942303.714 9      3505.056 9        54.682 9  23775743.858 6         0.000 6      2731.215 6        37.977 6
G21  21183171.226 9 111318295.420 9     -1288.981 9        55.704 9  21183170.514 6         0.000 6     -1004.401 6        37.977 6
G29  24330315.376 9 127856613.352 9     -3181.274 9        54.464 9  24330316.982 6         0.000 6     -2478.917 6        37.977 6
G27  21980299.429 9 115507226.248 9      2530.592 9        55.384 9  21980301.353 6         0.000 6      1971.890 6        37.977 6
G16  20491824.617 9 107685244.867 9       546.114 9        55.979 9  20491823.790 6         0.000 6       425.543 6        37.977 6
G26  20668901.738 9 108615789.363 9     -1506.659 9        55.867 9  20668904.560 6         0.000 6     -1174.021 6        37.977 6
G20  21919636.066 9 115188432.113 9      2515.198 9        55.325 9  21919636.373 6         0.000 6      1959.896 6        37.977 6
> 2019 07 03 12 01 51.0000000  0  8       0.000000000000
G07  25325443.383 9 133086057.321 9      2188.679 9        54.139 9  25325444.041 6         0.000 6      1705.465 6        37.977 6
G10  23775073.188 9 124938798.743 9      3504.904 9        54.682 9  23775076.881 6         0.000 6      2731.096 6        37.977 6
G21  21183416.547 9 111319584.588 9     -1289.357 9        55.704 9  21183415.834 6         0.000 6     -1004.694 6        37.977 6
G29  24330920.763 9 127859794.675 9     -3181.386 9        54.464 9  24330922.370 6         0.000 6     -2479.005 6        37.977 6
G27  21979817.894 9 115504695.771 9      2530.363 9        55.384 9  21979819.818 6         0.000 6      1971.712 6        37.977 6
G16  20491720.753 9 107684699.058 9       545.500 9        55.979 9  20491719.926 6         0.000 6       425.065 6        37.977 6
G26  20669188.500 9 108617296.305 9     -1507.233 9        55.867 9  20669191.322 6         0.000 6     -1174.468 6        37.977 6
G20  21919157.483 9 115185917.149 9      2514.737 9        55.325 9  21919157.791 6         0.000 6      1959.536 6        37.977 6
> 2019 07 03 12 01 52.0000000  0  8       0.000000000000
G07  25325026.932 9 133083868.863 9      2188.230 9        54.139 9  25325027.591 6         0.000 6      1705.115 6        37.977 6
G10  23774406.242 9 124935293.929 9      3504.756 9        54.682 9  23774409.935 6         0.000 6      2730.981 6        37.977 6
G21  21183661.938 9 111320874.128 9     -1289.728 9        55.704 9  21183661.226 6         0.000 6     -1004.983 6        37.977 6
G29  24331526.171 9 127862976.104 9     -3181.489 9        54.464 9  24331527.779 6         0.000 6     -2479.085 6        37.977 6
G27  21979336.404 9 115502165.524 9      2530.127 9        55.384 9  21979338.328 6         0.000 6      1971.528 6        37.977 6
G16  20491617.006 9 107684153.864 9       544.883 9        55.979 9  20491616.179 6         0.000 6       424.584 6        37.977 6
G26  20669475.372 9 108618803.824 9     -1507.806 9        55.867 9  20669478.194 6         0.000 6     -1174.914 6        37.977 6
G20  21918678.989 9 115183402.648 9      2514.281 9        55.326 9  21918679.296 6         0.000 6      1959.181 6        37.977 6
> 2019 07 03 12 01 53.0000000  0  8       0.000000000000
G07  25324610.568 9 133081680.859 9      2187.781 9        54.139 9  25324611.226 6         0.000 6      1704.765 6        37.977 6
G10  23773739.324 9 124931789.261 9      3504.606 9        54.682 9  23773743.016 6         0.000 6      2730.864 6        37.977 6
G21  21183907.401 9 111322164.043 9     -1290.100 9        55.704 9  21183906.689 6         0.000 6     -1005.273 6        37.977 6
G29  24332131.598 9 127866157.636 9     -3181.586 9        54.463 9  24332133.207 6         0.000 6     -2479.160 6        37.977 6
G27  21978854.959 9 115499635.518 9      2529.885 9        55.384 9  21978856.883 6         0.000 6      1971.340 6        37.977 6
G16  20491513.377 9 107683609.290 9       544.261 9        55.979 9  20491512.550 6         0.000 6       424.099 6        37.977 6
G26  20669762.353 9 108620311.917 9     -1508.384 9        55.867 9  20669765.175 6         0.000 6     -1175.365 6        37.977 6
G20  21918200.581 9 115180888.602 9      2513.825 9        55.326 9  21918200.888 6         0.000 6      1958.826 6        37.977 6
> 2019 07 03 12 01 54.0000000  0  8       0.000000000000
G07  25324194.290 9 133079493.306 9      2187.332 9        54.139 9  25324194.948 6         0.000 6      1704.416 6        37.977 6
G10  23773072.434 9 124928284.741 9      3504.456 9        54.683 9  23773076.125 6         0.000 6      2730.747 6        37.977 6
G21  21184152.934 9 111323454.329 9     -1290.472 9        55.704 9  21184152.222 6         0.000 6     -1005.563 6        37.977 6
G29  24332737.043 9 127869339.260 9     -3181.683 9        54.463 9  24332738.652 6         0.000 6     -2479.236 6        37.977 6
G27  21978373.561 9 115497105.757 9      2529.643 9        55.385 9  21978375.485 6         0.000 6      1971.151 6        37.977 6
G16  20491409.867 9 107683065.340 9       543.639 9        55.979 9  20491409.040 6         0.000 6       423.615 6        37.977 6
G26  20670049.444 9 108621820.589 9     -1508.962 9        55.867 9  20670052.266 6         0.000 6     -1175.815 6        37.977 6
G20  21917722.260 9 115178375.011 9      2513.368 9        55.326 9  21917722.566 6         0.000 6      1958.470 6        37.977 6
> 2019 07 03 12 01 55.0000000  0  8       0.000000000000
G07  25323778.101 9 133077306.218 9      2186.824 9        54.139 9  25323778.758 6         0.000 6      1704.020 6        37.977 6
G10  23772405.570 9 124924780.359 9      3504.345 9        54.683 9  23772409.261 6         0.000 6      2730.661 6        37.977 6
G21  21184398.536 9 111324744.973 9     -1290.799 9        55.704 9  21184397.824 6         0.000 6     -1005.818 6        37.977 6
G29  24333342.500 9 127872520.945 9     -3181.651 9        54.463 9  24333344.109 6         0.000 6     -2479.211 6        37.977 6
G27  21977892.214 9 115494576.265 9      2529.302 9        55.385 9  21977894.138 6         0.000 6      1970.885 6        37.977 6
G16  20491306.477 9 107682522.025 9       542.970 9        55.979 9  20491305.650 6         0.000 6       423.094 6        37.977 6
G26  20670336.645 9 108623329.841 9     -1509.553 9        55.866 9  20670339.467 6         0.000 6     -1176.275 6        37.977 6
G20  21917244.022 9 115175861.857 9      2512.975 9        55.326 9  21917244.328 6         0.000 6      1958.163 6        37.977 6
> 2019 07 03 12 01 56.0000000  0  8       0.000000000000
G07  25323362.023 9 133075119.722 9      2186.538 9        54.140 9  25323362.681 6         0.000 6      1703.797 6        37.977 6
G10  23771738.718 9 124921276.035 9      3503.963 9        54.683 9  23771742.407 6         0.000 6      2730.363 6        37.977 6
G21  21184644.186 9 111326035.875 9     -1290.951 9        55.704 9  21184643.475 6         0.000 6     -1005.936 6        37.977 6
G29  24333947.912 9 127875702.399 9     -3181.293 9        54.463 9  24333949.523 6         0.000 6     -2478.932 6        37.977 6
G27  21977410.961 9 115492047.264 9      2528.801 9        55.385 9  21977412.884 6         0.000 6      1970.495 6        37.977 6
G16  20491203.228 9 107681979.449 9       542.208 9        55.979 9  20491202.401 6         0.000 6       422.500 6        37.977 6
G26  20670623.963 9 108624839.706 9     -1510.352 9        55.866 9  20670626.786 6         0.000 6     -1176.898 6        37.977 6
G20  21916765.841 9 115173349.004 9      2512.495 9        55.326 9  21916766.147 6         0.000 6      1957.789 6        37.977 6
> 2019 07 03 12 01 57.0000000  0  8       0.000000000000
G07  25322946.642 9 133072936.881 9      2176.219 9        54.140 9  25322947.299 6         0.000 6      1695.756 6        37.977 6
G10  23771071.304 9 124917768.764 9      3513.415 9        54.683 9  23771074.993 6         0.000 6      2737.728 6        37.977 6
G21  21184889.943 9 111327327.332 9     -1292.097 9        55.703 9  21184889.231 6         0.000 6     -1006.829 6        37.977 6
G29  24334553.183 9 127878883.109 9     -3179.281 9        54.462 9  24334554.794 6         0.000 6     -2477.365 6        37.977 6
G27  21976930.000 9 115489519.802 9      2524.873 9        55.385 9  21976931.923 6         0.000 6      1967.434 6        37.977 6
G16  20491100.186 9 107681437.956 9       540.317 9        55.979 9  20491099.359 6         0.000 6       421.026 6        37.977 6
G26  20670911.146 9 108626348.861 9     -1506.822 9        55.866 9  20670913.969 6         0.000 6     -1174.147 6        37.977 6
G20  21916287.307 9 115170834.297 9      2519.054 9        55.326 9  21916287.613 6         0.000 6      1962.900 6        37.977 6
> 2019 07 03 12 01 58.0000000  0  8       0.000000000000
G07  25322533.964 9 133070768.247 9      2161.263 9        54.140 9  25322534.621 6         0.000 6      1684.102 6        37.977 6
G10  23770401.439 9 124914248.608 9      3526.560 9        54.684 9  23770405.127 6         0.000 6      2747.972 6        37.977 6
G21  21185135.795 9 111328619.295 9     -1291.377 9        55.703 9  21185135.083 6         0.000 6     -1006.268 6        37.977 6
G29  24335157.481 9 127882058.705 9     -3170.937 9        54.462 9  24335159.093 6         0.000 6     -2470.863 6        37.977 6
G27  21976450.349 9 115486999.221 9      2515.691 9        55.385 9  21976452.272 6         0.000 6      1960.280 6        37.977 6
G16  20490997.744 9 107680899.621 9       536.035 9        55.979 9  20490996.917 6         0.000 6       417.690 6        37.977 6
G26  20671197.488 9 108627853.597 9     -1503.068 9        55.866 9  20671200.311 6         0.000 6     -1171.222 6        37.977 6
G20  21915806.920 9 115168309.851 9      2529.894 9        55.327 9  21915807.225 6         0.000 6      1971.347 6        37.977 6
> 2019 07 03 12 01 59.0000000  0  8       0.000000000000
G07  25322124.122 9 133068614.516 9      2148.390 9        54.140 9  25322124.779 6         0.000 6      1674.071 6        37.977 6
G10  23769729.200 9 124910715.981 9      3536.695 9        54.684 9  23769732.888 6         0.000 6      2755.869 6        37.977 6
G21  21185381.186 9 111329908.831 9     -1287.800 9        55.703 9  21185380.474 6         0.000 6     -1003.481 6        37.977 6
G29  24335759.419 9 127885221.901 9     -3156.610 9        54.462 9  24335761.031 6         0.000 6     -2459.699 6        37.977 6
G27  21975972.951 9 115484490.479 9      2503.058 9        55.386 9  21975974.874 6         0.000 6      1950.436 6        37.977 6
G16  20490896.375 9 107680366.925 9       529.867 9        55.979 9  20490895.548 6         0.000 6       412.883 6        37.977 6
G26  20671483.367 9 108629355.900 9     -1502.231 9        55.866 9  20671486.190 6         0.000 6     -1170.570 6        37.977 6
G20  21915324.335 9 115165773.852 9      2540.442 9        55.327 9  21915324.640 6         0.000 6      1979.566 6        37.977 6
> 2019 07 03 12 02  0.0000000  0  8       0.000000000000
G07  25321715.564 9 133066467.532 9      2146.155 9        54.140 9  25321716.220 6         0.000 6      1672.329 6        37.977 6
G10  23769056.040 9 124907178.509 9      3537.847 9        54.684 9  23769059.727 6         0.000 6      2756.767 6        37.977 6
G21  21185626.152 9 111331196.139 9     -1287.126 9        55.703 9  21185625.441 6         0.000 6     -1002.955 6        37.977 6
G29  24336359.714 9 127888376.459 9     -3153.494 9        54.462 9  24336361.327 6         0.000 6     -2457.271 6        37.977 6
G27  21975496.971 9 115481989.191 9      2500.293 9        55.386 9  21975498.894 6         0.000 6      1948.281 6        37.977 6
G16  20490795.749 9 107679838.131 9       528.079 9        55.979 9  20490794.922 6         0.000 6       411.490 6        37.977 6
G26  20671769.305 9 108630858.510 9     -1502.957 9        55.866 9  20671772.128 6         0.000 6     -1171.136 6        37.977 6
G20  21914840.725 9 115163232.469 9      2541.773 9        55.327 9  21914841.029 6         0.000 6      1980.604 6        37.977 6
