     3.00           Observation Data    M (Mixed)           RINEX VERSION / TYPE
SimGEN V6.06.00     Spirent             03-Jul-19 12:00     PGM / RUN BY / DATE 
                                                            MARKER NAME         
1                                                           MARKER NUMBER       
GROUND_CRAFT                                                MARKER TYPE         
jin4hi              Spirent                                 OBSERVER / AGENCY   
rec_num             rec_type            rec_vers            REC # / TYPE / VERS 
1                   ant_type                                ANT # / TYPE        
  1000.000                                                  INTERVAL            
  2019     7     3    12     0    0.0000000     GPS         TIME OF FIRST OBS   
  4162679.7170   664374.6070  4770530.1970                  APPROX POSITION XYZ 
        0.0000        0.0000        0.0000                  ANTENNA: DELTA H/E/N
G    8 C1C L1C D1C S1C C2C L2C D2C S2C                      SYS / # / OBS TYPES 
        0.0000        0.0000        0.0000                  ANTENNA: DELTA X/Y/Z
DBHZ                                                        SIGNAL STRENGTH UNIT
                                                            END OF HEADER       
> 2019 07 03 12 00  0.0000000  0  8       0.000000000000
G07  25372011.300 9 133330772.977 9      2219.927 9        54.123 9  25372011.984 6         0.000 6      1729.814 6        37.977 6
G10  23849376.842 9 125329265.896 9      3533.043 9        54.655 9  23849380.608 6         0.000 6      2753.020 6        37.977 6
G21  21156825.885 9 111179849.793 9     -1234.346 9        55.715 9  21156825.168 6         0.000 6      -961.828 6        37.977 6
G29  24264422.512 9 127510345.142 9     -3129.096 9        54.488 9  24264424.050 6         0.000 6     -2438.257 6        37.977 6
G27  22033108.461 9 115784739.280 9      2524.422 9        55.363 9  22033110.404 6         0.000 6      1967.082 6        37.977 6
G16  20503757.901 9 107747954.692 9       598.722 9        55.974 9  20503757.074 6         0.000 6       466.536 6        37.977 6
G26  20637932.957 9 108453047.512 9     -1447.473 9        55.880 9  20637935.767 6         0.000 6     -1127.901 6        37.977 6
G20  21973040.237 9 115469072.430 9      2584.769 9        55.304 9  21973040.575 6         0.000 6      2014.106 6        37.977 6
> 2019 07 03 12 00  1.0000000  0  8       0.000000000000
G07  25371589.066 9 133328554.123 9      2217.552 9        54.123 9  25371589.749 6         0.000 6      1727.963 6        37.977 6
G10  23848704.420 9 125325732.306 9      3534.265 9        54.655 9  23848708.185 6         0.000 6      2753.976 6        37.977 6
G21  21157060.680 9 111181083.649 9     -1233.231 9        55.715 9  21157059.963 6         0.000 6      -960.959 6        37.977 6
G29  24265017.588 9 127513472.277 9     -3124.769 9        54.487 9  24265019.126 6         0.000 6     -2434.887 6        37.977 6
G27  22032628.400 9 115782216.547 9      2520.737 9        55.363 9  22032630.343 6         0.000 6      1964.212 6        37.977 6
G16  20503644.169 9 107747357.027 9       596.464 9        55.974 9  20503643.343 6         0.000 6       464.777 6        37.977 6
G26  20638208.499 9 108454495.490 9     -1448.521 9        55.880 9  20638211.309 6         0.000 6     -1128.718 6        37.977 6
G20  21972548.225 9 115466486.894 9      2586.507 9        55.304 9  21972548.563 6         0.000 6      2015.461 6        37.977 6
> 2019 07 03 12 00  2.0000000  0  8       0.000000000000
G07  25371167.250 9 133326337.470 9      2215.991 9        54.123 9  25371167.933 6         0.000 6      1726.747 6        37.977 6
G10  23848031.798 9 125322197.665 9      3534.883 9        54.655 9  23848035.563 6         0.000 6      2754.457 6        37.977 6
G21  21157295.295 9 111182316.561 9     -1232.767 9        55.715 9  21157294.579 6         0.000 6      -960.598 6        37.977 6
G29  24265611.935 9 127516595.579 9     -3122.373 9        54.487 9  24265613.473 6         0.000 6     -2433.021 6        37.977 6
G27  22032148.964 9 115779697.096 9      2518.573 9        55.363 9  22032150.906 6         0.000 6      1962.525 6        37.977 6
G16  20503530.830 9 107746761.424 9       594.934 9        55.974 9  20503530.003 6         0.000 6       463.585 6        37.977 6
G26  20638484.228 9 108455944.455 9     -1449.357 9        55.880 9  20638487.038 6         0.000 6     -1129.369 6        37.977 6
G20  21972055.931 9 115463899.876 9      2587.285 9        55.305 9  21972056.269 6         0.000 6      2016.067 6        37.977 6
> 2019 07 03 12 00  3.0000000  0  8       0.000000000000
G07  25370745.675 9 133324122.080 9      2214.825 9        54.123 9  25370746.357 6         0.000 6      1725.838 6        37.977 6
G10  23847359.098 9 125318662.610 9      3535.231 9        54.656 9  23847362.862 6         0.000 6      2754.728 6        37.977 6
G21  21157529.865 9 111183549.233 9     -1232.598 9        55.715 9  21157529.148 6         0.000 6      -960.466 6        37.977 6
G29  24266205.953 9 127519717.153 9     -3120.857 9        54.487 9  24266207.492 6         0.000 6     -2431.839 6        37.977 6
G27  22031669.841 9 115777179.291 9      2517.091 9        55.364 9  22031671.783 6         0.000 6      1961.370 6        37.977 6
G16  20503417.735 9 107746167.107 9       593.725 9        55.974 9  20503416.908 6         0.000 6       462.643 6        37.977 6
G26  20638760.103 9 108457394.188 9     -1450.106 9        55.880 9  20638762.913 6         0.000 6     -1129.953 6        37.977 6
G20  21971563.552 9 115461312.410 9      2587.628 9        55.305 9  21971563.889 6         0.000 6      2016.334 6        37.977 6
> 2019 07 03 12 00  4.0000000  0  8       0.000000000000
G07  25370324.308 9 133321907.785 9      2213.830 9        54.124 9  25370324.990 6         0.000 6      1725.064 6        37.977 6
G10  23846686.339 9 125315127.253 9      3535.464 9        54.656 9  23846690.103 6         0.000 6      2754.910 6        37.977 6
G21  21157764.413 9 111184781.788 9     -1232.558 9        55.715 9  21157763.696 6         0.000 6      -960.435 6        37.977 6
G29  24266799.713 9 127522837.377 9     -3119.734 9        54.487 9  24266801.253 6         0.000 6     -2430.964 6        37.977 6
G27  22031190.975 9 115774662.838 9      2515.915 9        55.364 9  22031192.918 6         0.000 6      1960.454 6        37.977 6
G16  20503304.858 9 107745573.934 9       592.664 9        55.974 9  20503304.031 6         0.000 6       461.816 6        37.977 6
G26  20639036.117 9 108458844.648 9     -1450.809 9        55.880 9  20639038.927 6         0.000 6     -1130.501 6        37.977 6
G20  21971071.122 9 115458724.677 9      2587.782 9        55.305 9  21971071.459 6         0.000 6      2016.455 6        37.977 6
> 2019 07 03 12 00  5.0000000  0  8       0.000000000000
G07  25369903.108 9 133319694.371 9      2212.992 9        54.124 9  25369903.791 6         0.000 6      1724.410 6        37.977 6
G10  23846013.552 9 125311591.742 9      3535.591 9        54.656 9  23846017.315 6         0.000 6      2755.009 6        37.977 6
G21  21157998.969 9 111186014.389 9     -1232.635 9        55.715 9  21157998.252 6         0.000 6      -960.495 6        37.977 6
G29  24267393.307 9 127525956.720 9     -3118.957 9        54.486 9  24267394.847 6         0.000 6     -2430.359 6        37.977 6
G27  22030712.298 9 115772147.374 9      2515.008 9        55.364 9  22030714.240 6         0.000 6      1959.747 6        37.977 6
G16  20503192.166 9 107744981.737 9       591.729 9        55.974 9  20503191.340 6         0.000 6       461.088 6        37.977 6
G26  20639312.261 9 108460295.792 9     -1451.478 9        55.879 9  20639315.071 6         0.000 6     -1131.022 6        37.977 6
G20  21970578.686 9 115456136.915 9      2587.765 9        55.305 9  21970579.023 6         0.000 6      2016.441 6        37.977 6
> 2019 07 03 12 00  6.0000000  0  8       0.000000000000
G07  25369482.017 9 133317481.527 9      2214.992 9        54.124 9  25369482.699 6         0.000 6      1725.969 6        37.977 6
G10  23845340.792 9 125308056.373 9      3532.897 9        54.656 9  23845344.554 6         0.000 6      2752.909 6        37.977 6
G21  21158233.532 9 111187247.025 9     -1232.365 9        55.714 9  21158232.815 6         0.000 6      -960.285 6        37.977 6
G29  24267986.753 9 127529075.293 9     -3118.394 9        54.486 9  24267988.294 6         0.000 6     -2429.920 6        37.977 6
G27  22030233.780 9 115769632.749 9      2514.906 9        55.364 9  22030235.722 6         0.000 6      1959.668 6        37.977 6
G16  20503079.648 9 107744390.450 9       591.082 9        55.974 9  20503078.821 6         0.000 6       460.584 6        37.977 6
G26  20639588.555 9 108461747.726 9     -1453.393 9        55.879 9  20639591.366 6         0.000 6     -1132.514 6        37.977 6
G20  21970086.289 9 115453549.354 9      2585.772 9        55.305 9  21970086.625 6         0.000 6      2014.888 6        37.977 6
> 2019 07 03 12 00  7.0000000  0  8       0.000000000000
G07  25369059.362 9 133315260.460 9      2227.465 9        54.124 9  25369060.044 6         0.000 6      1735.688 6        37.977 6
G10  23844669.683 9 125304529.683 9      3520.349 9        54.657 9  23844673.444 6         0.000 6      2743.132 6        37.977 6
G21  21158468.001 9 111188479.170 9     -1232.328 9        55.714 9  21158467.285 6         0.000 6      -960.256 6        37.977 6
G29  24268580.437 9 127532195.113 9     -3122.386 9        54.486 9  24268581.979 6         0.000 6     -2433.030 6        37.977 6
G27  22029754.774 9 115767115.558 9      2520.305 9        55.364 9  22029756.716 6         0.000 6      1963.875 6        37.977 6
G16  20502967.048 9 107743798.730 9       592.752 9        55.974 9  20502966.221 6         0.000 6       461.885 6        37.977 6
G26  20639865.654 9 108463203.889 9     -1458.737 9        55.879 9  20639868.464 6         0.000 6     -1136.679 6        37.977 6
G20  21969595.142 9 115450968.364 9      2575.795 9        55.306 9  21969595.478 6         0.000 6      2007.114 6        37.977 6
> 2019 07 03 12 00  8.0000000  0  8       0.000000000000
G07  25368634.229 9 133313026.376 9      2241.361 9        54.124 9  25368634.910 6         0.000 6      1746.516 6        37.977 6
G10  23844000.969 9 125301015.581 9      3507.538 9        54.657 9  23844004.730 6         0.000 6      2733.150 6        37.977 6
G21  21158702.712 9 111189712.584 9     -1235.257 9        55.714 9  21158701.996 6         0.000 6      -962.538 6        37.977 6
G29  24269175.539 9 127535322.383 9     -3134.297 9        54.486 9  24269177.081 6         0.000 6     -2442.312 6        37.977 6
G27  22029274.274 9 115764590.518 9      2531.360 9        55.365 9  22029276.216 6         0.000 6      1972.489 6        37.977 6
G16  20502853.902 9 107743204.144 9       597.181 9        55.974 9  20502853.075 6         0.000 6       465.336 6        37.977 6
G26  20640143.614 9 108464664.576 9     -1462.281 9        55.879 9  20640146.425 6         0.000 6     -1139.441 6        37.977 6
G20  21969106.086 9 115448398.360 9      2563.388 9        55.306 9  21969106.421 6         0.000 6      1997.446 6        37.977 6
> 2019 07 03 12 00  9.0000000  0  8       0.000000000000
G07  25368206.958 9 133310781.057 9      2246.996 9        54.124 9  25368207.640 6         0.000 6      1750.907 6        37.977 6
G10  23843334.159 9 125297511.480 9      3502.572 9        54.657 9  23843337.919 6         0.000 6      2729.279 6        37.977 6
G21  21158938.125 9 111190949.687 9     -1238.194 9        55.714 9  21158937.409 6         0.000 6      -964.826 6        37.977 6
G29  24269773.076 9 127538462.451 9     -3143.096 9        54.486 9  24269774.619 6         0.000 6     -2449.168 6        37.977 6
G27  22028791.675 9 115762054.444 9      2538.395 9        55.365 9  22028793.617 6         0.000 6      1977.971 6        37.977 6
G16  20502739.894 9 107742605.031 9       599.938 9        55.974 9  20502739.068 6         0.000 6       467.484 6        37.977 6
G26  20640421.961 9 108466127.298 9     -1462.975 9        55.879 9  20640424.772 6         0.000 6     -1139.981 6        37.977 6
G20  21968619.075 9 115445839.107 9      2557.193 9        55.306 9  21968619.411 6         0.000 6      1992.619 6        37.977 6
> 2019 07 03 12 00 10.0000000  0  8       0.000000000000
G07  25367779.310 9 133308533.755 9      2247.385 9        54.124 9  25367779.991 6         0.000 6      1751.210 6        37.977 6
G10  23842667.733 9 125294009.397 9      3501.785 9        54.657 9  23842671.492 6         0.000 6      2728.666 6        37.977 6
G21  21159173.830 9 111192188.323 9     -1238.946 9        55.714 9  21159173.114 6         0.000 6      -965.413 6        37.977 6
G29  24270371.359 9 127541606.440 9     -3144.477 9        54.485 9  24270372.902 6         0.000 6     -2450.244 6        37.977 6
G27  22028308.524 9 115759515.469 9      2539.220 9        55.365 9  22028310.465 6         0.000 6      1978.614 6        37.977 6
G16  20502625.727 9 107742005.076 9       599.810 9        55.974 9  20502624.900 6         0.000 6       467.384 6        37.977 6
G26  20640700.408 9 108467590.545 9     -1463.550 9        55.879 9  20640703.219 6         0.000 6     -1140.429 6        37.977 6
G20  21968132.598 9 115443282.658 9      2555.948 9        55.306 9  21968132.933 6         0.000 6      1991.649 6        37.977 6
> 2019 07 03 12 00 11.0000000  0  8       0.000000000000
G07  25367351.666 9 133306286.473 9      2247.146 9        54.125 9  25367352.347 6         0.000 6      1751.024 6        37.977 6
G10  23842001.399 9 125290507.801 9      3501.459 9        54.657 9  23842005.158 6         0.000 6      2728.412 6        37.977 6
G21  21159409.632 9 111193427.470 9     -1239.337 9        55.714 9  21159408.916 6         0.000 6      -965.717 6        37.977 6
G29  24270969.760 9 127544751.052 9     -3144.713 9        54.485 9  24270971.304 6         0.000 6     -2450.428 6        37.977 6
G27  22027825.330 9 115756976.273 9      2539.127 9        55.365 9  22027827.271 6         0.000 6      1978.541 6        37.977 6
G16  20502511.638 9 107741405.535 9       599.247 9        55.974 9  20502510.811 6         0.000 6       466.946 6        37.977 6
G26  20640978.973 9 108469054.413 9     -1464.193 9        55.879 9  20640981.784 6         0.000 6     -1140.930 6        37.977 6
G20  21967646.278 9 115440727.036 9      2555.340 9        55.306 9  21967646.613 6         0.000 6      1991.175 6        37.977 6
> 2019 07 03 12 00 12.0000000  0  8       0.000000000000
G07  25366924.080 9 133304039.499 9      2246.797 9        54.125 9  25366924.761 6         0.000 6      1750.752 6        37.977 6
G10  23841335.117 9 125287006.475 9      3501.226 9        54.658 9  23841338.875 6         0.000 6      2728.231 6        37.977 6
G21  21159645.503 9 111194666.980 9     -1239.689 9        55.714 9  21159644.787 6         0.000 6      -965.991 6        37.977 6
G29  24271568.190 9 127547895.810 9     -3144.820 9        54.485 9  24271569.735 6         0.000 6     -2450.511 6        37.977 6
G27  22027342.169 9 115754437.246 9      2538.924 9        55.365 9  22027344.110 6         0.000 6      1978.383 6        37.977 6
G16  20502397.662 9 107740806.590 9       598.636 9        55.974 9  20502396.836 6         0.000 6       466.470 6        37.977 6
G26  20641257.659 9 108470518.919 9     -1464.822 9        55.879 9  20641260.471 6         0.000 6     -1141.420 6        37.977 6
G20  21967160.062 9 115438171.957 9      2554.833 9        55.306 9  21967160.397 6         0.000 6      1990.780 6        37.977 6
> 2019 07 03 12 00 13.0000000  0  8       0.000000000000
G07  25366496.566 9 133301792.901 9      2246.408 9        54.125 9  25366497.247 6         0.000 6      1750.449 6        37.977 6
G10  23840668.874 9 125283505.356 9      3501.031 9        54.658 9  23840672.631 6         0.000 6      2728.078 6        37.977 6
G21  21159881.441 9 111195906.841 9     -1240.043 9        55.714 9  21159880.725 6         0.000 6      -966.267 6        37.977 6
G29  24272166.637 9 127551040.662 9     -3144.915 9        54.485 9  24272168.183 6         0.000 6     -2450.586 6        37.977 6
G27  22026859.049 9 115751898.437 9      2538.704 9        55.365 9  22026860.990 6         0.000 6      1978.212 6        37.977 6
G16  20502283.804 9 107740208.263 9       598.018 9        55.974 9  20502282.978 6         0.000 6       465.988 6        37.977 6
G26  20641536.464 9 108471984.045 9     -1465.437 9        55.878 9  20641539.275 6         0.000 6     -1141.899 6        37.977 6
G20  21966673.939 9 115435617.365 9      2554.355 9        55.307 9  21966674.273 6         0.000 6      1990.407 6        37.977 6
> 2019 07 03 12 00 14.0000000  0  8       0.000000000000
G07  25366069.128 9 133299546.702 9      2245.995 9        54.125 9  25366069.808 6         0.000 6      1750.127 6        37.977 6
G10  23840002.666 9 125280004.422 9      3500.860 9        54.658 9  23840006.423 6         0.000 6      2727.946 6        37.977 6
G21  21160117.447 9 111197147.062 9     -1240.398 9        55.714 9  21160116.731 6         0.000 6      -966.544 6        37.977 6
G29  24272765.104 9 127554185.616 9     -3145.008 9        54.485 9  24272766.650 6         0.000 6     -2450.658 6        37.977 6
G27  22026375.971 9 115749359.847 9      2538.478 9        55.366 9  22026377.911 6         0.000 6      1978.035 6        37.977 6
G16  20502170.064 9 107739610.554 9       597.398 9        55.974 9  20502169.237 6         0.000 6       465.505 6        37.977 6
G26  20641815.384 9 108473449.782 9     -1466.039 9        55.878 9  20641818.196 6         0.000 6     -1142.368 6        37.977 6
G20  21966187.905 9 115433063.246 9      2553.895 9        55.307 9  21966188.239 6         0.000 6      1990.049 6        37.977 6
> 2019 07 03 12 00 15.0000000  0  8       0.000000000000
G07  25365641.770 9 133297300.925 9      2245.569 9        54.125 9  25365642.450 6         0.000 6      1749.795 6        37.977 6
G10  23839336.490 9 125276503.650 9      3500.703 9        54.658 9  23839340.246 6         0.000 6      2727.823 6        37.977 6
G21  21160353.521 9 111198387.637 9     -1240.756 9        55.714 9  21160352.805 6         0.000 6      -966.823 6        37.977 6
G29  24273363.588 9 127557330.659 9     -3145.103 9        54.484 9  24273365.134 6         0.000 6     -2450.732 6        37.977 6
G27  22025892.937 9 115746821.488 9      2538.249 9        55.366 9  22025894.877 6         0.000 6      1977.857 6        37.977 6
G16  20502056.442 9 107739013.467 9       596.778 9        55.975 9  20502055.615 6         0.000 6       465.022 6        37.977 6
G26  20642094.419 9 108474916.117 9     -1466.636 9        55.878 9  20642097.231 6         0.000 6     -1142.834 6        37.977 6
G20  21965701.958 9 115430509.580 9      2553.443 9        55.307 9  21965702.292 6         0.000 6      1989.697 6        37.977 6
> 2019 07 03 12 00 16.0000000  0  8       0.000000000000
G07  25365214.494 9 133295055.578 9      2245.130 9        54.125 9  25365215.174 6         0.000 6      1749.453 6        37.977 6
G10  23838670.343 9 125273003.034 9      3500.555 9        54.659 9  23838674.098 6         0.000 6      2727.708 6        37.977 6
G21  21160589.664 9 111199628.575 9     -1241.118 9        55.713 9  21160588.948 6         0.000 6      -967.105 6        37.977 6
G29  24273962.089 9 127560475.797 9     -3145.193 9        54.484 9  24273963.637 6         0.000 6     -2450.803 6        37.977 6
G27  22025409.947 9 115744283.361 9      2538.012 9        55.366 9  22025411.887 6         0.000 6      1977.672 6        37.977 6
G16  20501942.939 9 107738417.004 9       596.151 9        55.975 9  20501942.112 6         0.000 6       464.534 6        37.977 6
G26  20642373.568 9 108476383.052 9     -1467.232 9        55.878 9  20642376.380 6         0.000 6     -1143.298 6        37.977 6
G20  21965216.097 9 115427956.366 9      2552.997 9        55.307 9  21965216.430 6         0.000 6      1989.350 6        37.977 6
> 2019 07 03 12 00 17.0000000  0  8       0.000000000000
G07  25364787.302 9 133292810.673 9      2244.689 9        54.125 9  25364787.982 6         0.000 6      1749.109 6        37.977 6
G10  23838004.223 9 125269502.562 9      3500.412 9        54.659 9  23838007.977 6         0.000 6      2727.596 6        37.977 6
G21  21160825.875 9 111200869.872 9     -1241.478 9        55.713 9  21160825.159 6         0.000 6      -967.385 6        37.977 6
G29  24274560.609 9 127563621.026 9     -3145.284 9        54.484 9  24274562.156 6         0.000 6     -2450.873 6        37.977 6
G27  22024927.002 9 115741745.470 9      2537.776 9        55.366 9  22024928.942 6         0.000 6      1977.489 6        37.977 6
G16  20501829.555 9 107737821.165 9       595.528 9        55.975 9  20501828.728 6         0.000 6       464.048 6        37.977 6
G26  20642652.829 9 108477850.578 9     -1467.823 9        55.878 9  20642655.641 6         0.000 6     -1143.759 6        37.977 6
G20  21964730.319 9 115425403.594 9      2552.556 9        55.307 9  21964730.653 6         0.000 6      1989.006 6        37.977 6
> 2019 07 03 12 00 18.0000000  0  8       0.000000000000
G07  25364360.194 9 133290566.206 9      2244.244 9        54.126 9  25364360.873 6         0.000 6      1748.762 6        37.977 6
G10  23837338.131 9 125266002.235 9      3500.272 9        54.659 9  23837341.885 6         0.000 6      2727.487 6        37.977 6
G21  21161062.155 9 111202111.531 9     -1241.841 9        55.713 9  21161061.439 6         0.000 6      -967.668 6        37.977 6
G29  24275159.146 9 127566766.350 9     -3145.381 9        54.484 9  24275160.694 6         0.000 6     -2450.949 6        37.977 6
G27  22024444.100 9 115739207.811 9      2537.544 9        55.366 9  22024446.040 6         0.000 6      1977.307 6        37.977 6
G16  20501716.288 9 107737225.947 9       594.905 9        55.975 9  20501715.462 6         0.000 6       463.562 6        37.977 6
G26  20642932.203 9 108479318.695 9     -1468.412 9        55.878 9  20642935.015 6         0.000 6     -1144.218 6        37.977 6
G20  21964244.627 9 115422851.267 9      2552.115 9        55.308 9  21964244.960 6         0.000 6      1988.662 6        37.977 6
> 2019 07 03 12 00 19.0000000  0  8       0.000000000000
G07  25363933.171 9 133288322.193 9      2243.792 9        54.126 9  25363933.851 6         0.000 6      1748.410 6        37.977 6
G10  23836672.064 9 125262502.040 9      3500.136 9        54.659 9  23836675.817 6         0.000 6      2727.382 6        37.977 6
G21  21161298.504 9 111203353.553 9     -1242.206 9        55.713 9  21161297.788 6         0.000 6      -967.953 6        37.977 6
G29  24275757.701 9 127569911.767 9     -3145.473 9        54.483 9  24275759.250 6         0.000 6     -2451.021 6        37.977 6
G27  22023961.245 9 115736670.389 9      2537.304 9        55.367 9  22023963.184 6         0.000 6      1977.120 6        37.977 6
G16  20501603.141 9 107736631.355 9       594.277 9        55.975 9  20501602.314 6         0.000 6       463.073 6        37.977 6
G26  20643211.688 9 108480787.398 9     -1469.003 9        55.878 9  20643214.500 6         0.000 6     -1144.678 6        37.977 6
G20  21963759.017 9 115420299.374 9      2551.676 9        55.308 9  21963759.349 6         0.000 6      1988.320 6        37.977 6
> 2019 07 03 12 00 20.0000000  0  8       0.000000000000
G07  25363506.243 9 133286078.672 9      2242.973 9        54.126 9  25363506.922 6         0.000 6      1747.772 6        37.977 6
G10  23836006.017 9 125259001.951 9      3500.257 9        54.660 9  23836009.769 6         0.000 6      2727.476 6        37.977 6
G21  21161534.918 9 111204595.917 9     -1242.308 9        55.713 9  21161534.202 6         0.000 6      -968.032 6        37.977 6
G29  24276356.260 9 127573057.205 9     -3144.786 9        54.483 9  24276357.809 6         0.000 6     -2450.485 6        37.977 6
G27  22023478.445 9 115734133.264 9      2536.459 9        55.367 9  22023480.385 6         0.000 6      1976.463 6        37.977 6
G16  20501490.119 9 107736037.417 9       593.366 9        55.975 9  20501489.292 6         0.000 6       462.363 6        37.977 6
G26  20643491.287 9 108482256.696 9     -1469.660 9        55.878 9  20643494.099 6         0.000 6     -1145.190 6        37.977 6
G20  21963273.483 9 115417747.880 9      2551.636 9        55.308 9  21963273.815 6         0.000 6      1988.289 6        37.977 6
> 2019 07 03 12 00 21.0000000  0  8       0.000000000000
G07  25363079.141 9 133283834.239 9      2245.703 9        54.126 9  25363079.819 6         0.000 6      1749.899 6        37.977 6
G10  23835340.133 9 125255502.719 9      3498.699 9        54.660 9  23835343.885 6         0.000 6      2726.261 6        37.977 6
G21  21161771.696 9 111205840.192 9     -1247.015 9        55.713 9  21161770.980 6         0.000 6      -971.700 6        37.977 6
G29  24276955.666 9 127576207.095 9     -3156.848 9        54.483 9  24276957.216 6         0.000 6     -2459.884 6        37.977 6
G27  22022995.074 9 115731593.131 9      2544.995 9        55.367 9  22022997.013 6         0.000 6      1983.114 6        37.977 6
G16  20501376.917 9 107735442.537 9       596.995 9        55.975 9  20501376.090 6         0.000 6       465.191 6        37.977 6
G26  20643770.858 9 108483725.850 9     -1467.986 9        55.878 9  20643773.670 6         0.000 6     -1143.886 6        37.977 6
G20  21962788.361 9 115415198.552 9      2546.825 9        55.308 9  21962788.693 6         0.000 6      1984.540 6        37.977 6
> 2019 07 03 12 00 22.0000000  0  8       0.000000000000
G07  25362652.037 9 133281589.798 9      2241.775 9        54.126 9  25362652.716 6         0.000 6      1746.838 6        37.977 6
G10  23834673.993 9 125252002.138 9      3503.775 9        54.660 9  23834677.744 6         0.000 6      2730.217 6        37.977 6
G21  21162009.537 9 111207090.058 9     -1252.607 9        55.713 9  21162008.821 6         0.000 6      -976.058 6        37.977 6
G29  24277557.585 9 127579370.195 9     -3168.538 9        54.483 9  24277559.136 6         0.000 6     -2468.993 6        37.977 6
G27  22022510.052 9 115729044.326 9      2551.726 9        55.367 9  22022511.991 6         0.000 6      1988.358 6        37.977 6
G16  20501262.988 9 107734843.840 9       600.009 9        55.975 9  20501262.162 6         0.000 6       467.540 6        37.977 6
G26  20644049.800 9 108485191.701 9     -1463.331 9        55.877 9  20644052.612 6         0.000 6     -1140.258 6        37.977 6
G20  21962303.842 9 115412652.392 9      2546.613 9        55.308 9  21962304.174 6         0.000 6      1984.375 6        37.977 6
> 2019 07 03 12 00 23.0000000  0  8       0.000000000000
G07  25362226.594 9 133279354.083 9      2231.026 9        54.126 9  25362227.272 6         0.000 6      1738.463 6        37.977 6
G10  23834006.044 9 125248492.055 9      3514.738 9        54.660 9  23834009.795 6         0.000 6      2738.759 6        37.977 6
G21  21162248.379 9 111208345.177 9     -1256.598 9        55.713 9  21162247.663 6         0.000 6      -979.167 6        37.977 6
G29  24278161.219 9 127582542.302 9     -3173.654 9        54.483 9  24278162.771 6         0.000 6     -2472.980 6        37.977 6
G27  22022024.304 9 115726491.709 9      2552.460 9        55.367 9  22022026.243 6         0.000 6      1988.930 6        37.977 6
G16  20501148.724 9 107734243.378 9       600.327 9        55.975 9  20501147.897 6         0.000 6       467.788 6        37.977 6
G26  20644327.591 9 108486651.499 9     -1457.542 9        55.877 9  20644330.403 6         0.000 6     -1135.747 6        37.977 6
G20  21961818.648 9 115410102.684 9      2552.259 9        55.309 9  21961818.979 6         0.000 6      1988.774 6        37.977 6
> 2019 07 03 12 00 24.0000000  0  8       0.000000000000
G07  25361802.359 9 133277124.716 9      2228.398 9        54.126 9  25361803.037 6         0.000 6      1736.415 6        37.977 6
G10  23833336.949 9 125244975.947 9      3516.806 9        54.661 9  23833340.699 6         0.000 6      2740.371 6        37.977 6
G21  21162487.585 9 111209602.216 9     -1257.348 9        55.713 9  21162486.870 6         0.000 6      -979.752 6        37.977 6
G29  24278765.170 9 127585716.075 9     -3173.840 9        54.482 9  24278766.722 6         0.000 6     -2473.125 6        37.977 6
G27  22021538.663 9 115723939.653 9      2551.770 9        55.368 9  22021540.602 6         0.000 6      1988.393 6        37.977 6
G16  20501034.560 9 107733643.438 9       599.578 9        55.975 9  20501033.733 6         0.000 6       467.204 6        37.977 6
G26  20644604.875 9 108488108.638 9     -1457.079 9        55.877 9  20644607.688 6         0.000 6     -1135.387 6        37.977 6
G20  21961332.829 9 115407549.693 9      2553.282 9        55.309 9  21961333.160 6         0.000 6      1989.571 6        37.977 6
> 2019 07 03 12 00 25.0000000  0  8       0.000000000000
G07  25361378.384 9 133274896.715 9      2227.706 9        54.127 9  25361379.061 6         0.000 6      1735.876 6        37.977 6
G10  23832667.703 9 125241459.049 9      3516.915 9        54.661 9  23832671.453 6         0.000 6      2740.456 6        37.977 6
G21  21162726.891 9 111210859.775 9     -1257.754 9        55.713 9  21162726.175 6         0.000 6      -980.068 6        37.977 6
G29  24279369.140 9 127588889.947 9     -3173.925 9        54.482 9  24279370.693 6         0.000 6     -2473.191 6        37.977 6
G27  22021053.109 9 115721388.049 9      2551.467 9        55.368 9  22021055.047 6         0.000 6      1988.157 6        37.977 6
G16  20500920.525 9 107733044.184 9       598.940 9        55.975 9  20500919.698 6         0.000 6       466.707 6        37.977 6
G26  20644882.189 9 108489565.928 9     -1457.545 9        55.877 9  20644885.001 6         0.000 6     -1135.750 6        37.977 6
G20  21960846.975 9 115404996.521 9      2553.008 9        55.309 9  21960847.306 6         0.000 6      1989.358 6        37.977 6
> 2019 07 03 12 00 26.0000000  0  8       0.000000000000
G07  25360954.511 9 133272669.252 9      2227.237 9        54.127 9  25360955.188 6         0.000 6      1735.510 6        37.977 6
G10  23831998.466 9 125237942.196 9      3516.802 9        54.661 9  23832002.215 6         0.000 6      2740.368 6        37.977 6
G21  21162966.269 9 111212117.716 9     -1258.129 9        55.712 9  21162965.554 6         0.000 6      -980.361 6        37.977 6
G29  24279973.126 9 127592063.908 9     -3174.016 9        54.482 9  24279974.680 6         0.000 6     -2473.262 6        37.977 6
G27  22020567.604 9 115718836.708 9      2551.219 9        55.368 9  22020569.543 6         0.000 6      1987.964 6        37.977 6
G16  20500806.609 9 107732445.553 9       598.320 9        55.975 9  20500805.783 6         0.000 6       466.224 6        37.977 6
G26  20645159.603 9 108491023.751 9     -1458.113 9        55.877 9  20645162.416 6         0.000 6     -1136.192 6        37.977 6
G20  21960361.194 9 115402443.727 9      2552.582 9        55.309 9  21960361.525 6         0.000 6      1989.026 6        37.977 6
> 2019 07 03 12 00 27.0000000  0  8       0.000000000000
G07  25360530.725 9 133270442.246 9      2226.785 9        54.127 9  25360531.402 6         0.000 6      1735.158 6        37.977 6
G10  23831329.254 9 125234425.471 9      3516.667 9        54.661 9  23831333.002 6         0.000 6      2740.263 6        37.977 6
G21  21163205.720 9 111213376.034 9     -1258.506 9        55.712 9  21163205.004 6         0.000 6      -980.654 6        37.977 6
G29  24280577.130 9 127595237.960 9     -3174.106 9        54.482 9  24280578.684 6         0.000 6     -2473.332 6        37.977 6
G27  22020082.147 9 115716285.618 9      2550.970 9        55.368 9  22020084.086 6         0.000 6      1987.770 6        37.977 6
G16  20500692.813 9 107731847.547 9       597.695 9        55.975 9  20500691.986 6         0.000 6       465.737 6        37.977 6
G26  20645437.129 9 108492482.154 9     -1458.695 9        55.877 9  20645439.942 6         0.000 6     -1136.646 6        37.977 6
G20  21959875.496 9 115399891.371 9      2552.139 9        55.309 9  21959875.826 6         0.000 6      1988.681 6        37.977 6
> 2019 07 03 12 00 28.0000000  0  8       0.000000000000
G07  25360107.024 9 133268215.685 9      2226.337 9        54.127 9  25360107.701 6         0.000 6      1734.809 6        37.977 6
G10  23830660.068 9 125230908.885 9      3516.530 9        54.662 9  23830663.815 6         0.000 6      2740.156 6        37.977 6
G21  21163445.240 9 111214634.721 9     -1258.878 9        55.712 9  21163444.524 6         0.000 6      -980.944 6        37.977 6
G29  24281181.151 9 127598412.099 9     -3174.195 9        54.482 9  24281182.706 6         0.000 6     -2473.401 6        37.977 6
G27  22019596.737 9 115713734.770 9      2550.724 9        55.368 9  22019598.675 6         0.000 6      1987.578 6        37.977 6
G16  20500579.133 9 107731250.158 9       597.074 9        55.975 9  20500578.307 6         0.000 6       465.253 6        37.977 6
G26  20645714.764 9 108493941.136 9     -1459.276 9        55.877 9  20645717.577 6         0.000 6     -1137.098 6        37.977 6
G20  21959389.882 9 115397339.457 9      2551.697 9        55.310 9  21959390.212 6         0.000 6      1988.337 6        37.977 6
> 2019 07 03 12 00 29.0000000  0  8       0.000000000000
G07  25359683.409 9 133265989.578 9      2225.889 9        54.127 9  25359684.086 6         0.000 6      1734.460 6        37.977 6
G10  23829990.906 9 125227392.429 9      3516.394 9        54.662 9  23829994.653 6         0.000 6      2740.050 6        37.977 6
G21  21163684.831 9 111215893.782 9     -1259.250 9        55.712 9  21163684.116 6         0.000 6      -981.234 6        37.977 6
G29  24281785.189 9 127601586.328 9     -3174.284 9        54.481 9  24281786.744 6         0.000 6     -2473.471 6        37.977 6
G27  22019111.373 9 115711184.170 9      2550.479 9        55.369 9  22019113.311 6         0.000 6      1987.387 6        37.977 6
G16  20500465.573 9 107730653.392 9       596.453 9        55.975 9  20500464.746 6         0.000 6       464.768 6        37.977 6
G26  20645992.509 9 108495400.695 9     -1459.856 9        55.877 9  20645995.322 6         0.000 6     -1137.550 6        37.977 6
G20  21958904.351 9 115394787.981 9      2551.255 9        55.310 9  21958904.681 6         0.000 6      1987.992 6        37.977 6
> 2019 07 03 12 00 30.0000000  0  8       0.000000000000
G07  25359259.879 9 133263763.917 9      2225.441 9        54.127 9  25359260.556 6         0.000 6      1734.111 6        37.977 6
G10  23829321.772 9 125223876.115 9      3516.257 9        54.662 9  23829325.518 6         0.000 6      2739.943 6        37.977 6
G21  21163924.494 9 111217153.217 9     -1259.622 9        55.712 9  21163923.778 6         0.000 6      -981.524 6        37.977 6
G29  24282389.243 9 127604760.647 9     -3174.373 9        54.481 9  24282390.799 6         0.000 6     -2473.540 6        37.977 6
G27  22018626.056 9 115708633.817 9      2550.233 9        55.369 9  22018627.994 6         0.000 6      1987.195 6        37.977 6
G16  20500352.130 9 107730057.250 9       595.832 9        55.975 9  20500351.304 6         0.000 6       464.284 6        37.977 6
G26  20646270.366 9 108496860.839 9     -1460.436 9        55.877 9  20646273.179 6         0.000 6     -1138.003 6        37.977 6
G20  21958418.906 9 115392236.952 9      2550.813 9        55.310 9  21958419.235 6         0.000 6      1987.647 6        37.977 6
> 2019 07 03 12 00 31.0000000  0  8       0.000000000000
G07  25358836.435 9 133261538.706 9      2224.990 9        54.127 9  25358837.111 6         0.000 6      1733.759 6        37.977 6
G10  23828652.663 9 125220359.933 9      3516.124 9        54.662 9  23828656.408 6         0.000 6      2739.840 6        37.977 6
G21  21164164.227 9 111218413.022 9     -1259.991 9        55.712 9  21164163.511 6         0.000 6      -981.812 6        37.977 6
G29  24282993.315 9 127607935.054 9     -3174.462 9        54.481 9  24282994.871 6         0.000 6     -2473.609 6        37.977 6
G27  22018140.786 9 115706083.708 9      2549.989 9        55.369 9  22018142.724 6         0.000 6      1987.005 6        37.977 6
G16  20500238.806 9 107729461.726 9       595.213 9        55.975 9  20500237.979 6         0.000 6       463.803 6        37.977 6
G26  20646548.332 9 108498321.559 9     -1461.012 9        55.876 9  20646551.145 6         0.000 6     -1138.451 6        37.977 6
G20  21957933.544 9 115389686.361 9      2550.374 9        55.310 9  21957933.873 6         0.000 6      1987.306 6        37.977 6
> 2019 07 03 12 00 32.0000000  0  8       0.000000000000
G07  25358413.078 9 133259313.952 9      2224.498 9        54.128 9  25358413.754 6         0.000 6      1733.376 6        37.977 6
G10  23827983.579 9 125216843.885 9      3516.017 9        54.663 9  23827987.324 6         0.000 6      2739.756 6        37.977 6
G21  21164404.030 9 111219673.193 9     -1260.330 9        55.712 9  21164403.314 6         0.000 6      -982.076 6        37.977 6
G29  24283597.398 9 127611109.524 9     -3174.452 9        54.481 9  24283598.955 6         0.000 6     -2473.602 6        37.977 6
G27  22017655.567 9 115703533.867 9      2549.667 9        55.369 9  22017657.505 6         0.000 6      1986.754 6        37.977 6
G16  20500125.602 9 107728866.836 9       594.556 9        55.975 9  20500124.775 6         0.000 6       463.290 6        37.977 6
G26  20646826.410 9 108499782.868 9     -1461.602 9        55.876 9  20646829.223 6         0.000 6     -1138.911 6        37.977 6
G20  21957448.264 9 115387136.205 9      2549.980 9        55.310 9  21957448.593 6         0.000 6      1986.999 6        37.977 6
> 2019 07 03 12 00 33.0000000  0  8       0.000000000000
G07  25357989.935 9 133257090.328 9      2219.550 9        54.128 9  25357990.611 6         0.000 6      1729.520 6        37.977 6
G10  23827314.397 9 125213327.318 9      3520.314 9        54.663 9  23827318.141 6         0.000 6      2743.104 6        37.977 6
G21  21164643.907 9 111220933.755 9     -1261.163 9        55.712 9  21164643.191 6         0.000 6      -982.724 6        37.977 6
G29  24284201.460 9 127614283.879 9     -3173.945 9        54.480 9  24284203.018 6         0.000 6     -2473.207 6        37.977 6
G27  22017170.450 9 115700984.564 9      2547.975 9        55.369 9  22017172.388 6         0.000 6      1985.436 6        37.977 6
G16  20500012.538 9 107728272.680 9       593.414 9        55.975 9  20500011.711 6         0.000 6       462.401 6        37.977 6
G26  20647104.549 9 108501244.496 9     -1460.264 9        55.876 9  20647107.362 6         0.000 6     -1137.869 6        37.977 6
G20  21956962.973 9 115384585.987 9      2552.705 9        55.310 9  21956963.302 6         0.000 6      1989.122 6        37.977 6
> 2019 07 03 12 00 34.0000000  0  8       0.000000000000
G07  25357569.066 9 133254878.646 9      2203.918 9        54.128 9  25357569.741 6         0.000 6      1717.339 6        37.977 6
G10  23826643.130 9 125209799.798 9      3534.481 9        54.663 9  23826646.873 6         0.000 6      2754.144 6        37.977 6
G21  21164883.957 9 111222195.228 9     -1261.301 9        55.712 9  21164883.242 6         0.000 6      -982.832 6        37.977 6
G29  24284804.948 9 127617455.220 9     -3167.611 9        54.480 9  24284806.506 6         0.000 6     -2468.271 6        37.977 6
G27  22016686.285 9 115698440.261 9      2539.895 9        55.369 9  22016688.222 6         0.000 6      1979.140 6        37.977 6
G16  20499899.946 9 107727681.007 9       589.560 9        55.975 9  20499899.120 6         0.000 6       459.397 6        37.977 6
G26  20647381.961 9 108502702.303 9     -1455.751 9        55.876 9  20647384.774 6         0.000 6     -1134.352 6        37.977 6
G20  21956476.171 9 115382027.831 9      2563.764 9        55.311 9  21956476.500 6         0.000 6      1997.739 6        37.977 6
> 2019 07 03 12 00 35.0000000  0  8       0.000000000000
G07  25357151.168 9 133252682.583 9      2188.191 9        54.128 9  25357151.843 6         0.000 6      1705.085 6        37.977 6
G10  23825969.282 9 125206258.717 9      3547.446 9        54.663 9  23825973.025 6         0.000 6      2764.246 6        37.977 6
G21  21165123.724 9 111223455.211 9     -1257.912 9        55.712 9  21165123.009 6         0.000 6      -980.192 6        37.977 6
G29  24285406.471 9 127620616.233 9     -3152.553 9        54.480 9  24285408.030 6         0.000 6     -2456.538 6        37.977 6
G27  22016204.164 9 115695906.701 9      2525.959 9        55.370 9  22016206.101 6         0.000 6      1968.281 6        37.977 6
G16  20499788.341 9 107727094.518 9       582.778 9        55.975 9  20499787.514 6         0.000 6       454.112 6        37.977 6
G26  20647658.751 9 108504156.845 9     -1453.920 9        55.876 9  20647661.565 6         0.000 6     -1132.925 6        37.977 6
G20  21955987.126 9 115379457.886 9      2576.495 9        55.311 9  21955987.454 6         0.000 6      2007.660 6        37.977 6
> 2019 07 03 12 00 36.0000000  0  8       0.000000000000
G07  25356735.241 9 133250496.877 9      2184.398 9        54.128 9  25356735.916 6         0.000 6      1702.129 6        37.977 6
G10  23825293.914 9 125202709.642 9      3549.808 9        54.664 9  23825297.656 6         0.000 6      2766.087 6        37.977 6
G21  21165362.910 9 111224712.139 9     -1256.459 9        55.712 9  21165362.194 6         0.000 6      -979.059 6        37.977 6
G29  24286005.675 9 127623765.063 9     -3146.857 9        54.480 9  24286007.235 6         0.000 6     -2452.099 6        37.977 6
G27  22015724.092 9 115693383.907 9      2521.070 9        55.370 9  22015726.029 6         0.000 6      1964.471 6        37.977 6
G16  20499677.772 9 107726513.470 9       579.990 9        55.976 9  20499676.945 6         0.000 6       451.940 6        37.977 6
G26  20647935.501 9 108505611.171 9     -1454.736 9        55.876 9  20647938.314 6         0.000 6     -1133.561 6        37.977 6
G20  21955496.455 9 115376879.394 9      2579.386 9        55.311 9  21955496.783 6         0.000 6      2009.913 6        37.977 6
> 2019 07 03 12 00 37.0000000  0  8       0.000000000000
G07  25356319.655 9 133248312.960 9      2183.575 9        54.128 9  25356320.330 6         0.000 6      1701.488 6        37.977 6
G10  23824618.388 9 125199159.738 9      3549.927 9        54.664 9  23824622.129 6         0.000 6      2766.179 6        37.977 6
G21  21165602.008 9 111225968.606 9     -1256.577 9        55.711 9  21165601.292 6         0.000 6      -979.151 6        37.977 6
G29  24286604.410 9 127626911.425 9     -3146.167 9        54.480 9  24286605.970 6         0.000 6     -2451.561 6        37.977 6
G27  22015244.449 9 115690863.370 9      2520.221 9        55.370 9  22015246.386 6         0.000 6      1963.809 6        37.977 6
G16  20499567.498 9 107725933.977 9       579.090 9        55.976 9  20499566.671 6         0.000 6       451.239 6        37.977 6
G26  20648212.390 9 108507066.234 9     -1455.377 9        55.876 9  20648215.204 6         0.000 6     -1134.060 6        37.977 6
G20  21955005.605 9 115374299.965 9      2579.333 9        55.311 9  21955005.932 6         0.000 6      2009.871 6        37.977 6
> 2019 07 03 12 00 38.0000000  0  8       0.000000000000
G07  25355904.183 9 133246129.645 9      2183.080 9        54.128 9  25355904.858 6         0.000 6      1701.102 6        37.977 6
G10  23823942.868 9 125195609.867 9      3549.823 9        54.664 9  23823946.608 6         0.000 6      2766.099 6        37.977 6
G21  21165841.158 9 111227225.351 9     -1256.921 9        55.711 9  21165840.443 6         0.000 6      -979.419 6        37.977 6
G29  24287203.104 9 127630057.571 9     -3146.173 9        54.479 9  24287204.664 6         0.000 6     -2451.566 6        37.977 6
G27  22014764.898 9 115688343.313 9      2519.919 9        55.370 9  22014766.834 6         0.000 6      1963.574 6        37.977 6
G16  20499457.362 9 107725355.210 9       578.454 9        55.976 9  20499456.535 6         0.000 6       450.744 6        37.977 6
G26  20648489.393 9 108508521.895 9     -1455.946 9        55.876 9  20648492.208 6         0.000 6     -1134.504 6        37.977 6
G20  21954514.811 9 115371720.830 9      2578.932 9        55.311 9  21954515.138 6         0.000 6      2009.559 6        37.977 6
> 2019 07 03 12 00 39.0000000  0  8       0.000000000000
G07  25355488.801 9 133243946.800 9      2182.623 9        54.129 9  25355489.476 6         0.000 6      1700.746 6        37.977 6
G10  23823267.371 9 125192060.121 9      3549.688 9        54.664 9  23823271.111 6         0.000 6      2765.993 6        37.977 6
G21  21166080.378 9 111228482.459 9     -1257.295 9        55.711 9  21166079.663 6         0.000 6      -979.710 6        37.977 6
G29  24287801.807 9 127633203.771 9     -3146.251 9        54.479 9  24287803.369 6         0.000 6     -2451.627 6        37.977 6
G27  22014285.398 9 115685823.526 9      2519.668 9        55.370 9  22014287.334 6         0.000 6      1963.379 6        37.977 6
G16  20499347.345 9 107724777.067 9       577.838 9        55.976 9  20499346.518 6         0.000 6       450.263 6        37.977 6
G26  20648766.505 9 108509978.126 9     -1456.518 9        55.875 9  20648769.320 6         0.000 6     -1134.950 6        37.977 6
G20  21954024.098 9 115369142.124 9      2578.486 9        55.312 9  21954024.425 6         0.000 6      2009.211 6        37.977 6
> 2019 07 03 12 00 40.0000000  0  8       0.000000000000
G07  25355073.505 9 133241764.406 9      2182.163 9        54.129 9  25355074.179 6         0.000 6      1700.388 6        37.977 6
G10  23822591.901 9 125188510.513 9      3549.557 9        54.665 9  23822595.641 6         0.000 6      2765.891 6        37.977 6
G21  21166319.669 9 111229739.939 9     -1257.666 9        55.711 9  21166318.954 6         0.000 6      -980.000 6        37.977 6
G29  24288400.527 9 127636350.053 9     -3146.329 9        54.479 9  24288402.089 6         0.000 6     -2451.688 6        37.977 6
G27  22013805.944 9 115683303.982 9      2519.420 9        55.371 9  22013807.880 6         0.000 6      1963.185 6        37.977 6
G16  20499237.444 9 107724199.534 9       577.225 9        55.976 9  20499236.617 6         0.000 6       449.786 6        37.977 6
G26  20649043.726 9 108511434.927 9     -1457.086 9        55.875 9  20649046.540 6         0.000 6     -1135.392 6        37.977 6
G20  21953533.471 9 115366563.866 9      2578.045 9        55.312 9  21953533.798 6         0.000 6      2008.867 6        37.977 6
> 2019 07 03 12 00 41.0000000  0  8       0.000000000000
G07  25354658.296 9 133239582.475 9      2181.712 9        54.129 9  25354658.970 6         0.000 6      1700.037 6        37.977 6
G10  23821916.456 9 125184961.033 9      3549.417 9        54.665 9  23821920.194 6         0.000 6      2765.782 6        37.977 6
G21  21166559.030 9 111230997.788 9     -1258.038 9        55.711 9  21166558.315 6         0.000 6      -980.290 6        37.977 6
G29  24288999.261 9 127639496.413 9     -3146.412 9        54.479 9  24289000.824 6         0.000 6     -2451.752 6        37.977 6
G27  22013326.537 9 115680784.684 9      2519.176 9        55.371 9  22013328.473 6         0.000 6      1962.995 6        37.977 6
G16  20499127.659 9 107723622.612 9       576.614 9        55.976 9  20499126.833 6         0.000 6       449.309 6        37.977 6
G26  20649321.053 9 108512892.291 9     -1457.656 9        55.875 9  20649323.868 6         0.000 6     -1135.836 6        37.977 6
G20  21953042.928 9 115363986.046 9      2577.597 9        55.312 9  21953043.254 6         0.000 6      2008.518 6        37.977 6
> 2019 07 03 12 00 42.0000000  0  8       0.000000000000
G07  25354243.173 9 133237400.991 9      2181.259 9        54.129 9  25354243.847 6         0.000 6      1699.683 6        37.977 6
G10  23821241.037 9 125181411.696 9      3549.282 9        54.665 9  23821244.775 6         0.000 6      2765.677 6        37.977 6
G21  21166798.462 9 111232256.011 9     -1258.407 9        55.711 9  21166797.747 6         0.000 6      -980.577 6        37.977 6
G29  24289598.012 9 127642642.857 9     -3146.495 9        54.479 9  24289599.575 6         0.000 6     -2451.817 6        37.977 6
G27  22012847.177 9 115678265.633 9      2518.935 9        55.371 9  22012849.113 6         0.000 6      1962.807 6        37.977 6
G16  20499017.992 9 107723046.303 9       576.006 9        55.976 9  20499017.165 6         0.000 6       448.836 6        37.977 6
G26  20649598.490 9 108514350.231 9     -1458.221 9        55.875 9  20649601.305 6         0.000 6     -1136.277 6        37.977 6
G20  21952552.470 9 115361408.678 9      2577.152 9        55.312 9  21952552.796 6         0.000 6      2008.172 6        37.977 6
> 2019 07 03 12 00 43.0000000  0  8       0.000000000000
G07  25353828.137 9 133235219.965 9      2180.808 9        54.129 9  25353828.810 6         0.000 6      1699.332 6        37.977 6
G10  23820565.644 9 125177862.493 9      3549.142 9        54.665 9  23820569.382 6         0.000 6      2765.568 6        37.977 6
G21  21167037.965 9 111233514.607 9     -1258.779 9        55.711 9  21167037.250 6         0.000 6      -980.867 6        37.977 6
G29  24290196.778 9 127645789.384 9     -3146.578 9        54.478 9  24290198.342 6         0.000 6     -2451.881 6        37.977 6
G27  22012367.863 9 115675746.826 9      2518.691 9        55.371 9  22012369.799 6         0.000 6      1962.617 6        37.977 6
G16  20498908.440 9 107722470.607 9       575.395 9        55.976 9  20498907.613 6         0.000 6       448.360 6        37.977 6
G26  20649876.035 9 108515808.737 9     -1458.791 9        55.875 9  20649878.850 6         0.000 6     -1136.721 6        37.977 6
G20  21952062.097 9 115358831.755 9      2576.703 9        55.312 9  21952062.423 6         0.000 6      2007.822 6        37.977 6
> 2019 07 03 12 00 44.0000000  0  8       0.000000000000
G07  25353413.186 9 133233039.386 9      2180.353 9        54.129 9  25353413.859 6         0.000 6      1698.977 6        37.977 6
G10  23819890.278 9 125174313.431 9      3549.004 9        54.666 9  23819894.015 6         0.000 6      2765.460 6        37.977 6
G21  21167277.538 9 111234773.571 9     -1259.155 9        55.711 9  21167276.823 6         0.000 6      -981.160 6        37.977 6
G29  24290795.559 9 127648935.992 9     -3146.661 9        54.478 9  24290797.124 6         0.000 6     -2451.946 6        37.977 6
G27  22011888.596 9 115673228.260 9      2518.444 9        55.371 9  22011890.531 6         0.000 6      1962.425 6        37.977 6
G16  20498799.004 9 107721895.518 9       574.780 9        55.976 9  20498798.178 6         0.000 6       447.880 6        37.977 6
G26  20650153.688 9 108517267.812 9     -1459.363 9        55.875 9  20650156.503 6         0.000 6     -1137.167 6        37.977 6
G20  21951571.809 9 115356255.281 9      2576.254 9        55.313 9  21951572.135 6         0.000 6      2007.472 6        37.977 6
> 2019 07 03 12 00 45.0000000  0  8       0.000000000000
G07  25352998.321 9 133230859.262 9      2179.902 9        54.129 9  25352998.994 6         0.000 6      1698.626 6        37.977 6
G10  23819214.939 9 125170764.508 9      3548.864 9        54.666 9  23819218.675 6         0.000 6      2765.351 6        37.977 6
G21  21167517.182 9 111236032.911 9     -1259.526 9        55.711 9  21167516.467 6         0.000 6      -981.449 6        37.977 6
G29  24291394.357 9 127652082.684 9     -3146.744 9        54.478 9  24291395.922 6         0.000 6     -2452.011 6        37.977 6
G27  22011409.375 9 115670709.940 9      2518.200 9        55.372 9  22011411.310 6         0.000 6      1962.235 6        37.977 6
G16  20498689.686 9 107721321.044 9       574.168 9        55.976 9  20498688.859 6         0.000 6       447.404 6        37.977 6
G26  20650431.450 9 108518727.458 9     -1459.934 9        55.875 9  20650434.265 6         0.000 6     -1137.611 6        37.977 6
G20  21951081.607 9 115353679.255 9      2575.805 9        55.313 9  21951081.933 6         0.000 6      2007.122 6        37.977 6
> 2019 07 03 12 00 46.0000000  0  8       0.000000000000
G07  25352583.541 9 133228679.579 9      2179.516 9        54.130 9  25352584.214 6         0.000 6      1698.325 6        37.977 6
G10  23818539.627 9 125167215.733 9      3548.659 9        54.666 9  23818543.363 6         0.000 6      2765.192 6        37.977 6
G21  21167756.896 9 111237292.616 9     -1259.889 9        55.711 9  21167756.182 6         0.000 6      -981.731 6        37.977 6
G29  24291993.170 9 127655229.457 9     -3146.830 9        54.478 9  24291994.736 6         0.000 6     -2452.078 6        37.977 6
G27  22010930.200 9 115668191.860 9      2517.974 9        55.372 9  22010932.135 6         0.000 6      1962.058 6        37.977 6
G16  20498580.482 9 107720747.177 9       573.563 9        55.976 9  20498579.656 6         0.000 6       446.932 6        37.977 6
G26  20650709.320 9 108520187.676 9     -1460.533 9        55.875 9  20650712.135 6         0.000 6     -1138.078 6        37.977 6
G20  21950591.491 9 115351103.682 9      2575.312 9        55.313 9  21950591.816 6         0.000 6      2006.738 6        37.977 6
> 2019 07 03 12 00 47.0000000  0  8       0.000000000000
G07  25352168.809 9 133226500.153 9      2178.775 9        54.130 9  25352169.482 6         0.000 6      1697.747 6        37.977 6
G10  23817864.377 9 125163667.280 9      3548.644 9        54.666 9  23817868.112 6         0.000 6      2765.180 6        37.977 6
G21  21167996.685 9 111238552.711 9     -1259.850 9        55.710 9  21167995.970 6         0.000 6      -981.701 6        37.977 6
G29  24292592.019 9 127658376.422 9     -3145.796 9        54.477 9  24292593.586 6         0.000 6     -2451.272 6        37.977 6
G27  22010451.049 9 115665673.911 9      2516.918 9        55.372 9  22010452.984 6         0.000 6      1961.235 6        37.977 6
G16  20498471.387 9 107720173.877 9       572.557 9        55.976 9  20498470.560 6         0.000 6       446.149 6        37.977 6
G26  20650987.311 9 108521648.526 9     -1461.316 9        55.875 9  20650990.126 6         0.000 6     -1138.689 6        37.977 6
G20  21950101.490 9 115348528.714 9      2575.266 9        55.313 9  21950101.815 6         0.000 6      2006.702 6        37.977 6
> 2019 07 03 12 00 48.0000000  0  8       0.000000000000
G07  25351754.579 9 133224323.364 9      2175.996 9        54.130 9  25351755.252 6         0.000 6      1695.582 6        37.977 6
G10  23817188.968 9 125160117.990 9      3548.786 9        54.667 9  23817192.702 6         0.000 6      2765.290 6        37.977 6
G21  21168235.973 9 111239810.182 9     -1254.963 9        55.710 9  21168235.259 6         0.000 6      -977.893 6        37.977 6
G29  24293189.328 9 127661515.289 9     -3132.098 9        54.477 9  24293190.895 6         0.000 6     -2440.598 6        37.977 6
G27  22009973.081 9 115663162.172 9      2506.932 9        55.372 9  22009975.016 6         0.000 6      1953.455 6        37.977 6
G16  20498362.959 9 107719604.082 9       567.158 9        55.976 9  20498362.132 6         0.000 6       441.941 6        37.977 6
G26  20651265.704 9 108523111.487 9     -1465.124 9        55.874 9  20651268.519 6         0.000 6     -1141.655 6        37.977 6
G20  21949611.004 9 115345951.199 9      2578.943 9        55.313 9  21949611.329 6         0.000 6      2009.567 6        37.977 6
> 2019 07 03 12 00 49.0000000  0  8       0.000000000000
G07  25351340.124 9 133222145.393 9      2181.886 9        54.130 9  25351340.797 6         0.000 6      1700.172 6        37.977 6
G10  23816514.248 9 125156572.327 9      3540.713 9        54.667 9  23816517.982 6         0.000 6      2759.000 6        37.977 6
G21  21168474.327 9 111241062.735 9     -1250.084 9        55.710 9  21168473.612 6         0.000 6      -974.092 6        37.977 6
G29  24293784.306 9 127664641.912 9     -3121.782 9        54.477 9  24293785.874 6         0.000 6     -2432.560 6        37.977 6
G27  22009496.653 9 115660658.529 9      2501.223 9        55.372 9  22009498.587 6         0.000 6      1949.006 6        37.977 6
G16  20498255.415 9 107719038.934 9       563.482 9        55.976 9  20498254.588 6         0.000 6       439.077 6        37.977 6
G26  20651545.090 9 108524579.670 9     -1471.958 9        55.874 9  20651547.905 6         0.000 6     -1146.981 6        37.977 6
G20  21949120.382 9 115343372.966 9      2576.112 9        55.314 9  21949120.706 6         0.000 6      2007.361 6        37.977 6
> 2019 07 03 12 00 50.0000000  0  8       0.000000000000
G07  25350923.955 9 133219958.413 9      2189.598 9        54.130 9  25350924.627 6         0.000 6      1706.181 6        37.977 6
G10  23815841.561 9 125153037.342 9      3531.991 9        54.667 9  23815845.294 6         0.000 6      2752.204 6        37.977 6
G21  21168711.930 9 111242311.348 9     -1248.137 9        55.710 9  21168711.215 6         0.000 6      -972.575 6        37.977 6
G29  24294377.993 9 127667761.747 9     -3119.375 9        54.477 9  24294379.561 6         0.000 6     -2430.684 6        37.977 6
G27  22009020.724 9 115658157.510 9      2501.221 9        55.373 9  22009022.659 6         0.000 6      1949.004 6        37.977 6
G16  20498148.303 9 107718476.059 9       562.587 9        55.976 9  20498147.476 6         0.000 6       438.379 6        37.977 6
G26  20651825.845 9 108526055.044 9     -1477.166 9        55.874 9  20651828.660 6         0.000 6     -1151.039 6        37.977 6
G20  21948630.824 9 115340800.325 9      2570.589 9        55.314 9  21948631.148 6         0.000 6      2003.058 6        37.977 6
> 2019 07 03 12 00 51.0000000  0  8       0.000000000000
G07  25350507.173 9 133217768.212 9      2190.381 9        54.130 9  25350507.845 6         0.000 6      1706.791 6        37.977 6
G10  23815169.618 9 125149506.271 9      3530.602 9        54.667 9  23815173.351 6         0.000 6      2751.121 6        37.977 6
G21  21168949.449 9 111243559.517 9     -1248.284 9        55.710 9  21168948.734 6         0.000 6      -972.689 6        37.977 6
G29  24294971.593 9 127670881.127 9     -3119.419 9        54.477 9  24294973.162 6         0.000 6     -2430.719 6        37.977 6
G27  22008544.746 9 115655656.229 9      2501.247 9        55.373 9  22008546.680 6         0.000 6      1949.024 6        37.977 6
G16  20498041.295 9 107717913.728 9       562.043 9        55.976 9  20498040.468 6         0.000 6       437.956 6        37.977 6
G26  20652107.070 9 108527532.893 9     -1478.337 9        55.874 9  20652109.886 6         0.000 6     -1151.952 6        37.977 6
G20  21948141.805 9 115338230.520 9      2569.314 9        55.314 9  21948142.129 6         0.000 6      2002.064 6        37.977 6
> 2019 07 03 12 00 52.0000000  0  8       0.000000000000
G07  25350090.386 9 133215577.984 9      2190.040 9        54.130 9  25350091.057 6         0.000 6      1706.526 6        37.977 6
G10  23814497.796 9 125145975.830 9      3530.346 9        54.668 9  23814501.528 6         0.000 6      2750.922 6        37.977 6
G21  21169187.020 9 111244807.964 9     -1248.618 9        55.710 9  21169186.306 6         0.000 6      -972.949 6        37.977 6
G29  24295565.205 9 127674000.569 9     -3119.490 9        54.476 9  24295566.775 6         0.000 6     -2430.774 6        37.977 6
G27  22008068.795 9 115653155.091 9      2501.030 9        55.373 9  22008070.729 6         0.000 6      1948.855 6        37.977 6
G16  20497934.400 9 107717351.990 9       561.434 9        55.976 9  20497933.573 6         0.000 6       437.481 6        37.977 6
G26  20652388.451 9 108529011.557 9     -1478.970 9        55.874 9  20652391.267 6         0.000 6     -1152.445 6        37.977 6
G20  21947652.933 9 115335661.485 9      2568.796 9        55.314 9  21947653.257 6         0.000 6      2001.660 6        37.977 6
> 2019 07 03 12 00 53.0000000  0  8       0.000000000000
G07  25349673.678 9 133213388.173 9      2189.592 9        54.131 9  25349674.349 6         0.000 6      1706.176 6        37.977 6
G10  23813826.007 9 125142445.567 9      3530.198 9        54.668 9  23813829.738 6         0.000 6      2750.806 6        37.977 6
G21  21169424.658 9 111246056.759 9     -1248.974 9        55.710 9  21169423.944 6         0.000 6      -973.227 6        37.977 6
G29  24296158.832 9 127677120.086 9     -3119.564 9        54.476 9  24296160.402 6         0.000 6     -2430.832 6        37.977 6
G27  22007592.887 9 115650654.184 9      2500.787 9        55.373 9  22007594.821 6         0.000 6      1948.666 6        37.977 6
G16  20497827.621 9 107716790.865 9       560.813 9        55.976 9  20497826.794 6         0.000 6       436.997 6        37.977 6
G26  20652669.945 9 108530490.816 9     -1479.555 9        55.874 9  20652672.761 6         0.000 6     -1152.900 6        37.977 6
G20  21947164.150 9 115333092.915 9      2568.348 9        55.314 9  21947164.473 6         0.000 6      2001.311 6        37.977 6
> 2019 07 03 12 00 54.0000000  0  8       0.000000000000
G07  25349257.056 9 133211198.814 9      2189.130 9        54.131 9  25349257.727 6         0.000 6      1705.817 6        37.977 6
G10  23813154.246 9 125138915.448 9      3530.063 9        54.668 9  23813157.976 6         0.000 6      2750.701 6        37.977 6
G21  21169662.364 9 111247305.913 9     -1249.333 9        55.710 9  21169661.650 6         0.000 6      -973.507 6        37.977 6
G29  24296752.473 9 127680239.683 9     -3119.645 9        54.476 9  24296754.044 6         0.000 6     -2430.895 6        37.977 6
G27  22007117.026 9 115648153.518 9      2500.547 9        55.373 9  22007118.960 6         0.000 6      1948.479 6        37.977 6
G16  20497720.961 9 107716230.360 9       560.196 9        55.976 9  20497720.134 6         0.000 6       436.516 6        37.977 6
G26  20652951.550 9 108531970.656 9     -1480.129 9        55.874 9  20652954.366 6         0.000 6     -1153.348 6        37.977 6
G20  21946675.452 9 115330524.793 9      2567.909 9        55.315 9  21946675.775 6         0.000 6      2000.969 6        37.977 6
> 2019 07 03 12 00 55.0000000  0  8       0.000000000000
G07  25348840.522 9 133209009.917 9      2188.669 9        54.131 9  25348841.193 6         0.000 6      1705.457 6        37.977 6
G10  23812482.510 9 125135385.464 9      3529.929 9        54.668 9  23812486.240 6         0.000 6      2750.597 6        37.977 6
G21  21169900.139 9 111248555.426 9     -1249.692 9        55.710 9  21169899.424 6         0.000 6      -973.786 6        37.977 6
G29  24297346.130 9 127683359.360 9     -3119.725 9        54.476 9  24297347.701 6         0.000 6     -2430.957 6        37.977 6
G27  22006641.210 9 115645653.093 9      2500.306 9        55.373 9  22006643.144 6         0.000 6      1948.291 6        37.977 6
G16  20497614.418 9 107715670.472 9       559.579 9        55.976 9  20497613.591 6         0.000 6       436.035 6        37.977 6
G26  20653233.264 9 108533451.071 9     -1480.704 9        55.874 9  20653236.080 6         0.000 6     -1153.796 6        37.977 6
G20  21946186.837 9 115327957.110 9      2567.469 9        55.315 9  21946187.160 6         0.000 6      2000.626 6        37.977 6
> 2019 07 03 12 00 56.0000000  0  8       0.000000000000
G07  25348424.076 9 133206821.479 9      2188.210 9        54.131 9  25348424.746 6         0.000 6      1705.099 6        37.977 6
G10  23811810.801 9 125131855.618 9      3529.792 9        54.668 9  23811814.530 6         0.000 6      2750.490 6        37.977 6
G21  21170137.982 9 111249805.300 9     -1250.053 9        55.710 9  21170137.268 6         0.000 6      -974.068 6        37.977 6
G29  24297939.802 9 127686479.118 9     -3119.811 9        54.476 9  24297941.374 6         0.000 6     -2431.024 6        37.977 6
G27  22006165.441 9 115643152.909 9      2500.070 9        55.374 9  22006167.374 6         0.000 6      1948.107 6        37.977 6
G16  20497507.992 9 107715111.204 9       558.963 9        55.976 9  20497507.166 6         0.000 6       435.556 6        37.977 6
G26  20653515.088 9 108534932.066 9     -1481.279 9        55.873 9  20653517.904 6         0.000 6     -1154.244 6        37.977 6
G20  21945698.307 9 115325389.871 9      2567.026 9        55.315 9  21945698.629 6         0.000 6      2000.281 6        37.977 6
> 2019 07 03 12 00 57.0000000  0  8       0.000000000000
G07  25348007.717 9 133204633.505 9      2187.751 9        54.131 9  25348008.388 6         0.000 6      1704.742 6        37.977 6
G10  23811139.116 9 125128325.903 9      3529.655 9        54.669 9  23811142.845 6         0.000 6      2750.384 6        37.977 6
G21  21170375.895 9 111251055.537 9     -1250.414 9        55.709 9  21170375.180 6         0.000 6      -974.349 6        37.977 6
G29  24298533.490 9 127689598.962 9     -3119.896 9        54.475 9  24298535.063 6         0.000 6     -2431.091 6        37.977 6
G27  22005689.716 9 115640652.964 9      2499.833 9        55.374 9  22005691.649 6         0.000 6      1947.923 6        37.977 6
G16  20497401.685 9 107714552.553 9       558.347 9        55.976 9  20497400.858 6         0.000 6       435.076 6        37.977 6
G26  20653797.021 9 108536413.633 9     -1481.854 9        55.873 9  20653799.837 6         0.000 6     -1154.692 6        37.977 6
G20  21945209.860 9 115322823.071 9      2566.583 9        55.315 9  21945210.182 6         0.000 6      1999.936 6        37.977 6
> 2019 07 03 12 00 58.0000000  0  8       0.000000000000
G07  25347591.446 9 133202445.990 9      2187.289 9        54.131 9  25347592.117 6         0.000 6      1704.382 6        37.977 6
G10  23810467.458 9 125124796.325 9      3529.521 9        54.669 9  23810471.185 6         0.000 6      2750.279 6        37.977 6
G21  21170613.875 9 111252306.129 9     -1250.773 9        55.709 9  21170613.160 6         0.000 6      -974.629 6        37.977 6
G29  24299127.194 9 127692718.886 9     -3119.977 9        54.475 9  24299128.768 6         0.000 6     -2431.153 6        37.977 6
G27  22005214.037 9 115638153.255 9      2499.593 9        55.374 9  22005215.970 6         0.000 6      1947.735 6        37.977 6
G16  20497295.494 9 107713994.516 9       557.730 9        55.977 9  20497294.667 6         0.000 6       434.595 6        37.977 6
G26  20654079.063 9 108537895.773 9     -1482.429 9        55.873 9  20654081.880 6         0.000 6     -1155.140 6        37.977 6
G20  21944721.497 9 115320256.711 9      2566.144 9        55.315 9  21944721.819 6         0.000 6      1999.593 6        37.977 6
> 2019 07 03 12 00 59.0000000  0  8       0.000000000000
G07  25347175.256 9 133200258.899 9      2186.910 9        54.131 9  25347175.926 6         0.000 6      1704.087 6        37.977 6
G10  23809795.830 9 125121266.908 9      3529.329 9        54.669 9  23809799.557 6         0.000 6      2750.129 6        37.977 6
G21  21170851.928 9 111253557.109 9     -1251.195 9        55.709 9  21170851.214 6         0.000 6      -974.957 6        37.977 6
G29  24299720.929 9 127695838.973 9     -3120.238 9        54.475 9  24299722.503 6         0.000 6     -2431.357 6        37.977 6
G27  22004738.392 9 115635653.725 9      2499.491 9        55.374 9  22004740.325 6         0.000 6      1947.656 6        37.977 6
G16  20497189.415 9 107713437.067 9       557.177 9        55.977 9  20497188.588 6         0.000 6       434.164 6        37.977 6
G26  20654361.214 9 108539378.481 9     -1482.988 9        55.873 9  20654364.030 6         0.000 6     -1155.575 6        37.977 6
G20  21944233.226 9 115317690.833 9      2565.613 9        55.315 9  21944233.548 6         0.000 6      1999.180 6        37.977 6
> 2019 07 03 12 01  0.0000000  0  8       0.000000000000
G07  25346758.687 9 133198069.818 9      2194.975 9        54.132 9  25346759.357 6         0.000 6      1710.371 6        37.977 6
G10  23809124.682 9 125117740.013 9      3520.865 9        54.669 9  23809128.409 6         0.000 6      2743.534 6        37.977 6
G21  21171090.015 9 111254808.262 9     -1250.855 9        55.709 9  21171089.301 6         0.000 6      -974.692 6        37.977 6
G29  24300314.775 9 127698959.646 9     -3121.939 9        54.475 9  24300316.350 6         0.000 6     -2432.682 6        37.977 6
G27  22004262.619 9 115633153.527 9      2502.313 9        55.374 9  22004264.552 6         0.000 6      1949.855 6        37.977 6
G16  20497083.390 9 107712879.901 9       557.670 9        55.977 9  20497082.563 6         0.000 6       434.548 6        37.977 6
G26  20654643.663 9 108540862.762 9     -1487.086 9        55.873 9  20654646.480 6         0.000 6     -1158.769 6        37.977 6
G20  21943745.372 9 115315127.146 9      2559.101 9        55.316 9  21943745.693 6         0.000 6      1994.105 6        37.977 6
> 2019 07 03 12 01  1.0000000  0  8       0.000000000000
G07  25346339.588 9 133195867.441 9      2209.539 9        54.132 9  25346340.258 6         0.000 6      1721.720 6        37.977 6
G10  23808456.055 9 125114226.361 9      3506.870 9        54.670 9  23808459.780 6         0.000 6      2732.629 6        37.977 6
G21  21171328.129 9 111256059.558 9     -1252.206 9        55.709 9  21171327.415 6         0.000 6      -975.745 6        37.977 6
G29  24300909.557 9 127702085.233 9     -3130.308 9        54.474 9  24300911.132 6         0.000 6     -2439.204 6        37.977 6
G27  22003785.671 9 115630647.152 9      2511.089 9        55.375 9  22003787.604 6         0.000 6      1956.694 6        37.977 6
G16  20496977.000 9 107712320.821 9       560.832 9        55.977 9  20496976.173 6         0.000 6       437.012 6        37.977 6
G26  20654927.172 9 108542352.611 9     -1492.161 9        55.873 9  20654929.989 6         0.000 6     -1162.723 6        37.977 6
G20  21943259.544 9 115312574.109 9      2546.960 9        55.316 9  21943259.865 6         0.000 6      1984.645 6        37.977 6
> 2019 07 03 12 01  2.0000000  0  8       0.000000000000
G07  25345917.744 9 133193650.639 9      2222.133 9        54.132 9  25345918.413 6         0.000 6      1731.533 6        37.977 6
G10  23807789.944 9 125110725.935 9      3495.856 9        54.670 9  23807793.669 6         0.000 6      2724.047 6        37.977 6
G21  21171566.832 9 111257313.949 9     -1256.601 9        55.709 9  21171566.117 6         0.000 6      -979.170 6        37.977 6
G29  24301506.729 9 127705223.387 9     -3145.340 9        54.474 9  24301508.305 6         0.000 6     -2450.917 6        37.977 6
G27  22003306.528 9 115628129.240 9      2523.842 9        55.375 9  22003308.461 6         0.000 6      1966.631 6        37.977 6
G16  20496869.743 9 107711757.183 9       566.096 9        55.977 9  20496868.916 6         0.000 6       441.114 6        37.977 6
G26  20655211.383 9 108543846.148 9     -1494.205 9        55.873 9  20655214.200 6         0.000 6     -1164.316 6        37.977 6
G20  21942776.156 9 115310033.893 9      2534.926 9        55.316 9  21942776.477 6         0.000 6      1975.268 6        37.977 6
> 2019 07 03 12 01  3.0000000  0  8       0.000000000000
G07  25345494.694 9 133191427.500 9      2223.538 9        54.132 9  25345495.363 6         0.000 6      1732.628 6        37.977 6
G10  23807124.889 9 125107231.061 9      3494.370 9        54.670 9  23807128.613 6         0.000 6      2722.889 6        37.977 6
G21  21171806.129 9 111258571.463 9     -1258.101 9        55.709 9  21171805.414 6         0.000 6      -980.338 6        37.977 6
G29  24302105.708 9 127708371.032 9     -3148.926 9        54.474 9  24302107.285 6         0.000 6     -2453.711 6        37.977 6
G27  22002825.937 9 115625603.720 9      2526.360 9        55.375 9  22002827.870 6         0.000 6      1968.593 6        37.977 6
G16  20496761.918 9 107711190.555 9       566.763 9        55.977 9  20496761.091 6         0.000 6       441.634 6        37.977 6
G26  20655495.752 9 108545340.513 9     -1494.573 9        55.873 9  20655498.569 6         0.000 6     -1164.603 6        37.977 6
G20  21942294.057 9 115307500.448 9      2532.578 9        55.316 9  21942294.377 6         0.000 6      1973.439 6        37.977 6
> 2019 07 03 12 01  4.0000000  0  8       0.000000000000
G07  25345071.586 9 133189204.058 9      2223.287 9        54.132 9  25345072.255 6         0.000 6      1732.433 6        37.977 6
G10  23806459.964 9 125103736.864 9      3494.090 9        54.670 9  23806463.687 6         0.000 6      2722.670 6        37.977 6
G21  21172045.590 9 111259829.839 9     -1258.597 9        55.709 9  21172044.876 6         0.000 6      -980.725 6        37.977 6
G29  24302704.992 9 127711520.278 9     -3149.434 9        54.474 9  24302706.569 6         0.000 6     -2454.107 6        37.977 6
G27  22002345.168 9 115623077.263 9      2526.448 9        55.375 9  22002347.100 6         0.000 6      1968.661 6        37.977 6
G16  20496654.106 9 107710624.002 9       566.292 9        55.977 9  20496653.279 6         0.000 6       441.267 6        37.977 6
G26  20655780.211 9 108546835.353 9     -1495.122 9        55.873 9  20655783.028 6         0.000 6     -1165.030 6        37.977 6
G20  21941812.193 9 115304968.240 9      2531.924 9        55.316 9  21941812.513 6         0.000 6      1972.929 6        37.977 6
> 2019 07 03 12 01  5.0000000  0  8       0.000000000000
G07  25344648.547 9 133186980.977 9      2222.861 9        54.132 9  25344649.216 6         0.000 6      1732.101 6        37.977 6
G10  23805795.077 9 125100242.875 9      3493.928 9        54.671 9  23805798.801 6         0.000 6      2722.544 6        37.977 6
G21  21172285.128 9 111261088.623 9     -1258.969 9        55.709 9  21172284.414 6         0.000 6      -981.015 6        37.977 6
G29  24303304.323 9 127714669.777 9     -3149.566 9        54.474 9  24303305.901 6         0.000 6     -2454.209 6        37.977 6
G27  22001864.419 9 115620550.912 9      2526.242 9        55.375 9  22001866.351 6         0.000 6      1968.501 6        37.977 6
G16  20496546.402 9 107710058.011 9       565.681 9        55.977 9  20496545.575 6         0.000 6       440.790 6        37.977 6
G26  20656064.779 9 108548330.767 9     -1495.708 9        55.872 9  20656067.596 6         0.000 6     -1165.487 6        37.977 6
G20  21941330.430 9 115302436.562 9      2531.456 9        55.317 9  21941330.750 6         0.000 6      1972.565 6        37.977 6
> 2019 07 03 12 01  6.0000000  0  8       0.000000000000
G07  25344225.593 9 133184758.339 9      2222.415 9        54.132 9  25344226.261 6         0.000 6      1731.753 6        37.977 6
G10  23805130.220 9 125096749.034 9      3493.779 9        54.671 9  23805133.942 6         0.000 6      2722.428 6        37.977 6
G21  21172524.737 9 111262347.772 9     -1259.332 9        55.709 9  21172524.023 6         0.000 6      -981.298 6        37.977 6
G29  24303903.675 9 127717819.382 9     -3149.661 9        54.473 9  24303905.254 6         0.000 6     -2454.284 6        37.977 6
G27  22001383.713 9 115618024.787 9      2526.005 9        55.376 9  22001385.644 6         0.000 6      1968.317 6        37.977 6
G16  20496438.815 9 107709492.641 9       565.053 9        55.977 9  20496437.988 6         0.000 6       440.301 6        37.977 6
G26  20656349.459 9 108549826.769 9     -1496.300 9        55.872 9  20656352.276 6         0.000 6     -1165.949 6        37.977 6
G20  21940848.753 9 115299905.337 9      2531.007 9        55.317 9  21940849.072 6         0.000 6      1972.214 6        37.977 6
> 2019 07 03 12 01  7.0000000  0  8       0.000000000000
G07  25343802.724 9 133182536.153 9      2221.966 9        54.133 9  25343803.392 6         0.000 6      1731.403 6        37.977 6
G10  23804465.389 9 125093255.336 9      3493.634 9        54.671 9  23804469.111 6         0.000 6      2722.315 6        37.977 6
G21  21172764.413 9 111263607.279 9     -1259.693 9        55.708 9  21172763.699 6         0.000 6      -981.579 6        37.977 6
G29  24304503.044 9 127720969.078 9     -3149.757 9        54.473 9  24304504.624 6         0.000 6     -2454.358 6        37.977 6
G27  22000903.052 9 115615498.901 9      2525.771 9        55.376 9  22000904.984 6         0.000 6      1968.134 6        37.977 6
G16  20496331.348 9 107708927.898 9       564.428 9        55.977 9  20496330.521 6         0.000 6       439.814 6        37.977 6
G26  20656634.251 9 108551323.357 9     -1496.888 9        55.872 9  20656637.068 6         0.000 6     -1166.406 6        37.977 6
G20  21940367.160 9 115297374.554 9      2530.561 9        55.317 9  21940367.479 6         0.000 6      1971.867 6        37.977 6
> 2019 07 03 12 01  8.0000000  0  8       0.000000000000
G07  25343379.942 9 133180314.419 9      2221.512 9        54.133 9  25343380.610 6         0.000 6      1731.049 6        37.977 6
G10  23803800.585 9 125089761.780 9      3493.496 9        54.671 9  23803804.307 6         0.000 6      2722.207 6        37.977 6
G21  21173004.159 9 111264867.151 9     -1260.049 9        55.708 9  21173003.445 6         0.000 6      -981.856 6        37.977 6
G29  24305102.432 9 127724118.871 9     -3149.847 9        54.473 9  24305104.012 6         0.000 6     -2454.429 6        37.977 6
G27  22000422.437 9 115612973.254 9      2525.534 9        55.376 9  22000424.368 6         0.000 6      1967.949 6        37.977 6
G16  20496224.001 9 107708363.783 9       563.805 9        55.977 9  20496223.174 6         0.000 6       439.329 6        37.977 6
G26  20656919.155 9 108552820.535 9     -1497.470 9        55.872 9  20656921.972 6         0.000 6     -1166.860 6        37.977 6
G20  21939885.652 9 115294844.216 9      2530.123 9        55.317 9  21939885.971 6         0.000 6      1971.525 6        37.977 6
> 2019 07 03 12 01  9.0000000  0  8       0.000000000000
G07  25342957.246 9 133178093.140 9      2221.054 9        54.133 9  25342957.913 6         0.000 6      1730.692 6        37.977 6
G10  23803135.808 9 125086268.363 9      3493.360 9        54.672 9  23803139.529 6         0.000 6      2722.101 6        37.977 6
G21  21173243.972 9 111266127.379 9     -1260.409 9        55.708 9  21173243.258 6         0.000 6      -982.137 6        37.977 6
G29  24305701.837 9 127727268.753 9     -3149.938 9        54.473 9  24305703.417 6         0.000 6     -2454.500 6        37.977 6
G27  21999941.866 9 115610447.843 9      2525.294 9        55.376 9  21999943.798 6         0.000 6      1967.762 6        37.977 6
G16  20496116.772 9 107707800.292 9       563.178 9        55.977 9  20496115.945 6         0.000 6       438.840 6        37.977 6
G26  20657204.169 9 108554318.295 9     -1498.054 9        55.872 9  20657206.986 6         0.000 6     -1167.315 6        37.977 6
G20  21939404.227 9 115292314.318 9      2529.684 9        55.317 9  21939404.546 6         0.000 6      1971.183 6        37.977 6
> 2019 07 03 12 01 10.0000000  0  8       0.000000000000
G07  25342534.636 9 133175872.316 9      2220.598 9        54.133 9  25342535.304 6         0.000 6      1730.337 6        37.977 6
G10  23802471.058 9 125082775.087 9      3493.219 9        54.672 9  23802474.778 6         0.000 6      2721.991 6        37.977 6
G21  21173483.855 9 111267387.969 9     -1260.771 9        55.708 9  21173483.141 6         0.000 6      -982.419 6        37.977 6
G29  24306301.259 9 127730418.727 9     -3150.029 9        54.473 9  24306302.840 6         0.000 6     -2454.571 6        37.977 6
G27  21999461.342 9 115607922.674 9      2525.052 9        55.376 9  21999463.273 6         0.000 6      1967.574 6        37.977 6
G16  20496009.663 9 107707237.431 9       562.548 9        55.977 9  20496008.836 6         0.000 6       438.349 6        37.977 6
G26  20657489.296 9 108555816.645 9     -1498.643 9        55.872 9  20657492.113 6         0.000 6     -1167.774 6        37.977 6
G20  21938922.887 9 115289784.862 9      2529.241 9        55.318 9  21938923.205 6         0.000 6      1970.838 6        37.977 6
> 2019 07 03 12 01 11.0000000  0  8       0.000000000000
G07  25342112.113 9 133173651.947 9      2220.144 9        54.133 9  25342112.781 6         0.000 6      1729.983 6        37.977 6
G10  23801806.334 9 125079281.949 9      3493.080 9        54.672 9  23801810.053 6         0.000 6      2721.883 6        37.977 6
G21  21173723.805 9 111268648.916 9     -1261.127 9        55.708 9  21173723.091 6         0.000 6      -982.696 6        37.977 6
G29  24306900.698 9 127733568.791 9     -3150.120 9        54.472 9  24306902.279 6         0.000 6     -2454.641 6        37.977 6
G27  21998980.863 9 115605397.741 9      2524.815 9        55.376 9  21998982.794 6         0.000 6      1967.389 6        37.977 6
G16  20495902.673 9 107706675.193 9       561.925 9        55.977 9  20495901.846 6         0.000 6       437.863 6        37.977 6
G26  20657774.533 9 108557315.576 9     -1499.225 9        55.872 9  20657777.351 6         0.000 6     -1168.228 6        37.977 6
G20  21938441.630 9 115287255.845 9      2528.802 9        55.318 9  21938441.948 6         0.000 6      1970.496 6        37.977 6
> 2019 07 03 12 01 12.0000000  0  8       0.000000000000
G07  25341689.678 9 133171432.040 9      2219.685 9        54.133 9  25341690.345 6         0.000 6      1729.626 6        37.977 6
G10  23801141.635 9 125075788.945 9      3492.944 9        54.672 9  23801145.354 6         0.000 6      2721.777 6        37.977 6
G21  21173963.825 9 111269910.226 9     -1261.487 9        55.708 9  21173963.111 6         0.000 6      -982.977 6        37.977 6
G29  24307500.154 9 127736718.947 9     -3150.211 9        54.472 9  24307501.737 6         0.000 6     -2454.712 6        37.977 6
G27  21998500.430 9 115602873.052 9      2524.575 9        55.377 9  21998502.361 6         0.000 6      1967.202 6        37.977 6
G16  20495795.802 9 107706113.585 9       561.298 9        55.977 9  20495794.975 6         0.000 6       437.375 6        37.977 6
G26  20658059.882 9 108558815.093 9     -1499.809 9        55.872 9  20658062.700 6         0.000 6     -1168.683 6        37.977 6
G20  21937960.457 9 115284727.268 9      2528.363 9        55.318 9  21937960.775 6         0.000 6      1970.154 6        37.977 6
> 2019 07 03 12 01 13.0000000  0  8       0.000000000000
G07  25341267.336 9 133169212.618 9      2219.131 9        54.133 9  25341268.003 6         0.000 6      1729.194 6        37.977 6
G10  23800476.957 9 125072296.050 9      3492.902 9        54.673 9  23800480.675 6         0.000 6      2721.744 6        37.977 6
G21  21174203.912 9 111271171.895 9     -1261.865 9        55.708 9  21174203.198 6         0.000 6      -983.271 6        37.977 6
G29  24308099.628 9 127739869.191 9     -3150.302 9        54.472 9  24308101.211 6         0.000 6     -2454.784 6        37.977 6
G27  21998020.044 9 115600348.607 9      2524.311 9        55.377 9  21998021.974 6         0.000 6      1966.996 6        37.977 6
G16  20495689.051 9 107705552.602 9       560.662 9        55.977 9  20495688.224 6         0.000 6       436.879 6        37.977 6
G26  20658345.339 9 108560315.176 9     -1500.350 9        55.871 9  20658348.157 6         0.000 6     -1169.104 6        37.977 6
G20  21937479.363 9 115282199.107 9      2527.986 9        55.318 9  21937479.681 6         0.000 6      1969.861 6        37.977 6
> 2019 07 03 12 01 14.0000000  0  8       0.000000000000
G07  25340845.061 9 133166993.552 9      2220.274 9        54.134 9  25340845.727 6         0.000 6      1730.084 6        37.977 6
G10  23799812.307 9 125068803.297 9      3491.857 9        54.673 9  23799816.024 6         0.000 6      2720.931 6        37.977 6
G21  21174444.116 9 111272434.175 9     -1263.881 9        55.708 9  21174443.403 6         0.000 6      -984.843 6        37.977 6
G29  24308699.242 9 127743020.173 9     -3155.047 9        54.472 9  24308700.825 6         0.000 6     -2458.481 6        37.977 6
G27  21997539.617 9 115597823.949 9      2527.537 9        55.377 9  21997541.547 6         0.000 6      1969.510 6        37.977 6
G16  20495582.376 9 107704992.023 9       561.704 9        55.977 9  20495581.549 6         0.000 6       437.691 6        37.977 6
G26  20658630.877 9 108561815.690 9     -1500.221 9        55.871 9  20658633.695 6         0.000 6     -1169.004 6        37.977 6
G20  21936998.389 9 115279671.576 9      2525.606 9        55.318 9  21936998.706 6         0.000 6      1968.006 6        37.977 6
> 2019 07 03 12 01 15.0000000  0  8       0.000000000000
G07  25340422.430 9 133164772.619 9      2220.242 9        54.134 9  25340423.097 6         0.000 6      1730.060 6        37.977 6
G10  23799147.810 9 125065311.357 9      3493.309 9        54.673 9  23799151.527 6         0.000 6      2722.062 6        37.977 6
G21  21174685.184 9 111273700.993 9     -1269.685 9        55.708 9  21174684.470 6         0.000 6      -989.365 6        37.977 6
G29  24309300.975 9 127746182.291 9     -3168.514 9        54.471 9  24309302.559 6         0.000 6     -2468.975 6        37.977 6
G27  21997057.737 9 115595291.655 9      2536.283 9        55.377 9  21997059.667 6         0.000 6      1976.325 6        37.977 6
G16  20495475.087 9 107704428.214 9       565.602 9        55.977 9  20495474.260 6         0.000 6       440.729 6        37.977 6
G26  20658916.073 9 108563314.401 9     -1496.770 9        55.871 9  20658918.891 6         0.000 6     -1166.315 6        37.977 6
G20  21936518.187 9 115277148.100 9      2522.405 9        55.319 9  21936518.504 6         0.000 6      1965.512 6        37.977 6
> 2019 07 03 12 01 16.0000000  0  8       0.000000000000
G07  25340000.674 9 133162556.280 9      2210.288 9        54.134 9  25340001.341 6         0.000 6      1722.303 6        37.977 6
G10  23798482.224 9 125061813.686 9      3504.081 9        54.673 9  23798485.940 6         0.000 6      2730.456 6        37.977 6
G21  21174927.336 9 111274973.512 9     -1275.313 9        55.708 9  21174926.623 6         0.000 6      -993.751 6        37.977 6
G29  24309904.880 9 127749355.823 9     -3177.634 9        54.471 9  24309906.465 6         0.000 6     -2476.081 6        37.977 6
G27  21996574.654 9 115592753.044 9      2539.826 9        55.377 9  21996576.584 6         0.000 6      1979.086 6        37.977 6
G16  20495367.242 9 107703861.488 9       567.404 9        55.977 9  20495366.415 6         0.000 6       442.133 6        37.977 6
G26  20659200.322 9 108564808.137 9     -1489.969 9        55.871 9  20659203.140 6         0.000 6     -1161.015 6        37.977 6
G20  21936037.935 9 115274624.364 9      2526.708 9        55.319 9  21936038.252 6         0.000 6      1968.865 6        37.977 6
> 2019 07 03 12 01 17.0000000  0  8       0.000000000000
G07  25339580.712 9 133160349.368 9      2204.929 9        54.134 9  25339581.378 6         0.000 6      1718.127 6        37.977 6
G10  23797814.814 9 125058306.437 9      3508.982 9        54.674 9  23797818.530 6         0.000 6      2734.274 6        37.977 6
G21  21175170.196 9 111276249.745 9     -1276.773 9        55.707 9  21175169.482 6         0.000 6      -994.888 6        37.977 6
G29  24310509.678 9 127752534.047 9     -3178.437 9        54.471 9  24310511.263 6         0.000 6     -2476.707 6        37.977 6
G27  21996091.434 9 115590213.703 9      2538.913 9        55.378 9  21996093.363 6         0.000 6      1978.375 6        37.977 6
G16  20495259.330 9 107703294.405 9       566.709 9        55.977 9  20495258.503 6         0.000 6       441.592 6        37.977 6
G26  20659483.589 9 108566296.715 9     -1487.984 9        55.871 9  20659486.407 6         0.000 6     -1159.468 6        37.977 6
G20  21935556.775 9 115272095.858 9      2529.444 9        55.319 9  21935557.092 6         0.000 6      1970.997 6        37.977 6
> 2019 07 03 12 01 18.0000000  0  8       0.000000000000
G07  25339161.262 9 133158145.145 9      2203.782 9        54.134 9  25339161.928 6         0.000 6      1717.234 6        37.977 6
G10  23797147.000 9 125054797.059 9      3509.540 9        54.674 9  23797150.715 6         0.000 6      2734.709 6        37.977 6
G21  21175413.209 9 111277526.788 9     -1277.262 9        55.707 9  21175412.495 6         0.000 6      -995.269 6        37.977 6
G29  24311114.525 9 127755712.530 9     -3178.540 9        54.471 9  24311116.111 6         0.000 6     -2476.787 6        37.977 6
G27  21995608.338 9 115587675.023 9      2538.512 9        55.378 9  21995610.268 6         0.000 6      1978.062 6        37.977 6
G16  20495151.554 9 107702728.039 9       566.045 9        55.977 9  20495150.727 6         0.000 6       441.074 6        37.977 6
G26  20659766.755 9 108567784.761 9     -1488.228 9        55.871 9  20659769.574 6         0.000 6     -1159.659 6        37.977 6
G20  21935075.421 9 115269566.326 9      2529.463 9        55.319 9  21935075.737 6         0.000 6      1971.011 6        37.977 6
> 2019 07 03 12 01 19.0000000  0  8       0.000000000000
G07  25338741.947 9 133155941.636 9      2203.267 9        54.134 9  25338742.613 6         0.000 6      1716.833 6        37.977 6
G10  23796479.162 9 125051287.554 9      3509.462 9        54.674 9  23796482.875 6         0.000 6      2734.648 6        37.977 6
G21  21175656.300 9 111278804.239 9     -1277.649 9        55.707 9  21175655.586 6         0.000 6      -995.571 6        37.977 6
G29  24311719.390 9 127758891.107 9     -3178.640 9        54.471 9  24311720.977 6         0.000 6     -2476.865 6        37.977 6
G27  21995125.300 9 115585136.642 9      2538.257 9        55.378 9  21995127.229 6         0.000 6      1977.863 6        37.977 6
G16  20495043.898 9 107702162.303 9       565.420 9        55.977 9  20495043.071 6         0.000 6       440.587 6        37.977 6
G26  20660050.006 9 108569273.251 9     -1488.775 9        55.871 9  20660052.824 6         0.000 6     -1160.085 6        37.977 6
G20  21934594.116 9 115267037.060 9      2529.054 9        55.319 9  21934594.432 6         0.000 6      1970.693 6        37.977 6
> 2019 07 03 12 01 20.0000000  0  8       0.000000000000
G07  25338322.723 9 133153738.601 9      2202.809 9        54.134 9  25338323.389 6         0.000 6      1716.476 6        37.977 6
G10  23795811.346 9 125047778.171 9      3509.328 9        54.674 9  23795815.059 6         0.000 6      2734.544 6        37.977 6
G21  21175899.464 9 111280082.076 9     -1278.019 9        55.707 9  21175898.751 6         0.000 6      -995.859 6        37.977 6
G29  24312324.275 9 127762069.787 9     -3178.734 9        54.470 9  24312325.862 6         0.000 6     -2476.938 6        37.977 6
G27  21994642.309 9 115582598.510 9      2538.013 9        55.378 9  21994644.238 6         0.000 6      1977.673 6        37.977 6
G16  20494936.361 9 107701597.194 9       564.801 9        55.978 9  20494935.535 6         0.000 6       440.104 6        37.977 6
G26  20660333.365 9 108570762.311 9     -1489.347 9        55.871 9  20660336.183 6         0.000 6     -1160.530 6        37.977 6
G20  21934112.896 9 115264508.234 9      2528.612 9        55.319 9  21934113.212 6         0.000 6      1970.348 6        37.977 6
> 2019 07 03 12 01 21.0000000  0  8       0.000000000000
G07  25337903.585 9 133151536.019 9      2202.360 9        54.135 9  25337904.250 6         0.000 6      1716.125 6        37.977 6
G10  23795143.557 9 125044268.927 9      3509.184 9        54.675 9  23795147.270 6         0.000 6      2734.431 6        37.977 6
G21  21176142.699 9 111281360.281 9     -1278.391 9        55.707 9  21176141.985 6         0.000 6      -996.149 6        37.977 6
G29  24312929.177 9 127765248.559 9     -3178.826 9        54.470 9  24312930.765 6         0.000 6     -2477.010 6        37.977 6
G27  21994159.364 9 115580060.620 9      2537.769 9        55.378 9  21994161.293 6         0.000 6      1977.483 6        37.977 6
G16  20494828.943 9 107701032.704 9       564.179 9        55.978 9  20494828.116 6         0.000 6       439.620 6        37.977 6
G26  20660616.833 9 108572251.945 9     -1489.925 9        55.871 9  20660619.652 6         0.000 6     -1160.981 6        37.977 6
G20  21933631.760 9 115261979.853 9      2528.161 9        55.320 9  21933632.076 6         0.000 6      1969.997 6        37.977 6
> 2019 07 03 12 01 22.0000000  0  8       0.000000000000
G07  25337484.532 9 133149333.885 9      2201.910 9        54.135 9  25337485.197 6         0.000 6      1715.775 6        37.977 6
G10  23794475.795 9 125040759.827 9      3509.039 9        54.675 9  23794479.507 6         0.000 6      2734.319 6        37.977 6
G21  21176386.003 9 111282638.852 9     -1278.762 9        55.707 9  21176385.289 6         0.000 6      -996.438 6        37.977 6
G29  24313534.095 9 127768427.418 9     -3178.919 9        54.470 9  24313535.684 6         0.000 6     -2477.082 6        37.977 6
G27  21993676.466 9 115577522.975 9      2537.524 9        55.379 9  21993678.394 6         0.000 6      1977.292 6        37.977 6
G16  20494721.641 9 107700468.833 9       563.557 9        55.978 9  20494720.814 6         0.000 6       439.135 6        37.977 6
G26  20660900.411 9 108573742.156 9     -1490.504 9        55.870 9  20660903.230 6         0.000 6     -1161.432 6        37.977 6
G20  21933150.710 9 115259451.919 9      2527.711 9        55.320 9  21933151.025 6         0.000 6      1969.646 6        37.977 6
> 2019 07 03 12 01 23.0000000  0  8       0.000000000000
G07  25337065.566 9 133147132.205 9      2201.458 9        54.135 9  25337066.230 6         0.000 6      1715.423 6        37.977 6
G10  23793808.061 9 125037250.869 9      3508.897 9        54.675 9  23793811.772 6         0.000 6      2734.208 6        37.977 6
G21  21176629.378 9 111283917.798 9     -1279.131 9        55.707 9  21176628.665 6         0.000 6      -996.726 6        37.977 6
G29  24314139.032 9 127771606.371 9     -3179.007 9        54.470 9  24314140.621 6         0.000 6     -2477.151 6        37.977 6
G27  21993193.614 9 115574985.577 9      2537.276 9        55.379 9  21993195.543 6         0.000 6      1977.099 6        37.977 6
G16  20494614.459 9 107699905.588 9       562.934 9        55.978 9  20494613.632 6         0.000 6       438.650 6        37.977 6
G26  20661184.100 9 108575232.948 9     -1491.082 9        55.870 9  20661186.919 6         0.000 6     -1161.883 6        37.977 6
G20  21932669.745 9 115256924.436 9      2527.264 9        55.320 9  21932670.060 6         0.000 6      1969.297 6        37.977 6
> 2019 07 03 12 01 24.0000000  0  8       0.000000000000
G07  25336646.685 9 133144930.977 9      2201.009 9        54.135 9  25336647.350 6         0.000 6      1715.073 6        37.977 6
G10  23793140.353 9 125033742.052 9      3508.752 9        54.675 9  23793144.064 6         0.000 6      2734.095 6        37.977 6
G21  21176872.824 9 111285197.113 9     -1279.502 9        55.707 9  21176872.111 6         0.000 6      -997.015 6        37.977 6
G29  24314743.986 9 127774785.416 9     -3179.099 9        54.470 9  24314745.576 6         0.000 6     -2477.223 6        37.977 6
G27  21992710.809 9 115572448.422 9      2537.032 9        55.379 9  21992712.738 6         0.000 6      1976.909 6        37.977 6
G16  20494507.395 9 107699342.961 9       562.312 9        55.978 9  20494506.568 6         0.000 6       438.165 6        37.977 6
G26  20661467.897 9 108576724.313 9     -1491.661 9        55.870 9  20661470.716 6         0.000 6     -1162.334 6        37.977 6
G20  21932188.865 9 115254397.400 9      2526.813 9        55.320 9  21932189.179 6         0.000 6      1968.946 6        37.977 6
> 2019 07 03 12 01 25.0000000  0  8       0.000000000000
G07  25336227.891 9 133142730.201 9      2200.551 9        54.135 9  25336228.555 6         0.000 6      1714.716 6        37.977 6
G10  23792472.673 9 125030233.380 9      3508.614 9        54.676 9  23792476.383 6         0.000 6      2733.988 6        37.977 6
G21  21177116.340 9 111286476.797 9     -1279.867 9        55.707 9  21177115.627 6         0.000 6      -997.299 6        37.977 6
G29  24315348.956 9 127777964.543 9     -3179.176 9        54.469 9  24315350.546 6         0.000 6     -2477.283 6        37.977 6
G27  21992228.052 9 115569911.521 9      2536.777 9        55.379 9  21992229.981 6         0.000 6      1976.710 6        37.977 6
G16  20494400.450 9 107698780.963 9       561.685 9        55.978 9  20494399.623 6         0.000 6       437.677 6        37.977 6
G26  20661751.806 9 108578216.261 9     -1492.239 9        55.870 9  20661754.625 6         0.000 6     -1162.784 6        37.977 6
G20  21931708.070 9 115251870.812 9      2526.372 9        55.320 9  21931708.385 6         0.000 6      1968.603 6        37.977 6
> 2019 07 03 12 01 26.0000000  0  8       0.000000000000
G07  25335809.167 9 133140529.796 9      2200.581 9        54.135 9  25335809.831 6         0.000 6      1714.739 6        37.977 6
G10  23791805.038 9 125026724.945 9      3507.962 9        54.676 9  23791808.748 6         0.000 6      2733.480 6        37.977 6
G21  21177359.917 9 111287756.802 9     -1280.091 9        55.707 9  21177359.204 6         0.000 6      -997.474 6        37.977 6
G29  24315953.926 9 127781143.673 9     -3179.105 9        54.469 9  24315955.517 6         0.000 6     -2477.227 6        37.977 6
G27  21991745.350 9 115567374.905 9      2536.536 9        55.379 9  21991747.278 6         0.000 6      1976.522 6        37.977 6
G16  20494293.629 9 107698219.612 9       561.039 9        55.978 9  20494292.802 6         0.000 6       437.173 6        37.977 6
G26  20662035.837 9 108579708.854 9     -1493.098 9        55.870 9  20662038.657 6         0.000 6     -1163.453 6        37.977 6
G20  21931227.368 9 115249344.711 9      2525.628 9        55.321 9  21931227.682 6         0.000 6      1968.023 6        37.977 6
> 2019 07 03 12 01 27.0000000  0  8       0.000000000000
G07  25335391.578 9 133138335.354 9      2186.908 9        54.135 9  25335392.242 6         0.000 6      1704.085 6        37.977 6
G10  23791136.407 9 125023211.274 9      3520.630 9        54.676 9  23791140.116 6         0.000 6      2743.351 6        37.977 6
G21  21177603.651 9 111289037.634 9     -1281.311 9        55.706 9  21177602.938 6         0.000 6      -998.424 6        37.977 6
G29  24316558.710 9 127784321.823 9     -3176.018 9        54.469 9  24316560.302 6         0.000 6     -2474.822 6        37.977 6
G27  21991263.073 9 115564840.526 9      2531.108 9        55.380 9  21991265.001 6         0.000 6      1972.292 6        37.977 6
G16  20494187.059 9 107697659.583 9       558.530 9        55.978 9  20494186.232 6         0.000 6       435.218 6        37.977 6
G26  20662319.541 9 108581199.726 9     -1488.359 9        55.870 9  20662322.361 6         0.000 6     -1159.760 6        37.977 6
G20  21930746.007 9 115246815.143 9      2534.682 9        55.321 9  21930746.321 6         0.000 6      1975.078 6        37.977 6
> 2019 07 03 12 01 28.0000000  0  8       0.000000000000
G07  25334976.902 9 133136156.219 9      2171.538 9        54.136 9  25334977.565 6         0.000 6      1692.109 6        37.977 6
G10  23790465.155 9 125019683.834 9      3533.922 9        54.676 9  23790468.863 6         0.000 6      2753.708 6        37.977 6
G21  21177847.387 9 111290318.474 9     -1279.854 9        55.706 9  21177846.674 6         0.000 6      -997.289 6        37.977 6
G29  24317162.225 9 127787493.306 9     -3165.788 9        54.469 9  24317163.817 6         0.000 6     -2466.851 6        37.977 6
G27  21990782.353 9 115562314.328 9      2520.552 9        55.380 9  21990784.281 6         0.000 6      1964.067 6        37.977 6
G16  20494081.214 9 107697103.366 9       553.521 9        55.978 9  20494080.387 6         0.000 6       431.315 6        37.977 6
G26  20662602.410 9 108582686.212 9     -1485.069 9        55.870 9  20662605.230 6         0.000 6     -1157.197 6        37.977 6
G20  21930262.587 9 115244274.761 9      2546.196 9        55.321 9  21930262.901 6         0.000 6      1984.050 6        37.977 6
> 2019 07 03 12 01 29.0000000  0  8       0.000000000000
G07  25334564.979 9 133133991.552 9      2161.099 9        54.136 9  25334565.642 6         0.000 6      1683.974 6        37.977 6
G10  23789791.649 9 125016144.546 9      3541.837 9        54.677 9  23789795.357 6         0.000 6      2759.876 6        37.977 6
G21  21178090.537 9 111291596.236 9     -1276.451 9        55.706 9  21178089.824 6         0.000 6      -994.637 6        37.977 6
G29  24317763.117 9 127790651.006 9     -3152.804 9        54.468 9  24317764.710 6         0.000 6     -2456.733 6        37.977 6
G27  21990304.049 9 115559800.827 9      2509.320 9        55.380 9  21990305.977 6         0.000 6      1955.315 6        37.977 6
G16  20493976.538 9 107696553.291 9       547.893 9        55.978 9  20493975.711 6         0.000 6       426.930 6        37.977 6
G26  20662884.949 9 108584170.962 9     -1485.012 9        55.870 9  20662887.769 6         0.000 6     -1157.153 6        37.977 6
G20  21929776.967 9 115241722.814 9      2554.891 9        55.321 9  21929777.280 6         0.000 6      1990.826 6        37.977 6
> 2019 07 03 12 01 30.0000000  0  8       0.000000000000
G07  25334153.912 9 133131831.386 9      2159.600 9        54.136 9  25334154.575 6         0.000 6      1682.806 6        37.977 6
G10  23789117.579 9 125012602.294 9      3542.428 9        54.677 9  23789121.286 6         0.000 6      2760.336 6        37.977 6
G21  21178333.386 9 111292872.411 9     -1276.128 9        55.706 9  21178332.673 6         0.000 6      -994.386 6        37.977 6
G29  24318362.820 9 127793802.455 9     -3150.804 9        54.468 9  24318364.414 6         0.000 6     -2455.174 6        37.977 6
G27  21989826.771 9 115557292.714 9      2507.452 9        55.380 9  21989828.698 6         0.000 6      1953.859 6        37.977 6
G16  20493872.433 9 107696006.212 9       546.516 9        55.978 9  20493871.606 6         0.000 6       425.857 6        37.977 6
G26  20663167.611 9 108585656.359 9     -1485.741 9        55.869 9  20663170.431 6         0.000 6     -1157.721 6        37.977 6
G20  21929290.692 9 115239167.423 9      2555.528 9        55.321 9  21929291.004 6         0.000 6      1991.322 6        37.977 6
> 2019 07 03 12 01 31.0000000  0  8       0.000000000000
G07  25333743.012 9 133129672.093 9      2159.032 9        54.136 9  25333743.675 6         0.000 6      1682.364 6        37.977 6
G10  23788443.481 9 125009059.895 9      3542.362 9        54.677 9  23788447.187 6         0.000 6      2760.285 6        37.977 6
G21  21178576.250 9 111294148.672 9     -1276.425 9        55.706 9  21178575.537 6         0.000 6      -994.617 6        37.977 6
G29  24318962.377 9 127796953.139 9     -3150.664 9        54.468 9  24318963.972 6         0.000 6     -2455.065 6        37.977 6
G27  21989349.664 9 115554785.503 9      2507.032 9        55.380 9  21989351.591 6         0.000 6      1953.532 6        37.977 6
G16  20493768.503 9 107695460.056 9       545.820 9        55.978 9  20493767.676 6         0.000 6       425.314 6        37.977 6
G26  20663450.394 9 108587142.393 9     -1486.328 9        55.869 9  20663453.214 6         0.000 6     -1158.178 6        37.977 6
G20  21928804.419 9 115236612.046 9      2555.191 9        55.322 9  21928804.731 6         0.000 6      1991.059 6        37.977 6
> 2019 07 03 12 01 32.0000000  0  8       0.000000000000
G07  25333332.206 9 133127513.297 9      2158.560 9        54.136 9  25333332.868 6         0.000 6      1681.996 6        37.977 6
G10  23787769.405 9 125005517.612 9      3542.232 9        54.677 9  23787773.110 6         0.000 6      2760.184 6        37.977 6
G21  21178819.180 9 111295425.277 9     -1276.787 9        55.706 9  21178818.467 6         0.000 6      -994.899 6        37.977 6
G29  24319561.935 9 127800103.823 9     -3150.725 9        54.468 9  24319563.530 6         0.000 6     -2455.113 6        37.977 6
G27  21988872.616 9 115552278.604 9      2506.771 9        55.380 9  21988874.544 6         0.000 6      1953.328 6        37.977 6
G16  20493664.696 9 107694914.545 9       545.201 9        55.978 9  20493663.869 6         0.000 6       424.832 6        37.977 6
G26  20663733.287 9 108588629.003 9     -1486.893 9        55.869 9  20663736.107 6         0.000 6     -1158.618 6        37.977 6
G20  21928318.224 9 115234057.080 9      2554.754 9        55.322 9  21928318.536 6         0.000 6      1990.719 6        37.977 6
> 2019 07 03 12 01 33.0000000  0  8       0.000000000000
G07  25332921.490 9 133125354.973 9      2158.100 9        54.136 9  25332922.152 6         0.000 6      1681.637 6        37.977 6
G10  23787095.353 9 125001975.456 9      3542.094 9        54.678 9  23787099.058 6         0.000 6      2760.076 6        37.977 6
G21  21179062.179 9 111296702.243 9     -1277.151 9        55.706 9  21179061.466 6         0.000 6      -995.183 6        37.977 6
G29  24320161.504 9 127803254.573 9     -3150.802 9        54.468 9  24320163.100 6         0.000 6     -2455.173 6        37.977 6
G27  21988395.617 9 115549771.960 9      2506.523 9        55.381 9  21988397.544 6         0.000 6      1953.136 6        37.977 6
G16  20493561.005 9 107694369.649 9       544.590 9        55.978 9  20493560.178 6         0.000 6       424.356 6        37.977 6
G26  20664016.287 9 108590116.173 9     -1487.456 9        55.869 9  20664019.107 6         0.000 6     -1159.057 6        37.977 6
G20  21927832.112 9 115231502.550 9      2554.308 9        55.322 9  21927832.424 6         0.000 6      1990.371 6        37.977 6
> 2019 07 03 12 01 34.0000000  0  8       0.000000000000
G07  25332510.860 9 133123197.105 9      2157.642 9        54.136 9  25332511.522 6         0.000 6      1681.280 6        37.977 6
G10  23786421.329 9 124998433.445 9      3541.951 9        54.678 9  23786425.033 6         0.000 6      2759.964 6        37.977 6
G21  21179305.249 9 111297979.584 9     -1277.524 9        55.706 9  21179304.536 6         0.000 6      -995.474 6        37.977 6
G29  24320761.091 9 127806405.411 9     -3150.884 9        54.467 9  24320762.687 6         0.000 6     -2455.237 6        37.977 6
G27  21987918.665 9 115547265.562 9      2506.274 9        55.381 9  21987920.592 6         0.000 6      1952.942 6        37.977 6
G16  20493457.432 9 107693825.368 9       543.973 9        55.978 9  20493456.605 6         0.000 6       423.875 6        37.977 6
G26  20664299.395 9 108591603.913 9     -1488.026 9        55.869 9  20664302.215 6         0.000 6     -1159.502 6        37.977 6
G20  21927346.087 9 115228948.477 9      2553.854 9        55.322 9  21927346.399 6         0.000 6      1990.017 6        37.977 6
> 2019 07 03 12 01 35.0000000  0  8       0.000000000000
G07  25332100.318 9 133121039.694 9      2157.184 9        54.137 9  25332100.980 6         0.000 6      1680.924 6        37.977 6
G10  23785747.332 9 124994891.578 9      3541.810 9        54.678 9  23785751.035 6         0.000 6      2759.854 6        37.977 6
G21  21179548.389 9 111299257.292 9     -1277.891 9        55.706 9  21179547.676 6         0.000 6      -995.759 6        37.977 6
G29  24321360.692 9 127809556.325 9     -3150.965 9        54.467 9  24321362.289 6         0.000 6     -2455.300 6        37.977 6
G27  21987441.760 9 115544759.413 9      2506.031 9        55.381 9  21987443.687 6         0.000 6      1952.752 6        37.977 6
G16  20493353.976 9 107693281.702 9       543.363 9        55.978 9  20493353.149 6         0.000 6       423.400 6        37.977 6
G26  20664582.611 9 108593092.222 9     -1488.590 9        55.869 9  20664585.431 6         0.000 6     -1159.941 6        37.977 6
G20  21926860.148 9 115226394.854 9      2553.404 9        55.322 9  21926860.460 6         0.000 6      1989.667 6        37.977 6
> 2019 07 03 12 01 36.0000000  0  8       0.000000000000
G07  25331689.863 9 133118882.741 9      2156.729 9        54.137 9  25331690.525 6         0.000 6      1680.569 6        37.977 6
G10  23785073.362 9 124991349.852 9      3541.664 9        54.678 9  23785077.064 6         0.000 6      2759.741 6        37.977 6
G21  21179791.598 9 111300535.366 9     -1278.259 9        55.706 9  21179790.885 6         0.000 6      -996.046 6        37.977 6
G29  24321960.308 9 127812707.321 9     -3151.047 9        54.467 9  24321961.906 6         0.000 6     -2455.364 6        37.977 6
G27  21986964.902 9 115542253.508 9      2505.785 9        55.381 9  21986966.829 6         0.000 6      1952.560 6        37.977 6
G16  20493250.636 9 107692738.646 9       542.750 9        55.978 9  20493249.809 6         0.000 6       422.922 6        37.977 6
G26  20664865.934 9 108594581.094 9     -1489.158 9        55.869 9  20664868.754 6         0.000 6     -1160.383 6        37.977 6
G20  21926374.295 9 115223841.681 9      2552.951 9        55.322 9  21926374.606 6         0.000 6      1989.313 6        37.977 6
> 2019 07 03 12 01 37.0000000  0  8       0.000000000000
G07  25331279.495 9 133116726.246 9      2156.271 9        54.137 9  25331280.156 6         0.000 6      1680.212 6        37.977 6
G10  23784399.419 9 124987808.269 9      3541.521 9        54.678 9  23784403.121 6         0.000 6      2759.629 6        37.977 6
G21  21180034.879 9 111301813.813 9     -1278.632 9        55.705 9  21180034.166 6         0.000 6      -996.337 6        37.977 6
G29  24322559.941 9 127815858.398 9     -3151.129 9        54.467 9  24322561.539 6         0.000 6     -2455.428 6        37.977 6
G27  21986488.091 9 115539747.852 9      2505.536 9        55.381 9  21986490.017 6         0.000 6      1952.366 6        37.977 6
G16  20493147.413 9 107692196.207 9       542.132 9        55.978 9  20493146.586 6         0.000 6       422.441 6        37.977 6
G26  20665149.366 9 108596070.537 9     -1489.729 9        55.869 9  20665152.186 6         0.000 6     -1160.828 6        37.977 6
G20  21925888.528 9 115221288.962 9      2552.496 9        55.323 9  21925888.839 6         0.000 6      1988.959 6        37.977 6
> 2019 07 03 12 01 38.0000000  0  8       0.000000000000
G07  25330869.213 9 133114570.203 9      2155.816 9        54.137 9  25330869.874 6         0.000 6      1679.857 6        37.977 6
G10  23783725.504 9 124984266.834 9      3541.375 9        54.679 9  23783729.206 6         0.000 6      2759.516 6        37.977 6
G21  21180278.228 9 111303092.624 9     -1279.000 9        55.705 9  21180277.516 6         0.000 6      -996.624 6        37.977 6
G29  24323159.588 9 127819009.557 9     -3151.210 9        54.467 9  24323161.187 6         0.000 6     -2455.491 6        37.977 6
G27  21986011.326 9 115537242.438 9      2505.290 9        55.382 9  21986013.252 6         0.000 6      1952.175 6        37.977 6
G16  20493044.306 9 107691654.377 9       541.519 9        55.978 9  20493043.479 6         0.000 6       421.963 6        37.977 6
G26  20665432.905 9 108597560.546 9     -1490.297 9        55.868 9  20665435.726 6         0.000 6     -1161.271 6        37.977 6
G20  21925402.847 9 115218736.697 9      2552.043 9        55.323 9  21925403.158 6         0.000 6      1988.606 6        37.977 6
> 2019 07 03 12 01 39.0000000  0  8       0.000000000000
G07  25330459.018 9 133112414.618 9      2155.360 9        54.137 9  25330459.679 6         0.000 6      1679.502 6        37.977 6
G10  23783051.617 9 124980725.542 9      3541.229 9        54.679 9  23783055.318 6         0.000 6      2759.402 6        37.977 6
G21  21180521.649 9 111304371.808 9     -1279.369 9        55.705 9  21180520.937 6         0.000 6      -996.911 6        37.977 6
G29  24323759.251 9 127822160.797 9     -3151.291 9        54.466 9  24323760.851 6         0.000 6     -2455.554 6        37.977 6
G27  21985534.608 9 115534737.273 9      2505.045 9        55.382 9  21985536.535 6         0.000 6      1951.983 6        37.977 6
G16  20492941.317 9 107691113.164 9       540.906 9        55.978 9  20492940.490 6         0.000 6       421.485 6        37.977 6
G26  20665716.554 9 108599051.125 9     -1490.865 9        55.868 9  20665719.374 6         0.000 6     -1161.713 6        37.977 6
G20  21924917.252 9 115216184.886 9      2551.588 9        55.323 9  21924917.563 6         0.000 6      1988.252 6        37.977 6
> 2019 07 03 12 01 40.0000000  0  8       0.000000000000
G07  25330048.902 9 133110259.446 9      2155.006 9        54.137 9  25330049.563 6         0.000 6      1679.227 6        37.977 6
G10  23782377.765 9 124977184.440 9      3540.982 9        54.679 9  23782381.466 6         0.000 6      2759.209 6        37.977 6
G21  21180765.139 9 111305651.354 9     -1279.723 9        55.705 9  21180764.426 6         0.000 6      -997.187 6        37.977 6
G29  24324358.930 9 127825312.119 9     -3151.378 9        54.466 9  24324360.530 6         0.000 6     -2455.622 6        37.977 6
G27  21985057.936 9 115532232.344 9      2504.825 9        55.382 9  21985059.862 6         0.000 6      1951.812 6        37.977 6
G16  20492838.444 9 107690572.563 9       540.299 9        55.978 9  20492837.617 6         0.000 6       421.012 6        37.977 6
G26  20666000.314 9 108600542.293 9     -1491.481 9        55.868 9  20666003.135 6         0.000 6     -1162.194 6        37.977 6
G20  21924431.750 9 115213633.558 9      2551.064 9        55.323 9  21924432.060 6         0.000 6      1987.844 6        37.977 6
> 2019 07 03 12 01 41.0000000  0  8       0.000000000000
G07  25329639.018 9 133108105.499 9      2151.935 9        54.137 9  25329639.679 6         0.000 6      1676.834 6        37.977 6
G10  23781703.867 9 124973643.090 9      3542.139 9        54.679 9  23781707.566 6         0.000 6      2760.111 6        37.977 6
G21  21181008.523 9 111306930.344 9     -1276.890 9        55.705 9  21181007.810 6         0.000 6      -994.979 6        37.977 6
G29  24324958.145 9 127828461.005 9     -3142.727 9        54.466 9  24324959.746 6         0.000 6     -2448.881 6        37.977 6
G27  21984581.660 9 115529729.501 9      2498.198 9        55.382 9  21984583.586 6         0.000 6      1946.649 6        37.977 6
G16  20492735.857 9 107690033.463 9       536.594 9        55.978 9  20492735.030 6         0.000 6       418.125 6        37.977 6
G26  20666284.263 9 108602034.457 9     -1493.572 9        55.868 9  20666287.084 6         0.000 6     -1163.823 6        37.977 6
G20  21923946.146 9 115211081.698 9      2553.988 9        55.323 9  21923946.456 6         0.000 6      1990.122 6        37.977 6
> 2019 07 03 12 01 42.0000000  0  8       0.000000000000
G07  25329229.516 9 133105953.551 9      2153.314 9        54.138 9  25329230.176 6         0.000 6      1677.908 6        37.977 6
G10  23781030.071 9 124970102.279 9      3538.278 9        54.680 9  23781033.770 6         0.000 6      2757.103 6        37.977 6
G21  21181251.014 9 111308204.644 9     -1271.836 9        55.705 9  21181250.302 6         0.000 6      -991.041 6        37.977 6
G29  24325554.944 9 127831597.198 9     -3130.519 9        54.466 9  24325556.546 6         0.000 6     -2439.368 6        37.977 6
G27  21984107.107 9 115527235.711 9      2490.257 9        55.382 9  21984109.033 6         0.000 6      1940.461 6        37.977 6
G16  20492634.222 9 107689499.370 9       531.956 9        55.979 9  20492633.395 6         0.000 6       414.511 6        37.977 6
G26  20666568.956 9 108603530.522 9     -1498.942 9        55.868 9  20666571.777 6         0.000 6     -1168.007 6        37.977 6
G20  21923459.982 9 115208526.890 9      2554.575 9        55.324 9  21923460.291 6         0.000 6      1990.579 6        37.977 6
> 2019 07 03 12 01 43.0000000  0  8       0.000000000000
G07  25328818.815 9 133103795.306 9      2163.297 9        54.138 9  25328819.475 6         0.000 6      1685.687 6        37.977 6
G10  23780357.882 9 124966569.913 9      3526.640 9        54.680 9  23780361.580 6         0.000 6      2748.034 6        37.977 6
G21  21181492.577 9 111309474.064 9     -1267.749 9        55.705 9  21181491.864 6         0.000 6      -987.857 6        37.977 6
G29  24326149.875 9 127834723.571 9     -3124.076 9        54.465 9  24326151.477 6         0.000 6     -2434.348 6        37.977 6
G27  21983633.547 9 115524747.137 9      2488.132 9        55.383 9  21983635.472 6         0.000 6      1938.805 6        37.977 6
G16  20492533.262 9 107688968.820 9       529.762 9        55.979 9  20492532.435 6         0.000 6       412.802 6        37.977 6
G26  20666854.976 9 108605033.567 9     -1506.625 9        55.868 9  20666857.797 6         0.000 6     -1173.994 6        37.977 6
G20  21922974.419 9 115205975.246 9      2548.307 9        55.324 9  21922974.729 6         0.000 6      1985.695 6        37.977 6
> 2019 07 03 12 01 44.0000000  0  8       0.000000000000
G07  25328406.829 9 133101630.313 9      2165.815 9        54.138 9  25328407.490 6         0.000 6      1687.649 6        37.977 6
G10  23779687.172 9 124963045.319 9      3523.470 9        54.680 9  23779690.870 6         0.000 6      2745.564 6        37.977 6
G21  21181733.780 9 111310741.596 9     -1267.523 9        55.705 9  21181733.068 6         0.000 6      -987.680 6        37.977 6
G29  24326744.343 9 127837847.510 9     -3123.950 9        54.465 9  24326745.946 6         0.000 6     -2434.249 6        37.977 6
G27  21983160.029 9 115522258.785 9      2488.450 9        55.383 9  21983161.954 6         0.000 6      1939.052 6        37.977 6
G16  20492432.498 9 107688439.303 9       529.253 9        55.979 9  20492431.671 6         0.000 6       412.405 6        37.977 6
G26  20667141.918 9 108606541.455 9     -1508.698 9        55.868 9  20667144.739 6         0.000 6     -1175.609 6        37.977 6
G20  21922489.776 9 115203428.431 9      2545.895 9        55.324 9  21922490.085 6         0.000 6      1983.816 6        37.977 6
> 2019 07 03 12 01 45.0000000  0  8       0.000000000000
G07  25327994.685 9 133099464.483 9      2165.716 9        54.138 9  25327995.345 6         0.000 6      1687.572 6        37.977 6
G10  23779016.739 9 124959522.182 9      3522.960 9        54.680 9  23779020.436 6         0.000 6      2745.166 6        37.977 6
G21  21181975.008 9 111312009.254 9     -1267.820 9        55.705 9  21181974.295 6         0.000 6      -987.912 6        37.977 6
G29  24327338.818 9 127840971.486 9     -3124.027 9        54.465 9  24327340.421 6         0.000 6     -2434.309 6        37.977 6
G27  21982686.505 9 115519770.404 9      2488.288 9        55.383 9  21982688.430 6         0.000 6      1938.926 6        37.977 6
G16  20492331.841 9 107687910.346 9       528.651 9        55.979 9  20492331.014 6         0.000 6       411.936 6        37.977 6
G26  20667429.091 9 108608050.560 9     -1509.452 9        55.868 9  20667431.912 6         0.000 6     -1176.197 6        37.977 6
G20  21922005.382 9 115200882.931 9      2545.202 9        55.324 9  21922005.691 6         0.000 6      1983.276 6        37.977 6
> 2019 07 03 12 01 46.0000000  0  8       0.000000000000
G07  25327582.603 9 133097298.981 9      2165.282 9        54.138 9  25327583.263 6         0.000 6      1687.233 6        37.977 6
G10  23778346.360 9 124955999.326 9      3522.790 9        54.681 9  23778350.057 6         0.000 6      2745.034 6        37.977 6
G21  21182216.299 9 111313277.250 9     -1268.168 9        55.705 9  21182215.587 6         0.000 6      -988.183 6        37.977 6
G29  24327933.308 9 127844095.542 9     -3124.102 9        54.465 9  24327934.912 6         0.000 6     -2434.368 6        37.977 6
G27  21982213.022 9 115517282.236 9      2488.052 9        55.383 9  21982214.947 6         0.000 6      1938.743 6        37.977 6
G16  20492231.301 9 107687382.005 9       528.035 9        55.979 9  20492230.474 6         0.000 6       411.456 6        37.977 6
G26  20667716.387 9 108609560.310 9     -1510.039 9        55.868 9  20667719.209 6         0.000 6     -1176.654 6        37.977 6
G20  21921521.092 9 115198337.972 9      2544.740 9        55.324 9  21921521.400 6         0.000 6      1982.915 6        37.977 6
> 2019 07 03 12 01 47.0000000  0  8       0.000000000000
G07  25327170.607 9 133095133.930 9      2164.825 9        54.138 9  25327171.266 6         0.000 6      1686.878 6        37.977 6
G10  23777676.009 9 124952476.620 9      3522.642 9        54.681 9  23777679.705 6         0.000 6      2744.918 6        37.977 6
G21  21182457.657 9 111314545.591 9     -1268.524 9        55.704 9  21182456.945 6         0.000 6      -988.460 6        37.977 6
G29  24328527.813 9 127847219.676 9     -3124.186 9        54.465 9  24328529.417 6         0.000 6     -2434.433 6        37.977 6
G27  21981739.583 9 115514794.302 9      2487.815 9        55.383 9  21981741.508 6         0.000 6      1938.558 6        37.977 6
G16  20492130.877 9 107686854.275 9       527.418 9        55.979 9  20492130.050 6         0.000 6       410.975 6        37.977 6
G26  20668003.792 9 108611070.631 9     -1510.614 9        55.867 9  20668006.614 6         0.000 6     -1177.103 6        37.977 6
G20  21921036.886 9 115195793.461 9      2544.288 9        55.325 9  21921037.195 6         0.000 6      1982.563 6        37.977 6
> 2019 07 03 12 01 48.0000000  0  8       0.000000000000
G07  25326758.698 9 133092969.338 9      2164.359 9        54.138 9  25326759.357 6         0.000 6      1686.515 6        37.977 6
G10  23777005.687 9 124948954.064 9      3522.502 9        54.681 9  23777009.382 6         0.000 6      2744.809 6        37.977 6
G21  21182699.084 9 111315814.296 9     -1268.880 9        55.704 9  21182698.371 6         0.000 6      -988.738 6        37.977 6
G29  24329122.334 9 127850343.894 9     -3124.265 9        54.464 9  24329123.939 6         0.000 6     -2434.495 6        37.977 6
G27  21981266.191 9 115512306.611 9      2487.573 9        55.384 9  21981268.115 6         0.000 6      1938.369 6        37.977 6
G16  20492030.572 9 107686327.170 9       526.799 9        55.979 9  20492029.745 6         0.000 6       410.492 6        37.977 6
G26  20668291.308 9 108612581.535 9     -1511.187 9        55.867 9  20668294.130 6         0.000 6     -1177.549 6        37.977 6
G20  21920552.768 9 115193249.405 9      2543.844 9        55.325 9  21920553.076 6         0.000 6      1982.217 6        37.977 6
> 2019 07 03 12 01 49.0000000  0  8       0.000000000000
G07  25326346.879 9 133090805.216 9      2163.896 9        54.139 9  25326347.538 6         0.000 6      1686.154 6        37.977 6
G10  23776335.391 9 124945431.642 9      3522.359 9        54.681 9  23776339.085 6         0.000 6      2744.698 6        37.977 6
G21  21182940.577 9 111317083.352 9     -1269.238 9        55.704 9  21182939.865 6         0.000 6      -989.017 6        37.977 6
G29  24329716.869 9 127853468.185 9     -3124.350 9        54.464 9  24329718.474 6         0.000 6     -2434.561 6        37.977 6
G27  21980792.845 9 115509819.164 9      2487.334 9        55.384 9  21980794.769 6         0.000 6      1938.183 6        37.977 6
G16  20491930.385 9 107685800.681 9       526.181 9        55.979 9  20491929.558 6         0.000 6       410.011 6        37.977 6
G26  20668578.932 9 108614093.007 9     -1511.760 9        55.867 9  20668581.754 6         0.000 6     -1177.996 6        37.977 6
G20  21920068.733 9 115190705.786 9      2543.396 9        55.325 9  21920069.040 6         0.000 6      1981.868 6        37.977 6
> 2019 07 03 12 01 50.0000000  0  8       0.000000000000
G07  25325935.147 9 133088641.554 9      2163.431 9        54.139 9  25325935.806 6         0.000 6      1685.791 6        37.977 6
G10  23775665.122 9 124941909.364 9      3522.219 9        54.682 9  23775668.815 6         0.000 6      2744.589 6        37.977 6
G21  21183182.139 9 111318352.769 9     -1269.594 9        55.704 9  21183181.427 6         0.000 6      -989.294 6        37.977 6
G29  24330311.421 9 127856592.567 9     -3124.429 9        54.464 9  24330313.027 6         0.000 6     -2434.622 6        37.977 6
G27  21980319.544 9 115507331.952 9      2487.092 9        55.384 9  21980321.468 6         0.000 6      1937.994 6        37.977 6
G16  20491830.315 9 107685274.809 9       525.561 9        55.979 9  20491829.488 6         0.000 6       409.528 6        37.977 6
G26  20668866.665 9 108615605.052 9     -1512.333 9        55.867 9  20668869.487 6         0.000 6     -1178.442 6        37.977 6
G20  21919584.783 9 115188162.619 9      2542.951 9        55.325 9  21919585.091 6         0.000 6      1981.522 6        37.977 6
> 2019 07 03 12 01 51.0000000  0  8       0.000000000000
G07  25325523.504 9 133086478.360 9      2162.968 9        54.139 9  25325524.162 6         0.000 6      1685.430 6        37.977 6
G10  23774994.880 9 124938387.229 9      3522.077 9        54.682 9  23774998.573 6         0.000 6      2744.478 6        37.977 6
G21  21183423.770 9 111319622.548 9     -1269.952 9        55.704 9  21183423.058 6         0.000 6      -989.573 6        37.977 6
G29  24330905.988 9 127859717.028 9     -3124.513 9        54.464 9  24330907.595 6         0.000 6     -2434.688 6        37.977 6
G27  21979846.289 9 115504844.987 9      2486.853 9        55.384 9  21979848.214 6         0.000 6      1937.808 6        37.977 6
G16  20491730.364 9 107684749.564 9       524.943 9        55.979 9  20491729.537 6         0.000 6       409.047 6        37.977 6
G26  20669154.508 9 108617117.677 9     -1512.906 9        55.867 9  20669157.330 6         0.000 6     -1178.888 6        37.977 6
G20  21919100.919 9 115185619.901 9      2542.503 9        55.325 9  21919101.226 6         0.000 6      1981.172 6        37.977 6
> 2019 07 03 12 01 52.0000000  0  8       0.000000000000
G07  25325111.948 9 133084315.621 9      2162.524 9        54.139 9  25325112.606 6         0.000 6      1685.085 6        37.977 6
G10  23774324.665 9 124934865.239 9      3521.921 9        54.682 9  23774328.358 6         0.000 6      2744.356 6        37.977 6
G21  21183665.469 9 111320892.682 9     -1270.325 9        55.704 9  21183664.757 6         0.000 6      -989.864 6        37.977 6
G29  24331500.573 9 127862841.583 9     -3124.639 9        54.464 9  24331502.181 6         0.000 6     -2434.786 6        37.977 6
G27  21979373.078 9 115502358.249 9      2486.645 9        55.384 9  21979375.002 6         0.000 6      1937.646 6        37.977 6
G16  20491630.529 9 107684224.927 9       524.339 9        55.979 9  20491629.702 6         0.000 6       408.576 6        37.977 6
G26  20669442.459 9 108618630.869 9     -1513.476 9        55.867 9  20669445.281 6         0.000 6     -1179.333 6        37.977 6
G20  21918617.141 9 115183077.632 9      2542.034 9        55.326 9  21918617.448 6         0.000 6      1980.807 6        37.977 6
> 2019 07 03 12 01 53.0000000  0  8       0.000000000000
G07  25324700.465 9 133082153.268 9      2164.143 9        54.139 9  25324701.123 6         0.000 6      1686.346 6        37.977 6
G10  23773654.490 9 124931343.454 9      3519.726 9        54.682 9  23773658.181 6         0.000 6      2742.646 6        37.977 6
G21  21183907.241 9 111322163.202 9     -1270.445 9        55.704 9  21183906.529 6         0.000 6      -989.958 6        37.977 6
G29  24332095.193 9 127865966.323 9     -3124.991 9        54.463 9  24332096.801 6         0.000 6     -2435.061 6        37.977 6
G27  21978899.897 9 115499871.664 9      2487.069 9        55.384 9  21978901.820 6         0.000 6      1937.976 6        37.977 6
G16  20491530.804 9 107683700.868 9       523.933 9        55.979 9  20491529.977 6         0.000 6       408.259 6        37.977 6
G26  20669730.520 9 108620144.637 9     -1514.969 9        55.867 9  20669733.343 6         0.000 6     -1180.496 6        37.977 6
G20  21918133.461 9 115180535.882 9      2540.138 9        55.326 9  21918133.767 6         0.000 6      1979.330 6        37.977 6
> 2019 07 03 12 01 54.0000000  0  8       0.000000000000
G07  25324287.281 9 133079981.974 9      2178.666 9        54.139 9  25324287.939 6         0.000 6      1697.662 6        37.977 6
G10  23772986.076 9 124927830.929 9      3505.319 9        54.683 9  23772989.768 6         0.000 6      2731.420 6        37.977 6
G21  21184148.958 9 111323433.432 9     -1270.494 9        55.704 9  21184148.246 6         0.000 6      -989.995 6        37.977 6
G29  24332690.251 9 127869093.365 9     -3130.348 9        54.463 9  24332691.860 6         0.000 6     -2439.235 6        37.977 6
G27  21978426.065 9 115497381.668 9      2493.795 9        55.385 9  21978427.989 6         0.000 6      1943.218 6        37.977 6
G16  20491430.952 9 107683176.142 9       525.948 9        55.979 9  20491430.125 6         0.000 6       409.829 6        37.977 6
G26  20670019.421 9 108621662.820 9     -1521.108 9        55.867 9  20670022.244 6         0.000 6     -1185.279 6        37.977 6
G20  21917651.146 9 115178001.307 9      2528.651 9        55.326 9  21917651.453 6         0.000 6      1970.379 6        37.977 6
> 2019 07 03 12 01 55.0000000  0  8       0.000000000000
G07  25323871.306 9 133077796.016 9      2193.912 9        54.139 9  25323871.964 6         0.000 6      1709.543 6        37.977 6
G10  23772320.324 9 124924332.386 9      3491.494 9        54.683 9  23772324.014 6         0.000 6      2720.648 6        37.977 6
G21  21184390.976 9 111324705.246 9     -1274.005 9        55.704 9  21184390.264 6         0.000 6      -992.731 6        37.977 6
G29  24333287.037 9 127872229.487 9     -3144.277 9        54.463 9  24333288.647 6         0.000 6     -2450.089 6        37.977 6
G27  21977950.482 9 115494882.462 9      2506.339 9        55.385 9  21977952.405 6         0.000 6      1952.992 6        37.977 6
G16  20491330.478 9 107682648.149 9       530.879 9        55.979 9  20491329.651 6         0.000 6       413.672 6        37.977 6
G26  20670309.278 9 108623186.028 9     -1524.864 9        55.866 9  20670312.101 6         0.000 6     -1188.206 6        37.977 6
G20  21917171.167 9 115175479.004 9      2515.092 9        55.326 9  21917171.473 6         0.000 6      1959.813 6        37.977 6
> 2019 07 03 12 01 56.0000000  0  8       0.000000000000
G07  25323453.141 9 133075598.547 9      2198.880 9        54.140 9  25323453.799 6         0.000 6      1713.414 6        37.977 6
G10  23771656.490 9 124920843.927 9      3487.183 9        54.683 9  23771660.180 6         0.000 6      2717.288 6        37.977 6
G21  21184633.769 9 111325981.129 9     -1276.978 9        55.704 9  21184633.057 6         0.000 6      -995.048 6        37.977 6
G29  24333886.447 9 127875379.394 9     -3152.803 9        54.463 9  24333888.057 6         0.000 6     -2456.732 6        37.977 6
G27  21977472.694 9 115492371.670 9      2512.926 9        55.385 9  21977474.617 6         0.000 6      1958.125 6        37.977 6
G16  20491229.114 9 107682115.480 9       533.402 9        55.979 9  20491228.287 6         0.000 6       415.638 6        37.977 6
G26  20670599.513 9 108624711.221 9     -1525.374 9        55.866 9  20670602.336 6         0.000 6     -1188.604 6        37.977 6
G20  21916693.284 9 115172967.717 9      2509.442 9        55.326 9  21916693.590 6         0.000 6      1955.410 6        37.977 6
> 2019 07 03 12 01 57.0000000  0  8       0.000000000000
G07  25323034.680 9 133073399.525 9      2198.975 9        54.140 9  25323035.338 6         0.000 6      1713.488 6        37.977 6
G10  23770992.965 9 124917357.087 9      3486.657 9        54.683 9  23770996.654 6         0.000 6      2716.878 6        37.977 6
G21  21184876.854 9 111327258.550 9     -1277.724 9        55.703 9  21184876.142 6         0.000 6      -995.629 6        37.977 6
G29  24334486.561 9 127878533.007 9     -3154.040 9        54.463 9  24334488.172 6         0.000 6     -2457.696 6        37.977 6
G27  21976994.409 9 115489858.273 9      2513.569 9        55.385 9  21976996.332 6         0.000 6      1958.626 6        37.977 6
G16  20491127.618 9 107681582.114 9       533.189 9        55.979 9  20491126.791 6         0.000 6       415.472 6        37.977 6
G26  20670889.826 9 108626236.824 9     -1525.861 9        55.866 9  20670892.649 6         0.000 6     -1188.983 6        37.977 6
G20  21916215.872 9 115170458.901 9      2508.411 9        55.326 9  21916216.177 6         0.000 6      1954.607 6        37.977 6
> 2019 07 03 12 01 58.0000000  0  8       0.000000000000
G07  25322616.267 9 133071200.751 9      2198.570 9        54.140 9  25322616.924 6         0.000 6      1713.172 6        37.977 6
G10  23770329.494 9 124913870.535 9      3486.474 9        54.684 9  23770333.182 6         0.000 6      2716.736 6        37.977 6
G21  21185120.036 9 111328536.478 9     -1278.118 9        55.703 9  21185119.324 6         0.000 6      -995.936 6        37.977 6
G29  24335086.778 9 127881687.154 9     -3154.238 9        54.462 9  24335088.389 6         0.000 6     -2457.851 6        37.977 6
G27  21976516.106 9 115487344.773 9      2513.411 9        55.385 9  21976518.029 6         0.000 6      1958.502 6        37.977 6
G16  20491026.211 9 107681049.214 9       532.599 9        55.979 9  20491025.384 6         0.000 6       415.012 6        37.977 6
G26  20671180.242 9 108627762.968 9     -1526.437 9        55.866 9  20671183.065 6         0.000 6     -1189.432 6        37.977 6
G20  21915738.586 9 115167950.753 9      2507.909 9        55.327 9  21915738.891 6         0.000 6      1954.216 6        37.977 6
> 2019 07 03 12 01 59.0000000  0  8       0.000000000000
G07  25322197.935 9 133069002.407 9      2198.117 9        54.140 9  25322198.592 6         0.000 6      1712.819 6        37.977 6
G10  23769666.054 9 124910384.148 9      3486.327 9        54.684 9  23769669.742 6         0.000 6      2716.621 6        37.977 6
G21  21185363.287 9 111329814.773 9     -1278.475 9        55.703 9  21185362.576 6         0.000 6      -996.215 6        37.977 6
G29  24335687.020 9 127884841.437 9     -3154.338 9        54.462 9  24335688.632 6         0.000 6     -2457.928 6        37.977 6
G27  21976037.841 9 115484831.475 9      2513.179 9        55.386 9  21976039.763 6         0.000 6      1958.322 6        37.977 6
G16  20490924.919 9 107680516.923 9       531.977 9        55.979 9  20490924.092 6         0.000 6       414.527 6        37.977 6
G26  20671470.769 9 108629289.693 9     -1527.018 9        55.866 9  20671473.591 6         0.000 6     -1189.884 6        37.977 6
G20  21915261.390 9 115165443.077 9      2507.459 9        55.327 9  21915261.695 6         0.000 6      1953.865 6        37.977 6
> 2019 07 03 12 02  0.0000000  0  8       0.000000000000
G07  25321779.692 9 133066804.528 9      2197.658 9        54.140 9  25321780.349 6         0.000 6      1712.461 6        37.977 6
G10  23769002.642 9 124906897.902 9      3486.183 9        54.684 9  23769006.329 6         0.000 6      2716.509 6        37.977 6
G21  21185606.608 9 111331093.430 9     -1278.835 9        55.703 9  21185605.896 6         0.000 6      -996.495 6        37.977 6
G29  24336287.279 9 127887995.810 9     -3154.433 9        54.462 9  24336288.891 6         0.000 6     -2458.002 6        37.977 6
G27  21975559.622 9 115482318.423 9      2512.941 9        55.386 9  21975561.545 6         0.000 6      1958.136 6        37.977 6
G16  20490823.748 9 107679985.264 9       531.349 9        55.979 9  20490822.921 6         0.000 6       414.038 6        37.977 6
G26  20671761.406 9 108630817.003 9     -1527.600 9        55.866 9  20671764.229 6         0.000 6     -1190.338 6        37.977 6
G20  21914784.279 9 115162935.844 9      2507.012 9        55.327 9  21914784.584 6         0.000 6      1953.517 6        37.977 6
