     3.00           Observation Data    M (Mixed)           RINEX VERSION / TYPE
SimGEN V6.06.00     Spirent             03-Jul-19 12:00     PGM / RUN BY / DATE 
                                                            MARKER NAME         
1                                                           MARKER NUMBER       
GROUND_CRAFT                                                MARKER TYPE         
jin4hi              Spirent                                 OBSERVER / AGENCY   
rec_num             rec_type            rec_vers            REC # / TYPE / VERS 
1                   ant_type                                ANT # / TYPE        
  1000.000                                                  INTERVAL            
  2019     7     3    12     0    0.0000000     GPS         TIME OF FIRST OBS   
  4162649.8590   664405.0320  4770551.8670                  APPROX POSITION XYZ 
        0.0000        0.0000        0.0000                  ANTENNA: DELTA H/E/N
G    8 C1C L1C D1C S1C C2C L2C D2C S2C                      SYS / # / OBS TYPES 
        0.0000        0.0000        0.0000                  ANTENNA: DELTA X/Y/Z
DBHZ                                                        SIGNAL STRENGTH UNIT
                                                            END OF HEADER       
> 2019 07 03 12 00  0.0000000  0  8       0.000000000000
G07  25371996.941 9 133330697.517 9      2252.346 9        54.123 9  25371997.624 6         0.000 6      1755.075 6        37.977 6
G10  23849396.166 9 125329367.445 9      3502.605 9        54.655 9  23849399.932 6         0.000 6      2729.302 6        37.977 6
G21  21156810.367 9 111179768.249 9     -1235.264 9        55.715 9  21156809.650 6         0.000 6      -962.543 6        37.977 6
G29  24264389.219 9 127510170.185 9     -3143.715 9        54.488 9  24264390.756 6         0.000 6     -2449.648 6        37.977 6
G27  22033127.552 9 115784839.606 9      2541.834 9        55.363 9  22033129.495 6         0.000 6      1980.650 6        37.977 6
G16  20503767.984 9 107748007.678 9       606.101 9        55.974 9  20503767.157 6         0.000 6       472.286 6        37.977 6
G26  20637949.936 9 108453136.736 9     -1457.911 9        55.880 9  20637952.746 6         0.000 6     -1136.035 6        37.977 6
G20  21973043.904 9 115469091.699 9      2559.941 9        55.304 9  21973044.242 6         0.000 6      1994.759 6        37.977 6
> 2019 07 03 12 00  1.0000000  0  8       0.000000000000
G07  25371568.385 9 133328445.446 9      2251.949 9        54.123 9  25371569.068 6         0.000 6      1754.767 6        37.977 6
G10  23848729.631 9 125325864.793 9      3502.494 9        54.655 9  23848733.397 6         0.000 6      2729.219 6        37.977 6
G21  21157045.467 9 111181003.707 9     -1235.628 9        55.715 9  21157044.750 6         0.000 6      -962.827 6        37.977 6
G29  24264987.462 9 127513313.964 9     -3143.835 9        54.487 9  24264989.000 6         0.000 6     -2449.744 6        37.977 6
G27  22032643.883 9 115782297.909 9      2541.601 9        55.363 9  22032645.825 6         0.000 6      1980.469 6        37.977 6
G16  20503652.707 9 107747401.893 9       605.477 9        55.974 9  20503651.880 6         0.000 6       471.800 6        37.977 6
G26  20638227.414 9 108454594.889 9     -1458.499 9        55.880 9  20638230.224 6         0.000 6     -1136.493 6        37.977 6
G20  21972556.790 9 115466531.902 9      2559.513 9        55.304 9  21972557.128 6         0.000 6      1994.427 6        37.977 6
> 2019 07 03 12 00  2.0000000  0  8       0.000000000000
G07  25371139.897 9 133326193.728 9      2251.496 9        54.123 9  25371140.580 6         0.000 6      1754.414 6        37.977 6
G10  23848063.142 9 125322362.377 9      3502.365 9        54.655 9  23848066.906 6         0.000 6      2729.118 6        37.977 6
G21  21157280.635 9 111182239.523 9     -1235.992 9        55.715 9  21157279.919 6         0.000 6      -963.111 6        37.977 6
G29  24265585.723 9 127516457.836 9     -3143.928 9        54.487 9  24265587.262 6         0.000 6     -2449.816 6        37.977 6
G27  22032160.255 9 115779756.434 9      2541.364 9        55.363 9  22032162.198 6         0.000 6      1980.284 6        37.977 6
G16  20503537.549 9 107746796.735 9       604.853 9        55.974 9  20503536.722 6         0.000 6       471.314 6        37.977 6
G26  20638505.014 9 108456053.687 9     -1459.086 9        55.880 9  20638507.824 6         0.000 6     -1136.950 6        37.977 6
G20  21972069.773 9 115463972.614 9      2559.081 9        55.305 9  21972070.110 6         0.000 6      1994.090 6        37.977 6
> 2019 07 03 12 00  3.0000000  0  8       0.000000000000
G07  25370711.496 9 133323942.471 9      2251.000 9        54.123 9  25370712.179 6         0.000 6      1754.027 6        37.977 6
G10  23847396.675 9 125318860.079 9      3502.279 9        54.656 9  23847400.439 6         0.000 6      2729.051 6        37.977 6
G21  21157515.871 9 111183475.696 9     -1236.361 9        55.715 9  21157515.155 6         0.000 6      -963.399 6        37.977 6
G29  24266184.001 9 127519601.796 9     -3144.020 9        54.487 9  24266185.540 6         0.000 6     -2449.888 6        37.977 6
G27  22031676.673 9 115777215.197 9      2541.117 9        55.364 9  22031678.616 6         0.000 6      1980.092 6        37.977 6
G16  20503422.509 9 107746192.196 9       604.226 9        55.974 9  20503421.682 6         0.000 6       470.826 6        37.977 6
G26  20638782.724 9 108457513.062 9     -1459.652 9        55.880 9  20638785.534 6         0.000 6     -1137.391 6        37.977 6
G20  21971582.836 9 115461413.747 9      2558.678 9        55.305 9  21971583.173 6         0.000 6      1993.776 6        37.977 6
> 2019 07 03 12 00  4.0000000  0  8       0.000000000000
G07  25370283.227 9 133321691.905 9      2250.049 9        54.124 9  25370283.910 6         0.000 6      1753.286 6        37.977 6
G10  23846730.187 9 125315357.672 9      3502.647 9        54.656 9  23846733.950 6         0.000 6      2729.338 6        37.977 6
G21  21157751.184 9 111184712.271 9     -1236.798 9        55.715 9  21157750.467 6         0.000 6      -963.739 6        37.977 6
G29  24266782.296 9 127522745.850 9     -3144.102 9        54.487 9  24266783.836 6         0.000 6     -2449.952 6        37.977 6
G27  22031193.147 9 115774674.252 9      2540.755 9        55.364 9  22031195.090 6         0.000 6      1979.810 6        37.977 6
G16  20503307.592 9 107745588.301 9       603.558 9        55.974 9  20503306.765 6         0.000 6       470.305 6        37.977 6
G26  20639060.525 9 108458972.913 9     -1460.014 9        55.880 9  20639063.335 6         0.000 6     -1137.673 6        37.977 6
G20  21971095.950 9 115458855.151 9      2558.586 9        55.305 9  21971096.287 6         0.000 6      1993.704 6        37.977 6
> 2019 07 03 12 00  5.0000000  0  8       0.000000000000
G07  25369855.181 9 133319442.513 9      2248.736 9        54.124 9  25369855.863 6         0.000 6      1752.263 6        37.977 6
G10  23846063.586 9 125311854.671 9      3503.379 9        54.656 9  23846067.348 6         0.000 6      2729.909 6        37.977 6
G21  21157986.585 9 111185949.313 9     -1237.289 9        55.715 9  21157985.869 6         0.000 6      -964.122 6        37.977 6
G29  24267380.607 9 127525889.985 9     -3144.184 9        54.486 9  24267382.147 6         0.000 6     -2450.016 6        37.977 6
G27  22030709.699 9 115772133.719 9      2540.310 9        55.364 9  22030711.641 6         0.000 6      1979.463 6        37.977 6
G16  20503192.804 9 107744985.087 9       602.864 9        55.974 9  20503191.977 6         0.000 6       469.764 6        37.977 6
G26  20639338.374 9 108460433.021 9     -1460.206 9        55.879 9  20639341.185 6         0.000 6     -1137.824 6        37.977 6
G20  21970609.053 9 115456296.494 9      2558.741 9        55.305 9  21970609.390 6         0.000 6      1993.825 6        37.977 6
> 2019 07 03 12 00  6.0000000  0  8       0.000000000000
G07  25369427.382 9 133317194.415 9      2247.513 9        54.124 9  25369428.064 6         0.000 6      1751.310 6        37.977 6
G10  23845396.850 9 125308350.959 9      3504.020 9        54.656 9  23845400.612 6         0.000 6      2730.408 6        37.977 6
G21  21158222.079 9 111187186.841 9     -1237.765 9        55.714 9  21158221.363 6         0.000 6      -964.492 6        37.977 6
G29  24267978.932 9 127529034.195 9     -3144.261 9        54.486 9  24267980.473 6         0.000 6     -2450.076 6        37.977 6
G27  22030226.337 9 115769593.633 9      2539.881 9        55.364 9  22030228.278 6         0.000 6      1979.129 6        37.977 6
G16  20503078.149 9 107744382.569 9       602.175 9        55.974 9  20503077.322 6         0.000 6       469.228 6        37.977 6
G26  20639616.263 9 108461893.333 9     -1460.443 9        55.879 9  20639619.074 6         0.000 6     -1138.008 6        37.977 6
G20  21970122.129 9 115453737.694 9      2558.835 9        55.305 9  21970122.465 6         0.000 6      1993.899 6        37.977 6
> 2019 07 03 12 00  7.0000000  0  8       0.000000000000
G07  25368999.787 9 133314947.395 9      2246.609 9        54.124 9  25369000.469 6         0.000 6      1750.605 6        37.977 6
G10  23844730.019 9 125304846.751 9      3504.344 9        54.656 9  23844733.780 6         0.000 6      2730.660 6        37.977 6
G21  21158457.660 9 111188424.826 9     -1238.192 9        55.714 9  21158456.944 6         0.000 6      -964.825 6        37.977 6
G29  24268577.274 9 127532178.490 9     -3144.347 9        54.486 9  24268578.815 6         0.000 6     -2450.143 6        37.977 6
G27  22029743.047 9 115767053.935 9      2539.537 9        55.364 9  22029744.989 6         0.000 6      1978.861 6        37.977 6
G16  20502963.621 9 107743780.725 9       601.519 9        55.974 9  20502962.795 6         0.000 6       468.716 6        37.977 6
G26  20639894.208 9 108463353.945 9     -1460.818 9        55.879 9  20639897.019 6         0.000 6     -1138.300 6        37.977 6
G20  21969635.206 9 115451178.900 9      2558.713 9        55.305 9  21969635.542 6         0.000 6      1993.803 6        37.977 6
> 2019 07 03 12 00  8.0000000  0  8       0.000000000000
G07  25368572.233 9 133312700.586 9      2248.133 9        54.124 9  25368572.915 6         0.000 6      1751.793 6        37.977 6
G10  23844063.224 9 125301342.732 9      3503.051 9        54.657 9  23844066.985 6         0.000 6      2729.653 6        37.977 6
G21  21158693.397 9 111189663.631 9     -1240.504 9        55.714 9  21158692.680 6         0.000 6      -966.627 6        37.977 6
G29  24269175.868 9 127535324.113 9     -3150.033 9        54.486 9  24269177.410 6         0.000 6     -2454.573 6        37.977 6
G27  22029259.634 9 115764513.584 9      2543.522 9        55.365 9  22029261.576 6         0.000 6      1981.966 6        37.977 6
G16  20502849.130 9 107743179.067 9       602.923 9        55.974 9  20502848.303 6         0.000 6       469.810 6        37.977 6
G26  20640172.212 9 108464814.865 9     -1460.576 9        55.879 9  20640175.023 6         0.000 6     -1138.112 6        37.977 6
G20  21969148.439 9 115448620.930 9      2555.898 9        55.306 9  21969148.775 6         0.000 6      1991.610 6        37.977 6
> 2019 07 03 12 00  9.0000000  0  8       0.000000000000
G07  25368144.319 9 133310451.888 9      2248.273 9        54.124 9  25368145.001 6         0.000 6      1751.902 6        37.977 6
G10  23843396.613 9 125297839.677 9      3504.028 9        54.657 9  23843400.373 6         0.000 6      2730.414 6        37.977 6
G21  21158929.927 9 111190906.603 9     -1245.428 9        55.714 9  21158929.210 6         0.000 6      -970.463 6        37.977 6
G29  24269776.445 9 127538480.158 9     -3161.679 9        54.486 9  24269777.988 6         0.000 6     -2463.649 6        37.977 6
G27  22028774.841 9 115761965.983 9      2551.190 9        55.365 9  22028776.783 6         0.000 6      1987.941 6        37.977 6
G16  20502734.064 9 107742574.395 9       606.221 9        55.974 9  20502733.238 6         0.000 6       472.380 6        37.977 6
G26  20640449.923 9 108466274.243 9     -1457.837 9        55.879 9  20640452.734 6         0.000 6     -1135.978 6        37.977 6
G20  21968662.423 9 115446066.901 9      2552.927 9        55.306 9  21968662.758 6         0.000 6      1989.295 6        37.977 6
> 2019 07 03 12 00 10.0000000  0  8       0.000000000000
G07  25367717.107 9 133308206.875 9      2239.669 9        54.124 9  25367717.788 6         0.000 6      1745.197 6        37.977 6
G10  23842729.118 9 125294331.980 9      3513.388 9        54.657 9  23842732.878 6         0.000 6      2737.708 6        37.977 6
G21  21159167.408 9 111192154.573 9     -1250.573 9        55.714 9  21159166.691 6         0.000 6      -974.473 6        37.977 6
G29  24270379.000 9 127541646.597 9     -3170.555 9        54.485 9  24270380.544 6         0.000 6     -2470.565 6        37.977 6
G27  22028288.918 9 115759412.440 9      2554.962 9        55.365 9  22028290.859 6         0.000 6      1990.880 6        37.977 6
G16  20502618.504 9 107741967.121 9       607.941 9        55.974 9  20502617.677 6         0.000 6       473.720 6        37.977 6
G26  20640726.848 9 108467729.488 9     -1451.902 9        55.879 9  20640729.659 6         0.000 6     -1131.352 6        37.977 6
G20  21968176.430 9 115443512.997 9      2556.434 9        55.306 9  21968176.765 6         0.000 6      1992.028 6        37.977 6
> 2019 07 03 12 00 11.0000000  0  8       0.000000000000
G07  25367291.529 9 133305970.451 9      2234.491 9        54.125 9  25367292.210 6         0.000 6      1741.162 6        37.977 6
G10  23842059.955 9 125290815.516 9      3518.190 9        54.657 9  23842063.714 6         0.000 6      2741.449 6        37.977 6
G21  21159405.573 9 111193406.140 9     -1252.165 9        55.714 9  21159404.857 6         0.000 6      -975.713 6        37.977 6
G29  24270982.507 9 127544818.035 9     -3171.879 9        54.485 9  24270984.051 6         0.000 6     -2471.596 6        37.977 6
G27  22027802.774 9 115756857.740 9      2554.446 9        55.365 9  22027804.715 6         0.000 6      1990.478 6        37.977 6
G16  20502502.866 9 107741359.438 9       607.379 9        55.974 9  20502502.039 6         0.000 6       473.283 6        37.977 6
G26  20641002.876 9 108469180.024 9     -1449.908 9        55.879 9  20641005.687 6         0.000 6     -1129.799 6        37.977 6
G20  21967689.638 9 115440954.892 9      2558.992 9        55.306 9  21967689.973 6         0.000 6      1994.021 6        37.977 6
> 2019 07 03 12 00 12.0000000  0  8       0.000000000000
G07  25366866.449 9 133303736.648 9      2233.381 9        54.125 9  25366867.130 6         0.000 6      1740.297 6        37.977 6
G10  23841390.386 9 125287296.918 9      3518.763 9        54.658 9  23841394.144 6         0.000 6      2741.896 6        37.977 6
G21  21159643.913 9 111194658.623 9     -1252.756 9        55.714 9  21159643.196 6         0.000 6      -976.173 6        37.977 6
G29  24271586.134 9 127547990.107 9     -3172.255 9        54.485 9  24271587.679 6         0.000 6     -2471.889 6        37.977 6
G27  22027316.702 9 115754303.419 9      2554.239 9        55.365 9  22027318.643 6         0.000 6      1990.316 6        37.977 6
G16  20502387.340 9 107740752.349 9       606.805 9        55.974 9  20502386.514 6         0.000 6       472.835 6        37.977 6
G26  20641278.789 9 108470629.956 9     -1450.093 9        55.879 9  20641281.600 6         0.000 6     -1129.943 6        37.977 6
G20  21967202.666 9 115438395.839 9      2558.950 9        55.306 9  21967203.000 6         0.000 6      1993.988 6        37.977 6
> 2019 07 03 12 00 13.0000000  0  8       0.000000000000
G07  25366441.496 9 133301503.504 9      2232.938 9        54.125 9  25366442.176 6         0.000 6      1739.953 6        37.977 6
G10  23840720.797 9 125283778.211 9      3518.650 9        54.658 9  23840724.554 6         0.000 6      2741.808 6        37.977 6
G21  21159882.348 9 111195911.609 9     -1253.202 9        55.714 9  21159881.632 6         0.000 6      -976.522 6        37.977 6
G29  24272189.821 9 127551162.496 9     -3172.529 9        54.485 9  24272191.367 6         0.000 6     -2472.103 6        37.977 6
G27  22026830.658 9 115751749.244 9      2554.118 9        55.365 9  22026832.599 6         0.000 6      1990.223 6        37.977 6
G16  20502271.923 9 107740145.825 9       606.246 9        55.974 9  20502271.096 6         0.000 6       472.400 6        37.977 6
G26  20641554.782 9 108472080.306 9     -1450.619 9        55.878 9  20641557.593 6         0.000 6     -1130.353 6        37.977 6
G20  21966715.758 9 115435837.129 9      2558.471 9        55.307 9  21966716.093 6         0.000 6      1993.615 6        37.977 6
> 2019 07 03 12 00 14.0000000  0  8       0.000000000000
G07  25366016.621 9 133299270.774 9      2232.531 9        54.125 9  25366017.301 6         0.000 6      1739.636 6        37.977 6
G10  23840051.235 9 125280259.649 9      3518.491 9        54.658 9  23840054.991 6         0.000 6      2741.684 6        37.977 6
G21  21160120.864 9 111197165.018 9     -1253.618 9        55.714 9  21160120.148 6         0.000 6      -976.845 6        37.977 6
G29  24272793.553 9 127554335.117 9     -3172.734 9        54.485 9  24272795.099 6         0.000 6     -2472.263 6        37.977 6
G27  22026344.641 9 115749195.207 9      2553.958 9        55.366 9  22026346.581 6         0.000 6      1990.098 6        37.977 6
G16  20502156.613 9 107739539.868 9       605.665 9        55.974 9  20502155.786 6         0.000 6       471.946 6        37.977 6
G26  20641830.879 9 108473531.204 9     -1451.185 9        55.878 9  20641833.690 6         0.000 6     -1130.794 6        37.977 6
G20  21966228.944 9 115433278.905 9      2557.980 9        55.307 9  21966229.278 6         0.000 6      1993.233 6        37.977 6
> 2019 07 03 12 00 15.0000000  0  8       0.000000000000
G07  25365591.823 9 133297038.451 9      2232.117 9        54.125 9  25365592.503 6         0.000 6      1739.313 6        37.977 6
G10  23839381.703 9 125276741.248 9      3518.335 9        54.658 9  23839385.459 6         0.000 6      2741.562 6        37.977 6
G21  21160359.458 9 111198418.836 9     -1254.015 9        55.714 9  21160358.742 6         0.000 6      -977.155 6        37.977 6
G29  24273397.322 9 127557507.932 9     -3172.900 9        54.484 9  24273398.868 6         0.000 6     -2472.393 6        37.977 6
G27  22025858.655 9 115746641.338 9      2553.774 9        55.366 9  22025860.595 6         0.000 6      1989.954 6        37.977 6
G16  20502041.414 9 107738934.495 9       605.074 9        55.975 9  20502040.588 6         0.000 6       471.487 6        37.977 6
G26  20642107.084 9 108474982.670 9     -1451.755 9        55.878 9  20642109.895 6         0.000 6     -1131.238 6        37.977 6
G20  21965742.222 9 115430721.170 9      2557.504 9        55.307 9  21965742.556 6         0.000 6      1992.862 6        37.977 6
> 2019 07 03 12 00 16.0000000  0  8       0.000000000000
G07  25365167.105 9 133294806.548 9      2231.692 9        54.125 9  25365167.785 6         0.000 6      1738.982 6        37.977 6
G10  23838712.201 9 125273223.001 9      3518.186 9        54.659 9  23838715.956 6         0.000 6      2741.446 6        37.977 6
G21  21160598.126 9 111199673.047 9     -1254.405 9        55.713 9  21160597.410 6         0.000 6      -977.458 6        37.977 6
G29  24274001.119 9 127560680.898 9     -3173.041 9        54.484 9  24274002.666 6         0.000 6     -2472.502 6        37.977 6
G27  22025372.707 9 115744087.665 9      2553.570 9        55.366 9  22025374.647 6         0.000 6      1989.795 6        37.977 6
G16  20501926.329 9 107738329.719 9       604.474 9        55.975 9  20501925.503 6         0.000 6       471.019 6        37.977 6
G26  20642383.398 9 108476434.710 9     -1452.328 9        55.878 9  20642386.210 6         0.000 6     -1131.685 6        37.977 6
G20  21965255.590 9 115428163.906 9      2557.040 9        55.307 9  21965255.924 6         0.000 6      1992.500 6        37.977 6
> 2019 07 03 12 00 17.0000000  0  8       0.000000000000
G07  25364742.469 9 133292575.071 9      2231.258 9        54.125 9  25364743.148 6         0.000 6      1738.644 6        37.977 6
G10  23838042.727 9 125269704.902 9      3518.041 9        54.659 9  23838046.481 6         0.000 6      2741.334 6        37.977 6
G21  21160836.868 9 111200927.640 9     -1254.788 9        55.713 9  21160836.151 6         0.000 6      -977.757 6        37.977 6
G29  24274604.940 9 127563853.989 9     -3173.162 9        54.484 9  24274606.488 6         0.000 6     -2472.596 6        37.977 6
G27  22024886.799 9 115741534.207 9      2553.348 9        55.366 9  22024888.739 6         0.000 6      1989.623 6        37.977 6
G16  20501811.359 9 107737725.548 9       603.865 9        55.975 9  20501810.532 6         0.000 6       470.544 6        37.977 6
G26  20642659.822 9 108477887.325 9     -1452.905 9        55.878 9  20642662.634 6         0.000 6     -1132.135 6        37.977 6
G20  21964769.045 9 115425607.101 9      2556.583 9        55.307 9  21964769.379 6         0.000 6      1992.144 6        37.977 6
> 2019 07 03 12 00 18.0000000  0  8       0.000000000000
G07  25364317.915 9 133290344.032 9      2230.825 9        54.126 9  25364318.594 6         0.000 6      1738.306 6        37.977 6
G10  23837373.280 9 125266186.946 9      3517.894 9        54.659 9  23837377.034 6         0.000 6      2741.219 6        37.977 6
G21  21161075.682 9 111202182.619 9     -1255.171 9        55.713 9  21161074.966 6         0.000 6      -978.055 6        37.977 6
G29  24275208.784 9 127567027.200 9     -3173.277 9        54.484 9  24275210.332 6         0.000 6     -2472.686 6        37.977 6
G27  22024400.935 9 115738980.973 9      2553.121 9        55.366 9  22024402.874 6         0.000 6      1989.446 6        37.977 6
G16  20501696.506 9 107737121.989 9       603.251 9        55.975 9  20501695.679 6         0.000 6       470.066 6        37.977 6
G26  20642936.356 9 108479340.520 9     -1453.487 9        55.878 9  20642939.168 6         0.000 6     -1132.588 6        37.977 6
G20  21964282.587 9 115423050.752 9      2556.126 9        55.308 9  21964282.920 6         0.000 6      1991.788 6        37.977 6
> 2019 07 03 12 00 19.0000000  0  8       0.000000000000
G07  25363893.447 9 133288113.440 9      2230.347 9        54.126 9  25363894.126 6         0.000 6      1737.934 6        37.977 6
G10  23836703.859 9 125262669.126 9      3517.779 9        54.659 9  23836707.612 6         0.000 6      2741.129 6        37.977 6
G21  21161314.568 9 111203437.972 9     -1255.521 9        55.713 9  21161313.852 6         0.000 6      -978.328 6        37.977 6
G29  24275812.645 9 127570200.501 9     -3173.299 9        54.483 9  24275814.194 6         0.000 6     -2472.703 6        37.977 6
G27  22023915.116 9 115736427.984 9      2552.824 9        55.367 9  22023917.056 6         0.000 6      1989.214 6        37.977 6
G16  20501581.770 9 107736519.051 9       602.606 9        55.975 9  20501580.944 6         0.000 6       469.563 6        37.977 6
G26  20643213.001 9 108480794.296 9     -1454.075 9        55.878 9  20643215.813 6         0.000 6     -1133.046 6        37.977 6
G20  21963796.213 9 115420494.844 9      2555.718 9        55.308 9  21963796.546 6         0.000 6      1991.470 6        37.977 6
> 2019 07 03 12 00 20.0000000  0  8       0.000000000000
G07  25363469.077 9 133285883.366 9      2230.358 9        54.126 9  25363469.756 6         0.000 6      1737.942 6        37.977 6
G10  23836034.458 9 125259151.408 9      3517.131 9        54.660 9  23836038.210 6         0.000 6      2740.624 6        37.977 6
G21  21161553.509 9 111204693.612 9     -1255.682 9        55.713 9  21161552.793 6         0.000 6      -978.453 6        37.977 6
G29  24276416.477 9 127573373.649 9     -3173.039 9        54.483 9  24276418.026 6         0.000 6     -2472.500 6        37.977 6
G27  22023429.380 9 115733875.423 9      2552.451 9        55.367 9  22023431.319 6         0.000 6      1988.923 6        37.977 6
G16  20501467.170 9 107735916.824 9       601.901 9        55.975 9  20501466.344 6         0.000 6       469.014 6        37.977 6
G26  20643489.764 9 108482248.698 9     -1454.978 9        55.878 9  20643492.577 6         0.000 6     -1133.749 6        37.977 6
G20  21963309.906 9 115417939.288 9      2555.029 9        55.308 9  21963310.239 6         0.000 6      1990.933 6        37.977 6
> 2019 07 03 12 00 21.0000000  0  8       0.000000000000
G07  25363045.515 9 133283657.532 9      2218.879 9        54.126 9  25363046.193 6         0.000 6      1728.998 6        37.977 6
G10  23835364.379 9 125255630.134 9      3527.750 9        54.660 9  23835368.131 6         0.000 6      2748.899 6        37.977 6
G21  21161792.568 9 111205949.878 9     -1256.850 9        55.713 9  21161791.852 6         0.000 6      -979.364 6        37.977 6
G29  24277020.170 9 127576546.068 9     -3170.885 9        54.483 9  24277021.720 6         0.000 6     -2470.822 6        37.977 6
G27  22022943.961 9 115731324.535 9      2548.134 9        55.367 9  22022945.901 6         0.000 6      1985.560 6        37.977 6
G16  20501352.793 9 107735315.766 9       599.722 9        55.975 9  20501351.966 6         0.000 6       467.316 6        37.977 6
G26  20643766.351 9 108483702.168 9     -1451.124 9        55.878 9  20643769.163 6         0.000 6     -1130.746 6        37.977 6
G20  21962823.163 9 115415381.438 9      2562.512 9        55.308 9  21962823.495 6         0.000 6      1996.764 6        37.977 6
> 2019 07 03 12 00 22.0000000  0  8       0.000000000000
G07  25362624.738 9 133281446.340 9      2203.713 9        54.126 9  25362625.416 6         0.000 6      1717.180 6        37.977 6
G10  23834691.767 9 125252095.543 9      3541.090 9        54.660 9  23834695.518 6         0.000 6      2759.293 6        37.977 6
G21  21162031.693 9 111207206.487 9     -1255.906 9        55.713 9  21162030.977 6         0.000 6      -978.628 6        37.977 6
G29  24277622.835 9 127579713.086 9     -3162.084 9        54.483 9  24277624.386 6         0.000 6     -2463.964 6        37.977 6
G27  22022459.919 9 115728780.877 9      2538.500 9        55.367 9  22022461.858 6         0.000 6      1978.053 6        37.977 6
G16  20501239.081 9 107734718.204 9       595.046 9        55.975 9  20501238.254 6         0.000 6       463.672 6        37.977 6
G26  20644042.116 9 108485151.322 9     -1447.625 9        55.877 9  20644044.928 6         0.000 6     -1128.020 6        37.977 6
G20  21962334.471 9 115412813.352 9      2573.729 9        55.308 9  21962334.803 6         0.000 6      2005.504 6        37.977 6
> 2019 07 03 12 00 23.0000000  0  8       0.000000000000
G07  25362206.791 9 133279250.019 9      2191.586 9        54.126 9  25362207.469 6         0.000 6      1707.730 6        37.977 6
G10  23834016.788 9 125248548.514 9      3550.600 9        54.660 9  23834020.539 6         0.000 6      2766.704 6        37.977 6
G21  21162270.316 9 111208460.456 9     -1252.373 9        55.713 9  21162269.600 6         0.000 6      -975.875 6        37.977 6
G29  24278223.048 9 127582867.216 9     -3148.049 9        54.483 9  24278224.600 6         0.000 6     -2453.028 6        37.977 6
G27  22021978.218 9 115726249.525 9      2526.070 9        55.367 9  22021980.157 6         0.000 6      1968.367 6        37.977 6
G16  20501126.515 9 107734126.667 9       588.845 9        55.975 9  20501125.688 6         0.000 6       458.841 6        37.977 6
G26  20644317.484 9 108486598.390 9     -1447.167 9        55.877 9  20644320.297 6         0.000 6     -1127.663 6        37.977 6
G20  21961843.541 9 115410233.498 9      2583.842 9        55.309 9  21961843.872 6         0.000 6      2013.384 6        37.977 6
> 2019 07 03 12 00 24.0000000  0  8       0.000000000000
G07  25361789.976 9 133277059.642 9      2189.655 9        54.126 9  25361790.654 6         0.000 6      1706.226 6        37.977 6
G10  23833341.008 9 125244997.280 9      3551.535 9        54.661 9  23833344.758 6         0.000 6      2767.432 6        37.977 6
G21  21162508.558 9 111209712.426 9     -1251.845 9        55.713 9  21162507.842 6         0.000 6      -975.464 6        37.977 6
G29  24278821.761 9 127586013.463 9     -3145.334 9        54.482 9  24278823.313 6         0.000 6     -2450.912 6        37.977 6
G27  22021497.824 9 115723725.039 9      2523.602 9        55.368 9  22021499.762 6         0.000 6      1966.444 6        37.977 6
G16  20501014.651 9 107733538.816 9       587.184 9        55.975 9  20501013.824 6         0.000 6       457.546 6        37.977 6
G26  20644592.948 9 108488045.958 9     -1447.926 9        55.877 9  20644595.760 6         0.000 6     -1128.255 6        37.977 6
G20  21961351.703 9 115407648.879 9      2584.917 9        55.309 9  21961352.035 6         0.000 6      2014.222 6        37.977 6
> 2019 07 03 12 00 25.0000000  0  8       0.000000000000
G07  25361373.364 9 133274870.336 9      2189.020 9        54.127 9  25361374.042 6         0.000 6      1705.730 6        37.977 6
G10  23832665.170 9 125241445.736 9      3551.537 9        54.661 9  23832668.919 6         0.000 6      2767.434 6        37.977 6
G21  21162746.798 9 111210964.385 9     -1252.117 9        55.713 9  21162746.082 6         0.000 6      -975.675 6        37.977 6
G29  24279420.264 9 127589158.608 9     -3145.096 9        54.482 9  24279421.817 6         0.000 6     -2450.727 6        37.977 6
G27  22021017.654 9 115721201.735 9      2523.101 9        55.368 9  22021019.593 6         0.000 6      1966.053 6        37.977 6
G16  20500902.987 9 107732952.019 9       586.452 9        55.975 9  20500902.160 6         0.000 6       456.976 6        37.977 6
G26  20644868.535 9 108489494.180 9     -1448.510 9        55.877 9  20644871.348 6         0.000 6     -1128.710 6        37.977 6
G20  21960859.829 9 115405064.066 9      2584.657 9        55.309 9  21960860.160 6         0.000 6      2014.019 6        37.977 6
> 2019 07 03 12 00 26.0000000  0  8       0.000000000000
G07  25360956.855 9 133272681.571 9      2188.528 9        54.127 9  25360957.533 6         0.000 6      1705.348 6        37.977 6
G10  23831989.344 9 125237894.255 9      3551.435 9        54.661 9  23831993.092 6         0.000 6      2767.355 6        37.977 6
G21  21162985.102 9 111212216.680 9     -1252.484 9        55.712 9  21162984.386 6         0.000 6      -975.962 6        37.977 6
G29  24280018.759 9 127592303.711 9     -3145.146 9        54.482 9  24280020.313 6         0.000 6     -2450.766 6        37.977 6
G27  22020537.551 9 115718678.780 9      2522.825 9        55.368 9  22020539.490 6         0.000 6      1965.838 6        37.977 6
G16  20500791.448 9 107732365.880 9       585.826 9        55.975 9  20500790.621 6         0.000 6       456.488 6        37.977 6
G26  20645144.231 9 108490942.967 9     -1449.074 9        55.877 9  20645147.044 6         0.000 6     -1129.149 6        37.977 6
G20  21960368.023 9 115402479.614 9      2584.243 9        55.309 9  21960368.354 6         0.000 6      2013.697 6        37.977 6
> 2019 07 03 12 00 27.0000000  0  8       0.000000000000
G07  25360540.436 9 133270493.280 9      2188.060 9        54.127 9  25360541.114 6         0.000 6      1704.983 6        37.977 6
G10  23831313.539 9 125234342.889 9      3551.316 9        54.661 9  23831317.287 6         0.000 6      2767.262 6        37.977 6
G21  21163223.477 9 111213469.349 9     -1252.855 9        55.712 9  21163222.761 6         0.000 6      -976.251 6        37.977 6
G29  24280617.269 9 127595448.889 9     -3145.225 9        54.482 9  24280618.823 6         0.000 6     -2450.828 6        37.977 6
G27  22020057.497 9 115716156.078 9      2522.577 9        55.368 9  22020059.435 6         0.000 6      1965.645 6        37.977 6
G16  20500680.027 9 107731780.357 9       585.216 9        55.975 9  20500679.200 6         0.000 6       456.012 6        37.977 6
G26  20645420.033 9 108492392.317 9     -1449.634 9        55.877 9  20645422.846 6         0.000 6     -1129.586 6        37.977 6
G20  21959876.299 9 115399895.591 9      2583.811 9        55.309 9  21959876.629 6         0.000 6      2013.360 6        37.977 6
> 2019 07 03 12 00 28.0000000  0  8       0.000000000000
G07  25360124.106 9 133268305.454 9      2187.598 9        54.127 9  25360124.783 6         0.000 6      1704.623 6        37.977 6
G10  23830637.758 9 125230791.647 9      3551.190 9        54.662 9  23830641.506 6         0.000 6      2767.164 6        37.977 6
G21  21163461.923 9 111214722.391 9     -1253.231 9        55.712 9  21163461.207 6         0.000 6      -976.544 6        37.977 6
G29  24281215.793 9 127598594.146 9     -3145.310 9        54.482 9  24281217.348 6         0.000 6     -2450.894 6        37.977 6
G27  22019577.490 9 115713633.626 9      2522.332 9        55.368 9  22019579.428 6         0.000 6      1965.454 6        37.977 6
G16  20500568.722 9 107731195.447 9       584.604 9        55.975 9  20500567.896 6         0.000 6       455.535 6        37.977 6
G26  20645695.943 9 108493842.232 9     -1450.200 9        55.877 9  20645698.756 6         0.000 6     -1130.026 6        37.977 6
G20  21959384.658 9 115397312.005 9      2583.371 9        55.310 9  21959384.988 6         0.000 6      2013.018 6        37.977 6
> 2019 07 03 12 00 29.0000000  0  8       0.000000000000
G07  25359707.864 9 133266118.091 9      2187.139 9        54.127 9  25359708.541 6         0.000 6      1704.265 6        37.977 6
G10  23829962.001 9 125227240.533 9      3551.060 9        54.662 9  23829965.748 6         0.000 6      2767.063 6        37.977 6
G21  21163700.441 9 111215975.810 9     -1253.603 9        55.712 9  21163699.725 6         0.000 6      -976.834 6        37.977 6
G29  24281814.333 9 127601739.483 9     -3145.389 9        54.481 9  24281815.888 6         0.000 6     -2450.955 6        37.977 6
G27  22019097.530 9 115711111.426 9      2522.083 9        55.369 9  22019099.468 6         0.000 6      1965.261 6        37.977 6
G16  20500457.535 9 107730611.154 9       583.991 9        55.975 9  20500456.708 6         0.000 6       455.058 6        37.977 6
G26  20645971.962 9 108495292.718 9     -1450.767 9        55.877 9  20645974.775 6         0.000 6     -1130.468 6        37.977 6
G20  21958893.101 9 115394728.859 9      2582.931 9        55.310 9  21958893.431 6         0.000 6      2012.674 6        37.977 6
> 2019 07 03 12 00 30.0000000  0  8       0.000000000000
G07  25359291.708 9 133263931.181 9      2186.683 9        54.127 9  25359292.385 6         0.000 6      1703.910 6        37.977 6
G10  23829286.270 9 125223689.551 9      3550.928 9        54.662 9  23829290.016 6         0.000 6      2766.960 6        37.977 6
G21  21163939.029 9 111217229.598 9     -1253.977 9        55.712 9  21163938.313 6         0.000 6      -977.125 6        37.977 6
G29  24282412.890 9 127604884.908 9     -3145.473 9        54.481 9  24282414.446 6         0.000 6     -2451.020 6        37.977 6
G27  22018617.616 9 115708589.461 9      2521.839 9        55.369 9  22018619.554 6         0.000 6      1965.070 6        37.977 6
G16  20500346.462 9 107730027.464 9       583.380 9        55.975 9  20500345.636 6         0.000 6       454.581 6        37.977 6
G26  20646248.087 9 108496743.764 9     -1451.335 9        55.877 9  20646250.900 6         0.000 6     -1130.911 6        37.977 6
G20  21958401.628 9 115392146.156 9      2582.487 9        55.310 9  21958401.958 6         0.000 6      2012.329 6        37.977 6
> 2019 07 03 12 00 31.0000000  0  8       0.000000000000
G07  25358875.639 9 133261744.726 9      2186.233 9        54.127 9  25358876.316 6         0.000 6      1703.559 6        37.977 6
G10  23828610.564 9 125220138.703 9      3550.789 9        54.662 9  23828614.309 6         0.000 6      2766.852 6        37.977 6
G21  21164177.688 9 111218483.761 9     -1254.350 9        55.712 9  21164176.973 6         0.000 6      -977.415 6        37.977 6
G29  24283011.461 9 127608030.412 9     -3145.556 9        54.481 9  24283013.018 6         0.000 6     -2451.085 6        37.977 6
G27  22018137.749 9 115706067.747 9      2521.596 9        55.369 9  22018139.687 6         0.000 6      1964.880 6        37.977 6
G16  20500235.507 9 107729444.390 9       582.769 9        55.975 9  20500234.680 6         0.000 6       454.106 6        37.977 6
G26  20646524.321 9 108498195.383 9     -1451.906 9        55.876 9  20646527.135 6         0.000 6     -1131.356 6        37.977 6
G20  21957910.240 9 115389563.897 9      2582.039 9        55.310 9  21957910.569 6         0.000 6      2011.980 6        37.977 6
> 2019 07 03 12 00 32.0000000  0  8       0.000000000000
G07  25358459.656 9 133259558.722 9      2185.780 9        54.128 9  25358460.332 6         0.000 6      1703.206 6        37.977 6
G10  23827934.884 9 125216587.993 9      3550.655 9        54.663 9  23827938.629 6         0.000 6      2766.747 6        37.977 6
G21  21164416.418 9 111219738.296 9     -1254.719 9        55.712 9  21164415.703 6         0.000 6      -977.704 6        37.977 6
G29  24283610.048 9 127611175.999 9     -3145.639 9        54.481 9  24283611.605 6         0.000 6     -2451.150 6        37.977 6
G27  22017657.928 9 115703546.275 9      2521.354 9        55.369 9  22017659.866 6         0.000 6      1964.692 6        37.977 6
G16  20500124.668 9 107728861.927 9       582.161 9        55.975 9  20500123.841 6         0.000 6       453.632 6        37.977 6
G26  20646800.664 9 108499647.572 9     -1452.472 9        55.876 9  20646803.478 6         0.000 6     -1131.796 6        37.977 6
G20  21957418.936 9 115386982.086 9      2581.596 9        55.310 9  21957419.266 6         0.000 6      2011.634 6        37.977 6
> 2019 07 03 12 00 33.0000000  0  8       0.000000000000
G07  25358043.759 9 133257373.171 9      2185.333 9        54.128 9  25358044.435 6         0.000 6      1702.857 6        37.977 6
G10  23827259.230 9 125213037.418 9      3550.512 9        54.663 9  23827262.975 6         0.000 6      2766.635 6        37.977 6
G21  21164655.219 9 111220993.200 9     -1255.094 9        55.712 9  21164654.504 6         0.000 6      -977.995 6        37.977 6
G29  24284208.651 9 127614321.669 9     -3145.722 9        54.480 9  24284210.209 6         0.000 6     -2451.214 6        37.977 6
G27  22017178.154 9 115701025.045 9      2521.109 9        55.369 9  22017180.091 6         0.000 6      1964.501 6        37.977 6
G16  20500013.945 9 107728280.071 9       581.547 9        55.975 9  20500013.118 6         0.000 6       453.154 6        37.977 6
G26  20647077.115 9 108501100.327 9     -1453.047 9        55.876 9  20647079.928 6         0.000 6     -1132.245 6        37.977 6
G20  21956927.718 9 115384400.719 9      2581.144 9        55.310 9  21956928.046 6         0.000 6      2011.282 6        37.977 6
> 2019 07 03 12 00 34.0000000  0  8       0.000000000000
G07  25357627.927 9 133255187.965 9      2185.129 9        54.128 9  25357628.603 6         0.000 6      1702.699 6        37.977 6
G10  23826583.623 9 125209487.088 9      3550.126 9        54.663 9  23826587.367 6         0.000 6      2766.335 6        37.977 6
G21  21164894.088 9 111222248.466 9     -1255.428 9        55.712 9  21164893.373 6         0.000 6      -978.255 6        37.977 6
G29  24284807.271 9 127617467.426 9     -3145.808 9        54.480 9  24284808.829 6         0.000 6     -2451.281 6        37.977 6
G27  22016698.421 9 115698504.034 9      2520.927 9        55.369 9  22016700.358 6         0.000 6      1964.359 6        37.977 6
G16  20499903.337 9 107727698.821 9       580.956 9        55.975 9  20499902.510 6         0.000 6       452.693 6        37.977 6
G26  20647353.683 9 108502553.705 9     -1453.730 9        55.876 9  20647356.497 6         0.000 6     -1132.777 6        37.977 6
G20  21956436.598 9 115381819.874 9      2580.528 9        55.311 9  21956436.927 6         0.000 6      2010.803 6        37.977 6
> 2019 07 03 12 00 35.0000000  0  8       0.000000000000
G07  25357212.213 9 133253003.377 9      2182.775 9        54.128 9  25357212.889 6         0.000 6      1700.865 6        37.977 6
G10  23825908.043 9 125205936.904 9      3551.002 9        54.663 9  23825911.786 6         0.000 6      2767.017 6        37.977 6
G21  21165132.941 9 111223503.646 9     -1253.646 9        55.712 9  21165132.226 6         0.000 6      -976.867 6        37.977 6
G29  24285405.681 9 127620612.081 9     -3139.854 9        54.480 9  24285407.240 6         0.000 6     -2446.642 6        37.977 6
G27  22016218.892 9 115695984.096 9      2516.199 9        55.370 9  22016220.829 6         0.000 6      1960.675 6        37.977 6
G16  20499792.922 9 107727118.589 9       578.182 9        55.975 9  20499792.095 6         0.000 6       450.531 6        37.977 6
G26  20647630.416 9 108504007.942 9     -1455.303 9        55.876 9  20647633.230 6         0.000 6     -1134.003 6        37.977 6
G20  21955945.500 9 115379239.142 9      2582.488 9        55.311 9  21955945.829 6         0.000 6      2012.330 6        37.977 6
> 2019 07 03 12 00 36.0000000  0  8       0.000000000000
G07  25356796.986 9 133250821.345 9      2182.631 9        54.128 9  25356797.661 6         0.000 6      1700.752 6        37.977 6
G10  23825232.418 9 125202386.478 9      3548.634 9        54.664 9  23825236.160 6         0.000 6      2765.172 6        37.977 6
G21  21165371.025 9 111224754.786 9     -1248.729 9        55.712 9  21165370.310 6         0.000 6      -973.036 6        37.977 6
G29  24286001.886 9 127623745.150 9     -3127.035 9        54.480 9  24286003.446 6         0.000 6     -2436.653 6        37.977 6
G27  22015740.989 9 115693472.701 9      2507.392 9        55.370 9  22015742.926 6         0.000 6      1953.813 6        37.977 6
G16  20499683.398 9 107726543.036 9       573.256 9        55.976 9  20499682.571 6         0.000 6       446.693 6        37.977 6
G26  20647907.766 9 108505465.423 9     -1460.067 9        55.876 9  20647910.580 6         0.000 6     -1137.715 6        37.977 6
G20  21955453.806 9 115376655.272 9      2584.214 9        55.311 9  21955454.133 6         0.000 6      2013.674 6        37.977 6
> 2019 07 03 12 00 37.0000000  0  8       0.000000000000
G07  25356380.897 9 133248634.786 9      2192.127 9        54.128 9  25356381.572 6         0.000 6      1708.152 6        37.977 6
G10  23824558.078 9 125198842.812 9      3537.263 9        54.664 9  23824561.820 6         0.000 6      2756.312 6        37.977 6
G21  21165608.193 9 111226001.110 9     -1244.161 9        55.711 9  21165607.478 6         0.000 6      -969.476 6        37.977 6
G29  24286596.042 9 127626867.453 9     -3118.821 9        54.480 9  24286597.603 6         0.000 6     -2430.253 6        37.977 6
G27  22015264.293 9 115690967.650 9      2503.920 9        55.370 9  22015266.230 6         0.000 6      1951.107 6        37.977 6
G16  20499574.618 9 107725971.393 9       570.562 9        55.976 9  20499573.791 6         0.000 6       444.593 6        37.977 6
G26  20648186.317 9 108506929.217 9     -1467.900 9        55.876 9  20648189.131 6         0.000 6     -1143.819 6        37.977 6
G20  21954962.459 9 115374073.230 9      2578.545 9        55.311 9  21954962.786 6         0.000 6      2009.257 6        37.977 6
> 2019 07 03 12 00 38.0000000  0  8       0.000000000000
G07  25355963.285 9 133246440.224 9      2195.837 9        54.128 9  25355963.959 6         0.000 6      1711.043 6        37.977 6
G10  23823885.495 9 125195308.371 9      3532.858 9        54.664 9  23823889.236 6         0.000 6      2752.879 6        37.977 6
G21  21165844.873 9 111227244.870 9     -1243.653 9        55.711 9  21165844.158 6         0.000 6      -969.080 6        37.977 6
G29  24287189.464 9 127629985.894 9     -3118.366 9        54.479 9  24287191.025 6         0.000 6     -2429.898 6        37.977 6
G27  22014787.771 9 115688463.509 9      2504.290 9        55.370 9  22014789.707 6         0.000 6      1951.395 6        37.977 6
G16  20499466.093 9 107725401.093 9       570.057 9        55.976 9  20499465.267 6         0.000 6       444.200 6        37.977 6
G26  20648465.967 9 108508398.785 9     -1470.599 9        55.876 9  20648468.781 6         0.000 6     -1145.922 6        37.977 6
G20  21954472.151 9 115371496.649 9      2575.371 9        55.311 9  21954472.478 6         0.000 6      2006.784 6        37.977 6
> 2019 07 03 12 00 39.0000000  0  8       0.000000000000
G07  25355545.400 9 133244244.232 9      2195.941 9        54.129 9  25355546.075 6         0.000 6      1711.124 6        37.977 6
G10  23823213.302 9 125191775.984 9      3532.152 9        54.664 9  23823217.042 6         0.000 6      2752.329 6        37.977 6
G21  21166081.554 9 111228488.635 9     -1243.912 9        55.711 9  21166080.838 6         0.000 6      -969.282 6        37.977 6
G29  24287782.874 9 127633104.274 9     -3118.413 9        54.479 9  24287784.435 6         0.000 6     -2429.935 6        37.977 6
G27  22014311.228 9 115685959.263 9      2504.158 9        55.370 9  22014313.164 6         0.000 6      1951.293 6        37.977 6
G16  20499357.670 9 107724831.324 9       569.467 9        55.976 9  20499356.843 6         0.000 6       443.741 6        37.977 6
G26  20648745.903 9 108509869.859 9     -1471.451 9        55.875 9  20648748.717 6         0.000 6     -1146.586 6        37.977 6
G20  21953982.165 9 115368921.763 9      2574.555 9        55.312 9  21953982.492 6         0.000 6      2006.148 6        37.977 6
> 2019 07 03 12 00 40.0000000  0  8       0.000000000000
G07  25355127.565 9 133242048.494 9      2195.528 9        54.129 9  25355128.239 6         0.000 6      1710.802 6        37.977 6
G10  23822541.174 9 125188243.941 9      3531.968 9        54.665 9  23822544.914 6         0.000 6      2752.186 6        37.977 6
G21  21166318.295 9 111229732.717 9     -1244.256 9        55.711 9  21166317.579 6         0.000 6      -969.550 6        37.977 6
G29  24288376.294 9 127636222.706 9     -3118.472 9        54.479 9  24288377.856 6         0.000 6     -2429.981 6        37.977 6
G27  22013834.725 9 115683455.229 9      2503.914 9        55.371 9  22013836.661 6         0.000 6      1951.102 6        37.977 6
G16  20499249.363 9 107724262.167 9       568.846 9        55.976 9  20499248.536 6         0.000 6       443.256 6        37.977 6
G26  20649025.969 9 108511341.613 9     -1472.056 9        55.875 9  20649028.783 6         0.000 6     -1147.057 6        37.977 6
G20  21953492.289 9 115366347.450 9      2574.088 9        55.312 9  21953492.616 6         0.000 6      2005.784 6        37.977 6
> 2019 07 03 12 00 41.0000000  0  8       0.000000000000
G07  25354709.813 9 133239853.198 9      2195.069 9        54.129 9  25354710.487 6         0.000 6      1710.444 6        37.977 6
G10  23821869.076 9 125184712.052 9      3531.834 9        54.665 9  23821872.815 6         0.000 6      2752.081 6        37.977 6
G21  21166555.102 9 111230977.147 9     -1244.610 9        55.711 9  21166554.387 6         0.000 6      -969.826 6        37.977 6
G29  24288969.725 9 127639341.200 9     -3118.542 9        54.479 9  24288971.288 6         0.000 6     -2430.035 6        37.977 6
G27  22013358.270 9 115680951.442 9      2503.668 9        55.371 9  22013360.206 6         0.000 6      1950.911 6        37.977 6
G16  20499141.174 9 107723693.631 9       568.227 9        55.976 9  20499140.347 6         0.000 6       442.774 6        37.977 6
G26  20649306.147 9 108512813.958 9     -1472.634 9        55.875 9  20649308.961 6         0.000 6     -1147.507 6        37.977 6
G20  21953002.498 9 115363773.584 9      2573.653 9        55.312 9  21953002.824 6         0.000 6      2005.445 6        37.977 6
> 2019 07 03 12 00 42.0000000  0  8       0.000000000000
G07  25354292.149 9 133237658.361 9      2194.608 9        54.129 9  25354292.823 6         0.000 6      1710.085 6        37.977 6
G10  23821197.004 9 125181180.299 9      3531.698 9        54.665 9  23821200.742 6         0.000 6      2751.976 6        37.977 6
G21  21166791.978 9 111232221.938 9     -1244.970 9        55.711 9  21166791.263 6         0.000 6      -970.107 6        37.977 6
G29  24289563.171 9 127642459.769 9     -3118.617 9        54.479 9  24289564.735 6         0.000 6     -2430.094 6        37.977 6
G27  22012881.861 9 115678447.900 9      2503.422 9        55.371 9  22012883.797 6         0.000 6      1950.720 6        37.977 6
G16  20499033.104 9 107723125.716 9       567.605 9        55.976 9  20499032.277 6         0.000 6       442.290 6        37.977 6
G26  20649586.436 9 108514286.883 9     -1473.214 9        55.875 9  20649589.250 6         0.000 6     -1147.959 6        37.977 6
G20  21952512.790 9 115361200.158 9      2573.213 9        55.312 9  21952513.116 6         0.000 6      2005.103 6        37.977 6
> 2019 07 03 12 00 43.0000000  0  8       0.000000000000
G07  25353874.573 9 133235463.988 9      2194.145 9        54.129 9  25353875.247 6         0.000 6      1709.724 6        37.977 6
G10  23820524.957 9 125177648.677 9      3531.568 9        54.665 9  23820528.694 6         0.000 6      2751.874 6        37.977 6
G21  21167028.922 9 111233467.086 9     -1245.328 9        55.711 9  21167028.207 6         0.000 6      -970.385 6        37.977 6
G29  24290156.631 9 127645578.414 9     -3118.693 9        54.478 9  24290158.196 6         0.000 6     -2430.153 6        37.977 6
G27  22012405.499 9 115675944.602 9      2503.179 9        55.371 9  22012407.435 6         0.000 6      1950.530 6        37.977 6
G16  20498925.151 9 107722558.420 9       566.987 9        55.976 9  20498924.324 6         0.000 6       441.808 6        37.977 6
G26  20649866.834 9 108515760.382 9     -1473.789 9        55.875 9  20649869.648 6         0.000 6     -1148.407 6        37.977 6
G20  21952023.165 9 115358627.166 9      2572.778 9        55.312 9  21952023.491 6         0.000 6      2004.763 6        37.977 6
> 2019 07 03 12 00 44.0000000  0  8       0.000000000000
G07  25353457.085 9 133233270.076 9      2193.687 9        54.129 9  25353457.758 6         0.000 6      1709.367 6        37.977 6
G10  23819852.934 9 125174117.188 9      3531.432 9        54.666 9  23819856.671 6         0.000 6      2751.768 6        37.977 6
G21  21167265.934 9 111234712.594 9     -1245.689 9        55.711 9  21167265.219 6         0.000 6      -970.667 6        37.977 6
G29  24290750.107 9 127648697.140 9     -3118.779 9        54.478 9  24290751.672 6         0.000 6     -2430.220 6        37.977 6
G27  22011929.182 9 115673441.544 9      2502.943 9        55.371 9  22011931.118 6         0.000 6      1950.346 6        37.977 6
G16  20498817.315 9 107721991.740 9       566.372 9        55.976 9  20498816.488 6         0.000 6       441.329 6        37.977 6
G26  20650147.341 9 108517234.457 9     -1474.364 9        55.875 9  20650150.156 6         0.000 6     -1148.856 6        37.977 6
G20  21951533.624 9 115356054.613 9      2572.337 9        55.313 9  21951533.949 6         0.000 6      2004.419 6        37.977 6
> 2019 07 03 12 00 45.0000000  0  8       0.000000000000
G07  25353039.685 9 133231076.628 9      2193.226 9        54.129 9  25353040.358 6         0.000 6      1709.008 6        37.977 6
G10  23819180.937 9 125170585.830 9      3531.299 9        54.666 9  23819184.674 6         0.000 6      2751.664 6        37.977 6
G21  21167503.016 9 111235958.465 9     -1246.049 9        55.711 9  21167502.301 6         0.000 6      -970.947 6        37.977 6
G29  24291343.598 9 127651815.947 9     -3118.860 9        54.478 9  24291345.164 6         0.000 6     -2430.283 6        37.977 6
G27  22011452.912 9 115670938.729 9      2502.703 9        55.372 9  22011454.847 6         0.000 6      1950.159 6        37.977 6
G16  20498709.598 9 107721425.682 9       565.755 9        55.976 9  20498708.771 6         0.000 6       440.848 6        37.977 6
G26  20650427.958 9 108518709.108 9     -1474.939 9        55.875 9  20650430.773 6         0.000 6     -1149.304 6        37.977 6
G20  21951044.166 9 115353482.499 9      2571.898 9        55.313 9  21951044.491 6         0.000 6      2004.078 6        37.977 6
> 2019 07 03 12 00 46.0000000  0  8       0.000000000000
G07  25352622.370 9 133228883.629 9      2192.798 9        54.130 9  25352623.043 6         0.000 6      1708.675 6        37.977 6
G10  23818508.967 9 125167054.614 9      3531.143 9        54.666 9  23818512.703 6         0.000 6      2751.542 6        37.977 6
G21  21167740.166 9 111237204.698 9     -1246.433 9        55.711 9  21167739.451 6         0.000 6      -971.247 6        37.977 6
G29  24291937.108 9 127654934.850 9     -3119.013 9        54.478 9  24291938.674 6         0.000 6     -2430.402 6        37.977 6
G27  22010976.685 9 115668436.140 9      2502.518 9        55.372 9  22010978.620 6         0.000 6      1950.015 6        37.977 6
G16  20498601.996 9 107720860.232 9       565.164 9        55.976 9  20498601.169 6         0.000 6       440.388 6        37.977 6
G26  20650708.685 9 108520184.334 9     -1475.508 9        55.875 9  20650711.500 6         0.000 6     -1149.747 6        37.977 6
G20  21950554.793 9 115350910.833 9      2571.423 9        55.313 9  21950555.118 6         0.000 6      2003.707 6        37.977 6
> 2019 07 03 12 00 47.0000000  0  8       0.000000000000
G07  25352205.154 9 133226691.146 9      2192.350 9        54.130 9  25352205.827 6         0.000 6      1708.325 6        37.977 6
G10  23817837.006 9 125163523.446 9      3531.038 9        54.666 9  23817840.741 6         0.000 6      2751.461 6        37.977 6
G21  21167977.403 9 111238451.385 9     -1246.911 9        55.710 9  21167976.688 6         0.000 6      -971.619 6        37.977 6
G29  24292530.672 9 127658054.041 9     -3119.381 9        54.477 9  24292532.239 6         0.000 6     -2430.689 6        37.977 6
G27  22010500.479 9 115665933.665 9      2502.470 9        55.372 9  22010502.414 6         0.000 6      1949.978 6        37.977 6
G16  20498494.499 9 107720295.333 9       564.641 9        55.976 9  20498493.673 6         0.000 6       439.980 6        37.977 6
G26  20650989.503 9 108521660.044 9     -1476.002 9        55.875 9  20650992.318 6         0.000 6     -1150.132 6        37.977 6
G20  21950065.504 9 115348339.608 9      2570.920 9        55.313 9  21950065.829 6         0.000 6      2003.316 6        37.977 6
> 2019 07 03 12 00 48.0000000  0  8       0.000000000000
G07  25351786.786 9 133224492.613 9      2205.663 9        54.130 9  25351787.459 6         0.000 6      1718.699 6        37.977 6
G10  23817166.278 9 125159998.754 9      3517.594 9        54.667 9  23817170.012 6         0.000 6      2740.985 6        37.977 6
G21  21168214.616 9 111239697.945 9     -1246.546 9        55.710 9  21168213.901 6         0.000 6      -971.335 6        37.977 6
G29  24293124.506 9 127661174.649 9     -3123.031 9        54.477 9  24293126.073 6         0.000 6     -2433.533 6        37.977 6
G27  22010023.861 9 115663429.022 9      2507.820 9        55.372 9  22010025.796 6         0.000 6      1954.146 6        37.977 6
G16  20498386.949 9 107719730.154 9       566.169 9        55.976 9  20498386.123 6         0.000 6       441.171 6        37.977 6
G26  20651270.934 9 108523138.971 9     -1481.936 9        55.874 9  20651273.749 6         0.000 6     -1154.756 6        37.977 6
G20  21949577.186 9 115345773.481 9      2560.483 9        55.313 9  21949577.510 6         0.000 6      1995.183 6        37.977 6
> 2019 07 03 12 00 49.0000000  0  8       0.000000000000
G07  25351365.690 9 133222279.742 9      2219.976 9        54.130 9  25351366.362 6         0.000 6      1729.852 6        37.977 6
G10  23816498.205 9 125156488.017 9      3504.208 9        54.667 9  23816501.938 6         0.000 6      2730.554 6        37.977 6
G21  21168452.002 9 111240945.419 9     -1248.926 9        55.710 9  21168451.287 6         0.000 6      -973.189 6        37.977 6
G29  24293719.703 9 127664302.423 9     -3133.798 9        54.477 9  24293721.271 6         0.000 6     -2441.923 6        37.977 6
G27  22009545.734 9 115660916.451 9      2518.151 9        55.372 9  22009547.668 6         0.000 6      1962.196 6        37.977 6
G16  20498278.873 9 107719162.208 9       570.149 9        55.976 9  20498278.046 6         0.000 6       444.272 6        37.977 6
G26  20651553.378 9 108524623.223 9     -1486.112 9        55.874 9  20651556.193 6         0.000 6     -1158.010 6        37.977 6
G20  21949091.110 9 115343219.141 9      2548.056 9        55.314 9  21949091.434 6         0.000 6      1985.499 6        37.977 6
> 2019 07 03 12 00 50.0000000  0  8       0.000000000000
G07  25350942.097 9 133220053.747 9      2228.644 9        54.130 9  25350942.769 6         0.000 6      1736.607 6        37.977 6
G10  23815832.360 9 125152988.991 9      3496.737 9        54.667 9  23815836.093 6         0.000 6      2724.733 6        37.977 6
G21  21168690.125 9 111242196.762 9     -1252.865 9        55.710 9  21168689.410 6         0.000 6      -976.259 6        37.977 6
G29  24294317.557 9 127667444.157 9     -3146.189 9        54.477 9  24294319.126 6         0.000 6     -2451.578 6        37.977 6
G27  22009065.288 9 115658391.695 9      2528.245 9        55.373 9  22009067.223 6         0.000 6      1970.062 6        37.977 6
G16  20498169.851 9 107718589.292 9       574.277 9        55.976 9  20498169.024 6         0.000 6       447.489 6        37.977 6
G26  20651836.319 9 108526110.086 9     -1487.126 9        55.874 9  20651839.134 6         0.000 6     -1158.800 6        37.977 6
G20  21948607.358 9 115340677.009 9      2539.157 9        55.314 9  21948607.682 6         0.000 6      1978.565 6        37.977 6
> 2019 07 03 12 00 51.0000000  0  8       0.000000000000
G07  25350517.926 9 133217824.717 9      2229.113 9        54.130 9  25350518.598 6         0.000 6      1736.972 6        37.977 6
G10  23815167.050 9 125149492.771 9      3495.945 9        54.667 9  23815170.782 6         0.000 6      2724.115 6        37.977 6
G21  21168928.648 9 111243450.208 9     -1253.826 9        55.710 9  21168927.933 6         0.000 6      -977.007 6        37.977 6
G29  24294916.498 9 127670591.600 9     -3148.106 9        54.477 9  24294918.067 6         0.000 6     -2453.072 6        37.977 6
G27  22008584.020 9 115655862.615 9      2529.440 9        55.373 9  22008585.954 6         0.000 6      1970.993 6        37.977 6
G16  20498060.543 9 107718014.877 9       574.327 9        55.976 9  20498059.716 6         0.000 6       447.527 6        37.977 6
G26  20652119.348 9 108527597.411 9     -1487.574 9        55.874 9  20652122.163 6         0.000 6     -1159.149 6        37.977 6
G20  21948124.336 9 115338138.720 9      2537.753 9        55.314 9  21948124.660 6         0.000 6      1977.471 6        37.977 6
> 2019 07 03 12 00 52.0000000  0  8       0.000000000000
G07  25350093.769 9 133215595.762 9      2228.766 9        54.130 9  25350094.441 6         0.000 6      1736.702 6        37.977 6
G10  23814501.816 9 125145996.958 9      3495.727 9        54.668 9  23814505.548 6         0.000 6      2723.946 6        37.977 6
G21  21169167.285 9 111244704.256 9     -1254.251 9        55.710 9  21169166.571 6         0.000 6      -977.338 6        37.977 6
G29  24295515.597 9 127673739.875 9     -3148.392 9        54.476 9  24295517.166 6         0.000 6     -2453.295 6        37.977 6
G27  22008102.686 9 115653333.191 9      2529.354 9        55.373 9  22008104.620 6         0.000 6      1970.926 6        37.977 6
G16  20497951.302 9 107717440.813 9       573.771 9        55.976 9  20497950.475 6         0.000 6       447.095 6        37.977 6
G26  20652402.478 9 108529085.268 9     -1488.151 9        55.874 9  20652405.294 6         0.000 6     -1159.599 6        37.977 6
G20  21947641.474 9 115335601.264 9      2537.204 9        55.314 9  21947641.797 6         0.000 6      1977.043 6        37.977 6
> 2019 07 03 12 00 53.0000000  0  8       0.000000000000
G07  25349669.689 9 133213367.213 9      2228.337 9        54.131 9  25349670.361 6         0.000 6      1736.367 6        37.977 6
G10  23813836.617 9 125142501.321 9      3495.569 9        54.668 9  23813840.348 6         0.000 6      2723.823 6        37.977 6
G21  21169405.995 9 111245958.685 9     -1254.613 9        55.710 9  21169405.281 6         0.000 6      -977.620 6        37.977 6
G29  24296114.726 9 127676888.312 9     -3148.502 9        54.476 9  24296116.297 6         0.000 6     -2453.381 6        37.977 6
G27  22007621.386 9 115650803.948 9      2529.135 9        55.373 9  22007623.320 6         0.000 6      1970.756 6        37.977 6
G16  20497842.175 9 107716867.348 9       573.156 9        55.976 9  20497841.349 6         0.000 6       446.615 6        37.977 6
G26  20652685.720 9 108530573.711 9     -1488.740 9        55.874 9  20652688.535 6         0.000 6     -1160.058 6        37.977 6
G20  21947158.703 9 115333064.293 9      2536.747 9        55.314 9  21947159.027 6         0.000 6      1976.687 6        37.977 6
> 2019 07 03 12 00 54.0000000  0  8       0.000000000000
G07  25349245.694 9 133211139.108 9      2227.886 9        54.131 9  25349246.366 6         0.000 6      1736.016 6        37.977 6
G10  23813171.445 9 125139005.830 9      3495.428 9        54.668 9  23813175.175 6         0.000 6      2723.713 6        37.977 6
G21  21169644.775 9 111247213.477 9     -1254.972 9        55.710 9  21169644.060 6         0.000 6      -977.900 6        37.977 6
G29  24296713.875 9 127680036.850 9     -3148.593 9        54.476 9  24296715.446 6         0.000 6     -2453.452 6        37.977 6
G27  22007140.131 9 115648274.935 9      2528.897 9        55.373 9  22007142.064 6         0.000 6      1970.570 6        37.977 6
G16  20497733.167 9 107716294.505 9       572.530 9        55.976 9  20497732.340 6         0.000 6       446.127 6        37.977 6
G26  20652969.073 9 108532062.742 9     -1489.328 9        55.874 9  20652971.889 6         0.000 6     -1160.516 6        37.977 6
G20  21946676.018 9 115330527.769 9      2536.306 9        55.315 9  21946676.341 6         0.000 6      1976.343 6        37.977 6
> 2019 07 03 12 00 55.0000000  0  8       0.000000000000
G07  25348821.784 9 133208911.448 9      2227.438 9        54.131 9  25348822.455 6         0.000 6      1735.667 6        37.977 6
G10  23812506.301 9 125135510.486 9      3495.285 9        54.668 9  23812510.031 6         0.000 6      2723.601 6        37.977 6
G21  21169883.622 9 111248468.627 9     -1255.333 9        55.710 9  21169882.907 6         0.000 6      -978.182 6        37.977 6
G29  24297313.041 9 127683185.477 9     -3148.689 9        54.476 9  24297314.612 6         0.000 6     -2453.526 6        37.977 6
G27  22006658.920 9 115645746.159 9      2528.663 9        55.373 9  22006660.854 6         0.000 6      1970.387 6        37.977 6
G16  20497624.278 9 107715722.287 9       571.906 9        55.976 9  20497623.451 6         0.000 6       445.641 6        37.977 6
G26  20653252.539 9 108533552.363 9     -1489.915 9        55.874 9  20653255.355 6         0.000 6     -1160.973 6        37.977 6
G20  21946193.417 9 115327991.690 9      2535.861 9        55.315 9  21946193.740 6         0.000 6      1975.997 6        37.977 6
> 2019 07 03 12 00 56.0000000  0  8       0.000000000000
G07  25348397.960 9 133206684.239 9      2226.987 9        54.131 9  25348398.631 6         0.000 6      1735.316 6        37.977 6
G10  23811841.184 9 125132015.283 9      3495.144 9        54.668 9  23811844.913 6         0.000 6      2723.491 6        37.977 6
G21  21170122.538 9 111249724.142 9     -1255.692 9        55.710 9  21170121.824 6         0.000 6      -978.462 6        37.977 6
G29  24297912.225 9 127686334.202 9     -3148.780 9        54.476 9  24297913.797 6         0.000 6     -2453.597 6        37.977 6
G27  22006177.755 9 115643217.621 9      2528.425 9        55.374 9  22006179.688 6         0.000 6      1970.202 6        37.977 6
G16  20497515.508 9 107715150.698 9       571.280 9        55.976 9  20497514.681 6         0.000 6       445.153 6        37.977 6
G26  20653536.117 9 108535042.574 9     -1490.503 9        55.873 9  20653538.933 6         0.000 6     -1161.431 6        37.977 6
G20  21945710.902 9 115325456.057 9      2535.420 9        55.315 9  21945711.224 6         0.000 6      1975.653 6        37.977 6
> 2019 07 03 12 00 57.0000000  0  8       0.000000000000
G07  25347974.222 9 133204457.484 9      2226.530 9        54.131 9  25347974.892 6         0.000 6      1734.959 6        37.977 6
G10  23811176.093 9 125128520.218 9      3495.009 9        54.669 9  23811179.821 6         0.000 6      2723.386 6        37.977 6
G21  21170361.523 9 111250980.014 9     -1256.053 9        55.709 9  21170360.809 6         0.000 6      -978.743 6        37.977 6
G29  24298511.427 9 127689483.017 9     -3148.871 9        54.475 9  24298512.999 6         0.000 6     -2453.668 6        37.977 6
G27  22005696.634 9 115640689.318 9      2528.185 9        55.374 9  22005698.567 6         0.000 6      1970.015 6        37.977 6
G16  20497406.856 9 107714579.731 9       570.654 9        55.976 9  20497406.030 6         0.000 6       444.665 6        37.977 6
G26  20653819.806 9 108536533.367 9     -1491.087 9        55.873 9  20653822.622 6         0.000 6     -1161.887 6        37.977 6
G20  21945228.469 9 115322920.860 9      2534.982 9        55.315 9  21945228.791 6         0.000 6      1975.312 6        37.977 6
> 2019 07 03 12 00 58.0000000  0  8       0.000000000000
G07  25347550.571 9 133202231.187 9      2226.076 9        54.131 9  25347551.241 6         0.000 6      1734.605 6        37.977 6
G10  23810511.028 9 125125025.287 9      3494.869 9        54.669 9  23810514.756 6         0.000 6      2723.277 6        37.977 6
G21  21170600.576 9 111252236.247 9     -1256.416 9        55.709 9  21170599.862 6         0.000 6      -979.026 6        37.977 6
G29  24299110.646 9 127692631.923 9     -3148.962 9        54.475 9  24299112.219 6         0.000 6     -2453.740 6        37.977 6
G27  22005215.559 9 115638161.256 9      2527.944 9        55.374 9  22005217.492 6         0.000 6      1969.827 6        37.977 6
G16  20497298.324 9 107714009.391 9       570.024 9        55.977 9  20497297.497 6         0.000 6       444.174 6        37.977 6
G26  20654103.606 9 108538024.745 9     -1491.677 9        55.873 9  20654106.422 6         0.000 6     -1162.346 6        37.977 6
G20  21944746.120 9 115320386.102 9      2534.540 9        55.315 9  21944746.441 6         0.000 6      1974.967 6        37.977 6
> 2019 07 03 12 00 59.0000000  0  8       0.000000000000
G07  25347127.005 9 133200005.340 9      2225.618 9        54.131 9  25347127.675 6         0.000 6      1734.249 6        37.977 6
G10  23809845.990 9 125121530.498 9      3494.734 9        54.669 9  23809849.717 6         0.000 6      2723.172 6        37.977 6
G21  21170839.698 9 111253492.838 9     -1256.777 9        55.709 9  21170838.983 6         0.000 6      -979.307 6        37.977 6
G29  24299709.882 9 127695780.921 9     -3149.054 9        54.475 9  24299711.456 6         0.000 6     -2453.811 6        37.977 6
G27  22004734.530 9 115635633.431 9      2527.704 9        55.374 9  22004736.463 6         0.000 6      1969.640 6        37.977 6
G16  20497189.911 9 107713439.677 9       569.397 9        55.977 9  20497189.084 6         0.000 6       443.686 6        37.977 6
G26  20654387.518 9 108539516.710 9     -1492.261 9        55.873 9  20654390.334 6         0.000 6     -1162.801 6        37.977 6
G20  21944263.854 9 115317851.785 9      2534.102 9        55.315 9  21944264.176 6         0.000 6      1974.626 6        37.977 6
> 2019 07 03 12 01  0.0000000  0  8       0.000000000000
G07  25346703.528 9 133197779.954 9      2225.158 9        54.132 9  25346704.198 6         0.000 6      1733.890 6        37.977 6
G10  23809180.977 9 125118035.843 9      3494.602 9        54.669 9  23809184.703 6         0.000 6      2723.070 6        37.977 6
G21  21171078.889 9 111254749.795 9     -1257.135 9        55.709 9  21171078.174 6         0.000 6      -979.586 6        37.977 6
G29  24300309.135 9 127698930.010 9     -3149.145 9        54.475 9  24300310.710 6         0.000 6     -2453.882 6        37.977 6
G27  22004253.546 9 115633105.850 9      2527.467 9        55.374 9  22004255.479 6         0.000 6      1969.455 6        37.977 6
G16  20497081.618 9 107712870.593 9       568.774 9        55.977 9  20497080.791 6         0.000 6       443.200 6        37.977 6
G26  20654671.541 9 108541009.262 9     -1492.841 9        55.873 9  20654674.358 6         0.000 6     -1163.253 6        37.977 6
G20  21943781.672 9 115315317.906 9      2533.668 9        55.316 9  21943781.994 6         0.000 6      1974.288 6        37.977 6
> 2019 07 03 12 01  1.0000000  0  8       0.000000000000
G07  25346280.155 9 133195555.121 9      2224.412 9        54.132 9  25346280.825 6         0.000 6      1733.309 6        37.977 6
G10  23808515.972 9 125114541.228 9      3494.724 9        54.670 9  23808519.697 6         0.000 6      2723.164 6        37.977 6
G21  21171318.151 9 111256007.123 9     -1257.452 9        55.709 9  21171317.436 6         0.000 6      -979.833 6        37.977 6
G29  24300908.406 9 127702079.185 9     -3149.019 9        54.474 9  24300909.981 6         0.000 6     -2453.784 6        37.977 6
G27  22003772.613 9 115630578.532 9      2527.016 9        55.375 9  22003774.546 6         0.000 6      1969.104 6        37.977 6
G16  20496973.446 9 107712302.142 9       568.056 9        55.977 9  20496972.619 6         0.000 6       442.641 6        37.977 6
G26  20654955.667 9 108542502.353 9     -1493.357 9        55.873 9  20654958.484 6         0.000 6     -1163.655 6        37.977 6
G20  21943299.561 9 115312784.399 9      2533.466 9        55.316 9  21943299.882 6         0.000 6      1974.130 6        37.977 6
> 2019 07 03 12 01  2.0000000  0  8       0.000000000000
G07  25345856.711 9 133193329.911 9      2226.715 9        54.132 9  25345857.381 6         0.000 6      1735.103 6        37.977 6
G10  23807851.066 9 125111047.137 9      3493.259 9        54.670 9  23807854.791 6         0.000 6      2722.023 6        37.977 6
G21  21171557.688 9 111257265.902 9     -1261.322 9        55.709 9  21171556.974 6         0.000 6      -982.849 6        37.977 6
G29  24301508.261 9 127705231.439 9     -3158.740 9        54.474 9  24301509.837 6         0.000 6     -2461.359 6        37.977 6
G27  22003291.310 9 115628049.269 9      2533.830 9        55.375 9  22003293.243 6         0.000 6      1974.414 6        37.977 6
G16  20496865.190 9 107711733.257 9       570.846 9        55.977 9  20496864.363 6         0.000 6       444.815 6        37.977 6
G26  20655239.800 9 108543995.478 9     -1492.211 9        55.873 9  20655242.617 6         0.000 6     -1162.762 6        37.977 6
G20  21942817.745 9 115310252.446 9      2529.378 9        55.316 9  21942818.066 6         0.000 6      1970.945 6        37.977 6
> 2019 07 03 12 01  3.0000000  0  8       0.000000000000
G07  25345433.110 9 133191103.873 9      2224.013 9        54.132 9  25345433.779 6         0.000 6      1732.998 6        37.977 6
G10  23807186.065 9 125107552.544 9      3497.186 9        54.670 9  23807189.790 6         0.000 6      2725.083 6        37.977 6
G21  21171798.259 9 111258530.109 9     -1266.978 9        55.709 9  21171797.545 6         0.000 6      -987.256 6        37.977 6
G29  24302110.580 9 127708396.636 9     -3170.856 9        54.474 9  24302112.157 6         0.000 6     -2470.799 6        37.977 6
G27  22002808.367 9 115625511.389 9      2541.073 9        55.375 9  22002810.299 6         0.000 6      1980.058 6        37.977 6
G16  20496756.216 9 107711160.593 9       574.114 9        55.977 9  20496755.389 6         0.000 6       447.362 6        37.977 6
G26  20655523.387 9 108545485.739 9     -1487.933 9        55.873 9  20655526.204 6         0.000 6     -1159.429 6        37.977 6
G20  21942336.631 9 115307724.176 9      2528.237 9        55.316 9  21942336.951 6         0.000 6      1970.056 6        37.977 6
> 2019 07 03 12 01  4.0000000  0  8       0.000000000000
G07  25345010.956 9 133188885.444 9      2213.150 9        54.132 9  25345011.625 6         0.000 6      1724.533 6        37.977 6
G10  23806519.447 9 125104049.452 9      3508.437 9        54.670 9  23806523.171 6         0.000 6      2733.850 6        37.977 6
G21  21172039.870 9 111259799.781 9     -1271.537 9        55.709 9  21172039.156 6         0.000 6      -990.808 6        37.977 6
G29  24302714.749 9 127711571.552 9     -3177.093 9        54.474 9  24302716.326 6         0.000 6     -2475.660 6        37.977 6
G27  22002324.567 9 115622969.006 9      2542.501 9        55.375 9  22002326.499 6         0.000 6      1981.170 6        37.977 6
G16  20496646.835 9 107710585.792 9       574.871 9        55.977 9  20496646.008 6         0.000 6       447.952 6        37.977 6
G26  20655805.863 9 108546970.154 9     -1481.639 9        55.873 9  20655808.679 6         0.000 6     -1154.524 6        37.977 6
G20  21941855.018 9 115305193.287 9      2533.702 9        55.316 9  21941855.338 6         0.000 6      1974.315 6        37.977 6
> 2019 07 03 12 01  5.0000000  0  8       0.000000000000
G07  25344590.189 9 133186674.303 9      2209.953 9        54.132 9  25344590.858 6         0.000 6      1722.043 6        37.977 6
G10  23805851.483 9 125100539.285 9      3511.085 9        54.671 9  23805855.206 6         0.000 6      2735.913 6        37.977 6
G21  21172281.937 9 111261071.852 9     -1272.430 9        55.709 9  21172281.223 6         0.000 6      -991.504 6        37.977 6
G29  24303319.367 9 127714748.831 9     -3177.379 9        54.474 9  24303320.944 6         0.000 6     -2475.883 6        37.977 6
G27  22001840.829 9 115620426.947 9      2541.746 9        55.375 9  22001842.761 6         0.000 6      1980.582 6        37.977 6
G16  20496537.513 9 107710011.302 9       574.133 9        55.977 9  20496536.686 6         0.000 6       447.376 6        37.977 6
G26  20656087.695 9 108548451.192 9     -1480.856 9        55.872 9  20656090.512 6         0.000 6     -1153.914 6        37.977 6
G20  21941372.689 9 115302658.638 9      2535.077 9        55.317 9  21941373.009 6         0.000 6      1975.386 6        37.977 6
> 2019 07 03 12 01  6.0000000  0  8       0.000000000000
G07  25344169.734 9 133184464.799 9      2209.180 9        54.132 9  25344170.402 6         0.000 6      1721.440 6        37.977 6
G10  23805183.316 9 125097028.057 9      3511.272 9        54.671 9  23805187.038 6         0.000 6      2736.059 6        37.977 6
G21  21172524.115 9 111262344.506 9     -1272.859 9        55.709 9  21172523.401 6         0.000 6      -991.838 6        37.977 6
G29  24303924.013 9 127717926.258 9     -3177.488 9        54.473 9  24303925.591 6         0.000 6     -2475.967 6        37.977 6
G27  22001357.182 9 115617885.368 9      2541.438 9        55.376 9  22001359.114 6         0.000 6      1980.342 6        37.977 6
G16  20496428.320 9 107709437.489 9       573.497 9        55.977 9  20496427.493 6         0.000 6       446.881 6        37.977 6
G26  20656369.527 9 108549932.226 9     -1481.275 9        55.872 9  20656372.344 6         0.000 6     -1154.240 6        37.977 6
G20  21940890.295 9 115300123.641 9      2534.846 9        55.317 9  21940890.614 6         0.000 6      1975.206 6        37.977 6
> 2019 07 03 12 01  7.0000000  0  8       0.000000000000
G07  25343749.387 9 133182255.867 9      2208.707 9        54.133 9  25343750.056 6         0.000 6      1721.071 6        37.977 6
G10  23804515.153 9 125093516.848 9      3511.156 9        54.671 9  23804518.875 6         0.000 6      2735.968 6        37.977 6
G21  21172766.368 9 111263617.554 9     -1273.238 9        55.708 9  21172765.654 6         0.000 6      -992.134 6        37.977 6
G29  24304528.678 9 127721103.782 9     -3177.590 9        54.473 9  24304530.257 6         0.000 6     -2476.046 6        37.977 6
G27  22000873.587 9 115615344.060 9      2541.195 9        55.376 9  22000875.518 6         0.000 6      1980.152 6        37.977 6
G16  20496319.247 9 107708864.306 9       572.877 9        55.977 9  20496318.420 6         0.000 6       446.398 6        37.977 6
G26  20656651.458 9 108551413.780 9     -1481.839 9        55.872 9  20656654.275 6         0.000 6     -1154.680 6        37.977 6
G20  21940407.970 9 115297589.012 9      2534.413 9        55.317 9  21940408.289 6         0.000 6      1974.868 6        37.977 6
> 2019 07 03 12 01  8.0000000  0  8       0.000000000000
G07  25343329.127 9 133180047.390 9      2208.255 9        54.133 9  25343329.796 6         0.000 6      1720.719 6        37.977 6
G10  23803847.016 9 125090005.773 9      3511.017 9        54.671 9  23803850.737 6         0.000 6      2735.860 6        37.977 6
G21  21173008.694 9 111264890.983 9     -1273.614 9        55.708 9  21173007.980 6         0.000 6      -992.427 6        37.977 6
G29  24305133.362 9 127724281.412 9     -3177.689 9        54.473 9  24305134.942 6         0.000 6     -2476.124 6        37.977 6
G27  22000390.037 9 115612802.992 9      2540.953 9        55.376 9  22000391.968 6         0.000 6      1979.964 6        37.977 6
G16  20496210.292 9 107708291.742 9       572.257 9        55.977 9  20496209.465 6         0.000 6       445.914 6        37.977 6
G26  20656933.498 9 108552895.909 9     -1482.415 9        55.872 9  20656936.315 6         0.000 6     -1155.129 6        37.977 6
G20  21939925.730 9 115295054.830 9      2533.964 9        55.317 9  21939926.049 6         0.000 6      1974.519 6        37.977 6
> 2019 07 03 12 01  9.0000000  0  8       0.000000000000
G07  25342908.953 9 133177839.361 9      2207.807 9        54.133 9  25342909.621 6         0.000 6      1720.370 6        37.977 6
G10  23803178.905 9 125086494.840 9      3510.874 9        54.672 9  23803182.626 6         0.000 6      2735.748 6        37.977 6
G21  21173251.090 9 111266164.783 9     -1273.986 9        55.708 9  21173250.376 6         0.000 6      -992.717 6        37.977 6
G29  24305738.066 9 127727459.139 9     -3177.782 9        54.473 9  24305739.646 6         0.000 6     -2476.196 6        37.977 6
G27  21999906.532 9 115610262.161 9      2540.709 9        55.376 9  21999908.464 6         0.000 6      1979.774 6        37.977 6
G16  20496101.454 9 107707719.796 9       571.635 9        55.977 9  20496100.627 6         0.000 6       445.430 6        37.977 6
G26  20657215.647 9 108554378.612 9     -1482.995 9        55.872 9  20657218.464 6         0.000 6     -1155.581 6        37.977 6
G20  21939443.576 9 115292521.097 9      2533.515 9        55.317 9  21939443.895 6         0.000 6      1974.169 6        37.977 6
> 2019 07 03 12 01 10.0000000  0  8       0.000000000000
G07  25342488.863 9 133175631.780 9      2207.358 9        54.133 9  25342489.531 6         0.000 6      1720.020 6        37.977 6
G10  23802510.822 9 125082984.049 9      3510.730 9        54.672 9  23802514.542 6         0.000 6      2735.637 6        37.977 6
G21  21173493.556 9 111267438.949 9     -1274.358 9        55.708 9  21173492.842 6         0.000 6      -993.006 6        37.977 6
G29  24306342.786 9 127730636.953 9     -3177.875 9        54.473 9  24306344.367 6         0.000 6     -2476.269 6        37.977 6
G27  21999423.074 9 115607721.575 9      2540.466 9        55.376 9  21999425.005 6         0.000 6      1979.584 6        37.977 6
G16  20495992.734 9 107707148.468 9       571.014 9        55.977 9  20495991.907 6         0.000 6       444.946 6        37.977 6
G26  20657497.906 9 108555861.893 9     -1483.574 9        55.872 9  20657500.724 6         0.000 6     -1156.032 6        37.977 6
G20  21938961.506 9 115289987.809 9      2533.066 9        55.318 9  21938961.825 6         0.000 6      1973.818 6        37.977 6
> 2019 07 03 12 01 11.0000000  0  8       0.000000000000
G07  25342068.861 9 133173424.654 9      2206.907 9        54.133 9  25342069.528 6         0.000 6      1719.669 6        37.977 6
G10  23801842.765 9 125079473.396 9      3510.589 9        54.672 9  23801846.484 6         0.000 6      2735.527 6        37.977 6
G21  21173736.093 9 111268713.489 9     -1274.728 9        55.708 9  21173735.379 6         0.000 6      -993.294 6        37.977 6
G29  24306947.523 9 127733814.862 9     -3177.963 9        54.472 9  24306949.105 6         0.000 6     -2476.337 6        37.977 6
G27  21998939.663 9 115605181.234 9      2540.218 9        55.377 9  21998941.594 6         0.000 6      1979.391 6        37.977 6
G16  20495884.132 9 107706577.763 9       570.391 9        55.977 9  20495883.305 6         0.000 6       444.461 6        37.977 6
G26  20657780.275 9 108557345.749 9     -1484.153 9        55.872 9  20657783.093 6         0.000 6     -1156.483 6        37.977 6
G20  21938479.522 9 115287454.967 9      2532.619 9        55.318 9  21938479.840 6         0.000 6      1973.471 6        37.977 6
> 2019 07 03 12 01 12.0000000  0  8       0.000000000000
G07  25341648.943 9 133171217.976 9      2206.458 9        54.133 9  25341649.610 6         0.000 6      1719.319 6        37.977 6
G10  23801174.735 9 125075962.888 9      3510.446 9        54.672 9  23801178.454 6         0.000 6      2735.415 6        37.977 6
G21  21173978.701 9 111269988.401 9     -1275.100 9        55.708 9  21173977.987 6         0.000 6      -993.584 6        37.977 6
G29  24307552.278 9 127736992.858 9     -3178.055 9        54.472 9  24307553.860 6         0.000 6     -2476.409 6        37.977 6
G27  21998456.299 9 115602641.143 9      2539.974 9        55.377 9  21998458.230 6         0.000 6      1979.201 6        37.977 6
G16  20495775.650 9 107706007.683 9       569.769 9        55.977 9  20495774.823 6         0.000 6       443.976 6        37.977 6
G26  20658062.755 9 108558830.190 9     -1484.732 9        55.872 9  20658065.573 6         0.000 6     -1156.934 6        37.977 6
G20  21937997.623 9 115284922.575 9      2532.170 9        55.318 9  21937997.941 6         0.000 6      1973.120 6        37.977 6
> 2019 07 03 12 01 13.0000000  0  8       0.000000000000
G07  25341229.113 9 133169011.758 9      2205.965 9        54.133 9  25341229.780 6         0.000 6      1718.935 6        37.977 6
G10  23800506.732 9 125072452.514 9      3510.334 9        54.673 9  23800510.449 6         0.000 6      2735.328 6        37.977 6
G21  21174221.378 9 111271263.676 9     -1275.438 9        55.708 9  21174220.664 6         0.000 6      -993.848 6        37.977 6
G29  24308157.046 9 127740170.926 9     -3178.055 9        54.472 9  24308158.629 6         0.000 6     -2476.409 6        37.977 6
G27  21997972.984 9 115600101.310 9      2539.660 9        55.377 9  21997974.915 6         0.000 6      1978.957 6        37.977 6
G16  20495667.286 9 107705438.231 9       569.117 9        55.977 9  20495666.460 6         0.000 6       443.468 6        37.977 6
G26  20658345.345 9 108560315.208 9     -1485.316 9        55.871 9  20658348.163 6         0.000 6     -1157.390 6        37.977 6
G20  21937515.807 9 115282390.620 9      2531.769 9        55.318 9  21937516.125 6         0.000 6      1972.809 6        37.977 6
> 2019 07 03 12 01 14.0000000  0  8       0.000000000000
G07  25340809.407 9 133166806.190 9      2202.919 9        54.134 9  25340810.074 6         0.000 6      1716.561 6        37.977 6
G10  23799838.722 9 125068942.111 9      3512.744 9        54.673 9  23799842.439 6         0.000 6      2737.206 6        37.977 6
G21  21174464.117 9 111272539.281 9     -1276.072 9        55.708 9  21174463.404 6         0.000 6      -994.342 6        37.977 6
G29  24308761.797 9 127743348.904 9     -3177.766 9        54.472 9  24308763.381 6         0.000 6     -2476.184 6        37.977 6
G27  21997489.749 9 115597561.891 9      2538.558 9        55.377 9  21997491.679 6         0.000 6      1978.098 6        37.977 6
G16  20495559.056 9 107704869.476 9       568.200 9        55.977 9  20495558.229 6         0.000 6       442.753 6        37.977 6
G26  20658628.038 9 108561800.770 9     -1484.780 9        55.871 9  20658630.856 6         0.000 6     -1156.972 6        37.977 6
G20  21937034.045 9 115279858.947 9      2533.145 9        55.318 9  21937034.362 6         0.000 6      1973.880 6        37.977 6
> 2019 07 03 12 01 15.0000000  0  8       0.000000000000
G07  25340391.660 9 133164610.919 9      2187.491 9        54.134 9  25340392.326 6         0.000 6      1704.539 6        37.977 6
G10  23799168.924 9 125065422.309 9      3526.841 9        54.673 9  23799172.640 6         0.000 6      2748.190 6        37.977 6
G21  21174707.044 9 111273815.868 9     -1276.631 9        55.708 9  21174706.330 6         0.000 6      -994.778 6        37.977 6
G29  24309366.112 9 127746524.591 9     -3172.425 9        54.471 9  24309367.697 6         0.000 6     -2472.022 6        37.977 6
G27  21997007.296 9 115595026.588 9      2531.220 9        55.377 9  21997009.226 6         0.000 6      1972.380 6        37.977 6
G16  20495451.216 9 107704302.771 9       564.796 9        55.977 9  20495450.389 6         0.000 6       440.101 6        37.977 6
G26  20658910.092 9 108563282.973 9     -1479.945 9        55.871 9  20658912.910 6         0.000 6     -1153.204 6        37.977 6
G20  21936551.018 9 115277320.627 9      2543.818 9        55.318 9  21936551.335 6         0.000 6      1982.197 6        37.977 6
> 2019 07 03 12 01 16.0000000  0  8       0.000000000000
G07  25339976.868 9 133162431.178 9      2171.357 9        54.134 9  25339977.535 6         0.000 6      1691.968 6        37.977 6
G10  23798496.532 9 125061888.875 9      3540.331 9        54.673 9  23798500.248 6         0.000 6      2758.702 6        37.977 6
G21  21174949.787 9 111275091.490 9     -1273.720 9        55.708 9  21174949.073 6         0.000 6      -992.509 6        37.977 6
G29  24309968.698 9 127749691.189 9     -3158.379 9        54.471 9  24309970.283 6         0.000 6     -2461.077 6        37.977 6
G27  21996526.719 9 115592501.140 9      2517.936 9        55.377 9  21996528.649 6         0.000 6      1962.029 6        37.977 6
G16  20495344.264 9 107703740.737 9       558.427 9        55.977 9  20495343.437 6         0.000 6       435.138 6        37.977 6
G26  20659191.443 9 108564761.481 9     -1477.526 9        55.871 9  20659194.262 6         0.000 6     -1151.319 6        37.977 6
G20  21936065.816 9 115274770.878 9      2556.572 9        55.319 9  21936066.132 6         0.000 6      1992.135 6        37.977 6
> 2019 07 03 12 01 17.0000000  0  8       0.000000000000
G07  25339564.364 9 133160263.454 9      2165.987 9        54.134 9  25339565.030 6         0.000 6      1687.783 6        37.977 6
G10  23797822.340 9 125058345.982 9      3543.955 9        54.674 9  23797826.055 6         0.000 6      2761.526 6        37.977 6
G21  21175191.904 9 111276363.822 9     -1271.666 9        55.707 9  21175191.190 6         0.000 6      -990.908 6        37.977 6
G29  24310568.744 9 127752844.443 9     -3150.651 9        54.471 9  24310570.330 6         0.000 6     -2455.055 6        37.977 6
G27  21996048.397 9 115589987.547 9      2511.360 9        55.378 9  21996050.327 6         0.000 6      1956.904 6        37.977 6
G16  20495238.429 9 107703184.569 9       554.876 9        55.977 9  20495237.602 6         0.000 6       432.371 6        37.977 6
G26  20659472.664 9 108566239.303 9     -1478.225 9        55.871 9  20659475.482 6         0.000 6     -1151.864 6        37.977 6
G20  21935578.740 9 115272211.285 9      2560.887 9        55.319 9  21935579.057 6         0.000 6      1995.497 6        37.977 6
> 2019 07 03 12 01 18.0000000  0  8       0.000000000000
G07  25339152.300 9 133158098.050 9      2165.010 9        54.134 9  25339152.966 6         0.000 6      1687.022 6        37.977 6
G10  23797147.914 9 125054801.863 9      3544.176 9        54.674 9  23797151.629 6         0.000 6      2761.699 6        37.977 6
G21  21175433.883 9 111277635.431 9     -1271.679 9        55.707 9  21175433.169 6         0.000 6      -990.919 6        37.977 6
G29  24311168.164 9 127755994.407 9     -3149.665 9        54.471 9  24311169.750 6         0.000 6     -2454.287 6        37.977 6
G27  21995570.631 9 115587476.869 9      2510.284 9        55.378 9  21995572.560 6         0.000 6      1956.066 6        37.977 6
G16  20495132.947 9 107702630.260 9       553.872 9        55.977 9  20495132.120 6         0.000 6       431.588 6        37.977 6
G26  20659754.026 9 108567717.867 9     -1478.882 9        55.871 9  20659756.844 6         0.000 6     -1152.376 6        37.977 6
G20  21935091.392 9 115269650.257 9      2560.986 9        55.319 9  21935091.708 6         0.000 6      1995.574 6        37.977 6
> 2019 07 03 12 01 19.0000000  0  8       0.000000000000
G07  25338740.363 9 133155933.311 9      2164.497 9        54.134 9  25338741.029 6         0.000 6      1686.622 6        37.977 6
G10  23796473.488 9 125051257.742 9      3544.077 9        54.674 9  23796477.202 6         0.000 6      2761.621 6        37.977 6
G21  21175675.908 9 111278907.278 9     -1272.017 9        55.707 9  21175675.194 6         0.000 6      -991.182 6        37.977 6
G29  24311767.520 9 127759144.032 9     -3149.645 9        54.471 9  24311769.107 6         0.000 6     -2454.271 6        37.977 6
G27  21995092.975 9 115584966.772 9      2509.957 9        55.378 9  21995094.904 6         0.000 6      1955.811 6        37.977 6
G16  20495027.614 9 107702076.728 9       553.221 9        55.978 9  20495026.787 6         0.000 6       431.081 6        37.977 6
G26  20660035.504 9 108569197.043 9     -1479.456 9        55.871 9  20660038.322 6         0.000 6     -1152.823 6        37.977 6
G20  21934604.089 9 115267089.466 9      2560.593 9        55.319 9  21934604.405 6         0.000 6      1995.268 6        37.977 6
> 2019 07 03 12 01 20.0000000  0  8       0.000000000000
G07  25338328.518 9 133153769.051 9      2164.028 9        54.134 9  25338329.183 6         0.000 6      1686.256 6        37.977 6
G10  23795799.086 9 125047713.744 9      3543.946 9        54.674 9  23795802.799 6         0.000 6      2761.519 6        37.977 6
G21  21175918.000 9 111280179.481 9     -1272.388 9        55.707 9  21175917.286 6         0.000 6      -991.471 6        37.977 6
G29  24312366.884 9 127762293.703 9     -3149.718 9        54.470 9  24312368.472 6         0.000 6     -2454.328 6        37.977 6
G27  21994615.370 9 115582456.947 9      2509.700 9        55.378 9  21994617.300 6         0.000 6      1955.611 6        37.977 6
G16  20494922.399 9 107701523.819 9       552.601 9        55.978 9  20494921.572 6         0.000 6       430.598 6        37.977 6
G26  20660317.089 9 108570676.783 9     -1480.023 9        55.871 9  20660319.908 6         0.000 6     -1153.265 6        37.977 6
G20  21934116.867 9 115264529.101 9      2560.150 9        55.319 9  21934117.183 6         0.000 6      1994.923 6        37.977 6
> 2019 07 03 12 01 21.0000000  0  8       0.000000000000
G07  25337916.760 9 133151605.256 9      2163.568 9        54.135 9  25337917.426 6         0.000 6      1685.898 6        37.977 6
G10  23795124.708 9 125044169.875 9      3543.809 9        54.675 9  23795128.421 6         0.000 6      2761.412 6        37.977 6
G21  21176160.161 9 111281452.044 9     -1272.753 9        55.707 9  21176159.447 6         0.000 6      -991.756 6        37.977 6
G29  24312966.262 9 127765443.445 9     -3149.794 9        54.470 9  24312967.850 6         0.000 6     -2454.388 6        37.977 6
G27  21994137.813 9 115579947.371 9      2509.453 9        55.378 9  21994139.742 6         0.000 6      1955.419 6        37.977 6
G16  20494817.299 9 107700971.519 9       551.990 9        55.978 9  20494816.473 6         0.000 6       430.122 6        37.977 6
G26  20660598.781 9 108572157.082 9     -1480.587 9        55.871 9  20660601.600 6         0.000 6     -1153.705 6        37.977 6
G20  21933629.728 9 115261969.174 9      2559.705 9        55.320 9  21933630.044 6         0.000 6      1994.577 6        37.977 6
> 2019 07 03 12 01 22.0000000  0  8       0.000000000000
G07  25337505.090 9 133149441.919 9      2163.111 9        54.135 9  25337505.755 6         0.000 6      1685.542 6        37.977 6
G10  23794450.358 9 125040626.150 9      3543.667 9        54.675 9  23794454.070 6         0.000 6      2761.301 6        37.977 6
G21  21176402.394 9 111282724.987 9     -1273.127 9        55.707 9  21176401.681 6         0.000 6      -992.047 6        37.977 6
G29  24313565.657 9 127768593.276 9     -3149.877 9        54.470 9  24313567.246 6         0.000 6     -2454.452 6        37.977 6
G27  21993660.303 9 115577438.042 9      2509.205 9        55.379 9  21993662.232 6         0.000 6      1955.225 6        37.977 6
G16  20494712.318 9 107700419.838 9       551.373 9        55.978 9  20494711.491 6         0.000 6       429.642 6        37.977 6
G26  20660880.582 9 108573637.954 9     -1481.158 9        55.870 9  20660883.401 6         0.000 6     -1154.149 6        37.977 6
G20  21933142.676 9 115259409.703 9      2559.252 9        55.320 9  21933142.991 6         0.000 6      1994.224 6        37.977 6
> 2019 07 03 12 01 23.0000000  0  8       0.000000000000
G07  25337093.507 9 133147279.038 9      2162.654 9        54.135 9  25337094.172 6         0.000 6      1685.186 6        37.977 6
G10  23793776.034 9 125037082.566 9      3543.527 9        54.675 9  23793779.745 6         0.000 6      2761.193 6        37.977 6
G21  21176644.697 9 111283998.298 9     -1273.494 9        55.707 9  21176643.984 6         0.000 6      -992.333 6        37.977 6
G29  24314165.067 9 127771743.183 9     -3149.959 9        54.470 9  24314166.656 6         0.000 6     -2454.516 6        37.977 6
G27  21993182.841 9 115574928.963 9      2508.962 9        55.379 9  21993184.770 6         0.000 6      1955.036 6        37.977 6
G16  20494607.453 9 107699868.771 9       550.764 9        55.978 9  20494606.627 6         0.000 6       429.167 6        37.977 6
G26  20661162.491 9 108575119.394 9     -1481.722 9        55.870 9  20661165.310 6         0.000 6     -1154.589 6        37.977 6
G20  21932655.710 9 115256850.682 9      2558.804 9        55.320 9  21932656.025 6         0.000 6      1993.874 6        37.977 6
> 2019 07 03 12 01 24.0000000  0  8       0.000000000000
G07  25336682.011 9 133145116.615 9      2162.200 9        54.135 9  25336682.676 6         0.000 6      1684.832 6        37.977 6
G10  23793101.737 9 125033539.121 9      3543.383 9        54.675 9  23793105.448 6         0.000 6      2761.080 6        37.977 6
G21  21176887.070 9 111285271.975 9     -1273.863 9        55.707 9  21176886.357 6         0.000 6      -992.621 6        37.977 6
G29  24314764.492 9 127774893.172 9     -3150.040 9        54.470 9  24314766.082 6         0.000 6     -2454.579 6        37.977 6
G27  21992705.425 9 115572420.127 9      2508.716 9        55.379 9  21992707.353 6         0.000 6      1954.845 6        37.977 6
G16  20494502.705 9 107699318.313 9       550.151 9        55.978 9  20494501.878 6         0.000 6       428.689 6        37.977 6
G26  20661444.508 9 108576601.398 9     -1482.291 9        55.870 9  20661447.327 6         0.000 6     -1155.032 6        37.977 6
G20  21932168.829 9 115254292.109 9      2558.351 9        55.320 9  21932169.143 6         0.000 6      1993.522 6        37.977 6
> 2019 07 03 12 01 25.0000000  0  8       0.000000000000
G07  25336270.602 9 133142954.646 9      2161.742 9        54.135 9  25336271.266 6         0.000 6      1684.475 6        37.977 6
G10  23792427.468 9 125029995.824 9      3543.240 9        54.676 9  23792431.178 6         0.000 6      2760.969 6        37.977 6
G21  21177129.514 9 111286546.029 9     -1274.236 9        55.707 9  21177128.801 6         0.000 6      -992.912 6        37.977 6
G29  24315363.932 9 127778043.244 9     -3150.123 9        54.469 9  24315365.523 6         0.000 6     -2454.644 6        37.977 6
G27  21992228.056 9 115569911.541 9      2508.468 9        55.379 9  21992229.985 6         0.000 6      1954.651 6        37.977 6
G16  20494398.074 9 107698768.476 9       549.534 9        55.978 9  20494397.247 6         0.000 6       428.209 6        37.977 6
G26  20661726.634 9 108578083.979 9     -1482.861 9        55.870 9  20661729.453 6         0.000 6     -1155.477 6        37.977 6
G20  21931682.034 9 115251733.993 9      2557.898 9        55.320 9  21931682.349 6         0.000 6      1993.169 6        37.977 6
> 2019 07 03 12 01 26.0000000  0  8       0.000000000000
G07  25335859.278 9 133140793.131 9      2161.288 9        54.135 9  25335859.942 6         0.000 6      1684.122 6        37.977 6
G10  23791753.226 9 125026452.668 9      3543.096 9        54.676 9  23791756.935 6         0.000 6      2760.857 6        37.977 6
G21  21177372.028 9 111287820.444 9     -1274.605 9        55.707 9  21177371.315 6         0.000 6      -993.199 6        37.977 6
G29  24315963.388 9 127781193.396 9     -3150.204 9        54.469 9  24315964.980 6         0.000 6     -2454.707 6        37.977 6
G27  21991750.733 9 115567403.195 9      2508.223 9        55.379 9  21991752.662 6         0.000 6      1954.460 6        37.977 6
G16  20494293.559 9 107698219.244 9       548.922 9        55.978 9  20494292.732 6         0.000 6       427.731 6        37.977 6
G26  20662008.866 9 108579567.120 9     -1483.430 9        55.870 9  20662011.686 6         0.000 6     -1155.920 6        37.977 6
G20  21931195.326 9 115249176.325 9      2557.445 9        55.321 9  21931195.640 6         0.000 6      1992.816 6        37.977 6
> 2019 07 03 12 01 27.0000000  0  8       0.000000000000
G07  25335448.042 9 133138632.074 9      2160.853 9        54.135 9  25335448.706 6         0.000 6      1683.782 6        37.977 6
G10  23791079.011 9 125022909.654 9      3542.933 9        54.676 9  23791082.719 6         0.000 6      2760.730 6        37.977 6
G21  21177614.612 9 111289095.234 9     -1274.969 9        55.706 9  21177613.899 6         0.000 6      -993.483 6        37.977 6
G29  24316562.860 9 127784343.631 9     -3150.284 9        54.469 9  24316564.452 6         0.000 6     -2454.769 6        37.977 6
G27  21991273.458 9 115564895.098 9      2507.981 9        55.380 9  21991275.386 6         0.000 6      1954.272 6        37.977 6
G16  20494189.161 9 107697670.629 9       548.311 9        55.978 9  20494188.334 6         0.000 6       427.255 6        37.977 6
G26  20662291.208 9 108581050.833 9     -1484.007 9        55.870 9  20662294.027 6         0.000 6     -1156.369 6        37.977 6
G20  21930708.703 9 115246619.110 9      2556.981 9        55.321 9  21930709.017 6         0.000 6      1992.454 6        37.977 6
> 2019 07 03 12 01 28.0000000  0  8       0.000000000000
G07  25335036.860 9 133136471.300 9      2160.680 9        54.136 9  25335037.523 6         0.000 6      1683.648 6        37.977 6
G10  23790404.851 9 125019366.931 9      3542.546 9        54.676 9  23790408.559 6         0.000 6      2760.428 6        37.977 6
G21  21177857.274 9 111290370.431 9     -1275.409 9        55.706 9  21177856.561 6         0.000 6      -993.826 6        37.977 6
G29  24317162.379 9 127787494.113 9     -3150.644 9        54.469 9  24317163.971 6         0.000 6     -2455.050 6        37.977 6
G27  21990796.200 9 115562387.095 9      2507.984 9        55.380 9  21990798.128 6         0.000 6      1954.274 6        37.977 6
G16  20494084.866 9 107697122.558 9       547.807 9        55.978 9  20494084.040 6         0.000 6       426.862 6        37.977 6
G26  20662573.663 9 108582535.141 9     -1484.624 9        55.870 9  20662576.482 6         0.000 6     -1156.851 6        37.977 6
G20  21930222.194 9 115244062.493 9      2556.285 9        55.321 9  21930222.508 6         0.000 6      1991.911 6        37.977 6
> 2019 07 03 12 01 29.0000000  0  8       0.000000000000
G07  25334626.114 9 133134312.820 9      2157.146 9        54.136 9  25334626.777 6         0.000 6      1680.894 6        37.977 6
G10  23789730.548 9 125015823.459 9      3543.471 9        54.677 9  23789734.256 6         0.000 6      2761.149 6        37.977 6
G21  21178099.566 9 111291643.680 9     -1270.741 9        55.706 9  21178098.853 6         0.000 6      -990.188 6        37.977 6
G29  24317760.711 9 127790638.359 9     -3137.347 9        54.468 9  24317762.304 6         0.000 6     -2444.689 6        37.977 6
G27  21990319.867 9 115559883.951 9      2498.156 9        55.380 9  21990321.795 6         0.000 6      1946.616 6        37.977 6
G16  20493981.114 9 107696577.337 9       542.504 9        55.978 9  20493980.287 6         0.000 6       422.730 6        37.977 6
G26  20662856.440 9 108584021.142 9     -1487.970 9        55.870 9  20662859.259 6         0.000 6     -1159.458 6        37.977 6
G20  21929735.313 9 115241503.919 9      2560.383 9        55.321 9  21929735.626 6         0.000 6      1995.105 6        37.977 6
> 2019 07 03 12 01 30.0000000  0  8       0.000000000000
G07  25334215.369 9 133132154.345 9      2161.313 9        54.136 9  25334216.032 6         0.000 6      1684.141 6        37.977 6
G10  23789056.728 9 125012282.522 9      3537.033 9        54.677 9  23789060.435 6         0.000 6      2756.132 6        37.977 6
G21  21178340.906 9 111292911.932 9     -1265.846 9        55.706 9  21178340.193 6         0.000 6      -986.374 6        37.977 6
G29  24318356.627 9 127793769.910 9     -3126.568 9        54.468 9  24318358.221 6         0.000 6     -2436.290 6        37.977 6
G27  21989845.173 9 115557389.416 9      2491.795 9        55.380 9  21989847.100 6         0.000 6      1941.659 6        37.977 6
G16  20493878.292 9 107696037.002 9       538.523 9        55.978 9  20493877.465 6         0.000 6       419.629 6        37.977 6
G26  20663140.140 9 108585511.994 9     -1494.206 9        55.869 9  20663142.959 6         0.000 6     -1164.316 6        37.977 6
G20  21929248.126 9 115238943.739 9      2558.826 9        55.321 9  21929248.439 6         0.000 6      1993.891 6        37.977 6
> 2019 07 03 12 01 31.0000000  0  8       0.000000000000
G07  25333803.009 9 133129987.381 9      2170.361 9        54.136 9  25333803.672 6         0.000 6      1691.192 6        37.977 6
G10  23788384.875 9 125008751.917 9      3526.764 9        54.677 9  23788388.581 6         0.000 6      2748.130 6        37.977 6
G21  21178581.415 9 111294175.814 9     -1263.089 9        55.706 9  21178580.702 6         0.000 6      -984.226 6        37.977 6
G29  24318951.061 9 127796893.672 9     -3122.902 9        54.468 9  24318952.656 6         0.000 6     -2433.433 6        37.977 6
G27  21989371.120 9 115554898.253 9      2491.285 9        55.380 9  21989373.047 6         0.000 6      1941.262 6        37.977 6
G16  20493775.986 9 107695499.378 9       537.232 9        55.978 9  20493775.159 6         0.000 6       418.622 6        37.977 6
G26  20663425.240 9 108587010.204 9     -1500.524 9        55.869 9  20663428.060 6         0.000 6     -1169.240 6        37.977 6
G20  21928761.895 9 115236388.582 9      2552.665 9        55.322 9  21928762.207 6         0.000 6      1989.091 6        37.977 6
> 2019 07 03 12 01 32.0000000  0  8       0.000000000000
G07  25333389.838 9 133127816.157 9      2171.546 9        54.136 9  25333390.501 6         0.000 6      1692.114 6        37.977 6
G10  23787713.978 9 125005226.342 9      3524.960 9        54.677 9  23787717.683 6         0.000 6      2746.725 6        37.977 6
G21  21178821.770 9 111295438.884 9     -1263.155 9        55.706 9  21178821.057 6         0.000 6      -984.277 6        37.977 6
G29  24319545.330 9 127800016.563 9     -3122.930 9        54.468 9  24319546.925 6         0.000 6     -2433.455 6        37.977 6
G27  21988897.023 9 115552406.863 9      2491.392 9        55.380 9  21988898.951 6         0.000 6      1941.345 6        37.977 6
G16  20493673.802 9 107694962.401 9       536.696 9        55.978 9  20493672.975 6         0.000 6       418.205 6        37.977 6
G26  20663710.937 9 108588511.552 9     -1501.905 9        55.869 9  20663713.757 6         0.000 6     -1170.316 6        37.977 6
G20  21928276.320 9 115233836.875 9      2551.119 9        55.322 9  21928276.633 6         0.000 6      1987.886 6        37.977 6
> 2019 07 03 12 01 33.0000000  0  8       0.000000000000
G07  25332976.628 9 133125644.728 9      2171.257 9        54.136 9  25332977.291 6         0.000 6      1691.889 6        37.977 6
G10  23787043.237 9 125001701.583 9      3524.643 9        54.678 9  23787046.941 6         0.000 6      2746.478 6        37.977 6
G21  21179062.170 9 111296702.198 9     -1263.484 9        55.706 9  21179061.457 6         0.000 6      -984.533 6        37.977 6
G29  24320139.610 9 127803139.518 9     -3123.007 9        54.468 9  24320141.206 6         0.000 6     -2433.514 6        37.977 6
G27  21988422.946 9 115549915.571 9      2491.187 9        55.381 9  21988424.873 6         0.000 6      1941.186 6        37.977 6
G16  20493571.731 9 107694426.011 9       536.085 9        55.978 9  20493570.904 6         0.000 6       417.728 6        37.977 6
G26  20663996.806 9 108590013.802 9     -1502.566 9        55.869 9  20663999.626 6         0.000 6     -1170.831 6        37.977 6
G20  21927790.916 9 115231286.062 9      2550.557 9        55.322 9  21927791.228 6         0.000 6      1987.448 6        37.977 6
> 2019 07 03 12 01 34.0000000  0  8       0.000000000000
G07  25332563.494 9 133123473.696 9      2170.811 9        54.136 9  25332564.156 6         0.000 6      1691.542 6        37.977 6
G10  23786372.534 9 124998177.029 9      3524.486 9        54.678 9  23786376.238 6         0.000 6      2746.356 6        37.977 6
G21  21179302.636 9 111297965.854 9     -1263.835 9        55.706 9  21179301.923 6         0.000 6      -984.807 6        37.977 6
G29  24320733.906 9 127806262.555 9     -3123.084 9        54.467 9  24320735.503 6         0.000 6     -2433.574 6        37.977 6
G27  21987948.910 9 115547424.501 9      2490.950 9        55.381 9  21987950.837 6         0.000 6      1941.000 6        37.977 6
G16  20493469.775 9 107693890.231 9       535.468 9        55.978 9  20493468.948 6         0.000 6       417.248 6        37.977 6
G26  20664282.790 9 108591516.654 9     -1503.147 9        55.869 9  20664285.610 6         0.000 6     -1171.284 6        37.977 6
G20  21927305.604 9 115228735.736 9      2550.103 9        55.322 9  21927305.916 6         0.000 6      1987.094 6        37.977 6
> 2019 07 03 12 01 35.0000000  0  8       0.000000000000
G07  25332150.447 9 133121303.122 9      2170.347 9        54.137 9  25332151.109 6         0.000 6      1691.180 6        37.977 6
G10  23785701.860 9 124994652.621 9      3524.348 9        54.678 9  23785705.563 6         0.000 6      2746.248 6        37.977 6
G21  21179543.170 9 111299229.866 9     -1264.192 9        55.706 9  21179542.457 6         0.000 6      -985.085 6        37.977 6
G29  24321328.217 9 127809385.666 9     -3123.163 9        54.467 9  24321329.814 6         0.000 6     -2433.636 6        37.977 6
G27  21987474.922 9 115544933.677 9      2490.708 9        55.381 9  21987476.849 6         0.000 6      1940.812 6        37.977 6
G16  20493367.938 9 107693355.073 9       534.849 9        55.978 9  20493367.111 6         0.000 6       416.766 6        37.977 6
G26  20664568.884 9 108593020.086 9     -1503.721 9        55.869 9  20664571.704 6         0.000 6     -1171.731 6        37.977 6
G20  21926820.378 9 115226185.858 9      2549.659 9        55.322 9  21926820.689 6         0.000 6      1986.749 6        37.977 6
> 2019 07 03 12 01 36.0000000  0  8       0.000000000000
G07  25331737.488 9 133119133.013 9      2169.882 9        54.137 9  25331738.150 6         0.000 6      1690.818 6        37.977 6
G10  23785031.212 9 124991128.352 9      3524.209 9        54.678 9  23785034.914 6         0.000 6      2746.140 6        37.977 6
G21  21179783.771 9 111300494.235 9     -1264.549 9        55.706 9  21179783.059 6         0.000 6      -985.363 6        37.977 6
G29  24321922.542 9 127812508.856 9     -3123.243 9        54.467 9  24321924.139 6         0.000 6     -2433.698 6        37.977 6
G27  21987000.979 9 115542443.095 9      2490.466 9        55.381 9  21987002.906 6         0.000 6      1940.623 6        37.977 6
G16  20493266.219 9 107692820.534 9       534.230 9        55.978 9  20493265.392 6         0.000 6       416.283 6        37.977 6
G26  20664855.087 9 108594524.092 9     -1504.294 9        55.869 9  20664857.907 6         0.000 6     -1172.178 6        37.977 6
G20  21926335.235 9 115223636.423 9      2549.216 9        55.323 9  21926335.547 6         0.000 6      1986.403 6        37.977 6
> 2019 07 03 12 01 37.0000000  0  8       0.000000000000
G07  25331324.617 9 133116963.363 9      2169.420 9        54.137 9  25331325.278 6         0.000 6      1690.458 6        37.977 6
G10  23784360.591 9 124987604.228 9      3524.068 9        54.679 9  23784364.293 6         0.000 6      2746.030 6        37.977 6
G21  21180024.442 9 111301758.965 9     -1264.908 9        55.705 9  21180023.729 6         0.000 6      -985.643 6        37.977 6
G29  24322516.883 9 127815632.131 9     -3123.328 9        54.467 9  24322518.482 6         0.000 6     -2433.764 6        37.977 6
G27  21986527.082 9 115539952.753 9      2490.228 9        55.381 9  21986529.009 6         0.000 6      1940.438 6        37.977 6
G16  20493164.617 9 107692286.615 9       533.613 9        55.978 9  20493163.790 6         0.000 6       415.802 6        37.977 6
G26  20665141.400 9 108596028.675 9     -1504.868 9        55.869 9  20665144.220 6         0.000 6     -1172.625 6        37.977 6
G20  21925850.179 9 115221087.439 9      2548.769 9        55.323 9  21925850.490 6         0.000 6      1986.055 6        37.977 6
> 2019 07 03 12 01 38.0000000  0  8       0.000000000000
G07  25330911.834 9 133114794.181 9      2168.955 9        54.137 9  25330912.496 6         0.000 6      1690.096 6        37.977 6
G10  23783689.996 9 124984080.239 9      3523.929 9        54.679 9  23783693.698 6         0.000 6      2745.922 6        37.977 6
G21  21180265.180 9 111303024.055 9     -1265.264 9        55.705 9  21180264.468 6         0.000 6      -985.920 6        37.977 6
G29  24323111.241 9 127818755.492 9     -3123.407 9        54.467 9  24323112.840 6         0.000 6     -2433.826 6        37.977 6
G27  21986053.231 9 115537462.650 9      2489.986 9        55.382 9  21986055.157 6         0.000 6      1940.249 6        37.977 6
G16  20493063.134 9 107691753.315 9       532.994 9        55.978 9  20493062.307 6         0.000 6       415.320 6        37.977 6
G26  20665427.822 9 108597533.830 9     -1505.441 9        55.868 9  20665430.642 6         0.000 6     -1173.071 6        37.977 6
G20  21925365.207 9 115218538.898 9      2548.326 9        55.323 9  21925365.518 6         0.000 6      1985.710 6        37.977 6
> 2019 07 03 12 01 39.0000000  0  8       0.000000000000
G07  25330499.139 9 133112625.458 9      2168.493 9        54.137 9  25330499.801 6         0.000 6      1689.735 6        37.977 6
G10  23783019.429 9 124980556.395 9      3523.788 9        54.679 9  23783023.130 6         0.000 6      2745.812 6        37.977 6
G21  21180505.987 9 111304289.501 9     -1265.623 9        55.705 9  21180505.274 6         0.000 6      -986.200 6        37.977 6
G29  24323705.614 9 127821878.931 9     -3123.492 9        54.466 9  24323707.213 6         0.000 6     -2433.892 6        37.977 6
G27  21985579.426 9 115534972.788 9      2489.747 9        55.382 9  21985581.352 6         0.000 6      1940.064 6        37.977 6
G16  20492961.768 9 107691220.633 9       532.376 9        55.978 9  20492960.941 6         0.000 6       414.839 6        37.977 6
G26  20665714.353 9 108599039.561 9     -1506.014 9        55.868 9  20665717.174 6         0.000 6     -1173.518 6        37.977 6
G20  21924880.320 9 115215990.804 9      2547.879 9        55.323 9  21924880.630 6         0.000 6      1985.361 6        37.977 6
> 2019 07 03 12 01 40.0000000  0  8       0.000000000000
G07  25330086.530 9 133110457.186 9      2168.075 9        54.137 9  25330087.191 6         0.000 6      1689.410 6        37.977 6
G10  23782348.890 9 124977032.698 9      3523.615 9        54.679 9  23782352.590 6         0.000 6      2745.677 6        37.977 6
G21  21180746.863 9 111305555.313 9     -1266.015 9        55.705 9  21180746.150 6         0.000 6      -986.506 6        37.977 6
G29  24324300.008 9 127825002.486 9     -3123.670 9        54.466 9  24324301.609 6         0.000 6     -2434.031 6        37.977 6
G27  21985105.661 9 115532483.139 9      2489.579 9        55.382 9  21985107.587 6         0.000 6      1939.932 6        37.977 6
G16  20492860.516 9 107690688.554 9       531.790 9        55.978 9  20492859.689 6         0.000 6       414.382 6        37.977 6
G26  20666000.992 9 108600545.856 9     -1506.582 9        55.868 9  20666003.813 6         0.000 6     -1173.961 6        37.977 6
G20  21924395.520 9 115213443.168 9      2547.383 9        55.323 9  21924395.830 6         0.000 6      1984.975 6        37.977 6
> 2019 07 03 12 01 41.0000000  0  8       0.000000000000
G07  25329673.740 9 133108287.964 9      2174.104 9        54.137 9  25329674.401 6         0.000 6      1694.108 6        37.977 6
G10  23781678.640 9 124973510.520 9      3517.105 9        54.679 9  23781682.339 6         0.000 6      2740.604 6        37.977 6
G21  21180987.786 9 111306821.369 9     -1265.736 9        55.705 9  21180987.073 6         0.000 6      -986.288 6        37.977 6
G29  24324894.473 9 127828126.408 9     -3124.804 9        54.466 9  24324896.074 6         0.000 6     -2434.915 6        37.977 6
G27  21984631.843 9 115529993.215 9      2491.544 9        55.382 9  21984633.769 6         0.000 6      1941.464 6        37.977 6
G16  20492759.349 9 107690156.916 9       531.911 9        55.978 9  20492758.522 6         0.000 6       414.476 6        37.977 6
G26  20666287.853 9 108602053.318 9     -1509.946 9        55.868 9  20666290.674 6         0.000 6     -1176.582 6        37.977 6
G20  21923910.996 9 115210896.984 9      2542.373 9        55.323 9  21923911.306 6         0.000 6      1981.071 6        37.977 6
> 2019 07 03 12 01 42.0000000  0  8       0.000000000000
G07  25329258.600 9 133106106.392 9      2188.837 9        54.138 9  25329259.261 6         0.000 6      1705.588 6        37.977 6
G10  23781010.751 9 124970000.752 9      3502.826 9        54.680 9  23781014.450 6         0.000 6      2729.477 6        37.977 6
G21  21181228.690 9 111308087.331 9     -1266.685 9        55.705 9  21181227.978 6         0.000 6      -987.027 6        37.977 6
G29  24325489.720 9 127831254.439 9     -3132.373 9        54.466 9  24325491.321 6         0.000 6     -2440.813 6        37.977 6
G27  21984156.997 9 115527497.884 9      2499.791 9        55.382 9  21984158.923 6         0.000 6      1947.890 6        37.977 6
G16  20492657.896 9 107689623.778 9       534.713 9        55.979 9  20492657.069 6         0.000 6       416.660 6        37.977 6
G26  20666575.752 9 108603566.235 9     -1515.449 9        55.868 9  20666578.573 6         0.000 6     -1180.870 6        37.977 6
G20  21923428.340 9 115208360.609 9      2530.321 9        55.324 9  21923428.649 6         0.000 6      1971.680 6        37.977 6
> 2019 07 03 12 01 43.0000000  0  8       0.000000000000
G07  25328840.665 9 133103910.128 9      2202.722 9        54.138 9  25328841.325 6         0.000 6      1716.408 6        37.977 6
G10  23780345.451 9 124966504.589 9      3490.604 9        54.680 9  23780349.150 6         0.000 6      2719.954 6        37.977 6
G21  21181470.108 9 111309355.988 9     -1271.069 9        55.705 9  21181469.395 6         0.000 6      -990.443 6        37.977 6
G29  24326087.200 9 127834394.209 9     -3147.858 9        54.466 9  24326088.802 6         0.000 6     -2452.879 6        37.977 6
G27  21983680.060 9 115524991.566 9      2513.069 9        55.383 9  21983681.985 6         0.000 6      1958.237 6        37.977 6
G16  20492555.645 9 107689086.445 9       540.121 9        55.979 9  20492554.818 6         0.000 6       420.874 6        37.977 6
G26  20666864.442 9 108605083.314 9     -1518.027 9        55.868 9  20666867.263 6         0.000 6     -1182.879 6        37.977 6
G20  21922948.118 9 115205837.030 9      2517.378 9        55.324 9  21922948.427 6         0.000 6      1961.594 6        37.977 6
> 2019 07 03 12 01 44.0000000  0  8       0.000000000000
G07  25328421.234 9 133101706.008 9      2204.706 9        54.138 9  25328421.894 6         0.000 6      1717.954 6        37.977 6
G10  23779681.454 9 124963015.270 9      3488.681 9        54.680 9  23779685.152 6         0.000 6      2718.455 6        37.977 6
G21  21181712.195 9 111310628.163 9     -1272.872 9        55.705 9  21181711.482 6         0.000 6      -991.849 6        37.977 6
G29  24326686.774 9 127837544.980 9     -3152.391 9        54.465 9  24326688.376 6         0.000 6     -2456.411 6        37.977 6
G27  21983201.428 9 115522476.339 9      2516.332 9        55.383 9  21983203.353 6         0.000 6      1960.779 6        37.977 6
G16  20492452.721 9 107688545.574 9       541.131 9        55.979 9  20492451.894 6         0.000 6       421.660 6        37.977 6
G26  20667153.344 9 108606601.500 9     -1518.373 9        55.868 9  20667156.165 6         0.000 6     -1183.148 6        37.977 6
G20  21922469.429 9 115203321.509 9      2514.467 9        55.324 9  21922469.738 6         0.000 6      1959.326 6        37.977 6
> 2019 07 03 12 01 45.0000000  0  8       0.000000000000
G07  25328001.700 9 133099501.345 9      2204.523 9        54.138 9  25328002.360 6         0.000 6      1717.811 6        37.977 6
G10  23779017.619 9 124959526.804 9      3488.347 9        54.680 9  23779021.316 6         0.000 6      2718.195 6        37.977 6
G21  21181954.473 9 111311901.346 9     -1273.421 9        55.705 9  21181953.761 6         0.000 6      -992.276 6        37.977 6
G29  24327286.736 9 127840697.793 9     -3153.049 9        54.465 9  24327288.339 6         0.000 6     -2456.924 6        37.977 6
G27  21982722.552 9 115519959.832 9      2516.530 9        55.383 9  21982724.477 6         0.000 6      1960.933 6        37.977 6
G16  20492349.780 9 107688004.618 9       540.709 9        55.979 9  20492348.953 6         0.000 6       421.332 6        37.977 6
G26  20667442.331 9 108608120.133 9     -1518.909 9        55.868 9  20667445.152 6         0.000 6     -1183.566 6        37.977 6
G20  21921991.022 9 115200807.469 9      2513.733 9        55.324 9  21921991.331 6         0.000 6      1958.754 6        37.977 6
> 2019 07 03 12 01 46.0000000  0  8       0.000000000000
G07  25327582.233 9 133097297.039 9      2204.091 9        54.138 9  25327582.893 6         0.000 6      1717.475 6        37.977 6
G10  23778353.824 9 124956038.549 9      3488.187 9        54.681 9  23778357.520 6         0.000 6      2718.070 6        37.977 6
G21  21182196.834 9 111313174.958 9     -1273.794 9        55.705 9  21182196.122 6         0.000 6      -992.567 6        37.977 6
G29  24327886.757 9 127843850.914 9     -3153.191 9        54.465 9  24327888.361 6         0.000 6     -2457.034 6        37.977 6
G27  21982243.690 9 115517443.397 9      2516.331 9        55.383 9  21982245.615 6         0.000 6      1960.778 6        37.977 6
G16  20492246.944 9 107687464.210 9       540.102 9        55.979 9  20492246.117 6         0.000 6       420.859 6        37.977 6
G26  20667731.424 9 108609639.328 9     -1519.487 9        55.868 9  20667734.246 6         0.000 6     -1184.016 6        37.977 6
G20  21921512.720 9 115198293.980 9      2513.263 9        55.324 9  21921513.029 6         0.000 6      1958.388 6        37.977 6
> 2019 07 03 12 01 47.0000000  0  8       0.000000000000
G07  25327162.851 9 133095093.176 9      2203.639 9        54.138 9  25327163.511 6         0.000 6      1717.122 6        37.977 6
G10  23777690.058 9 124952550.447 9      3488.038 9        54.681 9  23777693.754 6         0.000 6      2717.954 6        37.977 6
G21  21182439.263 9 111314448.928 9     -1274.152 9        55.704 9  21182438.550 6         0.000 6      -992.846 6        37.977 6
G29  24328486.798 9 127847004.143 9     -3153.285 9        54.465 9  24328488.403 6         0.000 6     -2457.108 6        37.977 6
G27  21981764.870 9 115514927.183 9      2516.094 9        55.383 9  21981766.794 6         0.000 6      1960.594 6        37.977 6
G16  20492144.225 9 107686924.417 9       539.475 9        55.979 9  20492143.398 6         0.000 6       420.370 6        37.977 6
G26  20668020.628 9 108611159.103 9     -1520.073 9        55.867 9  20668023.449 6         0.000 6     -1184.473 6        37.977 6
G20  21921034.505 9 115195780.946 9      2512.814 9        55.325 9  21921034.813 6         0.000 6      1958.038 6        37.977 6
> 2019 07 03 12 01 48.0000000  0  8       0.000000000000
G07  25326743.557 9 133092889.771 9      2203.181 9        54.138 9  25326744.216 6         0.000 6      1716.765 6        37.977 6
G10  23777026.321 9 124949062.492 9      3487.895 9        54.681 9  23777030.016 6         0.000 6      2717.843 6        37.977 6
G21  21182681.761 9 111315723.265 9     -1274.513 9        55.704 9  21182681.049 6         0.000 6      -993.127 6        37.977 6
G29  24329086.857 9 127850157.464 9     -3153.381 9        54.464 9  24329088.462 6         0.000 6     -2457.182 6        37.977 6
G27  21981286.097 9 115512411.218 9      2515.856 9        55.383 9  21981288.021 6         0.000 6      1960.408 6        37.977 6
G16  20492041.627 9 107686385.263 9       538.848 9        55.979 9  20492040.800 6         0.000 6       419.882 6        37.977 6
G26  20668309.945 9 108612679.472 9     -1520.656 9        55.867 9  20668312.767 6         0.000 6     -1184.927 6        37.977 6
G20  21920556.375 9 115193268.362 9      2512.368 9        55.325 9  21920556.683 6         0.000 6      1957.690 6        37.977 6
> 2019 07 03 12 01 49.0000000  0  8       0.000000000000
G07  25326324.349 9 133090686.825 9      2202.722 9        54.139 9  25326325.009 6         0.000 6      1716.408 6        37.977 6
G10  23776362.610 9 124945574.678 9      3487.750 9        54.681 9  23776366.304 6         0.000 6      2717.730 6        37.977 6
G21  21182924.327 9 111316997.956 9     -1274.873 9        55.704 9  21182923.615 6         0.000 6      -993.408 6        37.977 6
G29  24329686.934 9 127853310.880 9     -3153.471 9        54.464 9  24329688.540 6         0.000 6     -2457.253 6        37.977 6
G27  21980807.368 9 115509895.485 9      2515.613 9        55.384 9  21980809.293 6         0.000 6      1960.219 6        37.977 6
G16  20491939.148 9 107685846.730 9       538.217 9        55.979 9  20491938.321 6         0.000 6       419.390 6        37.977 6
G26  20668599.372 9 108614200.418 9     -1521.243 9        55.867 9  20668602.193 6         0.000 6     -1185.385 6        37.977 6
G20  21920078.330 9 115190756.220 9      2511.921 9        55.325 9  21920078.638 6         0.000 6      1957.342 6        37.977 6
> 2019 07 03 12 01 50.0000000  0  8       0.000000000000
G07  25325905.229 9 133088484.333 9      2202.261 9        54.139 9  25325905.887 6         0.000 6      1716.049 6        37.977 6
G10  23775698.926 9 124942087.010 9      3487.610 9        54.682 9  23775702.620 6         0.000 6      2717.621 6        37.977 6
G21  21183166.960 9 111318273.003 9     -1275.231 9        55.704 9  21183166.248 6         0.000 6      -993.686 6        37.977 6
G29  24330287.028 9 127856464.384 9     -3153.561 9        54.464 9  24330288.635 6         0.000 6     -2457.323 6        37.977 6
G27  21980328.685 9 115507379.992 9      2515.371 9        55.384 9  21980330.610 6         0.000 6      1960.030 6        37.977 6
G16  20491836.787 9 107685308.823 9       537.588 9        55.979 9  20491835.960 6         0.000 6       418.900 6        37.977 6
G26  20668888.910 9 108615721.949 9     -1521.826 9        55.867 9  20668891.731 6         0.000 6     -1185.839 6        37.977 6
G20  21919600.369 9 115188244.524 9      2511.478 9        55.325 9  21919600.677 6         0.000 6      1956.997 6        37.977 6
> 2019 07 03 12 01 51.0000000  0  8       0.000000000000
G07  25325486.196 9 133086282.307 9      2201.803 9        54.139 9  25325486.855 6         0.000 6      1715.692 6        37.977 6
G10  23775035.270 9 124938599.481 9      3487.467 9        54.682 9  23775038.963 6         0.000 6      2717.509 6        37.977 6
G21  21183409.663 9 111319548.412 9     -1275.584 9        55.704 9  21183408.951 6         0.000 6      -993.962 6        37.977 6
G29  24330887.139 9 127859617.980 9     -3153.650 9        54.464 9  24330888.746 6         0.000 6     -2457.392 6        37.977 6
G27  21979850.049 9 115504864.745 9      2515.133 9        55.384 9  21979851.973 6         0.000 6      1959.844 6        37.977 6
G16  20491734.548 9 107684771.550 9       536.963 9        55.979 9  20491733.721 6         0.000 6       418.413 6        37.977 6
G26  20669178.559 9 108617244.065 9     -1522.407 9        55.867 9  20669181.381 6         0.000 6     -1186.291 6        37.977 6
G20  21919122.493 9 115185733.272 9      2511.036 9        55.325 9  21919122.800 6         0.000 6      1956.653 6        37.977 6
> 2019 07 03 12 01 52.0000000  0  8       0.000000000000
G07  25325067.251 9 133084080.738 9      2201.342 9        54.139 9  25325067.909 6         0.000 6      1715.332 6        37.977 6
G10  23774371.640 9 124935112.095 9      3487.326 9        54.682 9  23774375.333 6         0.000 6      2717.400 6        37.977 6
G21  21183652.432 9 111320824.175 9     -1275.942 9        55.704 9  21183651.720 6         0.000 6      -994.241 6        37.977 6
G29  24331487.268 9 127862771.665 9     -3153.740 9        54.464 9  24331488.875 6         0.000 6     -2457.463 6        37.977 6
G27  21979371.458 9 115502349.735 9      2514.891 9        55.384 9  21979373.382 6         0.000 6      1959.656 6        37.977 6
G16  20491632.427 9 107684234.901 9       536.335 9        55.979 9  20491631.600 6         0.000 6       417.923 6        37.977 6
G26  20669468.319 9 108618766.761 9     -1522.989 9        55.867 9  20669471.141 6         0.000 6     -1186.745 6        37.977 6
G20  21918644.701 9 115183222.462 9      2510.593 9        55.326 9  21918645.008 6         0.000 6      1956.308 6        37.977 6
> 2019 07 03 12 01 53.0000000  0  8       0.000000000000
G07  25324648.393 9 133081879.630 9      2200.880 9        54.139 9  25324649.051 6         0.000 6      1714.973 6        37.977 6
G10  23773708.038 9 124931624.850 9      3487.185 9        54.682 9  23773711.729 6         0.000 6      2717.290 6        37.977 6
G21  21183895.270 9 111322100.295 9     -1276.300 9        55.704 9  21183894.558 6         0.000 6      -994.520 6        37.977 6
G29  24332087.413 9 127865925.440 9     -3153.830 9        54.463 9  24332089.021 6         0.000 6     -2457.533 6        37.977 6
G27  21978892.913 9 115499834.968 9      2514.649 9        55.384 9  21978894.837 6         0.000 6      1959.468 6        37.977 6
G16  20491530.426 9 107683698.881 9       535.706 9        55.979 9  20491529.599 6         0.000 6       417.433 6        37.977 6
G26  20669758.189 9 108620290.040 9     -1523.572 9        55.867 9  20669761.012 6         0.000 6     -1187.199 6        37.977 6
G20  21918166.993 9 115180712.094 9      2510.150 9        55.326 9  21918167.299 6         0.000 6      1955.962 6        37.977 6
> 2019 07 03 12 01 54.0000000  0  8       0.000000000000
G07  25324229.625 9 133079678.994 9      2200.378 9        54.139 9  25324230.283 6         0.000 6      1714.581 6        37.977 6
G10  23773044.460 9 124928137.738 9      3487.083 9        54.683 9  23773048.151 6         0.000 6      2717.210 6        37.977 6
G21  21184138.177 9 111323376.779 9     -1276.666 9        55.704 9  21184137.465 6         0.000 6      -994.805 6        37.977 6
G29  24332687.576 9 127869079.307 9     -3153.920 9        54.463 9  24332689.185 6         0.000 6     -2457.602 6        37.977 6
G27  21978414.415 9 115497320.447 9      2514.396 9        55.385 9  21978416.339 6         0.000 6      1959.270 6        37.977 6
G16  20491428.545 9 107683163.494 9       535.072 9        55.979 9  20491427.718 6         0.000 6       416.939 6        37.977 6
G26  20670048.171 9 108621813.901 9     -1524.138 9        55.867 9  20670050.993 6         0.000 6     -1187.640 6        37.977 6
G20  21917689.369 9 115178202.167 9      2509.733 9        55.326 9  21917689.675 6         0.000 6      1955.637 6        37.977 6
> 2019 07 03 12 01 55.0000000  0  8       0.000000000000
G07  25323810.949 9 133077478.836 9      2200.997 9        54.139 9  25323811.606 6         0.000 6      1715.064 6        37.977 6
G10  23772380.901 9 124924650.720 9      3486.307 9        54.683 9  23772384.591 6         0.000 6      2716.606 6        37.977 6
G21  21184381.166 9 111324653.692 9     -1278.073 9        55.704 9  21184380.454 6         0.000 6      -995.901 6        37.977 6
G29  24333287.789 9 127872233.439 9     -3156.956 9        54.463 9  24333289.399 6         0.000 6     -2459.968 6        37.977 6
G27  21977935.941 9 115494806.050 9      2516.350 9        55.385 9  21977937.865 6         0.000 6      1960.793 6        37.977 6
G16  20491326.771 9 107682628.671 9       535.499 9        55.979 9  20491325.944 6         0.000 6       417.272 6        37.977 6
G26  20670338.250 9 108623338.273 9     -1524.299 9        55.866 9  20670341.072 6         0.000 6     -1187.766 6        37.977 6
G20  21917211.832 9 115175692.699 9      2508.020 9        55.326 9  21917212.138 6         0.000 6      1954.302 6        37.977 6
> 2019 07 03 12 01 56.0000000  0  8       0.000000000000
G07  25323391.897 9 133075276.710 9      2201.928 9        54.140 9  25323392.555 6         0.000 6      1715.789 6        37.977 6
G10  23771717.545 9 124921164.774 9      3486.870 9        54.683 9  23771721.235 6         0.000 6      2717.044 6        37.977 6
G21  21184624.935 9 111325934.707 9     -1283.953 9        55.704 9  21184624.223 6         0.000 6     -1000.483 6        37.977 6
G29  24333889.907 9 127875397.577 9     -3170.802 9        54.463 9  24333891.517 6         0.000 6     -2470.758 6        37.977 6
G27  21977456.162 9 115492284.797 9      2525.502 9        55.385 9  21977458.085 6         0.000 6      1967.924 6        37.977 6
G16  20491224.457 9 107682091.007 9       539.580 9        55.979 9  20491223.630 6         0.000 6       420.452 6        37.977 6
G26  20670628.061 9 108624861.238 9     -1521.152 9        55.866 9  20670630.883 6         0.000 6     -1185.314 6        37.977 6
G20  21916735.040 9 115173187.147 9      2504.094 9        55.326 9  21916735.346 6         0.000 6      1951.243 6        37.977 6
> 2019 07 03 12 01 57.0000000  0  8       0.000000000000
G07  25322973.494 9 133073077.990 9      2193.066 9        54.140 9  25322974.151 6         0.000 6      1708.884 6        37.977 6
G10  23771053.309 9 124917674.197 9      3496.681 9        54.683 9  23771056.998 6         0.000 6      2724.689 6        37.977 6
G21  21184869.807 9 111327221.521 9     -1289.847 9        55.703 9  21184869.096 6         0.000 6     -1005.076 6        37.977 6
G29  24334494.292 9 127878573.631 9     -3180.734 9        54.463 9  24334495.902 6         0.000 6     -2478.496 6        37.977 6
G27  21976975.075 9 115489756.671 9      2529.788 9        55.385 9  21976976.998 6         0.000 6      1971.264 6        37.977 6
G16  20491121.536 9 107681550.152 9       541.785 9        55.979 9  20491120.709 6         0.000 6       422.170 6        37.977 6
G26  20670916.989 9 108626379.567 9     -1514.514 9        55.866 9  20670919.812 6         0.000 6     -1180.142 6        37.977 6
G20  21916258.373 9 115170682.249 9      2507.465 9        55.326 9  21916258.679 6         0.000 6      1953.870 6        37.977 6
> 2019 07 03 12 01 58.0000000  0  8       0.000000000000
G07  25322556.963 9 133070889.109 9      2186.491 9        54.140 9  25322557.620 6         0.000 6      1703.760 6        37.977 6
G10  23770387.142 9 124914173.481 9      3502.871 9        54.684 9  23770390.831 6         0.000 6      2729.513 6        37.977 6
G21  21185115.494 9 111328512.612 9     -1291.740 9        55.703 9  21185114.782 6         0.000 6     -1006.551 6        37.977 6
G29  24335099.753 9 127881755.340 9     -3182.009 9        54.462 9  24335101.364 6         0.000 6     -2479.490 6        37.977 6
G27  21976493.753 9 115487227.311 9      2528.899 9        55.385 9  21976495.676 6         0.000 6      1970.571 6        37.977 6
G16  20491018.480 9 107681008.591 9       541.212 9        55.979 9  20491017.653 6         0.000 6       421.723 6        37.977 6
G26  20671204.826 9 108627892.155 9     -1511.747 9        55.866 9  20671207.648 6         0.000 6     -1177.985 6        37.977 6
G20  21915780.790 9 115168172.536 9      2510.903 9        55.327 9  21915781.095 6         0.000 6      1956.549 6        37.977 6
> 2019 07 03 12 01 59.0000000  0  8       0.000000000000
G07  25322141.048 9 133068703.463 9      2185.130 9        54.140 9  25322141.705 6         0.000 6      1702.699 6        37.977 6
G10  23769720.465 9 124910670.077 9      3503.637 9        54.684 9  23769724.153 6         0.000 6      2730.109 6        37.977 6
G21  21185361.359 9 111329804.641 9     -1292.264 9        55.703 9  21185360.647 6         0.000 6     -1006.959 6        37.977 6
G29  24335705.278 9 127884937.386 9     -3182.104 9        54.462 9  24335706.890 6         0.000 6     -2479.565 6        37.977 6
G27  21976012.571 9 115484698.682 9      2528.443 9        55.386 9  21976014.494 6         0.000 6      1970.216 6        37.977 6
G16  20490915.557 9 107680467.728 9       540.537 9        55.979 9  20490914.730 6         0.000 6       421.198 6        37.977 6
G26  20671492.500 9 108629403.893 9     -1511.884 9        55.866 9  20671495.323 6         0.000 6     -1178.092 6        37.977 6
G20  21915302.946 9 115165661.454 9      2511.058 9        55.327 9  21915303.251 6         0.000 6      1956.669 6        37.977 6
> 2019 07 03 12 02  0.0000000  0  8       0.000000000000
G07  25321725.287 9 133066518.627 9      2184.591 9        54.140 9  25321725.943 6         0.000 6      1702.279 6        37.977 6
G10  23769053.747 9 124907166.459 9      3503.577 9        54.684 9  23769057.434 6         0.000 6      2730.062 6        37.977 6
G21  21185607.306 9 111331097.097 9     -1292.645 9        55.703 9  21185606.594 6         0.000 6     -1007.256 6        37.977 6
G29  24336310.821 9 127888119.525 9     -3182.195 9        54.462 9  24336312.434 6         0.000 6     -2479.635 6        37.977 6
G27  21975531.450 9 115482170.378 9      2528.178 9        55.386 9  21975533.373 6         0.000 6      1970.009 6        37.977 6
G16  20490812.756 9 107679927.504 9       539.910 9        55.979 9  20490811.929 6         0.000 6       420.709 6        37.977 6
G26  20671780.251 9 108630916.031 9     -1512.418 9        55.866 9  20671783.074 6         0.000 6     -1178.508 6        37.977 6
G20  21914825.142 9 115163150.583 9      2510.663 9        55.327 9  21914825.447 6         0.000 6      1956.362 6        37.977 6
